% program   : RTKPOST-EX 2.5.0
% inp file  : C:\Users\SallyHenry\Desktop\Sally Internship\GNSS gravi\DATA\Survey Rover Obs\3RDB.24o
% inp file  : C:\Users\SallyHenry\Desktop\Sally Internship\GNSS gravi\DATA\BaseStations\IZAN\IZAN00ESP_R_20240930000_01D_30S_MO.rnx
% inp file  : C:\Users\SallyHenry\Desktop\Sally Internship\GNSS gravi\DATA\BaseStations\IZAN\IZAN00ESP_R_20240930000_01D_MN.rnx
% inp file  : C:\Users\SallyHenry\Desktop\Sally Internship\GNSS gravi\DATA\aux_files\Survey\IGS0OPSFIN_20240930000_01D_15M_ORB.SP3
% inp file  : C:\Users\SallyHenry\Desktop\Sally Internship\GNSS gravi\DATA\aux_files\Survey\IGS0OPSFIN_20240930000_01D_30S_CLK.CLK
% obs start : 2024/04/02 08:46:43.0 GPST (week2308 204403.0s)
% obs end   : 2024/04/02 09:11:43.0 GPST (week2308 205903.0s)
% pos mode  : Static
% freqs     : L1+L2/E5b
% solution  : Combined-No Phase Reset
% elev mask : 15.0 deg
% dynamics  : on
% tidecorr  : solid
% ionos opt : Estimate TEC
% tropo opt : Estimate ZTD+Grad
% ephemeris : Precise
% navi sys  : GPS GLONASS Galileo QZSS BDS
% amb res   : Fix and Hold
% amb glo   : Fix and Hold
% amb bds   : on
% val thres : 3.0
% antenna1  :                       ( 0.0000  0.0000  1.8000)
% antenna2  :                       ( 0.0000  0.0000  0.0000)
% ref pos   :  28.308069410  -16.499677180  2417.4044
%
% (lat/lon/height=WGS84/ellipsoidal,Q=1:fix,2:float,3:sbas,4:dgps,5:single,6:ppp,ns=# of satellites)
%  GPST                  latitude(deg) longitude(deg)  height(m)   Q  ns   sdn(m)   sde(m)   sdu(m)  sdne(m)  sdeu(m)  sdun(m) age(s)  ratio
2024/04/02 08:46:43.000   28.234671895  -16.629830672  2224.1113   1   6   0.0030   0.0016   0.0167  -0.0005  -0.0018   0.0061  13.00  152.1
2024/04/02 08:46:44.000   28.234671895  -16.629830672  2224.1113   1   6   0.0030   0.0016   0.0167  -0.0005  -0.0018   0.0061  14.00  152.0
2024/04/02 08:46:45.000   28.234671895  -16.629830672  2224.1114   1   6   0.0030   0.0016   0.0167  -0.0005  -0.0018   0.0061  15.00  151.9
2024/04/02 08:46:46.000   28.234671895  -16.629830672  2224.1114   1   6   0.0030   0.0016   0.0167  -0.0005  -0.0018   0.0061 -14.00  151.8
2024/04/02 08:46:47.000   28.234671895  -16.629830672  2224.1115   1   6   0.0030   0.0016   0.0167  -0.0005  -0.0018   0.0061 -13.00  151.7
2024/04/02 08:46:48.000   28.234671895  -16.629830672  2224.1115   1   6   0.0030   0.0016   0.0167  -0.0005  -0.0018   0.0061 -12.00  151.6
2024/04/02 08:46:49.000   28.234671895  -16.629830672  2224.1116   1   6   0.0030   0.0016   0.0166  -0.0005  -0.0018   0.0061 -11.00  151.5
2024/04/02 08:46:50.000   28.234671895  -16.629830672  2224.1116   1   6   0.0030   0.0016   0.0167  -0.0005  -0.0018   0.0061 -10.00  151.3
2024/04/02 08:46:51.000   28.234671895  -16.629830672  2224.1116   1   6   0.0030   0.0016   0.0167  -0.0005  -0.0018   0.0061  -9.00  151.3
2024/04/02 08:46:52.000   28.234671895  -16.629830672  2224.1117   1   6   0.0030   0.0016   0.0167  -0.0005  -0.0018   0.0061  -8.00  151.2
2024/04/02 08:46:53.000   28.234671895  -16.629830672  2224.1117   1   6   0.0030   0.0016   0.0167  -0.0005  -0.0018   0.0062  -7.00  151.1
2024/04/02 08:46:54.000   28.234671895  -16.629830671  2224.1116   1   6   0.0030   0.0016   0.0167  -0.0005  -0.0018   0.0062  -6.00  151.0
2024/04/02 08:46:55.000   28.234671895  -16.629830671  2224.1116   1   6   0.0030   0.0016   0.0167  -0.0005  -0.0018   0.0062  -5.00  150.9
2024/04/02 08:46:56.000   28.234671895  -16.629830671  2224.1116   1   6   0.0030   0.0016   0.0167  -0.0005  -0.0018   0.0062  -4.00  150.9
2024/04/02 08:46:57.000   28.234671895  -16.629830671  2224.1115   1   6   0.0030   0.0016   0.0167  -0.0005  -0.0018   0.0062  -3.00  150.8
2024/04/02 08:46:58.000   28.234671894  -16.629830671  2224.1114   1   6   0.0030   0.0016   0.0167  -0.0005  -0.0018   0.0062  -2.00  150.8
2024/04/02 08:46:59.000   28.234671894  -16.629830671  2224.1112   1   6   0.0030   0.0016   0.0167  -0.0005  -0.0018   0.0062  -1.00  150.7
2024/04/02 08:47:00.000   28.234671894  -16.629830671  2224.1110   1   6   0.0030   0.0016   0.0167  -0.0005  -0.0018   0.0062   0.00  150.6
2024/04/02 08:47:01.000   28.234671893  -16.629830671  2224.1108   1   6   0.0030   0.0016   0.0167  -0.0005  -0.0018   0.0062   1.00  150.6
2024/04/02 08:47:02.000   28.234671893  -16.629830671  2224.1106   1   6   0.0031   0.0016   0.0167  -0.0006  -0.0018   0.0062   2.00  150.5
2024/04/02 08:47:03.000   28.234671893  -16.629830671  2224.1105   1   6   0.0031   0.0016   0.0167  -0.0006  -0.0018   0.0062   3.00  150.4
2024/04/02 08:47:04.000   28.234671892  -16.629830671  2224.1104   1   6   0.0031   0.0016   0.0167  -0.0006  -0.0018   0.0062   4.00  150.4
2024/04/02 08:47:05.000   28.234671892  -16.629830671  2224.1103   1   6   0.0031   0.0016   0.0167  -0.0006  -0.0018   0.0062   5.00  150.3
2024/04/02 08:47:06.000   28.234671892  -16.629830672  2224.1103   1   6   0.0031   0.0016   0.0167  -0.0006  -0.0018   0.0062   6.00  150.3
2024/04/02 08:47:07.000   28.234671892  -16.629830672  2224.1103   1   6   0.0031   0.0016   0.0167  -0.0006  -0.0018   0.0062   7.00  150.2
2024/04/02 08:47:08.000   28.234671892  -16.629830672  2224.1103   1   6   0.0031   0.0016   0.0167  -0.0006  -0.0018   0.0062   8.00  150.1
2024/04/02 08:47:09.000   28.234671892  -16.629830672  2224.1103   1   6   0.0031   0.0016   0.0167  -0.0006  -0.0018   0.0062   9.00  150.0
2024/04/02 08:47:10.000   28.234671893  -16.629830672  2224.1104   1   6   0.0031   0.0016   0.0167  -0.0006  -0.0018   0.0062  10.00  149.9
2024/04/02 08:47:11.000   28.234671893  -16.629830672  2224.1104   1   6   0.0031   0.0016   0.0167  -0.0006  -0.0018   0.0062  11.00  149.8
2024/04/02 08:47:12.000   28.234671893  -16.629830672  2224.1105   1   6   0.0031   0.0016   0.0167  -0.0006  -0.0018   0.0062  12.00  149.7
2024/04/02 08:47:13.000   28.234671893  -16.629830672  2224.1105   1   6   0.0031   0.0016   0.0167  -0.0006  -0.0018   0.0062  13.00  149.7
2024/04/02 08:47:14.000   28.234671893  -16.629830671  2224.1106   1   6   0.0031   0.0016   0.0167  -0.0006  -0.0019   0.0062  14.00  149.6
2024/04/02 08:47:15.000   28.234671893  -16.629830671  2224.1106   1   6   0.0031   0.0016   0.0167  -0.0006  -0.0019   0.0062  15.00  149.5
2024/04/02 08:47:16.000   28.234671893  -16.629830671  2224.1107   1   6   0.0031   0.0016   0.0167  -0.0006  -0.0019   0.0062 -14.00  149.4
2024/04/02 08:47:17.000   28.234671893  -16.629830671  2224.1108   1   6   0.0031   0.0016   0.0167  -0.0006  -0.0019   0.0062 -13.00  149.3
2024/04/02 08:47:18.000   28.234671894  -16.629830671  2224.1108   1   6   0.0031   0.0016   0.0167  -0.0006  -0.0019   0.0062 -12.00  149.2
2024/04/02 08:47:19.000   28.234671894  -16.629830671  2224.1109   1   6   0.0031   0.0016   0.0167  -0.0006  -0.0019   0.0062 -11.00  149.1
2024/04/02 08:47:20.000   28.234671894  -16.629830671  2224.1109   1   6   0.0031   0.0016   0.0167  -0.0006  -0.0019   0.0062 -10.00  149.0
2024/04/02 08:47:21.000   28.234671894  -16.629830671  2224.1110   1   6   0.0031   0.0016   0.0167  -0.0006  -0.0019   0.0062  -9.00  148.9
2024/04/02 08:47:22.000   28.234671894  -16.629830671  2224.1110   1   6   0.0031   0.0016   0.0167  -0.0006  -0.0019   0.0062  -8.00  148.9
2024/04/02 08:47:23.000   28.234671894  -16.629830671  2224.1110   1   6   0.0031   0.0016   0.0167  -0.0006  -0.0019   0.0062  -7.00  148.8
2024/04/02 08:47:24.000   28.234671894  -16.629830671  2224.1110   1   6   0.0031   0.0016   0.0167  -0.0006  -0.0019   0.0062  -6.00  148.7
2024/04/02 08:47:25.000   28.234671894  -16.629830671  2224.1110   1   6   0.0031   0.0016   0.0167  -0.0006  -0.0019   0.0062  -5.00  148.6
2024/04/02 08:47:26.000   28.234671894  -16.629830671  2224.1110   1   6   0.0031   0.0016   0.0167  -0.0006  -0.0019   0.0062  -4.00  148.5
2024/04/02 08:47:27.000   28.234671894  -16.629830671  2224.1109   1   6   0.0031   0.0016   0.0168  -0.0006  -0.0019   0.0062  -3.00  148.4
2024/04/02 08:47:28.000   28.234671894  -16.629830671  2224.1109   1   6   0.0031   0.0016   0.0168  -0.0006  -0.0019   0.0062  -2.00  148.2
2024/04/02 08:47:29.000   28.234671894  -16.629830671  2224.1109   1   6   0.0031   0.0016   0.0168  -0.0006  -0.0019   0.0062  -1.00  148.1
2024/04/02 08:47:30.000   28.234671894  -16.629830671  2224.1107   1   6   0.0031   0.0016   0.0168  -0.0006  -0.0019   0.0062   0.00  148.0
2024/04/02 08:47:31.000   28.234671894  -16.629830671  2224.1105   1   6   0.0031   0.0016   0.0168  -0.0006  -0.0019   0.0063   1.00  148.0
2024/04/02 08:47:32.000   28.234671893  -16.629830671  2224.1104   1   6   0.0031   0.0016   0.0168  -0.0006  -0.0019   0.0063   2.00  147.8
2024/04/02 08:47:33.000   28.234671893  -16.629830671  2224.1102   1   6   0.0031   0.0016   0.0168  -0.0006  -0.0019   0.0063   3.00  147.8
2024/04/02 08:47:34.000   28.234671893  -16.629830671  2224.1101   1   6   0.0031   0.0016   0.0168  -0.0006  -0.0019   0.0063   4.00  147.7
2024/04/02 08:47:35.000   28.234671893  -16.629830671  2224.1100   1   6   0.0031   0.0016   0.0168  -0.0006  -0.0019   0.0063   5.00  147.7
2024/04/02 08:47:36.000   28.234671893  -16.629830671  2224.1099   1   6   0.0031   0.0016   0.0168  -0.0006  -0.0019   0.0063   6.00  147.6
2024/04/02 08:47:37.000   28.234671892  -16.629830671  2224.1099   1   6   0.0031   0.0016   0.0168  -0.0006  -0.0019   0.0063   7.00  147.6
2024/04/02 08:47:38.000   28.234671892  -16.629830671  2224.1098   1   6   0.0031   0.0016   0.0168  -0.0006  -0.0019   0.0063   8.00  147.5
2024/04/02 08:47:39.000   28.234671892  -16.629830670  2224.1098   1   6   0.0031   0.0016   0.0168  -0.0006  -0.0019   0.0063   9.00  147.4
2024/04/02 08:47:40.000   28.234671892  -16.629830670  2224.1098   1   6   0.0031   0.0016   0.0168  -0.0006  -0.0019   0.0063  10.00  147.3
2024/04/02 08:47:41.000   28.234671892  -16.629830670  2224.1098   1   6   0.0031   0.0016   0.0168  -0.0006  -0.0019   0.0063  11.00  147.3
2024/04/02 08:47:42.000   28.234671892  -16.629830670  2224.1098   1   6   0.0031   0.0016   0.0168  -0.0006  -0.0019   0.0063  12.00  147.2
2024/04/02 08:47:43.000   28.234671892  -16.629830670  2224.1098   1   6   0.0031   0.0016   0.0168  -0.0006  -0.0019   0.0063  13.00  147.2
2024/04/02 08:47:44.000   28.234671892  -16.629830670  2224.1099   1   6   0.0031   0.0016   0.0168  -0.0006  -0.0019   0.0063  14.00  147.1
2024/04/02 08:47:45.000   28.234671892  -16.629830670  2224.1099   1   6   0.0031   0.0016   0.0168  -0.0006  -0.0019   0.0063  15.00  147.0
2024/04/02 08:47:46.000   28.234671892  -16.629830670  2224.1100   1   6   0.0031   0.0016   0.0168  -0.0006  -0.0019   0.0063 -14.00  146.9
2024/04/02 08:47:47.000   28.234671892  -16.629830670  2224.1100   1   6   0.0031   0.0016   0.0168  -0.0006  -0.0019   0.0063 -13.00  146.9
2024/04/02 08:47:48.000   28.234671892  -16.629830670  2224.1101   1   6   0.0031   0.0016   0.0168  -0.0006  -0.0019   0.0063 -12.00  146.8
2024/04/02 08:47:49.000   28.234671892  -16.629830670  2224.1101   1   6   0.0031   0.0016   0.0168  -0.0006  -0.0019   0.0063 -11.00  146.7
2024/04/02 08:47:50.000   28.234671892  -16.629830670  2224.1101   1   6   0.0031   0.0016   0.0168  -0.0006  -0.0019   0.0063 -10.00  146.7
2024/04/02 08:47:51.000   28.234671892  -16.629830670  2224.1102   1   6   0.0031   0.0016   0.0168  -0.0006  -0.0019   0.0063  -9.00  146.6
2024/04/02 08:47:52.000   28.234671892  -16.629830669  2224.1102   1   6   0.0031   0.0016   0.0168  -0.0006  -0.0019   0.0063  -8.00  146.5
2024/04/02 08:47:53.000   28.234671892  -16.629830669  2224.1102   1   6   0.0031   0.0016   0.0168  -0.0006  -0.0019   0.0063  -7.00  146.5
2024/04/02 08:47:54.000   28.234671892  -16.629830669  2224.1101   1   6   0.0031   0.0016   0.0168  -0.0006  -0.0019   0.0063  -6.00  146.4
2024/04/02 08:47:55.000   28.234671892  -16.629830669  2224.1101   1   6   0.0031   0.0016   0.0168  -0.0006  -0.0019   0.0063  -5.00  146.4
2024/04/02 08:47:56.000   28.234671892  -16.629830669  2224.1100   1   6   0.0031   0.0016   0.0168  -0.0006  -0.0019   0.0063  -4.00  146.3
2024/04/02 08:47:57.000   28.234671891  -16.629830669  2224.1099   1   6   0.0031   0.0016   0.0168  -0.0006  -0.0019   0.0063  -3.00  146.3
2024/04/02 08:47:58.000   28.234671891  -16.629830669  2224.1097   1   6   0.0031   0.0016   0.0168  -0.0006  -0.0019   0.0063  -2.00  146.1
2024/04/02 08:47:59.000   28.234671891  -16.629830669  2224.1096   1   6   0.0031   0.0016   0.0169  -0.0006  -0.0019   0.0063  -1.00  146.0
2024/04/02 08:48:00.000   28.234671890  -16.629830669  2224.1093   1   6   0.0031   0.0016   0.0169  -0.0006  -0.0019   0.0063   0.00  146.0
2024/04/02 08:48:01.000   28.234671890  -16.629830669  2224.1091   1   6   0.0031   0.0016   0.0169  -0.0006  -0.0019   0.0063   1.00  145.8
2024/04/02 08:48:02.000   28.234671889  -16.629830669  2224.1090   1   6   0.0031   0.0016   0.0169  -0.0006  -0.0019   0.0063   2.00  145.6
2024/04/02 08:48:03.000   28.234671889  -16.629830669  2224.1091   1   6   0.0031   0.0016   0.0169  -0.0006  -0.0019   0.0063   3.00  145.4
2024/04/02 08:48:04.000   28.234671889  -16.629830669  2224.1091   1   6   0.0031   0.0016   0.0169  -0.0006  -0.0019   0.0063   4.00  145.2
2024/04/02 08:48:05.000   28.234671889  -16.629830669  2224.1090   1   6   0.0031   0.0016   0.0169  -0.0006  -0.0019   0.0063   5.00  145.1
2024/04/02 08:48:06.000   28.234671889  -16.629830669  2224.1090   1   6   0.0031   0.0016   0.0169  -0.0006  -0.0019   0.0063   6.00  145.0
2024/04/02 08:48:07.000   28.234671889  -16.629830668  2224.1090   1   6   0.0031   0.0016   0.0169  -0.0006  -0.0019   0.0064   7.00  144.9
2024/04/02 08:48:08.000   28.234671889  -16.629830668  2224.1090   1   6   0.0031   0.0016   0.0169  -0.0006  -0.0019   0.0064   8.00  144.8
2024/04/02 08:48:09.000   28.234671889  -16.629830668  2224.1090   1   6   0.0031   0.0016   0.0169  -0.0006  -0.0019   0.0064   9.00  144.7
2024/04/02 08:48:10.000   28.234671889  -16.629830668  2224.1090   1   6   0.0031   0.0016   0.0169  -0.0006  -0.0020   0.0064  10.00  144.6
2024/04/02 08:48:11.000   28.234671889  -16.629830668  2224.1091   1   6   0.0031   0.0016   0.0169  -0.0006  -0.0020   0.0064  11.00  144.5
2024/04/02 08:48:12.000   28.234671889  -16.629830668  2224.1091   1   6   0.0031   0.0016   0.0169  -0.0006  -0.0020   0.0064  12.00  144.4
2024/04/02 08:48:13.000   28.234671889  -16.629830668  2224.1091   1   6   0.0031   0.0016   0.0169  -0.0006  -0.0020   0.0064  13.00  144.3
2024/04/02 08:48:14.000   28.234671889  -16.629830668  2224.1092   1   6   0.0031   0.0016   0.0169  -0.0006  -0.0020   0.0064  14.00  144.3
2024/04/02 08:48:15.000   28.234671889  -16.629830668  2224.1092   1   6   0.0031   0.0016   0.0169  -0.0006  -0.0020   0.0064  15.00  144.2
2024/04/02 08:48:16.000   28.234671889  -16.629830668  2224.1093   1   6   0.0031   0.0016   0.0169  -0.0006  -0.0020   0.0064 -14.00  144.1
2024/04/02 08:48:17.000   28.234671889  -16.629830668  2224.1094   1   6   0.0031   0.0016   0.0169  -0.0006  -0.0020   0.0064 -13.00  144.0
2024/04/02 08:48:18.000   28.234671889  -16.629830668  2224.1094   1   6   0.0031   0.0016   0.0169  -0.0006  -0.0020   0.0064 -12.00  143.9
2024/04/02 08:48:19.000   28.234671889  -16.629830668  2224.1094   1   6   0.0031   0.0016   0.0169  -0.0006  -0.0020   0.0064 -11.00  143.8
2024/04/02 08:48:20.000   28.234671889  -16.629830668  2224.1095   1   6   0.0031   0.0016   0.0169  -0.0006  -0.0020   0.0064 -10.00  143.8
2024/04/02 08:48:21.000   28.234671889  -16.629830667  2224.1095   1   6   0.0031   0.0016   0.0169  -0.0006  -0.0020   0.0064  -9.00  143.7
2024/04/02 08:48:22.000   28.234671889  -16.629830667  2224.1095   1   6   0.0031   0.0016   0.0169  -0.0006  -0.0020   0.0064  -8.00  143.5
2024/04/02 08:48:23.000   28.234671889  -16.629830667  2224.1095   1   6   0.0031   0.0016   0.0169  -0.0007  -0.0020   0.0064  -7.00  143.4
2024/04/02 08:48:24.000   28.234671889  -16.629830667  2224.1096   1   6   0.0031   0.0016   0.0169  -0.0007  -0.0020   0.0064  -6.00  143.3
2024/04/02 08:48:25.000   28.234671889  -16.629830667  2224.1095   1   6   0.0031   0.0016   0.0169  -0.0007  -0.0020   0.0064  -5.00  143.2
2024/04/02 08:48:26.000   28.234671889  -16.629830667  2224.1095   1   6   0.0031   0.0016   0.0169  -0.0007  -0.0020   0.0064  -4.00  143.1
2024/04/02 08:48:27.000   28.234671889  -16.629830667  2224.1095   1   6   0.0031   0.0016   0.0169  -0.0007  -0.0020   0.0064  -3.00  142.9
2024/04/02 08:48:28.000   28.234671889  -16.629830667  2224.1095   1   6   0.0031   0.0016   0.0169  -0.0007  -0.0020   0.0064  -2.00  142.6
2024/04/02 08:48:29.000   28.234671888  -16.629830667  2224.1094   1   6   0.0031   0.0016   0.0169  -0.0007  -0.0020   0.0064  -1.00  142.4
2024/04/02 08:48:30.000   28.234671888  -16.629830667  2224.1093   1   6   0.0031   0.0016   0.0169  -0.0007  -0.0020   0.0064   0.00  142.1
2024/04/02 08:48:31.000   28.234671888  -16.629830667  2224.1091   1   6   0.0031   0.0016   0.0170  -0.0007  -0.0020   0.0064   1.00  141.9
2024/04/02 08:48:32.000   28.234671887  -16.629830667  2224.1090   1   6   0.0031   0.0016   0.0170  -0.0007  -0.0020   0.0064   2.00  141.6
2024/04/02 08:48:33.000   28.234671887  -16.629830667  2224.1088   1   6   0.0031   0.0016   0.0170  -0.0007  -0.0020   0.0064   3.00  141.5
2024/04/02 08:48:34.000   28.234671886  -16.629830666  2224.1088   1   6   0.0031   0.0016   0.0170  -0.0007  -0.0020   0.0064   4.00  141.3
2024/04/02 08:48:35.000   28.234671886  -16.629830666  2224.1088   1   6   0.0031   0.0016   0.0170  -0.0007  -0.0020   0.0064   5.00  141.1
2024/04/02 08:48:36.000   28.234671886  -16.629830666  2224.1088   1   6   0.0031   0.0016   0.0170  -0.0007  -0.0020   0.0064   6.00  140.9
2024/04/02 08:48:37.000   28.234671886  -16.629830666  2224.1089   1   6   0.0032   0.0016   0.0170  -0.0007  -0.0020   0.0064   7.00  140.8
2024/04/02 08:48:38.000   28.234671886  -16.629830666  2224.1089   1   6   0.0032   0.0016   0.0170  -0.0007  -0.0020   0.0064   8.00  140.6
2024/04/02 08:48:39.000   28.234671886  -16.629830666  2224.1090   1   6   0.0032   0.0016   0.0170  -0.0007  -0.0020   0.0064   9.00  140.5
2024/04/02 08:48:40.000   28.234671886  -16.629830666  2224.1090   1   6   0.0032   0.0016   0.0170  -0.0007  -0.0020   0.0064  10.00  140.4
2024/04/02 08:48:41.000   28.234671886  -16.629830666  2224.1091   1   6   0.0032   0.0016   0.0170  -0.0007  -0.0020   0.0064  11.00  140.3
2024/04/02 08:48:42.000   28.234671887  -16.629830666  2224.1092   1   6   0.0032   0.0016   0.0170  -0.0007  -0.0020   0.0064  12.00  140.2
2024/04/02 08:48:43.000   28.234671887  -16.629830666  2224.1092   1   6   0.0031   0.0016   0.0170  -0.0007  -0.0020   0.0064  13.00  140.1
2024/04/02 08:48:44.000   28.234671887  -16.629830666  2224.1093   1   6   0.0031   0.0016   0.0170  -0.0007  -0.0020   0.0064  14.00  140.0
2024/04/02 08:48:45.000   28.234671887  -16.629830666  2224.1093   1   6   0.0031   0.0016   0.0170  -0.0007  -0.0020   0.0064  15.00  139.9
2024/04/02 08:48:46.000   28.234671887  -16.629830666  2224.1094   1   6   0.0031   0.0016   0.0170  -0.0007  -0.0020   0.0064 -14.00  139.8
2024/04/02 08:48:47.000   28.234671887  -16.629830666  2224.1094   1   6   0.0031   0.0016   0.0170  -0.0007  -0.0020   0.0064 -13.00  139.7
2024/04/02 08:48:48.000   28.234671887  -16.629830666  2224.1095   1   6   0.0031   0.0016   0.0170  -0.0007  -0.0020   0.0064 -12.00  139.6
2024/04/02 08:48:49.000   28.234671887  -16.629830666  2224.1095   1   6   0.0031   0.0016   0.0170  -0.0007  -0.0020   0.0064 -11.00  139.5
2024/04/02 08:48:50.000   28.234671887  -16.629830666  2224.1096   1   6   0.0031   0.0016   0.0170  -0.0007  -0.0020   0.0064 -10.00  139.4
2024/04/02 08:48:51.000   28.234671887  -16.629830666  2224.1096   1   6   0.0031   0.0016   0.0170  -0.0007  -0.0020   0.0064  -9.00  139.3
2024/04/02 08:48:52.000   28.234671887  -16.629830666  2224.1097   1   6   0.0031   0.0016   0.0170  -0.0007  -0.0020   0.0064  -8.00  139.3
2024/04/02 08:48:53.000   28.234671887  -16.629830666  2224.1097   1   6   0.0031   0.0016   0.0170  -0.0007  -0.0020   0.0064  -7.00  139.1
2024/04/02 08:48:54.000   28.234671887  -16.629830666  2224.1098   1   6   0.0031   0.0016   0.0170  -0.0007  -0.0020   0.0064  -6.00  139.0
2024/04/02 08:48:55.000   28.234671887  -16.629830666  2224.1098   1   6   0.0031   0.0016   0.0170  -0.0007  -0.0020   0.0064  -5.00  138.9
2024/04/02 08:48:56.000   28.234671887  -16.629830666  2224.1098   1   6   0.0031   0.0016   0.0170  -0.0007  -0.0020   0.0064  -4.00  138.8
2024/04/02 08:48:57.000   28.234671887  -16.629830666  2224.1098   1   6   0.0031   0.0016   0.0170  -0.0007  -0.0020   0.0064  -3.00  138.6
2024/04/02 08:48:58.000   28.234671887  -16.629830666  2224.1097   1   6   0.0032   0.0016   0.0170  -0.0007  -0.0020   0.0064  -2.00  138.5
2024/04/02 08:48:59.000   28.234671887  -16.629830666  2224.1097   1   6   0.0032   0.0016   0.0170  -0.0007  -0.0020   0.0064  -1.00  138.2
2024/04/02 08:49:00.000   28.234671886  -16.629830665  2224.1096   1   6   0.0032   0.0016   0.0170  -0.0007  -0.0020   0.0064   0.00  138.0
2024/04/02 08:49:01.000   28.234671886  -16.629830665  2224.1094   1   6   0.0032   0.0016   0.0170  -0.0007  -0.0020   0.0065   1.00  137.9
2024/04/02 08:49:02.000   28.234671885  -16.629830665  2224.1093   1   6   0.0032   0.0016   0.0170  -0.0007  -0.0020   0.0065   2.00  137.7
2024/04/02 08:49:03.000   28.234671885  -16.629830665  2224.1091   1   6   0.0032   0.0016   0.0170  -0.0007  -0.0020   0.0065   3.00  137.7
2024/04/02 08:49:04.000   28.234671884  -16.629830665  2224.1089   1   6   0.0032   0.0016   0.0171  -0.0007  -0.0020   0.0065   4.00  137.7
2024/04/02 08:49:05.000   28.234671884  -16.629830665  2224.1088   1   6   0.0032   0.0016   0.0171  -0.0007  -0.0020   0.0065   5.00  137.6
2024/04/02 08:49:06.000   28.234671883  -16.629830665  2224.1089   1   6   0.0032   0.0016   0.0171  -0.0007  -0.0020   0.0065   6.00  137.5
2024/04/02 08:49:07.000   28.234671883  -16.629830665  2224.1089   1   6   0.0032   0.0016   0.0171  -0.0007  -0.0020   0.0065   7.00  137.4
2024/04/02 08:49:08.000   28.234671883  -16.629830665  2224.1089   1   6   0.0032   0.0016   0.0171  -0.0007  -0.0020   0.0065   8.00  137.3
2024/04/02 08:49:09.000   28.234671883  -16.629830665  2224.1089   1   6   0.0032   0.0016   0.0171  -0.0007  -0.0021   0.0065   9.00  137.3
2024/04/02 08:49:10.000   28.234671883  -16.629830665  2224.1089   1   6   0.0032   0.0016   0.0171  -0.0007  -0.0021   0.0065  10.00  137.3
2024/04/02 08:49:11.000   28.234671883  -16.629830664  2224.1090   1   6   0.0032   0.0016   0.0171  -0.0007  -0.0021   0.0065  11.00  137.2
2024/04/02 08:49:12.000   28.234671883  -16.629830664  2224.1090   1   6   0.0032   0.0016   0.0171  -0.0007  -0.0021   0.0065  12.00  137.1
2024/04/02 08:49:13.000   28.234671883  -16.629830664  2224.1091   1   6   0.0032   0.0016   0.0171  -0.0007  -0.0021   0.0065  13.00  137.0
2024/04/02 08:49:14.000   28.234671883  -16.629830664  2224.1091   1   6   0.0032   0.0016   0.0171  -0.0007  -0.0021   0.0065  14.00  136.9
2024/04/02 08:49:15.000   28.234671883  -16.629830664  2224.1092   1   6   0.0032   0.0016   0.0171  -0.0007  -0.0021   0.0065  15.00  136.9
2024/04/02 08:49:16.000   28.234671883  -16.629830664  2224.1092   1   6   0.0032   0.0016   0.0171  -0.0007  -0.0021   0.0065 -14.00  136.8
2024/04/02 08:49:17.000   28.234671883  -16.629830664  2224.1093   1   6   0.0032   0.0016   0.0171  -0.0007  -0.0021   0.0065 -13.00  136.7
2024/04/02 08:49:18.000   28.234671883  -16.629830664  2224.1093   1   6   0.0032   0.0016   0.0171  -0.0007  -0.0021   0.0065 -12.00  136.6
2024/04/02 08:49:19.000   28.234671883  -16.629830664  2224.1094   1   6   0.0032   0.0016   0.0171  -0.0007  -0.0021   0.0065 -11.00  136.6
2024/04/02 08:49:20.000   28.234671883  -16.629830664  2224.1094   1   6   0.0032   0.0016   0.0171  -0.0007  -0.0021   0.0065 -10.00  136.5
2024/04/02 08:49:21.000   28.234671883  -16.629830664  2224.1095   1   6   0.0032   0.0016   0.0171  -0.0007  -0.0021   0.0065  -9.00  136.4
2024/04/02 08:49:22.000   28.234671883  -16.629830664  2224.1096   1   6   0.0032   0.0016   0.0171  -0.0007  -0.0021   0.0065  -8.00  136.3
2024/04/02 08:49:23.000   28.234671883  -16.629830663  2224.1096   1   6   0.0032   0.0016   0.0171  -0.0007  -0.0021   0.0065  -7.00  136.2
2024/04/02 08:49:24.000   28.234671883  -16.629830663  2224.1097   1   6   0.0032   0.0016   0.0171  -0.0007  -0.0021   0.0065  -6.00  136.1
2024/04/02 08:49:25.000   28.234671883  -16.629830663  2224.1097   1   6   0.0032   0.0016   0.0171  -0.0007  -0.0021   0.0065  -5.00  136.0
2024/04/02 08:49:26.000   28.234671883  -16.629830663  2224.1097   1   6   0.0032   0.0016   0.0171  -0.0007  -0.0021   0.0065  -4.00  135.8
2024/04/02 08:49:27.000   28.234671883  -16.629830663  2224.1097   1   6   0.0032   0.0016   0.0171  -0.0007  -0.0021   0.0065  -3.00  135.7
2024/04/02 08:49:28.000   28.234671883  -16.629830663  2224.1097   1   6   0.0032   0.0016   0.0171  -0.0007  -0.0021   0.0065  -2.00  135.5
2024/04/02 08:49:29.000   28.234671882  -16.629830663  2224.1096   1   6   0.0032   0.0016   0.0171  -0.0007  -0.0021   0.0065  -1.00  135.4
2024/04/02 08:49:30.000   28.234671882  -16.629830662  2224.1095   1   6   0.0032   0.0016   0.0171  -0.0007  -0.0021   0.0065   0.00  135.2
2024/04/02 08:49:31.000   28.234671881  -16.629830662  2224.1094   1   6   0.0032   0.0016   0.0171  -0.0007  -0.0021   0.0065   1.00  135.0
2024/04/02 08:49:32.000   28.234671880  -16.629830662  2224.1093   1   6   0.0032   0.0016   0.0171  -0.0007  -0.0021   0.0065   2.00  134.8
2024/04/02 08:49:33.000   28.234671880  -16.629830662  2224.1092   1   6   0.0032   0.0016   0.0171  -0.0007  -0.0021   0.0065   3.00  134.7
2024/04/02 08:49:34.000   28.234671880  -16.629830662  2224.1092   1   6   0.0032   0.0016   0.0171  -0.0007  -0.0021   0.0065   4.00  134.4
2024/04/02 08:49:35.000   28.234671880  -16.629830662  2224.1092   1   6   0.0032   0.0016   0.0171  -0.0007  -0.0021   0.0065   5.00  134.2
2024/04/02 08:49:36.000   28.234671879  -16.629830662  2224.1093   1   6   0.0032   0.0016   0.0171  -0.0007  -0.0021   0.0065   6.00  134.1
2024/04/02 08:49:37.000   28.234671879  -16.629830662  2224.1094   1   6   0.0032   0.0016   0.0171  -0.0007  -0.0021   0.0065   7.00  133.9
2024/04/02 08:49:38.000   28.234671879  -16.629830662  2224.1094   1   6   0.0032   0.0016   0.0171  -0.0007  -0.0021   0.0065   8.00  133.8
2024/04/02 08:49:39.000   28.234671879  -16.629830662  2224.1094   1   6   0.0032   0.0016   0.0171  -0.0007  -0.0021   0.0065   9.00  133.7
2024/04/02 08:49:40.000   28.234671879  -16.629830662  2224.1095   1   6   0.0032   0.0016   0.0171  -0.0007  -0.0021   0.0065  10.00  133.6
2024/04/02 08:49:41.000   28.234671879  -16.629830661  2224.1096   1   6   0.0032   0.0016   0.0171  -0.0007  -0.0021   0.0065  11.00  133.5
2024/04/02 08:49:42.000   28.234671879  -16.629830661  2224.1096   1   6   0.0032   0.0016   0.0171  -0.0007  -0.0021   0.0065  12.00  133.5
2024/04/02 08:49:43.000   28.234671879  -16.629830661  2224.1096   1   6   0.0032   0.0016   0.0171  -0.0007  -0.0021   0.0065  13.00  133.4
2024/04/02 08:49:44.000   28.234671880  -16.629830661  2224.1097   1   6   0.0032   0.0016   0.0171  -0.0007  -0.0021   0.0065  14.00  133.3
2024/04/02 08:49:45.000   28.234671880  -16.629830661  2224.1098   1   6   0.0032   0.0016   0.0171  -0.0007  -0.0021   0.0065  15.00  133.2
2024/04/02 08:49:46.000   28.234671880  -16.629830661  2224.1098   1   6   0.0032   0.0016   0.0171  -0.0007  -0.0021   0.0065 -14.00  133.1
2024/04/02 08:49:47.000   28.234671880  -16.629830661  2224.1099   1   6   0.0032   0.0016   0.0171  -0.0007  -0.0021   0.0065 -13.00  133.1
2024/04/02 08:49:48.000   28.234671880  -16.629830661  2224.1099   1   6   0.0032   0.0016   0.0171  -0.0007  -0.0021   0.0065 -12.00  133.0
2024/04/02 08:49:49.000   28.234671880  -16.629830661  2224.1099   1   6   0.0032   0.0016   0.0171  -0.0007  -0.0021   0.0065 -11.00  132.9
2024/04/02 08:49:50.000   28.234671880  -16.629830661  2224.1100   1   6   0.0032   0.0016   0.0171  -0.0007  -0.0021   0.0065 -10.00  132.8
2024/04/02 08:49:51.000   28.234671879  -16.629830661  2224.1100   1   6   0.0032   0.0016   0.0171  -0.0008  -0.0021   0.0065  -9.00  132.8
2024/04/02 08:49:52.000   28.234671879  -16.629830660  2224.1100   1   6   0.0032   0.0016   0.0171  -0.0008  -0.0021   0.0065  -8.00  132.7
2024/04/02 08:49:53.000   28.234671879  -16.629830660  2224.1100   1   6   0.0032   0.0016   0.0171  -0.0008  -0.0021   0.0065  -7.00  132.6
2024/04/02 08:49:54.000   28.234671879  -16.629830660  2224.1100   1   6   0.0032   0.0016   0.0171  -0.0008  -0.0021   0.0065  -6.00  132.5
2024/04/02 08:49:55.000   28.234671879  -16.629830660  2224.1100   1   6   0.0032   0.0016   0.0171  -0.0008  -0.0021   0.0065  -5.00  132.4
2024/04/02 08:49:56.000   28.234671878  -16.629830660  2224.1099   1   6   0.0032   0.0016   0.0172  -0.0008  -0.0021   0.0066  -4.00  132.3
2024/04/02 08:49:57.000   28.234671878  -16.629830660  2224.1099   1   6   0.0032   0.0016   0.0172  -0.0008  -0.0021   0.0066  -3.00  132.2
2024/04/02 08:49:58.000   28.234671878  -16.629830660  2224.1099   1   6   0.0032   0.0016   0.0172  -0.0008  -0.0021   0.0066  -2.00  132.0
2024/04/02 08:49:59.000   28.234671877  -16.629830660  2224.1098   1   6   0.0032   0.0016   0.0172  -0.0008  -0.0021   0.0066  -1.00  131.7
2024/04/02 08:50:00.000   28.234671877  -16.629830659  2224.1097   1   6   0.0032   0.0016   0.0172  -0.0008  -0.0021   0.0066   0.00  131.4
2024/04/02 08:50:01.000   28.234671876  -16.629830659  2224.1095   1   6   0.0032   0.0016   0.0172  -0.0008  -0.0021   0.0066   1.00  131.2
2024/04/02 08:50:02.000   28.234671875  -16.629830659  2224.1094   1   6   0.0032   0.0016   0.0172  -0.0008  -0.0021   0.0066   2.00  131.0
2024/04/02 08:50:03.000   28.234671875  -16.629830659  2224.1094   1   6   0.0032   0.0016   0.0172  -0.0008  -0.0021   0.0066   3.00  130.8
2024/04/02 08:50:04.000   28.234671875  -16.629830660  2224.1094   1   6   0.0032   0.0016   0.0172  -0.0008  -0.0021   0.0066   4.00  130.5
2024/04/02 08:50:05.000   28.234671875  -16.629830660  2224.1094   1   6   0.0032   0.0016   0.0172  -0.0008  -0.0021   0.0066   5.00  130.4
2024/04/02 08:50:06.000   28.234671875  -16.629830660  2224.1094   1   6   0.0032   0.0016   0.0172  -0.0008  -0.0021   0.0066   6.00  130.2
2024/04/02 08:50:07.000   28.234671875  -16.629830660  2224.1095   1   6   0.0032   0.0016   0.0172  -0.0008  -0.0021   0.0066   7.00  130.0
2024/04/02 08:50:08.000   28.234671875  -16.629830660  2224.1095   1   6   0.0032   0.0016   0.0172  -0.0008  -0.0021   0.0066   8.00  129.9
2024/04/02 08:50:09.000   28.234671875  -16.629830660  2224.1096   1   6   0.0032   0.0016   0.0172  -0.0008  -0.0021   0.0066   9.00  129.8
2024/04/02 08:50:10.000   28.234671876  -16.629830660  2224.1097   1   6   0.0032   0.0016   0.0172  -0.0008  -0.0022   0.0066  10.00  129.6
2024/04/02 08:50:11.000   28.234671876  -16.629830660  2224.1098   1   6   0.0032   0.0016   0.0172  -0.0008  -0.0022   0.0066  11.00  129.5
2024/04/02 08:50:12.000   28.234671876  -16.629830660  2224.1098   1   6   0.0032   0.0016   0.0172  -0.0008  -0.0022   0.0066  12.00  129.4
2024/04/02 08:50:13.000   28.234671876  -16.629830660  2224.1099   1   6   0.0032   0.0016   0.0172  -0.0008  -0.0022   0.0066  13.00  129.3
2024/04/02 08:50:14.000   28.234671876  -16.629830660  2224.1100   1   6   0.0032   0.0016   0.0172  -0.0008  -0.0022   0.0066  14.00  129.2
2024/04/02 08:50:15.000   28.234671876  -16.629830660  2224.1101   1   6   0.0032   0.0016   0.0172  -0.0008  -0.0022   0.0066  15.00  129.1
2024/04/02 08:50:16.000   28.234671876  -16.629830660  2224.1101   1   6   0.0032   0.0016   0.0172  -0.0008  -0.0022   0.0066 -14.00  129.0
2024/04/02 08:50:17.000   28.234671877  -16.629830660  2224.1102   1   6   0.0032   0.0016   0.0172  -0.0008  -0.0022   0.0066 -13.00  128.9
2024/04/02 08:50:18.000   28.234671877  -16.629830660  2224.1103   1   6   0.0032   0.0016   0.0172  -0.0008  -0.0022   0.0066 -12.00  128.8
2024/04/02 08:50:19.000   28.234671877  -16.629830660  2224.1104   1   6   0.0032   0.0016   0.0172  -0.0008  -0.0022   0.0066 -11.00  128.7
2024/04/02 08:50:20.000   28.234671877  -16.629830660  2224.1104   1   6   0.0032   0.0016   0.0172  -0.0008  -0.0022   0.0066 -10.00  128.6
2024/04/02 08:50:21.000   28.234671877  -16.629830660  2224.1105   1   6   0.0032   0.0016   0.0172  -0.0008  -0.0022   0.0066  -9.00  128.5
2024/04/02 08:50:22.000   28.234671878  -16.629830660  2224.1106   1   6   0.0032   0.0016   0.0172  -0.0008  -0.0022   0.0066  -8.00  128.5
2024/04/02 08:50:23.000   28.234671878  -16.629830660  2224.1106   1   6   0.0032   0.0016   0.0172  -0.0008  -0.0022   0.0066  -7.00  128.4
2024/04/02 08:50:24.000   28.234671878  -16.629830660  2224.1107   1   6   0.0032   0.0016   0.0172  -0.0008  -0.0022   0.0066  -6.00  128.3
2024/04/02 08:50:25.000   28.234671878  -16.629830660  2224.1107   1   6   0.0032   0.0016   0.0172  -0.0008  -0.0022   0.0066  -5.00  128.2
2024/04/02 08:50:26.000   28.234671878  -16.629830660  2224.1107   1   6   0.0032   0.0016   0.0172  -0.0008  -0.0022   0.0066  -4.00  128.1
2024/04/02 08:50:27.000   28.234671877  -16.629830660  2224.1107   1   6   0.0032   0.0016   0.0172  -0.0008  -0.0022   0.0066  -3.00  128.0
2024/04/02 08:50:28.000   28.234671877  -16.629830660  2224.1106   1   6   0.0032   0.0016   0.0172  -0.0008  -0.0022   0.0066  -2.00  127.9
2024/04/02 08:50:29.000   28.234671877  -16.629830660  2224.1105   1   6   0.0032   0.0016   0.0172  -0.0008  -0.0022   0.0066  -1.00  127.8
2024/04/02 08:50:30.000   28.234671876  -16.629830660  2224.1103   1   6   0.0032   0.0016   0.0172  -0.0008  -0.0022   0.0066   0.00  127.7
2024/04/02 08:50:31.000   28.234671875  -16.629830660  2224.1102   1   6   0.0032   0.0016   0.0172  -0.0008  -0.0022   0.0066   1.00  127.4
2024/04/02 08:50:32.000   28.234671875  -16.629830660  2224.1100   1   6   0.0032   0.0016   0.0173  -0.0008  -0.0022   0.0066   2.00  127.3
2024/04/02 08:50:33.000   28.234671874  -16.629830660  2224.1099   1   6   0.0032   0.0016   0.0173  -0.0008  -0.0022   0.0066   3.00  127.2
2024/04/02 08:50:34.000   28.234671873  -16.629830659  2224.1098   1   6   0.0033   0.0016   0.0173  -0.0008  -0.0022   0.0066   4.00  127.1
2024/04/02 08:50:35.000   28.234671873  -16.629830659  2224.1097   1   6   0.0033   0.0016   0.0173  -0.0008  -0.0022   0.0066   5.00  127.0
2024/04/02 08:50:36.000   28.234671873  -16.629830659  2224.1097   1   6   0.0033   0.0016   0.0173  -0.0008  -0.0022   0.0066   6.00  127.0
2024/04/02 08:50:37.000   28.234671872  -16.629830659  2224.1096   1   6   0.0033   0.0016   0.0173  -0.0008  -0.0022   0.0067   7.00  126.9
2024/04/02 08:50:38.000   28.234671872  -16.629830659  2224.1096   1   6   0.0033   0.0016   0.0173  -0.0008  -0.0022   0.0067   8.00  126.8
2024/04/02 08:50:39.000   28.234671872  -16.629830659  2224.1096   1   6   0.0033   0.0016   0.0173  -0.0008  -0.0022   0.0067   9.00  126.7
2024/04/02 08:50:40.000   28.234671872  -16.629830658  2224.1096   1   6   0.0033   0.0016   0.0173  -0.0008  -0.0022   0.0067  10.00  126.7
2024/04/02 08:50:41.000   28.234671872  -16.629830658  2224.1096   1   6   0.0033   0.0016   0.0173  -0.0008  -0.0022   0.0067  11.00  126.7
2024/04/02 08:50:42.000   28.234671871  -16.629830658  2224.1096   1   6   0.0033   0.0016   0.0173  -0.0008  -0.0022   0.0067  12.00  126.6
2024/04/02 08:50:43.000   28.234671871  -16.629830658  2224.1096   1   6   0.0033   0.0016   0.0173  -0.0008  -0.0022   0.0067  13.00  126.5
2024/04/02 08:50:44.000   28.234671871  -16.629830658  2224.1096   1   6   0.0033   0.0016   0.0173  -0.0008  -0.0022   0.0067  14.00  126.5
2024/04/02 08:50:45.000   28.234671871  -16.629830658  2224.1096   1   6   0.0033   0.0016   0.0173  -0.0008  -0.0022   0.0067  15.00  126.4
2024/04/02 08:50:46.000   28.234671871  -16.629830658  2224.1096   1   6   0.0033   0.0016   0.0173  -0.0008  -0.0022   0.0067 -14.00  126.4
2024/04/02 08:50:47.000   28.234671871  -16.629830658  2224.1097   1   6   0.0033   0.0016   0.0173  -0.0008  -0.0022   0.0067 -13.00  126.3
2024/04/02 08:50:48.000   28.234671871  -16.629830658  2224.1097   1   6   0.0033   0.0016   0.0173  -0.0008  -0.0022   0.0067 -12.00  126.3
2024/04/02 08:50:49.000   28.234671871  -16.629830658  2224.1097   1   6   0.0032   0.0016   0.0173  -0.0008  -0.0022   0.0067 -11.00  126.2
2024/04/02 08:50:50.000   28.234671871  -16.629830657  2224.1097   1   6   0.0032   0.0016   0.0173  -0.0008  -0.0022   0.0067 -10.00  126.2
2024/04/02 08:50:51.000   28.234671871  -16.629830657  2224.1097   1   6   0.0032   0.0016   0.0173  -0.0008  -0.0022   0.0067  -9.00  126.1
2024/04/02 08:50:52.000   28.234671871  -16.629830657  2224.1097   1   6   0.0032   0.0016   0.0173  -0.0008  -0.0022   0.0067  -8.00  126.1
2024/04/02 08:50:53.000   28.234671871  -16.629830657  2224.1097   1   6   0.0032   0.0016   0.0173  -0.0008  -0.0022   0.0067  -7.00  126.0
2024/04/02 08:50:54.000   28.234671870  -16.629830657  2224.1096   1   6   0.0032   0.0016   0.0173  -0.0008  -0.0022   0.0067  -6.00  126.0
2024/04/02 08:50:55.000   28.234671870  -16.629830657  2224.1095   1   6   0.0032   0.0016   0.0173  -0.0008  -0.0022   0.0067  -5.00  126.0
2024/04/02 08:50:56.000   28.234671869  -16.629830657  2224.1093   1   6   0.0033   0.0016   0.0173  -0.0008  -0.0022   0.0067  -4.00  125.9
2024/04/02 08:50:57.000   28.234671869  -16.629830656  2224.1092   1   6   0.0033   0.0016   0.0173  -0.0008  -0.0022   0.0067  -3.00  125.8
2024/04/02 08:50:58.000   28.234671868  -16.629830656  2224.1090   1   6   0.0033   0.0016   0.0173  -0.0008  -0.0022   0.0067  -2.00  125.8
2024/04/02 08:50:59.000   28.234671867  -16.629830656  2224.1087   1   6   0.0033   0.0016   0.0173  -0.0008  -0.0022   0.0067  -1.00  125.7
2024/04/02 08:51:00.000   28.234671867  -16.629830656  2224.1085   1   6   0.0033   0.0016   0.0173  -0.0008  -0.0022   0.0067   0.00  125.6
2024/04/02 08:51:01.000   28.234671866  -16.629830656  2224.1083   1   6   0.0033   0.0016   0.0173  -0.0008  -0.0022   0.0067   1.00  125.4
2024/04/02 08:51:02.000   28.234671865  -16.629830656  2224.1081   1   6   0.0033   0.0016   0.0173  -0.0008  -0.0022   0.0067   2.00  125.2
2024/04/02 08:51:03.000   28.234671865  -16.629830656  2224.1080   1   6   0.0033   0.0016   0.0173  -0.0008  -0.0022   0.0067   3.00  125.0
2024/04/02 08:51:04.000   28.234671864  -16.629830656  2224.1078   1   6   0.0033   0.0016   0.0173  -0.0008  -0.0022   0.0067   4.00  124.8
2024/04/02 08:51:05.000   28.234671864  -16.629830656  2224.1078   1   6   0.0033   0.0016   0.0173  -0.0008  -0.0022   0.0067   5.00  124.7
2024/04/02 08:51:06.000   28.234671864  -16.629830656  2224.1077   1   6   0.0033   0.0016   0.0173  -0.0008  -0.0022   0.0067   6.00  124.5
2024/04/02 08:51:07.000   28.234671864  -16.629830656  2224.1077   1   6   0.0033   0.0016   0.0173  -0.0008  -0.0022   0.0067   7.00  124.3
2024/04/02 08:51:08.000   28.234671864  -16.629830656  2224.1077   1   6   0.0033   0.0016   0.0173  -0.0008  -0.0022   0.0067   8.00  124.1
2024/04/02 08:51:09.000   28.234671864  -16.629830656  2224.1077   1   6   0.0033   0.0016   0.0173  -0.0008  -0.0022   0.0067   9.00  124.0
2024/04/02 08:51:10.000   28.234671864  -16.629830656  2224.1078   1   6   0.0033   0.0016   0.0173  -0.0008  -0.0022   0.0067  10.00  123.9
2024/04/02 08:51:11.000   28.234671864  -16.629830655  2224.1078   1   6   0.0033   0.0016   0.0173  -0.0008  -0.0022   0.0067  11.00  123.8
2024/04/02 08:51:12.000   28.234671864  -16.629830655  2224.1078   1   6   0.0033   0.0016   0.0173  -0.0008  -0.0022   0.0067  12.00  123.7
2024/04/02 08:51:13.000   28.234671864  -16.629830655  2224.1079   1   6   0.0033   0.0016   0.0173  -0.0008  -0.0023   0.0067  13.00  123.6
2024/04/02 08:51:14.000   28.234671864  -16.629830655  2224.1079   1   6   0.0033   0.0016   0.0173  -0.0008  -0.0023   0.0067  14.00  123.5
2024/04/02 08:51:15.000   28.234671864  -16.629830655  2224.1079   1   6   0.0033   0.0016   0.0173  -0.0008  -0.0023   0.0067  15.00  123.4
2024/04/02 08:51:16.000   28.234671864  -16.629830655  2224.1080   1   6   0.0033   0.0016   0.0173  -0.0008  -0.0023   0.0067 -14.00  123.3
2024/04/02 08:51:17.000   28.234671864  -16.629830655  2224.1080   1   6   0.0033   0.0016   0.0173  -0.0008  -0.0023   0.0067 -13.00  123.2
2024/04/02 08:51:18.000   28.234671864  -16.629830655  2224.1080   1   6   0.0033   0.0016   0.0173  -0.0008  -0.0023   0.0067 -12.00  123.2
2024/04/02 08:51:19.000   28.234671865  -16.629830655  2224.1081   1   6   0.0033   0.0016   0.0173  -0.0008  -0.0023   0.0067 -11.00  123.1
2024/04/02 08:51:20.000   28.234671865  -16.629830655  2224.1081   1   6   0.0033   0.0016   0.0173  -0.0008  -0.0023   0.0067 -10.00  123.0
2024/04/02 08:51:21.000   28.234671865  -16.629830655  2224.1081   1   6   0.0033   0.0016   0.0173  -0.0008  -0.0023   0.0067  -9.00  122.9
2024/04/02 08:51:22.000   28.234671865  -16.629830655  2224.1081   1   6   0.0033   0.0016   0.0173  -0.0008  -0.0023   0.0067  -8.00  122.8
2024/04/02 08:51:23.000   28.234671865  -16.629830655  2224.1082   1   6   0.0033   0.0016   0.0173  -0.0008  -0.0023   0.0067  -7.00  122.7
2024/04/02 08:51:24.000   28.234671865  -16.629830655  2224.1082   1   6   0.0033   0.0016   0.0173  -0.0008  -0.0023   0.0067  -6.00  122.6
2024/04/02 08:51:25.000   28.234671865  -16.629830655  2224.1081   1   6   0.0033   0.0016   0.0173  -0.0008  -0.0023   0.0067  -5.00  122.5
2024/04/02 08:51:26.000   28.234671865  -16.629830655  2224.1081   1   6   0.0033   0.0016   0.0173  -0.0008  -0.0023   0.0067  -4.00  122.4
2024/04/02 08:51:27.000   28.234671865  -16.629830655  2224.1081   1   6   0.0033   0.0016   0.0173  -0.0008  -0.0023   0.0067  -3.00  122.2
2024/04/02 08:51:28.000   28.234671864  -16.629830655  2224.1079   1   6   0.0033   0.0016   0.0174  -0.0008  -0.0023   0.0067  -2.00  122.1
2024/04/02 08:51:29.000   28.234671864  -16.629830655  2224.1078   1   6   0.0033   0.0016   0.0174  -0.0009  -0.0023   0.0067  -1.00  121.9
2024/04/02 08:51:30.000   28.234671863  -16.629830655  2224.1077   1   6   0.0033   0.0016   0.0174  -0.0009  -0.0023   0.0067   0.00  121.8
2024/04/02 08:51:31.000   28.234671862  -16.629830655  2224.1074   1   6   0.0033   0.0016   0.0174  -0.0009  -0.0023   0.0067   1.00  121.7
2024/04/02 08:51:32.000   28.234671862  -16.629830655  2224.1072   1   6   0.0033   0.0016   0.0174  -0.0009  -0.0023   0.0067   2.00  121.5
2024/04/02 08:51:33.000   28.234671861  -16.629830654  2224.1070   1   6   0.0033   0.0016   0.0174  -0.0009  -0.0023   0.0067   3.00  121.5
2024/04/02 08:51:34.000   28.234671861  -16.629830654  2224.1069   1   6   0.0033   0.0016   0.0174  -0.0009  -0.0023   0.0067   4.00  121.3
2024/04/02 08:51:35.000   28.234671860  -16.629830654  2224.1068   1   6   0.0033   0.0016   0.0174  -0.0009  -0.0023   0.0067   5.00  121.2
2024/04/02 08:51:36.000   28.234671860  -16.629830654  2224.1068   1   6   0.0033   0.0016   0.0174  -0.0009  -0.0023   0.0067   6.00  121.1
2024/04/02 08:51:37.000   28.234671860  -16.629830654  2224.1068   1   6   0.0033   0.0016   0.0174  -0.0009  -0.0023   0.0068   7.00  121.0
2024/04/02 08:51:38.000   28.234671860  -16.629830654  2224.1068   1   6   0.0033   0.0016   0.0174  -0.0009  -0.0023   0.0068   8.00  120.8
2024/04/02 08:51:39.000   28.234671860  -16.629830654  2224.1067   1   6   0.0033   0.0016   0.0174  -0.0009  -0.0023   0.0068   9.00  120.7
2024/04/02 08:51:40.000   28.234671860  -16.629830654  2224.1067   1   6   0.0033   0.0016   0.0174  -0.0009  -0.0023   0.0068  10.00  120.6
2024/04/02 08:51:41.000   28.234671859  -16.629830654  2224.1067   1   6   0.0033   0.0016   0.0174  -0.0009  -0.0023   0.0068  11.00  120.6
2024/04/02 08:51:42.000   28.234671859  -16.629830654  2224.1068   1   6   0.0033   0.0016   0.0174  -0.0009  -0.0023   0.0068  12.00  120.5
2024/04/02 08:51:43.000   28.234671859  -16.629830654  2224.1068   1   6   0.0033   0.0016   0.0174  -0.0009  -0.0023   0.0068  13.00  120.4
2024/04/02 08:51:44.000   28.234671859  -16.629830654  2224.1068   1   6   0.0033   0.0016   0.0174  -0.0009  -0.0023   0.0068  14.00  120.3
2024/04/02 08:51:45.000   28.234671859  -16.629830653  2224.1068   1   6   0.0033   0.0016   0.0174  -0.0009  -0.0023   0.0068  15.00  120.2
2024/04/02 08:51:46.000   28.234671859  -16.629830653  2224.1068   1   6   0.0033   0.0016   0.0174  -0.0009  -0.0023   0.0068 -14.00  120.2
2024/04/02 08:51:47.000   28.234671859  -16.629830653  2224.1068   1   6   0.0033   0.0016   0.0174  -0.0009  -0.0023   0.0068 -13.00  120.1
2024/04/02 08:51:48.000   28.234671859  -16.629830653  2224.1068   1   6   0.0033   0.0016   0.0174  -0.0009  -0.0023   0.0068 -12.00  120.0
2024/04/02 08:51:49.000   28.234671859  -16.629830653  2224.1069   1   6   0.0033   0.0016   0.0174  -0.0009  -0.0023   0.0068 -11.00  120.0
2024/04/02 08:51:50.000   28.234671859  -16.629830653  2224.1069   1   6   0.0033   0.0016   0.0174  -0.0009  -0.0023   0.0068 -10.00  119.9
2024/04/02 08:51:51.000   28.234671859  -16.629830653  2224.1068   1   6   0.0033   0.0016   0.0174  -0.0009  -0.0023   0.0068  -9.00  119.8
2024/04/02 08:51:52.000   28.234671859  -16.629830653  2224.1068   1   6   0.0033   0.0016   0.0174  -0.0009  -0.0023   0.0068  -8.00  119.8
2024/04/02 08:51:53.000   28.234671859  -16.629830653  2224.1068   1   6   0.0033   0.0016   0.0174  -0.0009  -0.0023   0.0068  -7.00  119.7
2024/04/02 08:51:54.000   28.234671859  -16.629830653  2224.1067   1   6   0.0033   0.0016   0.0174  -0.0009  -0.0023   0.0068  -6.00  119.6
2024/04/02 08:51:55.000   28.234671858  -16.629830653  2224.1067   1   6   0.0033   0.0016   0.0174  -0.0009  -0.0023   0.0068  -5.00  119.5
2024/04/02 08:51:56.000   28.234671858  -16.629830652  2224.1066   1   6   0.0033   0.0016   0.0174  -0.0009  -0.0023   0.0068  -4.00  119.3
2024/04/02 08:51:57.000   28.234671858  -16.629830652  2224.1065   1   6   0.0033   0.0016   0.0174  -0.0009  -0.0023   0.0068  -3.00  119.2
2024/04/02 08:51:58.000   28.234671858  -16.629830652  2224.1064   1   6   0.0033   0.0016   0.0174  -0.0009  -0.0023   0.0068  -2.00  119.0
2024/04/02 08:51:59.000   28.234671857  -16.629830652  2224.1063   1   6   0.0033   0.0016   0.0174  -0.0009  -0.0023   0.0068  -1.00  118.8
2024/04/02 08:52:00.000   28.234671857  -16.629830652  2224.1062   1   6   0.0033   0.0016   0.0174  -0.0009  -0.0023   0.0068   0.00  118.5
2024/04/02 08:52:01.000   28.234671856  -16.629830652  2224.1060   1   6   0.0033   0.0016   0.0174  -0.0009  -0.0023   0.0068   1.00  118.3
2024/04/02 08:52:02.000   28.234671855  -16.629830652  2224.1058   1   6   0.0033   0.0016   0.0174  -0.0009  -0.0023   0.0068   2.00  118.1
2024/04/02 08:52:03.000   28.234671855  -16.629830652  2224.1057   1   6   0.0033   0.0016   0.0174  -0.0009  -0.0023   0.0068   3.00  117.9
2024/04/02 08:52:04.000   28.234671855  -16.629830652  2224.1056   1   6   0.0033   0.0016   0.0174  -0.0009  -0.0023   0.0068   4.00  117.8
2024/04/02 08:52:05.000   28.234671854  -16.629830652  2224.1055   1   6   0.0033   0.0016   0.0174  -0.0009  -0.0023   0.0068   5.00  117.6
2024/04/02 08:52:06.000   28.234671854  -16.629830652  2224.1055   1   6   0.0033   0.0016   0.0174  -0.0009  -0.0023   0.0068   6.00  117.5
2024/04/02 08:52:07.000   28.234671854  -16.629830652  2224.1054   1   6   0.0033   0.0016   0.0175  -0.0009  -0.0023   0.0068   7.00  117.4
2024/04/02 08:52:08.000   28.234671854  -16.629830652  2224.1054   1   6   0.0033   0.0016   0.0175  -0.0009  -0.0023   0.0068   8.00  117.3
2024/04/02 08:52:09.000   28.234671854  -16.629830652  2224.1054   1   6   0.0033   0.0016   0.0175  -0.0009  -0.0023   0.0068   9.00  117.2
2024/04/02 08:52:10.000   28.234671854  -16.629830652  2224.1054   1   6   0.0033   0.0016   0.0175  -0.0009  -0.0023   0.0068  10.00  117.1
2024/04/02 08:52:11.000   28.234671854  -16.629830651  2224.1054   1   6   0.0033   0.0016   0.0175  -0.0009  -0.0023   0.0068  11.00  117.0
2024/04/02 08:52:12.000   28.234671854  -16.629830651  2224.1054   1   6   0.0033   0.0016   0.0175  -0.0009  -0.0023   0.0068  12.00  116.9
2024/04/02 08:52:13.000   28.234671854  -16.629830651  2224.1054   1   6   0.0033   0.0016   0.0175  -0.0009  -0.0023   0.0068  13.00  116.9
2024/04/02 08:52:14.000   28.234671854  -16.629830651  2224.1055   1   6   0.0033   0.0016   0.0175  -0.0009  -0.0023   0.0068  14.00  116.8
2024/04/02 08:52:15.000   28.234671854  -16.629830651  2224.1055   1   6   0.0033   0.0016   0.0175  -0.0009  -0.0023   0.0068  15.00  116.7
2024/04/02 08:52:16.000   28.234671854  -16.629830651  2224.1055   1   6   0.0033   0.0016   0.0174  -0.0009  -0.0023   0.0068 -14.00  116.7
2024/04/02 08:52:17.000   28.234671854  -16.629830651  2224.1055   1   6   0.0033   0.0016   0.0174  -0.0009  -0.0023   0.0068 -13.00  116.6
2024/04/02 08:52:18.000   28.234671854  -16.629830651  2224.1055   1   6   0.0033   0.0016   0.0174  -0.0009  -0.0024   0.0068 -12.00  116.5
2024/04/02 08:52:19.000   28.234671854  -16.629830651  2224.1055   1   6   0.0033   0.0016   0.0174  -0.0009  -0.0024   0.0068 -11.00  116.4
2024/04/02 08:52:20.000   28.234671854  -16.629830651  2224.1055   1   6   0.0033   0.0016   0.0174  -0.0009  -0.0024   0.0068 -10.00  116.4
2024/04/02 08:52:21.000   28.234671854  -16.629830651  2224.1055   1   6   0.0033   0.0016   0.0174  -0.0009  -0.0024   0.0068  -9.00  116.3
2024/04/02 08:52:22.000   28.234671853  -16.629830650  2224.1055   1   6   0.0033   0.0016   0.0174  -0.0009  -0.0024   0.0068  -8.00  116.2
2024/04/02 08:52:23.000   28.234671853  -16.629830650  2224.1055   1   6   0.0033   0.0016   0.0174  -0.0009  -0.0024   0.0068  -7.00  116.1
2024/04/02 08:52:24.000   28.234671853  -16.629830650  2224.1054   1   6   0.0033   0.0016   0.0174  -0.0009  -0.0024   0.0068  -6.00  116.0
2024/04/02 08:52:25.000   28.234671853  -16.629830650  2224.1054   1   6   0.0033   0.0016   0.0174  -0.0009  -0.0024   0.0068  -5.00  115.9
2024/04/02 08:52:26.000   28.234671852  -16.629830650  2224.1053   1   6   0.0033   0.0016   0.0175  -0.0009  -0.0024   0.0068  -4.00  115.8
2024/04/02 08:52:27.000   28.234671852  -16.629830650  2224.1052   1   6   0.0033   0.0016   0.0175  -0.0009  -0.0024   0.0068  -3.00  115.7
2024/04/02 08:52:28.000   28.234671852  -16.629830650  2224.1051   1   6   0.0033   0.0016   0.0175  -0.0009  -0.0024   0.0068  -2.00  115.5
2024/04/02 08:52:29.000   28.234671851  -16.629830649  2224.1050   1   6   0.0033   0.0016   0.0175  -0.0009  -0.0024   0.0068  -1.00  115.4
2024/04/02 08:52:30.000   28.234671851  -16.629830649  2224.1048   1   6   0.0033   0.0016   0.0175  -0.0009  -0.0024   0.0068   0.00  115.1
2024/04/02 08:52:31.000   28.234671850  -16.629830649  2224.1045   1   6   0.0033   0.0016   0.0175  -0.0009  -0.0024   0.0068   1.00  114.9
2024/04/02 08:52:32.000   28.234671849  -16.629830648  2224.1043   1   6   0.0033   0.0016   0.0175  -0.0009  -0.0024   0.0068   2.00  114.8
2024/04/02 08:52:33.000   28.234671848  -16.629830648  2224.1041   1   6   0.0033   0.0016   0.0175  -0.0009  -0.0024   0.0068   3.00  114.6
2024/04/02 08:52:34.000   28.234671847  -16.629830648  2224.1039   1   6   0.0033   0.0016   0.0175  -0.0009  -0.0024   0.0068   4.00  114.5
2024/04/02 08:52:35.000   28.234671847  -16.629830647  2224.1038   1   6   0.0033   0.0016   0.0175  -0.0009  -0.0024   0.0068   5.00  114.4
2024/04/02 08:52:36.000   28.234671846  -16.629830647  2224.1037   1   6   0.0033   0.0016   0.0175  -0.0009  -0.0024   0.0068   6.00  114.3
2024/04/02 08:52:37.000   28.234671846  -16.629830647  2224.1037   1   6   0.0033   0.0016   0.0175  -0.0009  -0.0024   0.0068   7.00  114.2
2024/04/02 08:52:38.000   28.234671846  -16.629830647  2224.1036   1   6   0.0033   0.0016   0.0175  -0.0009  -0.0024   0.0068   8.00  114.1
2024/04/02 08:52:39.000   28.234671845  -16.629830647  2224.1035   1   6   0.0033   0.0016   0.0175  -0.0009  -0.0024   0.0068   9.00  114.1
2024/04/02 08:52:40.000   28.234671845  -16.629830647  2224.1035   1   6   0.0033   0.0016   0.0175  -0.0009  -0.0024   0.0068  10.00  114.0
2024/04/02 08:52:41.000   28.234671845  -16.629830647  2224.1035   1   6   0.0033   0.0016   0.0175  -0.0009  -0.0024   0.0068  11.00  113.9
2024/04/02 08:52:42.000   28.234671845  -16.629830647  2224.1035   1   6   0.0033   0.0016   0.0175  -0.0009  -0.0024   0.0068  12.00  113.9
2024/04/02 08:52:43.000   28.234671845  -16.629830646  2224.1035   1   6   0.0033   0.0016   0.0175  -0.0009  -0.0024   0.0068  13.00  113.8
2024/04/02 08:52:44.000   28.234671845  -16.629830646  2224.1035   1   6   0.0033   0.0016   0.0175  -0.0009  -0.0024   0.0068  14.00  113.8
2024/04/02 08:52:45.000   28.234671845  -16.629830646  2224.1035   1   6   0.0033   0.0016   0.0175  -0.0009  -0.0024   0.0068  15.00  113.7
2024/04/02 08:52:46.000   28.234671845  -16.629830646  2224.1035   1   6   0.0033   0.0016   0.0175  -0.0009  -0.0024   0.0068 -14.00  113.6
2024/04/02 08:52:47.000   28.234671845  -16.629830646  2224.1035   1   6   0.0033   0.0016   0.0175  -0.0009  -0.0024   0.0068 -13.00  113.6
2024/04/02 08:52:48.000   28.234671845  -16.629830646  2224.1035   1   6   0.0033   0.0016   0.0175  -0.0009  -0.0024   0.0068 -12.00  113.5
2024/04/02 08:52:49.000   28.234671845  -16.629830646  2224.1035   1   6   0.0033   0.0016   0.0175  -0.0009  -0.0024   0.0068 -11.00  113.4
2024/04/02 08:52:50.000   28.234671845  -16.629830645  2224.1035   1   6   0.0033   0.0016   0.0175  -0.0009  -0.0024   0.0068 -10.00  113.3
2024/04/02 08:52:51.000   28.234671844  -16.629830645  2224.1035   1   6   0.0033   0.0016   0.0175  -0.0009  -0.0024   0.0068  -9.00  113.2
2024/04/02 08:52:52.000   28.234671844  -16.629830645  2224.1034   1   6   0.0033   0.0016   0.0175  -0.0009  -0.0024   0.0068  -8.00  113.2
2024/04/02 08:52:53.000   28.234671844  -16.629830645  2224.1034   1   6   0.0033   0.0016   0.0175  -0.0009  -0.0024   0.0068  -7.00  113.1
2024/04/02 08:52:54.000   28.234671844  -16.629830645  2224.1033   1   6   0.0033   0.0016   0.0175  -0.0009  -0.0024   0.0068  -6.00  113.0
2024/04/02 08:52:55.000   28.234671844  -16.629830645  2224.1032   1   6   0.0033   0.0016   0.0175  -0.0009  -0.0024   0.0068  -5.00  112.9
2024/04/02 08:52:56.000   28.234671843  -16.629830644  2224.1032   1   6   0.0033   0.0016   0.0175  -0.0009  -0.0024   0.0068  -4.00  112.8
2024/04/02 08:52:57.000   28.234671843  -16.629830644  2224.1031   1   6   0.0033   0.0016   0.0175  -0.0009  -0.0024   0.0068  -3.00  112.6
2024/04/02 08:52:58.000   28.234671842  -16.629830644  2224.1029   1   6   0.0033   0.0016   0.0175  -0.0009  -0.0024   0.0068  -2.00  112.5
2024/04/02 08:52:59.000   28.234671842  -16.629830644  2224.1027   1   6   0.0033   0.0016   0.0175  -0.0009  -0.0024   0.0069  -1.00  112.4
2024/04/02 08:53:00.000   28.234671841  -16.629830644  2224.1026   1   6   0.0033   0.0016   0.0175  -0.0009  -0.0024   0.0069   0.00  112.2
2024/04/02 08:53:01.000   28.234671841  -16.629830644  2224.1024   1   6   0.0033   0.0016   0.0175  -0.0009  -0.0024   0.0069   1.00  112.0
2024/04/02 08:53:02.000   28.234671840  -16.629830643  2224.1022   1   6   0.0034   0.0016   0.0175  -0.0009  -0.0024   0.0069   2.00  111.9
2024/04/02 08:53:03.000   28.234671840  -16.629830643  2224.1021   1   6   0.0034   0.0016   0.0175  -0.0009  -0.0024   0.0069   3.00  111.7
2024/04/02 08:53:04.000   28.234671839  -16.629830643  2224.1020   1   6   0.0034   0.0016   0.0175  -0.0009  -0.0024   0.0069   4.00  111.6
2024/04/02 08:53:05.000   28.234671839  -16.629830643  2224.1019   1   6   0.0034   0.0016   0.0175  -0.0009  -0.0024   0.0069   5.00  111.5
2024/04/02 08:53:06.000   28.234671838  -16.629830642  2224.1018   1   6   0.0034   0.0016   0.0175  -0.0009  -0.0024   0.0069   6.00  111.4
2024/04/02 08:53:07.000   28.234671838  -16.629830642  2224.1018   1   6   0.0034   0.0016   0.0175  -0.0009  -0.0024   0.0069   7.00  111.3
2024/04/02 08:53:08.000   28.234671838  -16.629830642  2224.1017   1   6   0.0034   0.0016   0.0175  -0.0009  -0.0024   0.0069   8.00  111.2
2024/04/02 08:53:09.000   28.234671838  -16.629830642  2224.1017   1   6   0.0034   0.0016   0.0175  -0.0009  -0.0024   0.0069   9.00  111.2
2024/04/02 08:53:10.000   28.234671838  -16.629830642  2224.1017   1   6   0.0034   0.0016   0.0175  -0.0009  -0.0024   0.0069  10.00  111.1
2024/04/02 08:53:11.000   28.234671838  -16.629830642  2224.1017   1   6   0.0034   0.0016   0.0175  -0.0009  -0.0024   0.0069  11.00  111.0
2024/04/02 08:53:12.000   28.234671837  -16.629830642  2224.1017   1   6   0.0034   0.0016   0.0175  -0.0009  -0.0024   0.0069  12.00  111.0
2024/04/02 08:53:13.000   28.234671837  -16.629830642  2224.1017   1   6   0.0034   0.0016   0.0175  -0.0009  -0.0024   0.0069  13.00  110.9
2024/04/02 08:53:14.000   28.234671837  -16.629830641  2224.1017   1   6   0.0034   0.0016   0.0175  -0.0009  -0.0024   0.0069  14.00  110.8
2024/04/02 08:53:15.000   28.234671837  -16.629830641  2224.1017   1   6   0.0034   0.0016   0.0175  -0.0009  -0.0024   0.0069  15.00  110.8
2024/04/02 08:53:16.000   28.234671837  -16.629830641  2224.1017   1   6   0.0034   0.0016   0.0175  -0.0009  -0.0024   0.0069 -14.00  110.7
2024/04/02 08:53:17.000   28.234671837  -16.629830641  2224.1017   1   6   0.0034   0.0016   0.0175  -0.0009  -0.0024   0.0069 -13.00  110.6
2024/04/02 08:53:18.000   28.234671837  -16.629830641  2224.1017   1   6   0.0034   0.0016   0.0175  -0.0009  -0.0024   0.0069 -12.00  110.6
2024/04/02 08:53:19.000   28.234671837  -16.629830641  2224.1018   1   6   0.0034   0.0016   0.0175  -0.0010  -0.0024   0.0069 -11.00  110.5
2024/04/02 08:53:20.000   28.234671837  -16.629830641  2224.1018   1   6   0.0034   0.0016   0.0175  -0.0010  -0.0024   0.0069 -10.00  110.4
2024/04/02 08:53:21.000   28.234671837  -16.629830641  2224.1018   1   6   0.0034   0.0016   0.0175  -0.0010  -0.0024   0.0069  -9.00  110.3
2024/04/02 08:53:22.000   28.234671837  -16.629830641  2224.1018   1   6   0.0034   0.0016   0.0175  -0.0010  -0.0024   0.0069  -8.00  110.2
2024/04/02 08:53:23.000   28.234671837  -16.629830640  2224.1018   1   6   0.0034   0.0016   0.0175  -0.0010  -0.0024   0.0069  -7.00  110.1
2024/04/02 08:53:24.000   28.234671837  -16.629830640  2224.1018   1   6   0.0034   0.0016   0.0175  -0.0010  -0.0024   0.0069  -6.00  110.0
2024/04/02 08:53:25.000   28.234671837  -16.629830640  2224.1018   1   6   0.0034   0.0016   0.0175  -0.0010  -0.0024   0.0069  -5.00  109.8
2024/04/02 08:53:26.000   28.234671837  -16.629830640  2224.1017   1   6   0.0034   0.0016   0.0175  -0.0010  -0.0024   0.0069  -4.00  109.7
2024/04/02 08:53:27.000   28.234671837  -16.629830640  2224.1017   1   6   0.0034   0.0016   0.0175  -0.0010  -0.0024   0.0069  -3.00  109.5
2024/04/02 08:53:28.000   28.234671837  -16.629830640  2224.1016   1   6   0.0034   0.0016   0.0175  -0.0010  -0.0024   0.0069  -2.00  109.3
2024/04/02 08:53:29.000   28.234671836  -16.629830640  2224.1015   1   6   0.0034   0.0016   0.0175  -0.0010  -0.0024   0.0069  -1.00  109.1
2024/04/02 08:53:30.000   28.234671836  -16.629830639  2224.1014   1   6   0.0034   0.0016   0.0176  -0.0010  -0.0024   0.0069   0.00  108.8
2024/04/02 08:53:31.000   28.234671836  -16.629830639  2224.1014   1   6   0.0034   0.0016   0.0176  -0.0010  -0.0024   0.0069   1.00  108.5
2024/04/02 08:53:32.000   28.234671835  -16.629830639  2224.1013   1   6   0.0034   0.0016   0.0176  -0.0010  -0.0024   0.0069   2.00  108.1
2024/04/02 08:53:33.000   28.234671835  -16.629830639  2224.1012   1   6   0.0034   0.0016   0.0176  -0.0010  -0.0024   0.0069   3.00  107.9
