% program   : RTKPOST-EX 2.5.0
% inp file  : C:\Users\SallyHenry\Desktop\Sally Internship\GNSS gravi\DATA\Survey Rover Obs\CAMI2.24o
% inp file  : C:\Users\SallyHenry\Desktop\Sally Internship\GNSS gravi\DATA\BaseStations\IZAN\IZAN00ESP_R_20242130000_01D_30S_MO.rnx
% inp file  : C:\Users\SallyHenry\Desktop\Sally Internship\GNSS gravi\DATA\BaseStations\IZAN\IZAN00ESP_R_20242130000_01D_MN.rnx
% inp file  : C:\Users\SallyHenry\Desktop\Sally Internship\GNSS gravi\DATA\aux_files\Survey\IGS0OPSFIN_20242130000_01D_15M_ORB.SP3
% inp file  : C:\Users\SallyHenry\Desktop\Sally Internship\GNSS gravi\DATA\aux_files\Survey\IGS0OPSFIN_20242130000_01D_30S_CLK.CLK
% obs start : 2024/07/31 12:23:17.0 GPST (week2325 303797.0s)
% obs end   : 2024/07/31 12:38:40.0 GPST (week2325 304720.0s)
% pos mode  : Static
% freqs     : L1+L2/E5b
% solution  : Combined-No Phase Reset
% elev mask : 15.0 deg
% dynamics  : on
% tidecorr  : solid
% ionos opt : Estimate TEC
% tropo opt : Estimate ZTD+Grad
% ephemeris : Precise
% navi sys  : GPS GLONASS Galileo QZSS BDS
% amb res   : Fix and Hold
% amb glo   : Fix and Hold
% amb bds   : on
% val thres : 3.0
% antenna1  :                       ( 0.0000  0.0000  1.8000)
% antenna2  :                       ( 0.0000  0.0000  0.0000)
% ref pos   :  28.308069410  -16.499677180  2417.4044
%
% (lat/lon/height=WGS84/ellipsoidal,Q=1:fix,2:float,3:sbas,4:dgps,5:single,6:ppp,ns=# of satellites)
%  GPST                  latitude(deg) longitude(deg)  height(m)   Q  ns   sdn(m)   sde(m)   sdu(m)  sdne(m)  sdeu(m)  sdun(m) age(s)  ratio
2024/07/31 12:23:17.000   28.331152237  -16.523853246  1717.1266   1   7   0.0025   0.0014   0.0270   0.0006   0.0002   0.0066 -13.00   18.1
2024/07/31 12:23:18.000   28.331152237  -16.523853246  1717.1269   1   7   0.0025   0.0014   0.0270   0.0006   0.0002   0.0066 -12.00   17.4
2024/07/31 12:23:19.000   28.331152237  -16.523853246  1717.1271   1   7   0.0025   0.0014   0.0270   0.0006   0.0002   0.0066 -11.00   16.7
2024/07/31 12:23:20.000   28.331152238  -16.523853246  1717.1275   1   7   0.0025   0.0014   0.0270   0.0006   0.0002   0.0066 -10.00   15.8
2024/07/31 12:23:21.000   28.331152238  -16.523853246  1717.1278   1   7   0.0025   0.0014   0.0270   0.0006   0.0002   0.0066  -9.00   14.9
2024/07/31 12:23:22.000   28.331152238  -16.523853246  1717.1282   1   7   0.0025   0.0014   0.0270   0.0006   0.0002   0.0066  -8.00   13.9
2024/07/31 12:23:23.000   28.331152238  -16.523853246  1717.1286   1   7   0.0025   0.0014   0.0270   0.0006   0.0002   0.0066  -7.00   12.7
2024/07/31 12:23:24.000   28.331152239  -16.523853246  1717.1290   1   7   0.0025   0.0014   0.0270   0.0006   0.0002   0.0066  -6.00   11.5
2024/07/31 12:23:25.000   28.331152239  -16.523853246  1717.1294   1   7   0.0025   0.0014   0.0270   0.0006   0.0002   0.0066  -5.00   10.1
2024/07/31 12:23:26.000   28.331152240  -16.523853246  1717.1301   1   7   0.0025   0.0014   0.0270   0.0006   0.0002   0.0066  -4.00    8.1
2024/07/31 12:23:27.000   28.331152240  -16.523853247  1717.1305   1   7   0.0025   0.0014   0.0270   0.0006   0.0002   0.0067  -3.00    6.5
2024/07/31 12:23:28.000   28.331152240  -16.523853247  1717.1311   1   7   0.0025   0.0014   0.0271   0.0006   0.0002   0.0067  -2.00  103.7
2024/07/31 12:23:29.000   28.331152240  -16.523853247  1717.1316   1   7   0.0025   0.0014   0.0271   0.0006   0.0002   0.0067  -1.00  102.9
2024/07/31 12:23:30.000   28.331152235  -16.523853247  1717.1313   1   7   0.0025   0.0014   0.0272   0.0006   0.0002   0.0067   0.00   29.5
2024/07/31 12:23:31.000   28.331152235  -16.523853247  1717.1323   1   7   0.0025   0.0014   0.0273   0.0006   0.0002   0.0067   1.00   28.1
2024/07/31 12:23:32.000   28.331152235  -16.523853247  1717.1331   1   7   0.0025   0.0014   0.0273   0.0006   0.0002   0.0067   2.00   26.7
2024/07/31 12:23:33.000   28.331152235  -16.523853247  1717.1338   1   7   0.0025   0.0014   0.0274   0.0006   0.0002   0.0068   3.00   25.4
2024/07/31 12:23:34.000   28.331152235  -16.523853247  1717.1345   1   7   0.0025   0.0014   0.0274   0.0006   0.0002   0.0068   4.00   24.2
2024/07/31 12:23:35.000   28.331152234  -16.523853248  1717.1349   1   7   0.0025   0.0014   0.0274   0.0006   0.0002   0.0068   5.00   23.1
2024/07/31 12:23:36.000   28.331152234  -16.523853248  1717.1351   1   7   0.0025   0.0014   0.0275   0.0006   0.0002   0.0068   6.00   22.2
2024/07/31 12:23:37.000   28.331152234  -16.523853248  1717.1353   1   7   0.0025   0.0014   0.0275   0.0006   0.0002   0.0068   7.00   21.3
2024/07/31 12:23:38.000   28.331152234  -16.523853248  1717.1355   1   7   0.0025   0.0014   0.0275   0.0006   0.0002   0.0068   8.00   20.5
2024/07/31 12:23:39.000   28.331152234  -16.523853248  1717.1355   1   7   0.0025   0.0014   0.0275   0.0006   0.0002   0.0068   9.00   19.7
2024/07/31 12:23:40.000   28.331152234  -16.523853248  1717.1355   1   7   0.0025   0.0014   0.0275   0.0006   0.0002   0.0068  10.00   18.9
2024/07/31 12:23:41.000   28.331152234  -16.523853248  1717.1356   1   7   0.0025   0.0014   0.0275   0.0006   0.0002   0.0068  11.00   18.3
2024/07/31 12:23:42.000   28.331152234  -16.523853248  1717.1356   1   7   0.0025   0.0014   0.0275   0.0006   0.0002   0.0068  12.00   17.6
2024/07/31 12:23:43.000   28.331152234  -16.523853248  1717.1357   1   7   0.0025   0.0014   0.0275   0.0006   0.0001   0.0068  13.00   17.0
2024/07/31 12:23:44.000   28.331152234  -16.523853248  1717.1358   1   7   0.0025   0.0014   0.0275   0.0006   0.0001   0.0068  14.00   16.4
2024/07/31 12:23:45.000   28.331152234  -16.523853248  1717.1359   1   7   0.0025   0.0014   0.0275   0.0006   0.0001   0.0068  15.00   15.8
2024/07/31 12:23:46.000   28.331152234  -16.523853248  1717.1360   1   7   0.0025   0.0014   0.0275   0.0006   0.0001   0.0068 -14.00   15.3
2024/07/31 12:23:47.000   28.331152234  -16.523853248  1717.1362   1   7   0.0025   0.0014   0.0275   0.0006   0.0000   0.0068 -13.00   14.7
2024/07/31 12:23:48.000   28.331152234  -16.523853248  1717.1365   1   7   0.0025   0.0014   0.0275   0.0006  -0.0001   0.0068 -12.00   14.1
2024/07/31 12:23:49.000   28.331152234  -16.523853248  1717.1366   1   7   0.0025   0.0014   0.0275   0.0006  -0.0001   0.0068 -11.00   13.5
2024/07/31 12:23:50.000   28.331152234  -16.523853248  1717.1368   1   7   0.0025   0.0014   0.0275   0.0006  -0.0001   0.0068 -10.00   12.8
2024/07/31 12:23:51.000   28.331152234  -16.523853248  1717.1370   1   8   0.0025   0.0014   0.0275   0.0006  -0.0001   0.0068  -9.00   12.1
2024/07/31 12:23:52.000   28.331152234  -16.523853248  1717.1371   1   8   0.0025   0.0014   0.0275   0.0006  -0.0001   0.0068  -8.00   11.4
2024/07/31 12:23:53.000   28.331152234  -16.523853248  1717.1372   1   8   0.0025   0.0014   0.0275   0.0006  -0.0002   0.0068  -7.00   10.6
2024/07/31 12:23:54.000   28.331152234  -16.523853248  1717.1372   1   8   0.0025   0.0014   0.0275   0.0006  -0.0002   0.0068  -6.00    9.6
2024/07/31 12:23:55.000   28.331152234  -16.523853248  1717.1374   1   8   0.0025   0.0014   0.0275   0.0006  -0.0002   0.0068  -5.00    8.5
2024/07/31 12:23:56.000   28.331152236  -16.523853249  1717.1375   1   8   0.0025   0.0014   0.0275   0.0006  -0.0002   0.0068  -4.00    7.0
2024/07/31 12:23:57.000   28.331152236  -16.523853249  1717.1377   1   8   0.0025   0.0014   0.0275   0.0006  -0.0002   0.0068  -3.00    5.6
2024/07/31 12:23:58.000   28.331152236  -16.523853248  1717.1382   1   8   0.0025   0.0014   0.0276   0.0006  -0.0001   0.0068  -2.00   91.1
2024/07/31 12:23:59.000   28.331152235  -16.523853249  1717.1382   1   8   0.0025   0.0014   0.0276   0.0006  -0.0001   0.0068  -1.00   90.3
2024/07/31 12:24:00.000   28.331152221  -16.523853249  1717.1361   1   8   0.0025   0.0014   0.0277   0.0006  -0.0001   0.0068   0.00   20.8
2024/07/31 12:24:01.000   28.331152221  -16.523853249  1717.1363   1   8   0.0025   0.0014   0.0278   0.0006  -0.0001   0.0069   1.00   20.0
2024/07/31 12:24:02.000   28.331152221  -16.523853249  1717.1369   1   8   0.0025   0.0014   0.0278   0.0006  -0.0000   0.0069   2.00   19.2
2024/07/31 12:24:03.000   28.331152221  -16.523853249  1717.1374   1   8   0.0025   0.0014   0.0279   0.0006   0.0000   0.0069   3.00   18.4
2024/07/31 12:24:04.000   28.331152221  -16.523853249  1717.1377   1   8   0.0025   0.0014   0.0279   0.0006  -0.0000   0.0069   4.00   17.7
2024/07/31 12:24:05.000   28.331152221  -16.523853249  1717.1388   1   8   0.0025   0.0014   0.0280   0.0006  -0.0001   0.0069   5.00   17.0
2024/07/31 12:24:06.000   28.331152222  -16.523853250  1717.1395   1   8   0.0025   0.0014   0.0280   0.0006  -0.0001   0.0069   6.00   16.4
2024/07/31 12:24:07.000   28.331152222  -16.523853250  1717.1399   1   8   0.0025   0.0014   0.0280   0.0006  -0.0001   0.0069   7.00   15.9
2024/07/31 12:24:08.000   28.331152222  -16.523853250  1717.1405   1   8   0.0025   0.0014   0.0280   0.0006  -0.0001   0.0069   8.00   15.3
2024/07/31 12:24:09.000   28.331152223  -16.523853250  1717.1410   1   8   0.0025   0.0014   0.0280   0.0006  -0.0002   0.0069   9.00   14.8
2024/07/31 12:24:10.000   28.331152223  -16.523853250  1717.1413   1   8   0.0025   0.0014   0.0280   0.0006  -0.0002   0.0069  10.00   14.3
2024/07/31 12:24:11.000   28.331152223  -16.523853250  1717.1416   1   8   0.0025   0.0014   0.0280   0.0006  -0.0002   0.0069  11.00   13.8
2024/07/31 12:24:12.000   28.331152223  -16.523853250  1717.1420   1   8   0.0025   0.0014   0.0280   0.0006  -0.0002   0.0069  12.00   13.4
2024/07/31 12:24:13.000   28.331152224  -16.523853250  1717.1423   1   8   0.0025   0.0014   0.0280   0.0006  -0.0002   0.0069  13.00   12.9
2024/07/31 12:24:14.000   28.331152224  -16.523853250  1717.1428   1   8   0.0025   0.0014   0.0280   0.0006  -0.0002   0.0069  14.00   12.4
2024/07/31 12:24:15.000   28.331152224  -16.523853250  1717.1431   1   8   0.0025   0.0014   0.0280   0.0006  -0.0002   0.0069  15.00   11.9
2024/07/31 12:24:16.000   28.331152225  -16.523853250  1717.1434   1   8   0.0025   0.0014   0.0280   0.0006  -0.0003   0.0069 -14.00   11.4
2024/07/31 12:24:17.000   28.331152225  -16.523853250  1717.1437   1   8   0.0025   0.0014   0.0280   0.0006  -0.0003   0.0069 -13.00   11.0
2024/07/31 12:24:18.000   28.331152225  -16.523853250  1717.1440   1   8   0.0025   0.0014   0.0280   0.0006  -0.0003   0.0069 -12.00   10.5
2024/07/31 12:24:19.000   28.331152225  -16.523853250  1717.1444   1   8   0.0025   0.0014   0.0280   0.0006  -0.0003   0.0069 -11.00   10.0
2024/07/31 12:24:20.000   28.331152226  -16.523853250  1717.1447   1   8   0.0025   0.0014   0.0280   0.0006  -0.0003   0.0069 -10.00    9.5
2024/07/31 12:24:21.000   28.331152226  -16.523853250  1717.1450   1   8   0.0025   0.0014   0.0280   0.0006  -0.0003   0.0069  -9.00    9.0
2024/07/31 12:24:22.000   28.331152227  -16.523853250  1717.1453   1   8   0.0025   0.0014   0.0280   0.0006  -0.0003   0.0069  -8.00    8.4
2024/07/31 12:24:23.000   28.331152227  -16.523853250  1717.1457   1   8   0.0025   0.0014   0.0280   0.0006  -0.0003   0.0069  -7.00    7.8
2024/07/31 12:24:24.000   28.331152228  -16.523853250  1717.1463   1   9   0.0025   0.0014   0.0280   0.0006  -0.0003   0.0069  -6.00    7.1
2024/07/31 12:24:25.000   28.331152229  -16.523853250  1717.1466   1   9   0.0025   0.0014   0.0280   0.0006  -0.0003   0.0069  -5.00    6.3
2024/07/31 12:24:26.000   28.331152233  -16.523853250  1717.1474   1   9   0.0025   0.0014   0.0280   0.0006  -0.0003   0.0069  -4.00    5.5
2024/07/31 12:24:27.000   28.331152233  -16.523853250  1717.1481   1   9   0.0025   0.0014   0.0280   0.0006  -0.0003   0.0069  -3.00    4.5
2024/07/31 12:24:28.000   28.331152235  -16.523853249  1717.1493   1   9   0.0025   0.0014   0.0281   0.0006  -0.0003   0.0070  -2.00   80.0
2024/07/31 12:24:29.000   28.331152234  -16.523853249  1717.1504   1   9   0.0025   0.0014   0.0281   0.0006  -0.0003   0.0070  -1.00   79.7
2024/07/31 12:24:30.000   28.331152213  -16.523853249  1717.1476   1   9   0.0025   0.0014   0.0282   0.0006  -0.0003   0.0070   0.00   13.7
2024/07/31 12:24:31.000   28.331152214  -16.523853249  1717.1481   1   9   0.0025   0.0014   0.0283   0.0006  -0.0003   0.0070   1.00   13.4
2024/07/31 12:24:32.000   28.331152215  -16.523853249  1717.1493   1   9   0.0025   0.0014   0.0283   0.0006  -0.0003   0.0070   2.00   13.1
2024/07/31 12:24:33.000   28.331152216  -16.523853249  1717.1505   1   9   0.0026   0.0014   0.0284   0.0006  -0.0003   0.0070   3.00   12.8
2024/07/31 12:24:34.000   28.331152218  -16.523853250  1717.1518   1   9   0.0026   0.0014   0.0284   0.0006  -0.0003   0.0071   4.00   12.5
2024/07/31 12:24:35.000   28.331152219  -16.523853250  1717.1527   1   9   0.0026   0.0014   0.0285   0.0006  -0.0003   0.0071   5.00   12.2
2024/07/31 12:24:36.000   28.331152220  -16.523853250  1717.1538   1   9   0.0026   0.0014   0.0285   0.0006  -0.0003   0.0071   6.00   11.9
2024/07/31 12:24:37.000   28.331152221  -16.523853250  1717.1545   1   9   0.0026   0.0014   0.0285   0.0006  -0.0003   0.0071   7.00   11.6
2024/07/31 12:24:38.000   28.331152223  -16.523853251  1717.1554   1   9   0.0026   0.0014   0.0285   0.0006  -0.0003   0.0071   8.00   11.3
2024/07/31 12:24:39.000   28.331152224  -16.523853251  1717.1563   1   9   0.0026   0.0014   0.0285   0.0006  -0.0003   0.0071   9.00   11.0
2024/07/31 12:24:40.000   28.331152224  -16.523853251  1717.1571   1   9   0.0026   0.0014   0.0285   0.0006  -0.0003   0.0071  10.00   10.6
2024/07/31 12:24:41.000   28.331152225  -16.523853251  1717.1576   1   9   0.0026   0.0014   0.0285   0.0006  -0.0003   0.0071  11.00   10.3
2024/07/31 12:24:42.000   28.331152226  -16.523853251  1717.1578   1   9   0.0026   0.0014   0.0285   0.0006  -0.0003   0.0071  12.00   10.0
2024/07/31 12:24:43.000   28.331152226  -16.523853251  1717.1583   1   9   0.0026   0.0014   0.0285   0.0006  -0.0004   0.0071  13.00    9.6
2024/07/31 12:24:44.000   28.331152227  -16.523853251  1717.1587   1   9   0.0026   0.0014   0.0285   0.0006  -0.0004   0.0071  14.00    9.3
2024/07/31 12:24:45.000   28.331152227  -16.523853251  1717.1591   1   9   0.0026   0.0014   0.0285   0.0006  -0.0004   0.0071  15.00    8.9
2024/07/31 12:24:46.000   28.331152227  -16.523853252  1717.1594   1   9   0.0026   0.0014   0.0285   0.0006  -0.0004   0.0071 -14.00    8.6
2024/07/31 12:24:47.000   28.331152228  -16.523853252  1717.1598   1   9   0.0026   0.0014   0.0285   0.0006  -0.0004   0.0071 -13.00    8.3
2024/07/31 12:24:48.000   28.331152228  -16.523853252  1717.1603   1   9   0.0026   0.0014   0.0285   0.0006  -0.0004   0.0071 -12.00    7.9
2024/07/31 12:24:49.000   28.331152229  -16.523853252  1717.1607   1   9   0.0026   0.0014   0.0285   0.0006  -0.0004   0.0071 -11.00    7.5
2024/07/31 12:24:50.000   28.331152229  -16.523853252  1717.1612   1   9   0.0026   0.0014   0.0285   0.0006  -0.0004   0.0071 -10.00    7.2
2024/07/31 12:24:51.000   28.331152230  -16.523853252  1717.1617   1   9   0.0026   0.0014   0.0285   0.0006  -0.0004   0.0071  -9.00    6.8
2024/07/31 12:24:52.000   28.331152230  -16.523853251  1717.1611   1   9   0.0026   0.0014   0.0285   0.0006  -0.0004   0.0071  -8.00    6.4
2024/07/31 12:24:53.000   28.331152231  -16.523853252  1717.1612   1   9   0.0026   0.0014   0.0285   0.0006  -0.0004   0.0071  -7.00    5.9
2024/07/31 12:24:54.000   28.331152232  -16.523853252  1717.1615   1   9   0.0026   0.0014   0.0285   0.0006  -0.0004   0.0071  -6.00    5.4
2024/07/31 12:24:55.000   28.331152233  -16.523853252  1717.1618   1   9   0.0026   0.0014   0.0285   0.0006  -0.0004   0.0071  -5.00    4.9
2024/07/31 12:24:56.000   28.331152239  -16.523853253  1717.1626   1   9   0.0026   0.0014   0.0285   0.0006  -0.0004   0.0071  -4.00    4.5
2024/07/31 12:24:57.000   28.331152240  -16.523853253  1717.1627   1   9   0.0026   0.0014   0.0286   0.0006  -0.0004   0.0071  -3.00    3.7
2024/07/31 12:24:58.000   28.331152242  -16.523853252  1717.1641   1   9   0.0026   0.0014   0.0286   0.0006  -0.0004   0.0071  -2.00   75.4
2024/07/31 12:24:59.000   28.331152242  -16.523853252  1717.1644   1   9   0.0026   0.0014   0.0287   0.0006  -0.0004   0.0071  -1.00   75.4
2024/07/31 12:25:00.000   28.331152212  -16.523853250  1717.1585   1   9   0.0026   0.0014   0.0287   0.0006  -0.0004   0.0071   0.00    8.5
2024/07/31 12:25:01.000   28.331152214  -16.523853250  1717.1589   1   9   0.0026   0.0014   0.0288   0.0006  -0.0004   0.0071   1.00    8.4
2024/07/31 12:25:02.000   28.331152216  -16.523853251  1717.1593   1   9   0.0026   0.0014   0.0289   0.0006  -0.0004   0.0072   2.00    8.2
2024/07/31 12:25:03.000   28.331152217  -16.523853251  1717.1592   1   9   0.0026   0.0014   0.0289   0.0006  -0.0005   0.0072   3.00    8.0
2024/07/31 12:25:04.000   28.331152219  -16.523853251  1717.1594   1   9   0.0026   0.0014   0.0290   0.0006  -0.0005   0.0072   4.00    7.8
2024/07/31 12:25:05.000   28.331152220  -16.523853252  1717.1599   1   9   0.0026   0.0014   0.0290   0.0006  -0.0005   0.0072   5.00    7.6
2024/07/31 12:25:06.000   28.331152221  -16.523853252  1717.1602   1   9   0.0026   0.0014   0.0290   0.0006  -0.0005   0.0072   6.00    7.4
2024/07/31 12:25:07.000   28.331152222  -16.523853252  1717.1602   1   9   0.0026   0.0014   0.0291   0.0006  -0.0005   0.0072   7.00    7.1
2024/07/31 12:25:08.000   28.331152223  -16.523853252  1717.1606   1   9   0.0026   0.0014   0.0291   0.0006  -0.0005   0.0072   8.00    6.8
2024/07/31 12:25:09.000   28.331152225  -16.523853253  1717.1614   1   9   0.0026   0.0014   0.0291   0.0006  -0.0005   0.0072   9.00    6.5
2024/07/31 12:25:10.000   28.331152225  -16.523853253  1717.1615   1   9   0.0026   0.0014   0.0291   0.0006  -0.0005   0.0072  10.00    6.2
2024/07/31 12:25:11.000   28.331152226  -16.523853253  1717.1620   1   8   0.0026   0.0014   0.0291   0.0006  -0.0005   0.0072  11.00    5.9
2024/07/31 12:25:12.000   28.331152227  -16.523853253  1717.1623   1   8   0.0026   0.0014   0.0291   0.0006  -0.0006   0.0072  12.00    5.6
2024/07/31 12:25:13.000   28.331152227  -16.523853253  1717.1628   1   8   0.0026   0.0014   0.0291   0.0006  -0.0006   0.0072  13.00    5.4
2024/07/31 12:25:14.000   28.331152228  -16.523853253  1717.1633   1   8   0.0026   0.0014   0.0291   0.0006  -0.0006   0.0072  14.00    5.1
2024/07/31 12:25:15.000   28.331152229  -16.523853253  1717.1637   1   8   0.0026   0.0014   0.0291   0.0006  -0.0006   0.0072  15.00    4.8
2024/07/31 12:25:16.000   28.331152229  -16.523853253  1717.1641   1   8   0.0026   0.0014   0.0290   0.0006  -0.0006   0.0072 -14.00    4.5
2024/07/31 12:25:17.000   28.331152230  -16.523853253  1717.1645   1   8   0.0026   0.0014   0.0290   0.0006  -0.0006   0.0072 -13.00    4.2
2024/07/31 12:25:18.000   28.331152230  -16.523853253  1717.1650   1   8   0.0026   0.0014   0.0290   0.0006  -0.0006   0.0072 -12.00    3.9
2024/07/31 12:25:19.000   28.331152231  -16.523853253  1717.1656   1   8   0.0026   0.0014   0.0290   0.0006  -0.0006   0.0072 -11.00    3.6
2024/07/31 12:25:20.000   28.331152246  -16.523853255  1717.1685   1   8   0.0026   0.0014   0.0290   0.0006  -0.0006   0.0072 -10.00   75.1
2024/07/31 12:25:21.000   28.331152246  -16.523853255  1717.1689   1   8   0.0026   0.0014   0.0290   0.0006  -0.0006   0.0072  -9.00   75.0
2024/07/31 12:25:22.000   28.331152246  -16.523853255  1717.1691   1   8   0.0026   0.0014   0.0290   0.0006  -0.0006   0.0072  -8.00   75.1
2024/07/31 12:25:23.000   28.331152246  -16.523853256  1717.1693   1   8   0.0026   0.0014   0.0290   0.0006  -0.0006   0.0072  -7.00   75.1
2024/07/31 12:25:24.000   28.331152245  -16.523853256  1717.1693   1   8   0.0026   0.0014   0.0291   0.0006  -0.0006   0.0072  -6.00   75.2
2024/07/31 12:25:25.000   28.331152245  -16.523853256  1717.1692   1   8   0.0026   0.0014   0.0291   0.0006  -0.0006   0.0072  -5.00   75.3
2024/07/31 12:25:26.000   28.331152244  -16.523853256  1717.1690   1   8   0.0026   0.0014   0.0291   0.0006  -0.0006   0.0072  -4.00   75.5
2024/07/31 12:25:27.000   28.331152244  -16.523853256  1717.1688   1   8   0.0026   0.0014   0.0291   0.0006  -0.0006   0.0072  -3.00   75.9
2024/07/31 12:25:28.000   28.331152242  -16.523853256  1717.1679   1   8   0.0026   0.0014   0.0292   0.0006  -0.0006   0.0073  -2.00   76.3
2024/07/31 12:25:29.000   28.331152241  -16.523853257  1717.1671   1   8   0.0026   0.0014   0.0292   0.0006  -0.0006   0.0073  -1.00   76.9
2024/07/31 12:25:30.000   28.331152240  -16.523853257  1717.1665   1   8   0.0026   0.0014   0.0293   0.0006  -0.0006   0.0073   0.00   77.5
2024/07/31 12:25:31.000   28.331152239  -16.523853258  1717.1659   1   7   0.0026   0.0014   0.0294   0.0006  -0.0006   0.0073   1.00   78.0
2024/07/31 12:25:32.000   28.331152238  -16.523853258  1717.1661   1   7   0.0026   0.0014   0.0294   0.0006  -0.0006   0.0073   2.00   78.6
2024/07/31 12:25:33.000   28.331152238  -16.523853259  1717.1661   1   7   0.0026   0.0014   0.0295   0.0006  -0.0007   0.0073   3.00   79.1
2024/07/31 12:25:34.000   28.331152238  -16.523853259  1717.1667   1   7   0.0026   0.0014   0.0295   0.0006  -0.0007   0.0074   4.00   79.4
2024/07/31 12:25:35.000   28.331152237  -16.523853259  1717.1669   1   7   0.0026   0.0014   0.0296   0.0006  -0.0007   0.0074   5.00   79.6
2024/07/31 12:25:36.000   28.331152238  -16.523853260  1717.1676   1   7   0.0026   0.0014   0.0296   0.0006  -0.0007   0.0074   6.00   79.7
2024/07/31 12:25:37.000   28.331152238  -16.523853260  1717.1685   1   7   0.0026   0.0014   0.0296   0.0006  -0.0007   0.0074   7.00   79.8
2024/07/31 12:25:38.000   28.331152238  -16.523853260  1717.1694   1   7   0.0026   0.0014   0.0296   0.0006  -0.0007   0.0074   8.00   80.0
2024/07/31 12:25:39.000   28.331152239  -16.523853261  1717.1702   1   7   0.0026   0.0014   0.0296   0.0006  -0.0007   0.0074   9.00   80.0
2024/07/31 12:25:40.000   28.331152239  -16.523853261  1717.1710   1   7   0.0026   0.0014   0.0296   0.0006  -0.0007   0.0074  10.00   80.0
2024/07/31 12:25:41.000   28.331152239  -16.523853261  1717.1716   1   7   0.0026   0.0014   0.0296   0.0006  -0.0007   0.0074  11.00   79.9
2024/07/31 12:25:42.000   28.331152239  -16.523853261  1717.1722   1   7   0.0026   0.0014   0.0296   0.0006  -0.0007   0.0074  12.00   79.9
2024/07/31 12:25:43.000   28.331152240  -16.523853262  1717.1728   1   7   0.0026   0.0014   0.0296   0.0006  -0.0007   0.0074  13.00   79.8
2024/07/31 12:25:44.000   28.331152240  -16.523853262  1717.1734   1   7   0.0026   0.0014   0.0296   0.0006  -0.0007   0.0074  14.00   79.7
2024/07/31 12:25:45.000   28.331152240  -16.523853262  1717.1739   1   7   0.0026   0.0014   0.0296   0.0006  -0.0007   0.0074  15.00   79.6
2024/07/31 12:25:46.000   28.331152240  -16.523853262  1717.1744   1   7   0.0026   0.0014   0.0296   0.0006  -0.0007   0.0074 -14.00   79.5
2024/07/31 12:25:47.000   28.331152241  -16.523853262  1717.1750   1   7   0.0026   0.0014   0.0296   0.0006  -0.0007   0.0074 -13.00   79.3
2024/07/31 12:25:48.000   28.331152241  -16.523853262  1717.1754   1   7   0.0026   0.0014   0.0296   0.0006  -0.0008   0.0074 -12.00   79.2
2024/07/31 12:25:49.000   28.331152241  -16.523853262  1717.1760   1   7   0.0026   0.0014   0.0296   0.0006  -0.0008   0.0074 -11.00   79.2
2024/07/31 12:25:50.000   28.331152241  -16.523853263  1717.1764   1   7   0.0026   0.0014   0.0296   0.0006  -0.0008   0.0074 -10.00   79.1
2024/07/31 12:25:51.000   28.331152241  -16.523853263  1717.1770   1   7   0.0026   0.0014   0.0296   0.0006  -0.0008   0.0074  -9.00   79.0
2024/07/31 12:25:52.000   28.331152241  -16.523853263  1717.1774   1   7   0.0026   0.0014   0.0296   0.0006  -0.0008   0.0074  -8.00   79.0
2024/07/31 12:25:53.000   28.331152242  -16.523853263  1717.1779   1   7   0.0026   0.0014   0.0296   0.0006  -0.0008   0.0074  -7.00   78.9
2024/07/31 12:25:54.000   28.331152242  -16.523853263  1717.1782   1   7   0.0026   0.0014   0.0296   0.0006  -0.0008   0.0074  -6.00   79.0
2024/07/31 12:25:55.000   28.331152241  -16.523853264  1717.1786   1   7   0.0026   0.0014   0.0296   0.0006  -0.0008   0.0074  -5.00   79.1
2024/07/31 12:25:56.000   28.331152241  -16.523853264  1717.1790   1   7   0.0026   0.0014   0.0296   0.0006  -0.0008   0.0074  -4.00   79.3
2024/07/31 12:25:57.000   28.331152241  -16.523853264  1717.1792   1   7   0.0026   0.0014   0.0297   0.0006  -0.0008   0.0074  -3.00   79.6
2024/07/31 12:25:58.000   28.331152241  -16.523853264  1717.1794   1   7   0.0026   0.0014   0.0297   0.0006  -0.0008   0.0074  -2.00   80.1
2024/07/31 12:25:59.000   28.331152241  -16.523853264  1717.1798   1   7   0.0027   0.0014   0.0298   0.0006  -0.0008   0.0074  -1.00   80.7
2024/07/31 12:26:00.000   28.331152240  -16.523853265  1717.1797   1   7   0.0027   0.0014   0.0299   0.0006  -0.0008   0.0074   0.00   81.4
2024/07/31 12:26:01.000   28.331152239  -16.523853265  1717.1794   1   7   0.0027   0.0014   0.0299   0.0006  -0.0008   0.0075   1.00   82.4
2024/07/31 12:26:02.000   28.331152239  -16.523853266  1717.1787   1   7   0.0027   0.0014   0.0300   0.0006  -0.0008   0.0075   2.00   83.1
2024/07/31 12:26:03.000   28.331152238  -16.523853266  1717.1783   1   7   0.0027   0.0014   0.0301   0.0006  -0.0008   0.0075   3.00   83.9
2024/07/31 12:26:04.000   28.331152238  -16.523853266  1717.1786   1   7   0.0027   0.0014   0.0301   0.0006  -0.0008   0.0075   4.00   84.6
2024/07/31 12:26:05.000   28.331152237  -16.523853267  1717.1784   1   7   0.0027   0.0014   0.0301   0.0006  -0.0009   0.0075   5.00   85.0
2024/07/31 12:26:06.000   28.331152236  -16.523853267  1717.1782   1   7   0.0027   0.0014   0.0302   0.0006  -0.0009   0.0075   6.00   85.3
2024/07/31 12:26:07.000   28.331152236  -16.523853267  1717.1782   1   7   0.0027   0.0014   0.0302   0.0006  -0.0009   0.0075   7.00   85.6
2024/07/31 12:26:08.000   28.331152277  -16.523853263  1717.2391   1   7   0.0023   0.0013   0.0266   0.0005  -0.0015   0.0061   8.00    8.2
2024/07/31 12:26:09.000   28.331152277  -16.523853263  1717.2396   1   7   0.0023   0.0013   0.0266   0.0005  -0.0015   0.0061   9.00    8.2
2024/07/31 12:26:10.000   28.331152277  -16.523853263  1717.2401   1   7   0.0023   0.0013   0.0266   0.0005  -0.0015   0.0061  10.00    8.2
2024/07/31 12:26:11.000   28.331152277  -16.523853263  1717.2404   1   7   0.0023   0.0013   0.0266   0.0005  -0.0015   0.0061  11.00    8.1
2024/07/31 12:26:12.000   28.331152277  -16.523853264  1717.2407   1   7   0.0023   0.0013   0.0266   0.0005  -0.0015   0.0061  12.00    8.1
2024/07/31 12:26:13.000   28.331152277  -16.523853264  1717.2410   1   7   0.0023   0.0013   0.0266   0.0005  -0.0015   0.0061  13.00    8.0
2024/07/31 12:26:14.000   28.331152277  -16.523853264  1717.2413   1   7   0.0023   0.0013   0.0266   0.0005  -0.0015   0.0061  14.00    7.9
2024/07/31 12:26:15.000   28.331152277  -16.523853264  1717.2415   1   7   0.0023   0.0013   0.0266   0.0005  -0.0015   0.0061 -15.00    7.9
2024/07/31 12:26:16.000   28.331152277  -16.523853264  1717.2417   1   7   0.0023   0.0013   0.0266   0.0005  -0.0015   0.0061 -14.00    7.8
2024/07/31 12:26:17.000   28.331152277  -16.523853264  1717.2420   1   7   0.0023   0.0013   0.0266   0.0005  -0.0015   0.0061 -13.00    7.8
2024/07/31 12:26:18.000   28.331152278  -16.523853264  1717.2423   1   7   0.0023   0.0013   0.0266   0.0005  -0.0015   0.0061 -12.00    7.8
2024/07/31 12:26:19.000   28.331152278  -16.523853264  1717.2426   1   7   0.0023   0.0013   0.0266   0.0005  -0.0015   0.0061 -11.00    7.8
2024/07/31 12:26:20.000   28.331152278  -16.523853264  1717.2429   1   7   0.0022   0.0013   0.0266   0.0005  -0.0015   0.0061 -10.00    7.7
2024/07/31 12:26:21.000   28.331152278  -16.523853264  1717.2433   1   7   0.0022   0.0013   0.0266   0.0005  -0.0015   0.0061  -9.00    7.7
2024/07/31 12:26:22.000   28.331152278  -16.523853265  1717.2438   1   7   0.0022   0.0013   0.0266   0.0005  -0.0015   0.0061  -8.00    7.6
2024/07/31 12:26:23.000   28.331152278  -16.523853265  1717.2444   1   7   0.0022   0.0013   0.0266   0.0005  -0.0015   0.0061  -7.00    7.6
2024/07/31 12:26:24.000   28.331152278  -16.523853265  1717.2451   1   7   0.0022   0.0013   0.0266   0.0005  -0.0015   0.0061  -6.00    7.6
2024/07/31 12:26:25.000   28.331152278  -16.523853265  1717.2458   1   7   0.0022   0.0013   0.0266   0.0005  -0.0015   0.0061  -5.00    7.6
2024/07/31 12:26:26.000   28.331152278  -16.523853265  1717.2468   1   7   0.0022   0.0013   0.0266   0.0005  -0.0015   0.0061  -4.00    7.5
2024/07/31 12:26:27.000   28.331152279  -16.523853265  1717.2479   1   7   0.0022   0.0013   0.0266   0.0005  -0.0015   0.0061  -3.00    7.4
2024/07/31 12:26:28.000   28.331152279  -16.523853266  1717.2490   1   7   0.0022   0.0013   0.0266   0.0005  -0.0015   0.0061  -2.00   17.3
2024/07/31 12:26:29.000   28.331152279  -16.523853266  1717.2500   1   7   0.0022   0.0013   0.0266   0.0005  -0.0015   0.0061  -1.00   24.6
2024/07/31 12:26:30.000   28.331152293  -16.523853293  1717.3365   1   6   0.0022   0.0012   0.0243   0.0005   0.0011   0.0059   0.00    3.2
2024/07/31 12:26:31.000   28.331152293  -16.523853294  1717.3379   1   6   0.0022   0.0012   0.0243   0.0005   0.0011   0.0059   1.00    5.0
2024/07/31 12:26:32.000   28.331152294  -16.523853294  1717.3395   1   6   0.0022   0.0012   0.0243   0.0005   0.0011   0.0059   2.00    6.7
2024/07/31 12:26:33.000   28.331152294  -16.523853295  1717.3409   1   6   0.0022   0.0012   0.0243   0.0005   0.0011   0.0059   3.00    8.4
2024/07/31 12:26:34.000   28.331152294  -16.523853295  1717.3420   1   6   0.0022   0.0012   0.0243   0.0005   0.0011   0.0059   4.00   10.1
2024/07/31 12:26:35.000   28.331152294  -16.523853295  1717.3430   1   6   0.0022   0.0012   0.0243   0.0005   0.0011   0.0059   5.00   11.7
2024/07/31 12:26:36.000   28.331152294  -16.523853296  1717.3438   1   6   0.0022   0.0012   0.0243   0.0005   0.0011   0.0059   6.00   13.4
2024/07/31 12:26:37.000   28.331152294  -16.523853296  1717.3445   1   6   0.0022   0.0012   0.0243   0.0005   0.0011   0.0059   7.00   15.1
2024/07/31 12:26:38.000   28.331152294  -16.523853296  1717.3451   1   6   0.0022   0.0012   0.0243   0.0005   0.0011   0.0059   8.00   16.8
2024/07/31 12:26:39.000   28.331152294  -16.523853296  1717.3456   1   6   0.0022   0.0012   0.0243   0.0005   0.0011   0.0059   9.00   18.6
2024/07/31 12:26:40.000   28.331152294  -16.523853296  1717.3460   1   6   0.0022   0.0012   0.0243   0.0005   0.0011   0.0059  10.00   20.3
2024/07/31 12:26:41.000   28.331152294  -16.523853296  1717.3464   1   6   0.0022   0.0012   0.0243   0.0005   0.0011   0.0059  11.00   22.1
2024/07/31 12:26:42.000   28.331152294  -16.523853297  1717.3468   1   6   0.0022   0.0012   0.0243   0.0005   0.0011   0.0059  12.00   23.9
2024/07/31 12:26:43.000   28.331152294  -16.523853297  1717.3471   1   6   0.0022   0.0012   0.0242   0.0005   0.0011   0.0059  13.00   25.8
2024/07/31 12:26:44.000   28.331152294  -16.523853297  1717.3473   1   6   0.0022   0.0012   0.0242   0.0005   0.0011   0.0059  14.00   27.6
2024/07/31 12:26:45.000   28.331152294  -16.523853297  1717.3476   1   6   0.0022   0.0012   0.0242   0.0005   0.0011   0.0059 -15.00   29.5
2024/07/31 12:26:46.000   28.331152294  -16.523853297  1717.3478   1   6   0.0022   0.0012   0.0242   0.0005   0.0011   0.0059 -14.00   31.4
2024/07/31 12:26:47.000   28.331152294  -16.523853297  1717.3481   1   6   0.0022   0.0012   0.0242   0.0005   0.0011   0.0059 -13.00   33.2
2024/07/31 12:26:48.000   28.331152294  -16.523853297  1717.3484   1   6   0.0022   0.0012   0.0242   0.0005   0.0011   0.0059 -12.00   35.0
2024/07/31 12:26:49.000   28.331152294  -16.523853297  1717.3487   1   6   0.0022   0.0012   0.0242   0.0005   0.0011   0.0059 -11.00   36.7
2024/07/31 12:26:50.000   28.331152295  -16.523853297  1717.3491   1   6   0.0022   0.0012   0.0242   0.0005   0.0011   0.0059 -10.00   38.4
2024/07/31 12:26:51.000   28.331152295  -16.523853297  1717.3495   1   6   0.0022   0.0012   0.0242   0.0005   0.0011   0.0059  -9.00   40.0
2024/07/31 12:26:52.000   28.331152295  -16.523853297  1717.3501   1   6   0.0022   0.0012   0.0242   0.0005   0.0011   0.0059  -8.00   41.6
2024/07/31 12:26:53.000   28.331152295  -16.523853297  1717.3507   1   6   0.0022   0.0012   0.0242   0.0005   0.0011   0.0059  -7.00   43.1
2024/07/31 12:26:54.000   28.331152295  -16.523853298  1717.3515   1   6   0.0022   0.0012   0.0242   0.0005   0.0011   0.0059  -6.00   44.7
2024/07/31 12:26:55.000   28.331152295  -16.523853298  1717.3526   1   6   0.0022   0.0012   0.0242   0.0005   0.0011   0.0059  -5.00   46.0
2024/07/31 12:26:56.000   28.331152295  -16.523853298  1717.3537   1   6   0.0022   0.0012   0.0241   0.0005   0.0011   0.0059  -4.00   47.1
2024/07/31 12:26:57.000   28.331152295  -16.523853298  1717.3551   1   6   0.0022   0.0012   0.0241   0.0005   0.0011   0.0059  -3.00   47.5
2024/07/31 12:26:58.000   28.331152295  -16.523853299  1717.3567   1   6   0.0022   0.0012   0.0241   0.0005   0.0011   0.0058  -2.00   47.8
2024/07/31 12:26:59.000   28.331152296  -16.523853299  1717.3586   1   6   0.0022   0.0012   0.0241   0.0005   0.0011   0.0058  -1.00   47.1
2024/07/31 12:27:00.000   28.331152296  -16.523853300  1717.3604   1   6   0.0022   0.0012   0.0241   0.0005   0.0011   0.0058   0.00   46.2
2024/07/31 12:27:01.000   28.331152296  -16.523853300  1717.3616   1   6   0.0022   0.0012   0.0241   0.0005   0.0011   0.0058   1.00   46.4
2024/07/31 12:27:02.000   28.331152296  -16.523853301  1717.3631   1   6   0.0022   0.0012   0.0241   0.0005   0.0011   0.0058   2.00   46.5
2024/07/31 12:27:03.000   28.331152296  -16.523853301  1717.3645   1   6   0.0022   0.0012   0.0241   0.0005   0.0011   0.0058   3.00   46.9
2024/07/31 12:27:04.000   28.331152297  -16.523853301  1717.3658   1   6   0.0022   0.0012   0.0241   0.0005   0.0011   0.0058   4.00   47.8
2024/07/31 12:27:05.000   28.331152297  -16.523853302  1717.3668   1   6   0.0022   0.0012   0.0241   0.0005   0.0011   0.0058   5.00   48.6
2024/07/31 12:27:06.000   28.331152297  -16.523853302  1717.3675   1   6   0.0022   0.0012   0.0241   0.0005   0.0011   0.0058   6.00   49.4
2024/07/31 12:27:07.000   28.331152297  -16.523853302  1717.3682   1   6   0.0022   0.0012   0.0241   0.0005   0.0011   0.0058   7.00   50.5
2024/07/31 12:27:08.000   28.331152297  -16.523853303  1717.3687   1   6   0.0022   0.0012   0.0241   0.0005   0.0011   0.0058   8.00   51.7
2024/07/31 12:27:09.000   28.331152297  -16.523853303  1717.3692   1   6   0.0022   0.0012   0.0241   0.0005   0.0011   0.0058   9.00   53.0
2024/07/31 12:27:10.000   28.331152297  -16.523853303  1717.3696   1   6   0.0022   0.0012   0.0241   0.0005   0.0011   0.0058  10.00   54.3
2024/07/31 12:27:11.000   28.331152297  -16.523853303  1717.3700   1   6   0.0022   0.0012   0.0241   0.0005   0.0011   0.0058  11.00   55.6
2024/07/31 12:27:12.000   28.331152297  -16.523853303  1717.3703   1   6   0.0022   0.0012   0.0241   0.0005   0.0011   0.0058  12.00   56.9
2024/07/31 12:27:13.000   28.331152297  -16.523853303  1717.3705   1   6   0.0022   0.0012   0.0241   0.0005   0.0011   0.0058  13.00   58.2
2024/07/31 12:27:14.000   28.331152297  -16.523853303  1717.3707   1   6   0.0022   0.0012   0.0241   0.0005   0.0011   0.0058  14.00   59.6
2024/07/31 12:27:15.000   28.331152297  -16.523853303  1717.3709   1   6   0.0022   0.0012   0.0241   0.0005   0.0011   0.0058 -15.00   60.9
2024/07/31 12:27:16.000   28.331152297  -16.523853303  1717.3711   1   6   0.0022   0.0012   0.0241   0.0005   0.0011   0.0058 -14.00   62.3
2024/07/31 12:27:17.000   28.331152297  -16.523853303  1717.3713   1   6   0.0022   0.0012   0.0240   0.0005   0.0011   0.0058 -13.00   63.7
2024/07/31 12:27:18.000   28.331152297  -16.523853303  1717.3716   1   6   0.0022   0.0012   0.0240   0.0005   0.0011   0.0058 -12.00   65.2
2024/07/31 12:27:19.000   28.331152297  -16.523853304  1717.3719   1   6   0.0022   0.0012   0.0240   0.0005   0.0011   0.0058 -11.00   66.7
2024/07/31 12:27:20.000   28.331152297  -16.523853304  1717.3723   1   6   0.0022   0.0012   0.0240   0.0005   0.0011   0.0058 -10.00   68.1
2024/07/31 12:27:21.000   28.331152298  -16.523853304  1717.3727   1   6   0.0022   0.0012   0.0240   0.0005   0.0011   0.0058  -9.00   69.4
2024/07/31 12:27:22.000   28.331152298  -16.523853304  1717.3733   1   6   0.0022   0.0012   0.0240   0.0005   0.0011   0.0058  -8.00   70.8
2024/07/31 12:27:23.000   28.331152298  -16.523853304  1717.3740   1   6   0.0022   0.0012   0.0240   0.0005   0.0011   0.0058  -7.00   72.0
2024/07/31 12:27:24.000   28.331152298  -16.523853305  1717.3747   1   6   0.0022   0.0012   0.0240   0.0005   0.0011   0.0058  -6.00   73.1
2024/07/31 12:27:25.000   28.331152298  -16.523853305  1717.3756   1   6   0.0022   0.0012   0.0240   0.0005   0.0011   0.0058  -5.00   73.9
2024/07/31 12:27:26.000   28.331152298  -16.523853305  1717.3767   1   6   0.0022   0.0012   0.0240   0.0005   0.0011   0.0058  -4.00   74.4
2024/07/31 12:27:27.000   28.331152298  -16.523853306  1717.3780   1   6   0.0022   0.0012   0.0240   0.0005   0.0011   0.0058  -3.00   75.0
2024/07/31 12:27:28.000   28.331152299  -16.523853306  1717.3794   1   6   0.0022   0.0012   0.0240   0.0005   0.0011   0.0058  -2.00   75.2
2024/07/31 12:27:29.000   28.331152299  -16.523853307  1717.3810   1   6   0.0022   0.0012   0.0239   0.0005   0.0011   0.0058  -1.00   75.1
2024/07/31 12:27:30.000   28.331152299  -16.523853307  1717.3827   1   6   0.0022   0.0012   0.0239   0.0005   0.0011   0.0058   0.00   75.9
2024/07/31 12:27:31.000   28.331152299  -16.523853308  1717.3844   1   6   0.0022   0.0012   0.0239   0.0005   0.0011   0.0058   1.00   75.5
2024/07/31 12:27:32.000   28.331152299  -16.523853309  1717.3856   1   6   0.0022   0.0012   0.0239   0.0005   0.0011   0.0058   2.00   74.4
2024/07/31 12:27:33.000   28.331152300  -16.523853309  1717.3867   1   6   0.0022   0.0012   0.0239   0.0005   0.0011   0.0058   3.00   73.7
2024/07/31 12:27:34.000   28.331152298  -16.523853309  1717.3873   1   7   0.0022   0.0012   0.0239   0.0005   0.0011   0.0058   4.00   73.5
2024/07/31 12:27:35.000   28.331152298  -16.523853310  1717.3880   1   7   0.0022   0.0012   0.0239   0.0005   0.0011   0.0058   5.00   73.3
2024/07/31 12:27:36.000   28.331152298  -16.523853310  1717.3885   1   7   0.0022   0.0012   0.0239   0.0005   0.0011   0.0058   6.00   73.7
2024/07/31 12:27:37.000   28.331152298  -16.523853310  1717.3890   1   7   0.0022   0.0012   0.0239   0.0005   0.0011   0.0058   7.00   74.2
2024/07/31 12:27:38.000   28.331152295  -16.523853310  1717.3897   1   7   0.0022   0.0012   0.0239   0.0005   0.0011   0.0058   8.00   74.6
2024/07/31 12:27:39.000   28.331152295  -16.523853310  1717.3901   1   7   0.0022   0.0012   0.0239   0.0005   0.0011   0.0058   9.00   75.3
2024/07/31 12:27:40.000   28.331152296  -16.523853310  1717.3903   1   7   0.0022   0.0012   0.0239   0.0005   0.0011   0.0058  10.00   76.1
2024/07/31 12:27:41.000   28.331152296  -16.523853310  1717.3905   1   7   0.0022   0.0012   0.0239   0.0005   0.0011   0.0058  11.00   77.0
2024/07/31 12:27:42.000   28.331152296  -16.523853310  1717.3907   1   7   0.0022   0.0012   0.0239   0.0005   0.0011   0.0058  12.00   77.9
2024/07/31 12:27:43.000   28.331152296  -16.523853310  1717.3908   1   7   0.0022   0.0012   0.0239   0.0005   0.0011   0.0058  13.00   78.8
2024/07/31 12:27:44.000   28.331152296  -16.523853310  1717.3909   1   7   0.0022   0.0012   0.0239   0.0005   0.0011   0.0058  14.00   79.8
2024/07/31 12:27:45.000   28.331152296  -16.523853310  1717.3910   1   7   0.0022   0.0012   0.0239   0.0005   0.0011   0.0058 -15.00   81.0
2024/07/31 12:27:46.000   28.331152296  -16.523853311  1717.3912   1   7   0.0022   0.0012   0.0239   0.0005   0.0011   0.0058 -14.00   82.3
2024/07/31 12:27:47.000   28.331152296  -16.523853311  1717.3913   1   7   0.0022   0.0012   0.0239   0.0005   0.0011   0.0058 -13.00   83.7
2024/07/31 12:27:48.000   28.331152297  -16.523853311  1717.3915   1   7   0.0022   0.0012   0.0239   0.0005   0.0011   0.0058 -12.00   85.1
2024/07/31 12:27:49.001   28.331152297  -16.523853311  1717.3918   1   7   0.0022   0.0012   0.0239   0.0005   0.0011   0.0058 -11.00   86.5
2024/07/31 12:27:50.000   28.331152297  -16.523853311  1717.3921   1   7   0.0022   0.0012   0.0239   0.0005   0.0011   0.0058 -10.00   88.1
2024/07/31 12:27:51.000   28.331152297  -16.523853311  1717.3925   1   7   0.0022   0.0012   0.0239   0.0005   0.0011   0.0058  -9.00   89.3
2024/07/31 12:27:52.000   28.331152298  -16.523853312  1717.3929   1   7   0.0022   0.0012   0.0239   0.0005   0.0011   0.0058  -8.00   90.5
2024/07/31 12:27:53.000   28.331152298  -16.523853312  1717.3934   1   7   0.0022   0.0012   0.0239   0.0005   0.0011   0.0058  -7.00   91.8
2024/07/31 12:27:54.000   28.331152297  -16.523853311  1717.3933   1   7   0.0022   0.0012   0.0239   0.0005   0.0011   0.0058  -6.00    3.8
2024/07/31 12:27:55.000   28.331152297  -16.523853312  1717.3942   1   7   0.0022   0.0012   0.0238   0.0005   0.0011   0.0058  -5.00    8.6
2024/07/31 12:27:56.000   28.331152298  -16.523853312  1717.3952   1   7   0.0022   0.0012   0.0238   0.0005   0.0011   0.0058  -4.00   13.6
2024/07/31 12:27:57.000   28.331152299  -16.523853313  1717.3963   1   7   0.0022   0.0012   0.0238   0.0005   0.0011   0.0058  -3.00   18.9
2024/07/31 12:27:58.000   28.331152300  -16.523853314  1717.3979   1   7   0.0022   0.0012   0.0238   0.0005   0.0011   0.0057  -2.00   24.4
2024/07/31 12:27:59.000   28.331152301  -16.523853314  1717.3994   1   7   0.0022   0.0012   0.0238   0.0005   0.0011   0.0057  -1.00   30.3
2024/07/31 12:28:00.000   28.331152295  -16.523853314  1717.4013   1   7   0.0021   0.0012   0.0238   0.0005   0.0011   0.0057   0.00   36.6
2024/07/31 12:28:01.000   28.331152294  -16.523853314  1717.4022   1   7   0.0022   0.0012   0.0238   0.0005   0.0011   0.0058   1.00   14.0
2024/07/31 12:28:02.000   28.331152295  -16.523853314  1717.4038   1   7   0.0022   0.0012   0.0238   0.0005   0.0011   0.0058   2.00   26.8
2024/07/31 12:28:03.000   28.331152296  -16.523853315  1717.4049   1   7   0.0022   0.0012   0.0238   0.0005   0.0011   0.0058   3.00   35.5
2024/07/31 12:28:04.000   28.331152297  -16.523853315  1717.4060   1   7   0.0022   0.0012   0.0238   0.0005   0.0011   0.0058   4.00   43.7
2024/07/31 12:28:05.000   28.331152298  -16.523853316  1717.4069   1   7   0.0022   0.0012   0.0238   0.0005   0.0011   0.0058   5.00   50.7
2024/07/31 12:28:06.000   28.331152299  -16.523853316  1717.4077   1   7   0.0022   0.0012   0.0238   0.0005   0.0011   0.0058   6.00   57.2
2024/07/31 12:28:07.000   28.331152299  -16.523853317  1717.4082   1   7   0.0022   0.0012   0.0238   0.0005   0.0011   0.0058   7.00   63.4
2024/07/31 12:28:08.000   28.331152300  -16.523853317  1717.4088   1   7   0.0022   0.0012   0.0238   0.0005   0.0011   0.0058   8.00   69.2
2024/07/31 12:28:09.000   28.331152300  -16.523853317  1717.4092   1   7   0.0022   0.0012   0.0238   0.0005   0.0011   0.0057   9.00   74.8
2024/07/31 12:28:10.000   28.331152300  -16.523853317  1717.4095   1   7   0.0022   0.0012   0.0238   0.0005   0.0011   0.0057  10.00   80.3
2024/07/31 12:28:11.000   28.331152301  -16.523853317  1717.4097   1   7   0.0022   0.0012   0.0238   0.0005   0.0011   0.0057  11.00   85.7
2024/07/31 12:28:12.000   28.331152301  -16.523853317  1717.4099   1   7   0.0022   0.0012   0.0238   0.0005   0.0011   0.0057  12.00   90.8
2024/07/31 12:28:13.000   28.331152301  -16.523853317  1717.4101   1   7   0.0022   0.0012   0.0238   0.0005   0.0011   0.0057  13.00   95.9
2024/07/31 12:28:14.000   28.331152301  -16.523853318  1717.4103   1   7   0.0022   0.0012   0.0238   0.0005   0.0011   0.0057  14.00  100.8
2024/07/31 12:28:15.000   28.331152301  -16.523853318  1717.4104   1   7   0.0021   0.0012   0.0238   0.0005   0.0011   0.0057 -15.00  105.6
2024/07/31 12:28:16.000   28.331152302  -16.523853318  1717.4105   1   7   0.0021   0.0012   0.0238   0.0005   0.0011   0.0057 -14.00  110.5
2024/07/31 12:28:17.000   28.331152302  -16.523853318  1717.4107   1   7   0.0021   0.0012   0.0238   0.0005   0.0011   0.0057 -13.00  115.5
2024/07/31 12:28:18.000   28.331152302  -16.523853318  1717.4109   1   7   0.0021   0.0012   0.0238   0.0005   0.0011   0.0057 -12.00  120.4
2024/07/31 12:28:19.000   28.331152302  -16.523853318  1717.4111   1   7   0.0021   0.0012   0.0238   0.0005   0.0011   0.0057 -11.00  125.4
2024/07/31 12:28:20.000   28.331152303  -16.523853318  1717.4114   1   7   0.0021   0.0012   0.0238   0.0005   0.0011   0.0057 -10.00  130.7
2024/07/31 12:28:21.000   28.331152303  -16.523853318  1717.4118   1   7   0.0021   0.0011   0.0238   0.0005   0.0011   0.0057  -9.00  133.2
2024/07/31 12:28:22.000   28.331152303  -16.523853318  1717.4122   1   7   0.0021   0.0011   0.0238   0.0005   0.0011   0.0057  -8.00  134.6
2024/07/31 12:28:23.000   28.331152304  -16.523853319  1717.4127   1   7   0.0021   0.0011   0.0238   0.0005   0.0011   0.0057  -7.00  135.5
2024/07/31 12:28:24.000   28.331152304  -16.523853319  1717.4134   1   7   0.0021   0.0011   0.0238   0.0005   0.0011   0.0057  -6.00  137.1
2024/07/31 12:28:25.000   28.331152305  -16.523853319  1717.4143   1   7   0.0021   0.0011   0.0237   0.0005   0.0011   0.0057  -5.00  137.6
2024/07/31 12:28:26.000   28.331152306  -16.523853320  1717.4154   1   7   0.0021   0.0011   0.0237   0.0005   0.0011   0.0057  -4.00  138.6
2024/07/31 12:28:27.000   28.331152307  -16.523853320  1717.4167   1   7   0.0021   0.0011   0.0237   0.0005   0.0011   0.0057  -3.00  139.2
2024/07/31 12:28:28.000   28.331152308  -16.523853321  1717.4184   1   7   0.0021   0.0011   0.0237   0.0005   0.0011   0.0057  -2.00  139.0
2024/07/31 12:28:29.000   28.331152309  -16.523853322  1717.4197   1   7   0.0021   0.0011   0.0237   0.0005   0.0011   0.0057  -1.00  139.8
2024/07/31 12:28:30.000   28.331152307  -16.523853322  1717.4218   1   7   0.0021   0.0011   0.0237   0.0005   0.0011   0.0057   0.00  138.8
2024/07/31 12:28:31.000   28.331152305  -16.523853321  1717.4224   1   7   0.0021   0.0011   0.0237   0.0005   0.0011   0.0057   1.00   17.1
2024/07/31 12:28:32.000   28.331152306  -16.523853322  1717.4237   1   7   0.0021   0.0011   0.0237   0.0005   0.0011   0.0057   2.00   32.7
2024/07/31 12:28:33.000   28.331152307  -16.523853323  1717.4250   1   7   0.0021   0.0011   0.0237   0.0005   0.0011   0.0057   3.00   45.2
2024/07/31 12:28:34.000   28.331152309  -16.523853324  1717.4263   1   7   0.0021   0.0011   0.0237   0.0005   0.0011   0.0057   4.00   55.9
2024/07/31 12:28:35.000   28.331152310  -16.523853324  1717.4271   1   7   0.0021   0.0011   0.0237   0.0005   0.0011   0.0057   5.00   62.3
2024/07/31 12:28:36.000   28.331152310  -16.523853325  1717.4279   1   7   0.0021   0.0011   0.0237   0.0005   0.0011   0.0057   6.00   70.2
2024/07/31 12:28:37.000   28.331152311  -16.523853325  1717.4287   1   7   0.0021   0.0011   0.0237   0.0005   0.0011   0.0057   7.00   76.1
2024/07/31 12:28:38.000   28.331152312  -16.523853326  1717.4292   1   7   0.0021   0.0011   0.0237   0.0005   0.0011   0.0057   8.00   81.2
2024/07/31 12:28:39.000   28.331152312  -16.523853326  1717.4296   1   7   0.0021   0.0011   0.0237   0.0005   0.0011   0.0057   9.00   86.5
2024/07/31 12:28:40.000   28.331152312  -16.523853326  1717.4301   1   7   0.0021   0.0011   0.0237   0.0005   0.0011   0.0057  10.00   91.2
2024/07/31 12:28:41.000   28.331152313  -16.523853326  1717.4304   1   7   0.0021   0.0011   0.0237   0.0005   0.0011   0.0057  11.00   95.6
2024/07/31 12:28:42.000   28.331152313  -16.523853326  1717.4306   1   7   0.0021   0.0011   0.0237   0.0005   0.0011   0.0057  12.00   99.6
2024/07/31 12:28:43.000   28.331152313  -16.523853326  1717.4309   1   7   0.0021   0.0011   0.0237   0.0005   0.0011   0.0057  13.00  103.6
2024/07/31 12:28:44.000   28.331152314  -16.523853327  1717.4311   1   7   0.0021   0.0011   0.0237   0.0005   0.0011   0.0057  14.00  106.9
2024/07/31 12:28:45.000   28.331152314  -16.523853327  1717.4312   1   7   0.0021   0.0011   0.0237   0.0005   0.0011   0.0057 -15.00  110.4
2024/07/31 12:28:46.000   28.331152314  -16.523853327  1717.4314   1   7   0.0021   0.0011   0.0237   0.0005   0.0011   0.0057 -14.00  113.9
2024/07/31 12:28:47.000   28.331152314  -16.523853327  1717.4316   1   7   0.0021   0.0011   0.0237   0.0005   0.0011   0.0057 -13.00  117.3
2024/07/31 12:28:48.000   28.331152315  -16.523853327  1717.4319   1   7   0.0021   0.0011   0.0237   0.0005   0.0011   0.0057 -12.00  120.4
2024/07/31 12:28:49.000   28.331152315  -16.523853327  1717.4321   1   7   0.0021   0.0011   0.0237   0.0005   0.0011   0.0057 -11.00  123.5
2024/07/31 12:28:50.000   28.331152315  -16.523853327  1717.4325   1   7   0.0021   0.0011   0.0237   0.0005   0.0011   0.0057 -10.00  126.7
2024/07/31 12:28:51.000   28.331152316  -16.523853327  1717.4328   1   7   0.0021   0.0011   0.0237   0.0005   0.0011   0.0057  -9.00  128.6
2024/07/31 12:28:52.000   28.331152316  -16.523853328  1717.4333   1   7   0.0021   0.0011   0.0237   0.0005   0.0011   0.0057  -8.00  126.4
2024/07/31 12:28:53.000   28.331152317  -16.523853328  1717.4339   1   7   0.0021   0.0011   0.0237   0.0005   0.0011   0.0057  -7.00  123.8
2024/07/31 12:28:54.000   28.331152317  -16.523853328  1717.4346   1   7   0.0021   0.0011   0.0237   0.0005   0.0011   0.0057  -6.00  119.5
2024/07/31 12:28:55.000   28.331152318  -16.523853329  1717.4355   1   7   0.0021   0.0011   0.0237   0.0005   0.0011   0.0057  -5.00  114.2
2024/07/31 12:28:56.000   28.331152319  -16.523853329  1717.4365   1   7   0.0021   0.0011   0.0237   0.0005   0.0011   0.0057  -4.00  110.2
2024/07/31 12:28:57.000   28.331152320  -16.523853330  1717.4378   1   7   0.0021   0.0011   0.0237   0.0005   0.0011   0.0057  -3.00  106.0
2024/07/31 12:28:58.000   28.331152321  -16.523853331  1717.4393   1   7   0.0021   0.0011   0.0237   0.0005   0.0011   0.0057  -2.00  100.9
2024/07/31 12:28:59.000   28.331152322  -16.523853331  1717.4407   1   7   0.0021   0.0011   0.0237   0.0005   0.0011   0.0057  -1.00   95.8
2024/07/31 12:29:00.000   28.331152323  -16.523853332  1717.4425   1   7   0.0021   0.0011   0.0236   0.0005   0.0011   0.0057   0.00   91.4
2024/07/31 12:29:01.000   28.331152315  -16.523853330  1717.4417   1   7   0.0021   0.0011   0.0237   0.0005   0.0011   0.0057   1.00   15.1
2024/07/31 12:29:02.000   28.331152316  -16.523853331  1717.4431   1   7   0.0021   0.0011   0.0237   0.0005   0.0011   0.0057   2.00   26.3
2024/07/31 12:29:03.000   28.331152317  -16.523853331  1717.4442   1   7   0.0021   0.0011   0.0237   0.0005   0.0011   0.0057   3.00   35.2
2024/07/31 12:29:04.000   28.331152318  -16.523853332  1717.4450   1   7   0.0021   0.0011   0.0237   0.0005   0.0011   0.0057   4.00   41.5
2024/07/31 12:29:05.000   28.331152319  -16.523853333  1717.4457   1   7   0.0021   0.0011   0.0237   0.0005   0.0011   0.0057   5.00   46.5
2024/07/31 12:29:06.000   28.331152320  -16.523853333  1717.4464   1   7   0.0021   0.0011   0.0237   0.0005   0.0011   0.0057   6.00   50.1
2024/07/31 12:29:07.000   28.331152320  -16.523853334  1717.4470   1   7   0.0021   0.0011   0.0237   0.0005   0.0011   0.0057   7.00   53.8
2024/07/31 12:29:08.000   28.331152321  -16.523853334  1717.4476   1   7   0.0021   0.0011   0.0237   0.0005   0.0011   0.0057   8.00   56.7
2024/07/31 12:29:09.000   28.331152322  -16.523853334  1717.4480   1   7   0.0021   0.0011   0.0237   0.0005   0.0011   0.0057   9.00   59.0
2024/07/31 12:29:10.000   28.331152322  -16.523853335  1717.4483   1   7   0.0021   0.0011   0.0237   0.0005   0.0011   0.0057  10.00   61.4
2024/07/31 12:29:11.000   28.331152322  -16.523853335  1717.4485   1   7   0.0021   0.0011   0.0237   0.0005   0.0011   0.0057  11.00   64.0
2024/07/31 12:29:12.000   28.331152323  -16.523853335  1717.4488   1   7   0.0021   0.0011   0.0237   0.0005   0.0011   0.0057  12.00   65.7
2024/07/31 12:29:13.000   28.331152323  -16.523853335  1717.4489   1   7   0.0021   0.0011   0.0237   0.0005   0.0011   0.0057  13.00   67.4
2024/07/31 12:29:14.000   28.331152323  -16.523853335  1717.4491   1   7   0.0021   0.0011   0.0237   0.0005   0.0011   0.0057  14.00   69.5
2024/07/31 12:29:15.000   28.331152323  -16.523853335  1717.4492   1   7   0.0021   0.0011   0.0237   0.0005   0.0011   0.0057 -15.00   71.6
2024/07/31 12:29:16.000   28.331152323  -16.523853335  1717.4493   1   7   0.0021   0.0011   0.0237   0.0005   0.0011   0.0057 -14.00   73.7
2024/07/31 12:29:17.000   28.331152324  -16.523853336  1717.4495   1   7   0.0021   0.0011   0.0237   0.0005   0.0011   0.0057 -13.00   75.6
2024/07/31 12:29:18.000   28.331152324  -16.523853336  1717.4497   1   7   0.0021   0.0011   0.0237   0.0005   0.0011   0.0057 -12.00   76.9
2024/07/31 12:29:19.000   28.331152324  -16.523853336  1717.4499   1   7   0.0021   0.0011   0.0237   0.0005   0.0011   0.0057 -11.00   78.5
2024/07/31 12:29:20.000   28.331152324  -16.523853336  1717.4502   1   7   0.0021   0.0011   0.0237   0.0005   0.0011   0.0057 -10.00   79.6
2024/07/31 12:29:21.000   28.331152325  -16.523853336  1717.4506   1   7   0.0021   0.0011   0.0237   0.0005   0.0011   0.0057  -9.00   81.3
2024/07/31 12:29:22.000   28.331152325  -16.523853336  1717.4511   1   7   0.0021   0.0011   0.0237   0.0005   0.0011   0.0057  -8.00   82.4
2024/07/31 12:29:23.000   28.331152320  -16.523853335  1717.4503   1   7   0.0021   0.0011   0.0237   0.0005   0.0010   0.0057  -7.00    6.2
2024/07/31 12:29:24.000   28.331152321  -16.523853335  1717.4510   1   7   0.0021   0.0011   0.0237   0.0005   0.0010   0.0057  -6.00   13.2
2024/07/31 12:29:25.000   28.331152322  -16.523853335  1717.4519   1   7   0.0021   0.0011   0.0236   0.0005   0.0010   0.0057  -5.00   19.7
2024/07/31 12:29:26.000   28.331152323  -16.523853336  1717.4530   1   7   0.0021   0.0011   0.0236   0.0005   0.0010   0.0057  -4.00   24.9
2024/07/31 12:29:27.000   28.331152324  -16.523853337  1717.4541   1   7   0.0021   0.0011   0.0236   0.0005   0.0010   0.0057  -3.00   29.1
2024/07/31 12:29:28.000   28.331152325  -16.523853338  1717.4555   1   7   0.0021   0.0011   0.0236   0.0005   0.0010   0.0057  -2.00   31.0
2024/07/31 12:29:29.000   28.331152327  -16.523853338  1717.4569   1   7   0.0021   0.0011   0.0236   0.0005   0.0010   0.0057  -1.00   33.1
2024/07/31 12:29:30.000   28.331152329  -16.523853340  1717.4581   1   7   0.0021   0.0011   0.0236   0.0005   0.0010   0.0057   0.00   35.1
2024/07/31 12:29:31.000   28.331152324  -16.523853338  1717.4582   1   7   0.0021   0.0011   0.0236   0.0005   0.0010   0.0057   1.00    7.8
2024/07/31 12:29:32.000   28.331152325  -16.523853339  1717.4594   1   7   0.0021   0.0011   0.0236   0.0005   0.0010   0.0057   2.00   15.1
2024/07/31 12:29:33.000   28.331152326  -16.523853341  1717.4606   1   7   0.0021   0.0011   0.0236   0.0005   0.0010   0.0057   3.00   19.4
2024/07/31 12:29:34.000   28.331152327  -16.523853341  1717.4614   1   7   0.0021   0.0011   0.0236   0.0005   0.0010   0.0057   4.00   23.0
2024/07/31 12:29:35.000   28.331152328  -16.523853342  1717.4622   1   7   0.0021   0.0011   0.0236   0.0005   0.0010   0.0057   5.00   25.7
2024/07/31 12:29:36.000   28.331152328  -16.523853343  1717.4628   1   7   0.0021   0.0011   0.0236   0.0005   0.0010   0.0057   6.00   28.2
2024/07/31 12:29:37.000   28.331152329  -16.523853343  1717.4633   1   7   0.0021   0.0011   0.0236   0.0005   0.0010   0.0057   7.00   29.4
2024/07/31 12:29:38.000   28.331152329  -16.523853344  1717.4637   1   7   0.0021   0.0011   0.0236   0.0005   0.0010   0.0057   8.00   31.0
2024/07/31 12:29:39.000   28.331152330  -16.523853344  1717.4640   1   7   0.0021   0.0011   0.0236   0.0005   0.0010   0.0057   9.00   32.7
2024/07/31 12:29:40.000   28.331152330  -16.523853344  1717.4643   1   7   0.0021   0.0011   0.0236   0.0005   0.0010   0.0057  10.00   34.0
2024/07/31 12:29:41.000   28.331152330  -16.523853345  1717.4644   1   7   0.0021   0.0011   0.0236   0.0005   0.0010   0.0057  11.00   35.5
2024/07/31 12:29:42.000   28.331152331  -16.523853345  1717.4646   1   7   0.0021   0.0011   0.0236   0.0005   0.0010   0.0057  12.00   36.9
2024/07/31 12:29:43.000   28.331152331  -16.523853345  1717.4647   1   7   0.0021   0.0011   0.0236   0.0005   0.0010   0.0057  13.00   38.3
2024/07/31 12:29:44.000   28.331152331  -16.523853345  1717.4648   1   7   0.0021   0.0011   0.0236   0.0005   0.0010   0.0057  14.00   39.7
2024/07/31 12:29:45.000   28.331152331  -16.523853345  1717.4648   1   7   0.0021   0.0011   0.0236   0.0005   0.0010   0.0057 -15.00   40.9
2024/07/31 12:29:46.000   28.331152331  -16.523853345  1717.4648   1   7   0.0021   0.0011   0.0236   0.0005   0.0010   0.0057 -14.00   42.2
2024/07/31 12:29:47.000   28.331152331  -16.523853345  1717.4649   1   7   0.0021   0.0011   0.0236   0.0005   0.0010   0.0057 -13.00   43.7
2024/07/31 12:29:48.000   28.331152332  -16.523853346  1717.4651   1   7   0.0021   0.0011   0.0236   0.0005   0.0010   0.0057 -12.00   45.1
2024/07/31 12:29:49.000   28.331152332  -16.523853346  1717.4652   1   7   0.0021   0.0011   0.0236   0.0005   0.0010   0.0057 -11.00   46.2
2024/07/31 12:29:50.000   28.331152332  -16.523853346  1717.4654   1   7   0.0021   0.0011   0.0236   0.0005   0.0010   0.0057 -10.00   47.7
2024/07/31 12:29:51.000   28.331152333  -16.523853346  1717.4655   1   7   0.0021   0.0011   0.0236   0.0005   0.0010   0.0057  -9.00   48.7
2024/07/31 12:29:52.000   28.331152333  -16.523853347  1717.4658   1   7   0.0021   0.0011   0.0236   0.0005   0.0010   0.0057  -8.00   50.4
2024/07/31 12:29:53.000   28.331152334  -16.523853347  1717.4665   1   7   0.0021   0.0011   0.0236   0.0005   0.0010   0.0057  -7.00   52.3
2024/07/31 12:29:54.000   28.331152334  -16.523853347  1717.4671   1   7   0.0021   0.0011   0.0236   0.0005   0.0010   0.0057  -6.00   54.3
2024/07/31 12:29:55.000   28.331152326  -16.523853344  1717.4664   1   6   0.0021   0.0011   0.0236   0.0005   0.0010   0.0057  -5.00  107.0
2024/07/31 12:29:56.000   28.331152326  -16.523853345  1717.4671   1   6   0.0021   0.0011   0.0236   0.0005   0.0010   0.0057  -4.00  107.4
2024/07/31 12:29:57.000   28.331152326  -16.523853345  1717.4681   1   6   0.0021   0.0011   0.0236   0.0005   0.0010   0.0057  -3.00  107.6
2024/07/31 12:29:58.000   28.331152326  -16.523853345  1717.4692   1   6   0.0021   0.0011   0.0236   0.0005   0.0010   0.0057  -2.00  107.7
2024/07/31 12:29:59.000   28.331152326  -16.523853346  1717.4704   1   6   0.0021   0.0011   0.0236   0.0005   0.0010   0.0057  -1.00  107.9
2024/07/31 12:30:00.000   28.331152327  -16.523853346  1717.4718   1   6   0.0021   0.0011   0.0236   0.0005   0.0010   0.0057   0.00  108.1
2024/07/31 12:30:01.000   28.331152327  -16.523853347  1717.4729   1   6   0.0021   0.0011   0.0236   0.0005   0.0010   0.0057   1.00  108.5
2024/07/31 12:30:02.000   28.331152328  -16.523853348  1717.4739   1   6   0.0021   0.0011   0.0236   0.0005   0.0010   0.0057   2.00  109.4
2024/07/31 12:30:03.000   28.331152328  -16.523853349  1717.4750   1   6   0.0021   0.0011   0.0236   0.0005   0.0010   0.0057   3.00  109.8
2024/07/31 12:30:04.000   28.331152328  -16.523853349  1717.4758   1   6   0.0021   0.0011   0.0236   0.0005   0.0010   0.0057   4.00  110.5
2024/07/31 12:30:05.000   28.331152329  -16.523853350  1717.4766   1   6   0.0021   0.0011   0.0236   0.0005   0.0010   0.0057   5.00  111.2
2024/07/31 12:30:06.000   28.331152329  -16.523853350  1717.4773   1   6   0.0021   0.0011   0.0236   0.0005   0.0010   0.0057   6.00  111.9
2024/07/31 12:30:07.000   28.331152329  -16.523853351  1717.4779   1   6   0.0021   0.0011   0.0236   0.0005   0.0010   0.0057   7.00  112.7
