% program   : RTKPOST-EX 2.5.0
% inp file  : C:\Users\SallyHenry\Desktop\Sally Internship\GNSS gravi\DATA\Survey Rover Obs\CAMI8.24o
% inp file  : C:\Users\SallyHenry\Desktop\Sally Internship\GNSS gravi\DATA\BaseStations\IZAN\IZAN00ESP_R_20242130000_01D_30S_MO.rnx
% inp file  : C:\Users\SallyHenry\Desktop\Sally Internship\GNSS gravi\DATA\BaseStations\IZAN\IZAN00ESP_R_20242130000_01D_MN.rnx
% inp file  : C:\Users\SallyHenry\Desktop\Sally Internship\GNSS gravi\DATA\aux_files\Survey\IGS0OPSFIN_20242130000_01D_15M_ORB.SP3
% inp file  : C:\Users\SallyHenry\Desktop\Sally Internship\GNSS gravi\DATA\aux_files\Survey\IGS0OPSFIN_20242130000_01D_30S_CLK.CLK
% obs start : 2024/07/31 15:18:58.0 GPST (week2325 314338.0s)
% obs end   : 2024/07/31 15:33:58.0 GPST (week2325 315238.0s)
% pos mode  : Static
% freqs     : L1+L2/E5b
% solution  : Combined-No Phase Reset
% elev mask : 15.0 deg
% dynamics  : on
% tidecorr  : solid
% ionos opt : Estimate TEC
% tropo opt : Estimate ZTD+Grad
% ephemeris : Precise
% navi sys  : GPS GLONASS Galileo QZSS BDS
% amb res   : Fix and Hold
% amb glo   : Fix and Hold
% amb bds   : on
% val thres : 3.0
% antenna1  :                       ( 0.0000  0.0000  1.8000)
% antenna2  :                       ( 0.0000  0.0000  0.0000)
% ref pos   :  28.308069410  -16.499677180  2417.4044
%
% (lat/lon/height=WGS84/ellipsoidal,Q=1:fix,2:float,3:sbas,4:dgps,5:single,6:ppp,ns=# of satellites)
%  GPST                  latitude(deg) longitude(deg)  height(m)   Q  ns   sdn(m)   sde(m)   sdu(m)  sdne(m)  sdeu(m)  sdun(m) age(s)  ratio
2024/07/31 15:18:58.000   28.287328245  -16.512746908  2233.0917   1   8   0.0017   0.0014   0.0115   0.0010   0.0025   0.0036  -2.00   23.3
2024/07/31 15:18:59.000   28.287328245  -16.512746908  2233.0914   1   8   0.0017   0.0014   0.0115   0.0010   0.0025   0.0036  -1.00   23.2
2024/07/31 15:19:00.000   28.287328245  -16.512746908  2233.0911   1   8   0.0017   0.0014   0.0115   0.0010   0.0025   0.0036   0.00   23.1
2024/07/31 15:19:01.000   28.287328245  -16.512746908  2233.0908   1   8   0.0017   0.0014   0.0115   0.0010   0.0025   0.0036   1.00   22.9
2024/07/31 15:19:02.000   28.287328245  -16.512746908  2233.0904   1   8   0.0017   0.0014   0.0115   0.0010   0.0026   0.0036   2.00   22.8
2024/07/31 15:19:03.000   28.287328245  -16.512746908  2233.0900   1   8   0.0017   0.0014   0.0116   0.0010   0.0026   0.0036   3.00   22.6
2024/07/31 15:19:04.000   28.287328245  -16.512746908  2233.0897   1   8   0.0017   0.0014   0.0116   0.0010   0.0026   0.0036   4.00   22.4
2024/07/31 15:19:05.000   28.287328245  -16.512746908  2233.0895   1   8   0.0017   0.0014   0.0116   0.0010   0.0026   0.0036   5.00   22.1
2024/07/31 15:19:06.000   28.287328245  -16.512746908  2233.0893   1   8   0.0017   0.0014   0.0116   0.0010   0.0026   0.0037   6.00   21.8
2024/07/31 15:19:07.000   28.287328245  -16.512746908  2233.0891   1   8   0.0017   0.0014   0.0116   0.0010   0.0026   0.0037   7.00   21.5
2024/07/31 15:19:08.000   28.287328245  -16.512746908  2233.0890   1   8   0.0017   0.0014   0.0116   0.0010   0.0026   0.0037   8.00   21.2
2024/07/31 15:19:09.000   28.287328245  -16.512746908  2233.0890   1   8   0.0017   0.0014   0.0116   0.0010   0.0026   0.0037   9.00   20.9
2024/07/31 15:19:10.000   28.287328245  -16.512746908  2233.0889   1   8   0.0017   0.0014   0.0116   0.0010   0.0026   0.0037  10.00   20.5
2024/07/31 15:19:11.000   28.287328245  -16.512746908  2233.0889   1   8   0.0017   0.0014   0.0116   0.0010   0.0026   0.0037  11.00   20.2
2024/07/31 15:19:12.000   28.287328245  -16.512746908  2233.0889   1   8   0.0017   0.0014   0.0116   0.0010   0.0026   0.0037  12.00   19.8
2024/07/31 15:19:13.000   28.287328245  -16.512746908  2233.0888   1   8   0.0017   0.0014   0.0116   0.0010   0.0026   0.0037  13.00   19.5
2024/07/31 15:19:14.000   28.287328245  -16.512746908  2233.0888   1   8   0.0017   0.0014   0.0116   0.0010   0.0026   0.0037  14.00   19.1
2024/07/31 15:19:15.000   28.287328245  -16.512746908  2233.0888   1   8   0.0017   0.0014   0.0116   0.0010   0.0026   0.0037  15.00   18.8
2024/07/31 15:19:16.000   28.287328245  -16.512746908  2233.0888   1   8   0.0017   0.0014   0.0116   0.0010   0.0026   0.0037 -14.00   18.4
2024/07/31 15:19:17.000   28.287328245  -16.512746908  2233.0888   1   8   0.0017   0.0014   0.0116   0.0010   0.0026   0.0037 -13.00   18.1
2024/07/31 15:19:18.000   28.287328245  -16.512746908  2233.0888   1   8   0.0017   0.0014   0.0116   0.0010   0.0026   0.0037 -12.00   17.7
2024/07/31 15:19:19.000   28.287328246  -16.512746908  2233.0888   1   8   0.0017   0.0014   0.0116   0.0010   0.0026   0.0037 -11.00   17.3
2024/07/31 15:19:20.000   28.287328246  -16.512746908  2233.0887   1   8   0.0017   0.0014   0.0116   0.0010   0.0026   0.0037 -10.00   16.8
2024/07/31 15:19:21.000   28.287328246  -16.512746908  2233.0887   1   8   0.0017   0.0014   0.0116   0.0010   0.0026   0.0037  -9.00   16.1
2024/07/31 15:19:22.000   28.287328246  -16.512746908  2233.0886   1   8   0.0017   0.0014   0.0116   0.0010   0.0026   0.0037  -8.00   15.1
2024/07/31 15:19:23.000   28.287328246  -16.512746908  2233.0886   1   8   0.0017   0.0014   0.0116   0.0010   0.0026   0.0037  -7.00   14.0
2024/07/31 15:19:24.000   28.287328246  -16.512746909  2233.0885   1   8   0.0017   0.0014   0.0116   0.0010   0.0026   0.0037  -6.00   12.8
2024/07/31 15:19:25.000   28.287328246  -16.512746909  2233.0883   1   8   0.0017   0.0014   0.0116   0.0010   0.0026   0.0037  -5.00   11.4
2024/07/31 15:19:26.000   28.287328246  -16.512746909  2233.0881   1   8   0.0017   0.0014   0.0116   0.0010   0.0026   0.0037  -4.00    9.8
2024/07/31 15:19:27.000   28.287328245  -16.512746909  2233.0878   1   8   0.0017   0.0014   0.0116   0.0010   0.0026   0.0037  -3.00    7.9
2024/07/31 15:19:28.000   28.287328245  -16.512746909  2233.0876   1   8   0.0017   0.0014   0.0116   0.0010   0.0026   0.0037  -2.00    5.9
2024/07/31 15:19:29.000   28.287328245  -16.512746909  2233.0873   1   8   0.0017   0.0014   0.0116   0.0010   0.0026   0.0037  -1.00    3.6
2024/07/31 15:19:30.000   28.287328246  -16.512746908  2233.0876   1   8   0.0017   0.0014   0.0116   0.0010   0.0026   0.0036   0.00   24.9
2024/07/31 15:19:31.000   28.287328246  -16.512746908  2233.0872   1   8   0.0017   0.0014   0.0116   0.0010   0.0026   0.0036   1.00   24.7
2024/07/31 15:19:32.000   28.287328246  -16.512746909  2233.0866   1   8   0.0017   0.0014   0.0116   0.0010   0.0026   0.0037   2.00   24.4
2024/07/31 15:19:33.000   28.287328246  -16.512746909  2233.0863   1   8   0.0017   0.0014   0.0116   0.0010   0.0026   0.0037   3.00   24.1
2024/07/31 15:19:34.000   28.287328246  -16.512746909  2233.0860   1   8   0.0017   0.0014   0.0116   0.0010   0.0026   0.0037   4.00   23.8
2024/07/31 15:19:35.000   28.287328245  -16.512746909  2233.0857   1   8   0.0017   0.0014   0.0117   0.0010   0.0026   0.0037   5.00   23.4
2024/07/31 15:19:36.000   28.287328245  -16.512746909  2233.0854   1   8   0.0017   0.0014   0.0117   0.0010   0.0026   0.0037   6.00   23.1
2024/07/31 15:19:37.000   28.287328245  -16.512746910  2233.0853   1   8   0.0017   0.0014   0.0117   0.0010   0.0026   0.0037   7.00   22.7
2024/07/31 15:19:38.000   28.287328245  -16.512746910  2233.0851   1   8   0.0017   0.0014   0.0117   0.0010   0.0026   0.0037   8.00   22.3
2024/07/31 15:19:39.000   28.287328245  -16.512746910  2233.0850   1   8   0.0017   0.0014   0.0117   0.0010   0.0026   0.0037   9.00   21.9
2024/07/31 15:19:40.000   28.287328245  -16.512746910  2233.0849   1   8   0.0017   0.0014   0.0117   0.0010   0.0026   0.0037  10.00   21.6
2024/07/31 15:19:41.000   28.287328245  -16.512746910  2233.0849   1   8   0.0017   0.0014   0.0117   0.0010   0.0026   0.0037  11.00   21.2
2024/07/31 15:19:42.000   28.287328245  -16.512746910  2233.0848   1   8   0.0017   0.0014   0.0117   0.0010   0.0026   0.0037  12.00   20.8
2024/07/31 15:19:43.000   28.287328245  -16.512746910  2233.0848   1   8   0.0017   0.0014   0.0117   0.0010   0.0026   0.0037  13.00   20.4
2024/07/31 15:19:44.000   28.287328245  -16.512746910  2233.0847   1   8   0.0017   0.0014   0.0117   0.0010   0.0026   0.0037  14.00   20.1
2024/07/31 15:19:45.000   28.287328245  -16.512746910  2233.0847   1   8   0.0017   0.0014   0.0117   0.0010   0.0026   0.0037  15.00   19.7
2024/07/31 15:19:46.000   28.287328245  -16.512746911  2233.0847   1   8   0.0017   0.0014   0.0117   0.0010   0.0026   0.0037 -14.00   19.3
2024/07/31 15:19:47.000   28.287328245  -16.512746911  2233.0847   1   8   0.0017   0.0014   0.0117   0.0010   0.0026   0.0037 -13.00   18.8
2024/07/31 15:19:48.000   28.287328245  -16.512746911  2233.0846   1   8   0.0017   0.0014   0.0117   0.0010   0.0026   0.0037 -12.00   18.3
2024/07/31 15:19:49.000   28.287328245  -16.512746911  2233.0845   1   8   0.0017   0.0014   0.0117   0.0010   0.0026   0.0037 -11.00   17.7
2024/07/31 15:19:50.000   28.287328245  -16.512746911  2233.0845   1   8   0.0017   0.0014   0.0117   0.0010   0.0026   0.0037 -10.00   17.1
2024/07/31 15:19:51.000   28.287328245  -16.512746911  2233.0844   1   8   0.0017   0.0014   0.0117   0.0010   0.0026   0.0037  -9.00   16.4
2024/07/31 15:19:52.000   28.287328245  -16.512746911  2233.0843   1   8   0.0017   0.0014   0.0117   0.0010   0.0026   0.0037  -8.00   15.7
2024/07/31 15:19:53.000   28.287328245  -16.512746911  2233.0841   1   8   0.0017   0.0014   0.0117   0.0010   0.0026   0.0037  -7.00   14.8
2024/07/31 15:19:54.000   28.287328245  -16.512746911  2233.0840   1   8   0.0017   0.0014   0.0117   0.0010   0.0026   0.0037  -6.00   13.7
2024/07/31 15:19:55.000   28.287328245  -16.512746912  2233.0838   1   8   0.0017   0.0014   0.0117   0.0010   0.0026   0.0037  -5.00   12.2
2024/07/31 15:19:56.000   28.287328245  -16.512746912  2233.0836   1   8   0.0017   0.0014   0.0117   0.0010   0.0026   0.0037  -4.00   10.5
2024/07/31 15:19:57.000   28.287328245  -16.512746912  2233.0833   1   8   0.0017   0.0014   0.0117   0.0010   0.0026   0.0037  -3.00    8.6
2024/07/31 15:19:58.000   28.287328247  -16.512746908  2233.0904   1   8   0.0016   0.0014   0.0112   0.0010   0.0025   0.0035  -2.00    3.0
2024/07/31 15:19:59.000   28.287328244  -16.512746912  2233.0824   1   8   0.0017   0.0014   0.0117   0.0010   0.0026   0.0037  -1.00    3.8
2024/07/31 15:20:00.000   28.287328248  -16.512746908  2233.0837   1   8   0.0016   0.0013   0.0113   0.0009   0.0025   0.0035   0.00    9.0
2024/07/31 15:20:01.000   28.287328248  -16.512746908  2233.0832   1   8   0.0016   0.0014   0.0113   0.0009   0.0025   0.0035   1.00    5.0
2024/07/31 15:20:02.000   28.287328248  -16.512746909  2233.0827   1   8   0.0016   0.0014   0.0113   0.0009   0.0025   0.0035   2.00    5.8
2024/07/31 15:20:03.000   28.287328247  -16.512746909  2233.0823   1   8   0.0016   0.0014   0.0113   0.0009   0.0025   0.0035   3.00    6.3
2024/07/31 15:20:04.000   28.287328247  -16.512746909  2233.0820   1   8   0.0016   0.0014   0.0113   0.0009   0.0025   0.0035   4.00    6.5
2024/07/31 15:20:05.000   28.287328247  -16.512746909  2233.0817   1   8   0.0016   0.0014   0.0114   0.0009   0.0025   0.0035   5.00    6.8
2024/07/31 15:20:06.000   28.287328247  -16.512746909  2233.0815   1   8   0.0016   0.0014   0.0114   0.0009   0.0025   0.0035   6.00    7.0
2024/07/31 15:20:07.000   28.287328247  -16.512746910  2233.0812   1   8   0.0016   0.0014   0.0114   0.0009   0.0025   0.0035   7.00    6.8
2024/07/31 15:20:08.000   28.287328247  -16.512746910  2233.0810   1   8   0.0016   0.0014   0.0114   0.0009   0.0025   0.0035   8.00    6.8
2024/07/31 15:20:09.000   28.287328247  -16.512746910  2233.0809   1   8   0.0016   0.0014   0.0114   0.0009   0.0025   0.0035   9.00    6.8
2024/07/31 15:20:10.000   28.287328247  -16.512746910  2233.0807   1   8   0.0016   0.0014   0.0114   0.0009   0.0025   0.0035  10.00    6.7
2024/07/31 15:20:11.000   28.287328247  -16.512746910  2233.0806   1   8   0.0016   0.0014   0.0114   0.0009   0.0025   0.0035  11.00    6.7
2024/07/31 15:20:12.000   28.287328247  -16.512746910  2233.0806   1   8   0.0016   0.0014   0.0113   0.0009   0.0025   0.0035  12.00    6.7
2024/07/31 15:20:13.000   28.287328246  -16.512746910  2233.0805   1   8   0.0016   0.0013   0.0113   0.0009   0.0025   0.0035  13.00    6.6
2024/07/31 15:20:14.000   28.287328246  -16.512746910  2233.0804   1   8   0.0016   0.0013   0.0113   0.0009   0.0025   0.0035  14.00    6.5
2024/07/31 15:20:15.000   28.287328246  -16.512746910  2233.0803   1   8   0.0016   0.0013   0.0113   0.0009   0.0025   0.0035 -15.00    6.5
2024/07/31 15:20:16.000   28.287328246  -16.512746910  2233.0807   1   8   0.0016   0.0013   0.0113   0.0009   0.0025   0.0035 -14.00    6.2
2024/07/31 15:20:17.000   28.287328246  -16.512746910  2233.0807   1   8   0.0016   0.0013   0.0113   0.0009   0.0025   0.0035 -13.00    6.2
2024/07/31 15:20:18.000   28.287328246  -16.512746910  2233.0806   1   8   0.0016   0.0013   0.0113   0.0009   0.0025   0.0035 -12.00    6.1
2024/07/31 15:20:19.000   28.287328246  -16.512746910  2233.0806   1   8   0.0016   0.0013   0.0113   0.0009   0.0025   0.0035 -11.00    6.2
2024/07/31 15:20:20.000   28.287328246  -16.512746910  2233.0805   1   8   0.0016   0.0013   0.0113   0.0009   0.0025   0.0035 -10.00   12.7
2024/07/31 15:20:21.000   28.287328246  -16.512746911  2233.0804   1   8   0.0016   0.0013   0.0113   0.0009   0.0025   0.0035  -9.00   18.1
2024/07/31 15:20:22.000   28.287328246  -16.512746910  2233.0881   1   8   0.0016   0.0013   0.0112   0.0009   0.0025   0.0035  -8.00    5.2
2024/07/31 15:20:23.000   28.287328246  -16.512746910  2233.0881   1   8   0.0016   0.0013   0.0112   0.0009   0.0025   0.0035  -7.00    6.3
2024/07/31 15:20:24.000   28.287328246  -16.512746910  2233.0880   1   8   0.0016   0.0013   0.0111   0.0009   0.0025   0.0035  -6.00    7.3
2024/07/31 15:20:25.000   28.287328246  -16.512746910  2233.0878   1   8   0.0016   0.0013   0.0111   0.0009   0.0025   0.0035  -5.00    8.3
2024/07/31 15:20:26.000   28.287328246  -16.512746911  2233.0876   1   8   0.0016   0.0013   0.0111   0.0009   0.0025   0.0035  -4.00    9.4
2024/07/31 15:20:27.000   28.287328246  -16.512746911  2233.0875   1   8   0.0016   0.0013   0.0111   0.0009   0.0025   0.0035  -3.00   10.3
2024/07/31 15:20:28.000   28.287328245  -16.512746911  2233.0871   1   8   0.0016   0.0013   0.0111   0.0009   0.0025   0.0035  -2.00   11.1
2024/07/31 15:20:29.000   28.287328245  -16.512746911  2233.0868   1   8   0.0016   0.0013   0.0111   0.0009   0.0025   0.0035  -1.00   11.9
2024/07/31 15:20:30.000   28.287328249  -16.512746907  2233.0900   1   8   0.0016   0.0013   0.0110   0.0009   0.0024   0.0034   0.00   12.7
2024/07/31 15:20:31.000   28.287328249  -16.512746907  2233.0897   1   8   0.0016   0.0013   0.0110   0.0009   0.0024   0.0034   1.00   13.5
2024/07/31 15:20:32.000   28.287328249  -16.512746907  2233.0894   1   8   0.0016   0.0013   0.0110   0.0009   0.0024   0.0034   2.00   14.5
2024/07/31 15:20:33.000   28.287328249  -16.512746908  2233.0891   1   8   0.0016   0.0013   0.0110   0.0009   0.0024   0.0034   3.00   15.5
2024/07/31 15:20:34.000   28.287328249  -16.512746908  2233.0889   1   8   0.0016   0.0013   0.0110   0.0009   0.0024   0.0034   4.00   16.5
2024/07/31 15:20:35.000   28.287328249  -16.512746908  2233.0887   1   8   0.0016   0.0013   0.0110   0.0009   0.0024   0.0034   5.00   17.4
2024/07/31 15:20:36.000   28.287328249  -16.512746908  2233.0885   1   8   0.0016   0.0013   0.0110   0.0009   0.0024   0.0034   6.00   18.4
2024/07/31 15:20:37.000   28.287328249  -16.512746908  2233.0884   1   8   0.0016   0.0013   0.0110   0.0009   0.0024   0.0034   7.00   19.4
2024/07/31 15:20:38.000   28.287328249  -16.512746908  2233.0882   1   8   0.0016   0.0013   0.0110   0.0009   0.0024   0.0034   8.00   20.4
2024/07/31 15:20:39.000   28.287328248  -16.512746908  2233.0881   1   8   0.0016   0.0013   0.0110   0.0009   0.0024   0.0034   9.00   21.5
2024/07/31 15:20:40.000   28.287328248  -16.512746908  2233.0880   1   8   0.0016   0.0013   0.0110   0.0009   0.0024   0.0034  10.00   22.5
2024/07/31 15:20:41.000   28.287328248  -16.512746908  2233.0879   1   8   0.0016   0.0013   0.0110   0.0009   0.0024   0.0034  11.00   23.4
2024/07/31 15:20:42.000   28.287328248  -16.512746909  2233.0878   1   8   0.0016   0.0013   0.0110   0.0009   0.0024   0.0034  12.00   24.4
2024/07/31 15:20:43.000   28.287328248  -16.512746909  2233.0878   1   8   0.0016   0.0013   0.0110   0.0009   0.0024   0.0034  13.00   25.4
2024/07/31 15:20:44.000   28.287328248  -16.512746909  2233.0877   1   8   0.0016   0.0013   0.0110   0.0009   0.0024   0.0034  14.00   26.4
2024/07/31 15:20:45.000   28.287328248  -16.512746909  2233.0877   1   8   0.0016   0.0013   0.0110   0.0009   0.0024   0.0034 -15.00   27.4
2024/07/31 15:20:46.000   28.287328248  -16.512746909  2233.0877   1   8   0.0016   0.0013   0.0109   0.0009   0.0024   0.0034 -14.00   28.4
2024/07/31 15:20:47.000   28.287328248  -16.512746909  2233.0876   1   8   0.0016   0.0013   0.0109   0.0009   0.0024   0.0034 -13.00   29.4
2024/07/31 15:20:48.000   28.287328248  -16.512746909  2233.0876   1   8   0.0016   0.0013   0.0109   0.0009   0.0024   0.0034 -12.00   30.4
2024/07/31 15:20:49.000   28.287328248  -16.512746909  2233.0875   1   8   0.0016   0.0013   0.0109   0.0009   0.0024   0.0034 -11.00   31.4
2024/07/31 15:20:50.000   28.287328248  -16.512746909  2233.0875   1   8   0.0016   0.0013   0.0109   0.0009   0.0024   0.0034 -10.00   32.5
2024/07/31 15:20:51.000   28.287328248  -16.512746909  2233.0875   1   8   0.0016   0.0013   0.0109   0.0009   0.0024   0.0034  -9.00   33.7
2024/07/31 15:20:52.000   28.287328248  -16.512746909  2233.0874   1   8   0.0016   0.0013   0.0109   0.0009   0.0024   0.0034  -8.00   34.7
2024/07/31 15:20:53.000   28.287328248  -16.512746909  2233.0874   1   8   0.0016   0.0013   0.0109   0.0009   0.0024   0.0034  -7.00   35.7
2024/07/31 15:20:54.000   28.287328248  -16.512746909  2233.0874   1   8   0.0016   0.0013   0.0109   0.0009   0.0024   0.0034  -6.00   36.7
2024/07/31 15:20:55.000   28.287328248  -16.512746909  2233.0874   1   8   0.0016   0.0013   0.0109   0.0009   0.0024   0.0034  -5.00   37.7
2024/07/31 15:20:56.000   28.287328248  -16.512746909  2233.0874   1   8   0.0016   0.0013   0.0109   0.0009   0.0024   0.0034  -4.00   38.6
2024/07/31 15:20:57.000   28.287328248  -16.512746909  2233.0873   1   8   0.0016   0.0013   0.0109   0.0009   0.0024   0.0034  -3.00   39.5
2024/07/31 15:20:58.000   28.287328248  -16.512746910  2233.0871   1   8   0.0016   0.0013   0.0109   0.0009   0.0024   0.0034  -2.00   40.3
2024/07/31 15:20:59.000   28.287328248  -16.512746910  2233.0870   1   8   0.0016   0.0013   0.0109   0.0009   0.0024   0.0034  -1.00   40.9
2024/07/31 15:21:00.000   28.287328248  -16.512746910  2233.0867   1   8   0.0016   0.0013   0.0109   0.0009   0.0024   0.0034   0.00   41.5
2024/07/31 15:21:01.000   28.287328249  -16.512746909  2233.0874   1   8   0.0016   0.0013   0.0110   0.0009   0.0024   0.0034   1.00   10.3
2024/07/31 15:21:02.000   28.287328249  -16.512746909  2233.0871   1   8   0.0016   0.0013   0.0110   0.0009   0.0024   0.0034   2.00   18.8
2024/07/31 15:21:03.000   28.287328248  -16.512746909  2233.0869   1   8   0.0016   0.0013   0.0110   0.0009   0.0024   0.0034   3.00   25.8
2024/07/31 15:21:04.000   28.287328248  -16.512746910  2233.0867   1   8   0.0016   0.0013   0.0110   0.0009   0.0024   0.0034   4.00   30.0
2024/07/31 15:21:05.000   28.287328248  -16.512746910  2233.0865   1   8   0.0016   0.0013   0.0110   0.0009   0.0024   0.0034   5.00   32.2
2024/07/31 15:21:06.000   28.287328248  -16.512746910  2233.0863   1   8   0.0016   0.0013   0.0110   0.0009   0.0024   0.0034   6.00   33.7
2024/07/31 15:21:07.000   28.287328248  -16.512746910  2233.0862   1   8   0.0016   0.0013   0.0110   0.0009   0.0024   0.0034   7.00   35.2
2024/07/31 15:21:08.000   28.287328248  -16.512746910  2233.0861   1   8   0.0016   0.0013   0.0110   0.0009   0.0024   0.0034   8.00   36.4
2024/07/31 15:21:09.000   28.287328248  -16.512746910  2233.0860   1   8   0.0016   0.0013   0.0110   0.0009   0.0024   0.0034   9.00   37.7
2024/07/31 15:21:10.000   28.287328248  -16.512746910  2233.0860   1   8   0.0016   0.0013   0.0110   0.0009   0.0024   0.0034  10.00   38.9
2024/07/31 15:21:11.000   28.287328248  -16.512746910  2233.0860   1   8   0.0016   0.0013   0.0110   0.0009   0.0024   0.0034  11.00   40.2
2024/07/31 15:21:12.000   28.287328248  -16.512746910  2233.0860   1   8   0.0016   0.0013   0.0110   0.0009   0.0024   0.0034  12.00   41.5
2024/07/31 15:21:13.000   28.287328248  -16.512746910  2233.0860   1   8   0.0016   0.0013   0.0110   0.0009   0.0024   0.0034  13.00   42.6
2024/07/31 15:21:14.000   28.287328248  -16.512746910  2233.0860   1   8   0.0016   0.0013   0.0110   0.0009   0.0024   0.0034  14.00   43.8
2024/07/31 15:21:15.000   28.287328248  -16.512746911  2233.0860   1   8   0.0016   0.0013   0.0110   0.0009   0.0024   0.0034 -15.00   45.0
2024/07/31 15:21:16.000   28.287328248  -16.512746911  2233.0860   1   8   0.0016   0.0013   0.0110   0.0009   0.0024   0.0034 -14.00   46.2
2024/07/31 15:21:17.000   28.287328248  -16.512746911  2233.0860   1   8   0.0016   0.0013   0.0110   0.0009   0.0024   0.0034 -13.00   47.4
2024/07/31 15:21:18.000   28.287328248  -16.512746911  2233.0860   1   8   0.0016   0.0013   0.0110   0.0009   0.0024   0.0034 -12.00   48.4
2024/07/31 15:21:19.000   28.287328248  -16.512746911  2233.0860   1   8   0.0016   0.0013   0.0110   0.0009   0.0024   0.0034 -11.00   49.7
2024/07/31 15:21:20.000   28.287328248  -16.512746911  2233.0860   1   8   0.0016   0.0013   0.0110   0.0009   0.0024   0.0034 -10.00   50.8
2024/07/31 15:21:21.000   28.287328248  -16.512746911  2233.0860   1   8   0.0016   0.0013   0.0110   0.0009   0.0024   0.0034  -9.00   51.8
2024/07/31 15:21:22.000   28.287328248  -16.512746911  2233.0860   1   8   0.0016   0.0013   0.0110   0.0009   0.0024   0.0034  -8.00   53.1
2024/07/31 15:21:23.000   28.287328248  -16.512746911  2233.0859   1   8   0.0016   0.0013   0.0110   0.0009   0.0024   0.0034  -7.00   54.2
2024/07/31 15:21:24.000   28.287328248  -16.512746911  2233.0859   1   8   0.0016   0.0013   0.0110   0.0009   0.0024   0.0034  -6.00   55.6
2024/07/31 15:21:25.000   28.287328248  -16.512746911  2233.0859   1   8   0.0016   0.0013   0.0110   0.0009   0.0024   0.0034  -5.00   56.9
2024/07/31 15:21:26.000   28.287328248  -16.512746911  2233.0858   1   8   0.0016   0.0013   0.0110   0.0009   0.0024   0.0034  -4.00   58.1
2024/07/31 15:21:27.000   28.287328248  -16.512746911  2233.0858   1   8   0.0016   0.0013   0.0110   0.0009   0.0024   0.0034  -3.00   59.1
2024/07/31 15:21:28.000   28.287328248  -16.512746911  2233.0858   1   8   0.0016   0.0013   0.0110   0.0009   0.0024   0.0034  -2.00   60.0
2024/07/31 15:21:29.000   28.287328247  -16.512746912  2233.0857   1   8   0.0016   0.0013   0.0110   0.0009   0.0024   0.0034  -1.00   60.7
2024/07/31 15:21:30.000   28.287328251  -16.512746908  2233.0885   1   8   0.0016   0.0013   0.0108   0.0009   0.0024   0.0034   0.00   61.7
2024/07/31 15:21:31.000   28.287328252  -16.512746907  2233.0889   1   8   0.0016   0.0013   0.0109   0.0009   0.0024   0.0034   1.00   11.6
2024/07/31 15:21:32.000   28.287328252  -16.512746908  2233.0887   1   8   0.0016   0.0013   0.0109   0.0009   0.0024   0.0034   2.00   20.7
2024/07/31 15:21:33.000   28.287328252  -16.512746908  2233.0886   1   8   0.0016   0.0013   0.0109   0.0009   0.0024   0.0034   3.00   28.1
2024/07/31 15:21:34.000   28.287328252  -16.512746908  2233.0884   1   8   0.0016   0.0013   0.0109   0.0009   0.0024   0.0034   4.00   34.5
2024/07/31 15:21:35.000   28.287328252  -16.512746908  2233.0883   1   8   0.0016   0.0013   0.0109   0.0009   0.0024   0.0034   5.00   40.3
2024/07/31 15:21:36.000   28.287328252  -16.512746908  2233.0882   1   8   0.0016   0.0013   0.0109   0.0009   0.0024   0.0034   6.00   43.8
2024/07/31 15:21:37.000   28.287328252  -16.512746908  2233.0882   1   8   0.0016   0.0013   0.0109   0.0009   0.0024   0.0034   7.00   45.5
2024/07/31 15:21:38.000   28.287328252  -16.512746908  2233.0881   1   8   0.0016   0.0013   0.0109   0.0009   0.0024   0.0034   8.00   47.1
2024/07/31 15:21:39.000   28.287328251  -16.512746908  2233.0881   1   8   0.0016   0.0013   0.0109   0.0009   0.0024   0.0034   9.00   48.6
2024/07/31 15:21:40.000   28.287328251  -16.512746908  2233.0880   1   8   0.0016   0.0013   0.0109   0.0009   0.0024   0.0034  10.00   50.0
2024/07/31 15:21:41.000   28.287328251  -16.512746909  2233.0880   1   8   0.0016   0.0013   0.0109   0.0009   0.0024   0.0034  11.00   51.4
2024/07/31 15:21:42.000   28.287328251  -16.512746909  2233.0879   1   8   0.0016   0.0013   0.0109   0.0009   0.0024   0.0034  12.00   52.7
2024/07/31 15:21:43.000   28.287328251  -16.512746909  2233.0879   1   8   0.0016   0.0013   0.0109   0.0009   0.0024   0.0034  13.00   53.9
2024/07/31 15:21:44.000   28.287328251  -16.512746909  2233.0879   1   8   0.0016   0.0013   0.0109   0.0009   0.0024   0.0034  14.00   55.0
2024/07/31 15:21:45.000   28.287328251  -16.512746909  2233.0878   1   8   0.0016   0.0013   0.0109   0.0009   0.0024   0.0034 -15.00   56.3
2024/07/31 15:21:46.000   28.287328251  -16.512746909  2233.0878   1   8   0.0016   0.0013   0.0109   0.0009   0.0024   0.0034 -14.00   57.5
2024/07/31 15:21:47.000   28.287328251  -16.512746909  2233.0877   1   8   0.0016   0.0013   0.0109   0.0009   0.0024   0.0034 -13.00   58.7
2024/07/31 15:21:48.000   28.287328251  -16.512746909  2233.0877   1   8   0.0016   0.0013   0.0109   0.0009   0.0024   0.0034 -12.00   60.0
2024/07/31 15:21:49.000   28.287328251  -16.512746909  2233.0877   1   8   0.0016   0.0013   0.0109   0.0009   0.0024   0.0034 -11.00   61.3
2024/07/31 15:21:50.000   28.287328251  -16.512746909  2233.0876   1   8   0.0016   0.0013   0.0109   0.0009   0.0024   0.0034 -10.00   62.6
2024/07/31 15:21:51.000   28.287328251  -16.512746909  2233.0876   1   8   0.0016   0.0013   0.0109   0.0009   0.0024   0.0034  -9.00   64.0
2024/07/31 15:21:52.000   28.287328251  -16.512746909  2233.0876   1   8   0.0016   0.0013   0.0109   0.0009   0.0024   0.0034  -8.00   65.1
2024/07/31 15:21:53.000   28.287328251  -16.512746909  2233.0875   1   8   0.0016   0.0013   0.0109   0.0009   0.0024   0.0034  -7.00   66.4
2024/07/31 15:21:54.000   28.287328251  -16.512746909  2233.0875   1   8   0.0016   0.0013   0.0109   0.0009   0.0024   0.0034  -6.00   67.6
2024/07/31 15:21:55.000   28.287328251  -16.512746909  2233.0875   1   8   0.0016   0.0013   0.0109   0.0009   0.0024   0.0034  -5.00   68.6
2024/07/31 15:21:56.000   28.287328251  -16.512746909  2233.0874   1   8   0.0016   0.0013   0.0109   0.0009   0.0024   0.0034  -4.00   69.7
2024/07/31 15:21:57.000   28.287328251  -16.512746909  2233.0874   1   8   0.0016   0.0013   0.0109   0.0009   0.0024   0.0034  -3.00   70.6
2024/07/31 15:21:58.000   28.287328251  -16.512746909  2233.0874   1   8   0.0016   0.0013   0.0109   0.0009   0.0024   0.0034  -2.00   71.3
2024/07/31 15:21:59.000   28.287328251  -16.512746910  2233.0872   1   8   0.0016   0.0013   0.0109   0.0009   0.0024   0.0034  -1.00   72.5
2024/07/31 15:22:00.000   28.287328255  -16.512746905  2233.0919   1   8   0.0015   0.0013   0.0107   0.0009   0.0024   0.0033   0.00   73.4
2024/07/31 15:22:01.000   28.287328254  -16.512746906  2233.0910   1   8   0.0015   0.0013   0.0108   0.0009   0.0024   0.0033   1.00   11.1
2024/07/31 15:22:02.000   28.287328254  -16.512746906  2233.0909   1   8   0.0015   0.0013   0.0108   0.0009   0.0024   0.0033   2.00   19.7
2024/07/31 15:22:03.000   28.287328254  -16.512746907  2233.0907   1   8   0.0015   0.0013   0.0108   0.0009   0.0024   0.0033   3.00   27.2
2024/07/31 15:22:04.000   28.287328254  -16.512746907  2233.0906   1   8   0.0015   0.0013   0.0108   0.0009   0.0024   0.0033   4.00   33.5
2024/07/31 15:22:05.000   28.287328254  -16.512746907  2233.0904   1   8   0.0015   0.0013   0.0108   0.0009   0.0024   0.0033   5.00   39.1
2024/07/31 15:22:06.000   28.287328254  -16.512746907  2233.0904   1   8   0.0015   0.0013   0.0108   0.0009   0.0024   0.0033   6.00   44.1
2024/07/31 15:22:07.000   28.287328254  -16.512746907  2233.0903   1   8   0.0015   0.0013   0.0108   0.0009   0.0024   0.0033   7.00   47.4
2024/07/31 15:22:08.000   28.287328254  -16.512746907  2233.0902   1   8   0.0015   0.0013   0.0108   0.0009   0.0024   0.0034   8.00   50.0
2024/07/31 15:22:09.000   28.287328254  -16.512746907  2233.0901   1   8   0.0015   0.0013   0.0108   0.0009   0.0024   0.0034   9.00   51.5
2024/07/31 15:22:10.000   28.287328254  -16.512746907  2233.0901   1   8   0.0015   0.0013   0.0108   0.0009   0.0024   0.0033  10.00   53.1
2024/07/31 15:22:11.000   28.287328253  -16.512746907  2233.0900   1   8   0.0015   0.0013   0.0108   0.0009   0.0024   0.0033  11.00   54.4
2024/07/31 15:22:12.000   28.287328253  -16.512746908  2233.0900   1   8   0.0015   0.0013   0.0108   0.0009   0.0024   0.0033  12.00   55.7
2024/07/31 15:22:13.000   28.287328253  -16.512746908  2233.0900   1   8   0.0015   0.0013   0.0108   0.0009   0.0024   0.0033  13.00   56.9
2024/07/31 15:22:14.000   28.287328253  -16.512746908  2233.0900   1   8   0.0015   0.0013   0.0108   0.0009   0.0024   0.0033  14.00   58.1
2024/07/31 15:22:15.000   28.287328253  -16.512746908  2233.0899   1   8   0.0015   0.0013   0.0108   0.0009   0.0024   0.0033 -15.00   59.3
2024/07/31 15:22:16.000   28.287328253  -16.512746908  2233.0900   1   8   0.0015   0.0013   0.0108   0.0009   0.0024   0.0033 -14.00   60.5
2024/07/31 15:22:17.000   28.287328254  -16.512746908  2233.0899   1   8   0.0015   0.0013   0.0108   0.0009   0.0024   0.0033 -13.00   61.6
2024/07/31 15:22:18.000   28.287328254  -16.512746908  2233.0900   1   8   0.0015   0.0013   0.0108   0.0009   0.0024   0.0033 -12.00   62.8
2024/07/31 15:22:19.000   28.287328254  -16.512746908  2233.0899   1   8   0.0015   0.0013   0.0108   0.0009   0.0024   0.0033 -11.00   63.9
2024/07/31 15:22:20.000   28.287328254  -16.512746908  2233.0900   1   8   0.0015   0.0013   0.0108   0.0009   0.0024   0.0033 -10.00   65.1
2024/07/31 15:22:21.000   28.287328254  -16.512746908  2233.0899   1   8   0.0015   0.0013   0.0108   0.0009   0.0024   0.0033  -9.00   66.3
2024/07/31 15:22:22.000   28.287328254  -16.512746908  2233.0899   1   8   0.0015   0.0013   0.0108   0.0009   0.0024   0.0033  -8.00   67.6
2024/07/31 15:22:23.000   28.287328254  -16.512746908  2233.0899   1   8   0.0015   0.0013   0.0108   0.0009   0.0024   0.0033  -7.00   68.7
2024/07/31 15:22:24.000   28.287328254  -16.512746908  2233.0898   1   8   0.0015   0.0013   0.0108   0.0009   0.0024   0.0033  -6.00   69.8
2024/07/31 15:22:25.000   28.287328254  -16.512746908  2233.0898   1   8   0.0015   0.0013   0.0107   0.0009   0.0024   0.0033  -5.00   70.7
2024/07/31 15:22:26.000   28.287328253  -16.512746908  2233.0896   1   8   0.0015   0.0013   0.0107   0.0009   0.0024   0.0033  -4.00   71.6
2024/07/31 15:22:27.000   28.287328254  -16.512746908  2233.0897   1   8   0.0015   0.0013   0.0107   0.0009   0.0024   0.0033  -3.00   72.8
2024/07/31 15:22:28.000   28.287328254  -16.512746908  2233.0897   1   8   0.0015   0.0013   0.0107   0.0009   0.0024   0.0033  -2.00   73.5
2024/07/31 15:22:29.000   28.287328254  -16.512746908  2233.0897   1   8   0.0015   0.0013   0.0108   0.0009   0.0024   0.0033  -1.00   74.5
2024/07/31 15:22:30.000   28.287328259  -16.512746903  2233.0959   1   8   0.0015   0.0012   0.0105   0.0009   0.0023   0.0033   0.00   74.3
2024/07/31 15:22:31.000   28.287328256  -16.512746905  2233.0943   1   8   0.0015   0.0013   0.0106   0.0009   0.0024   0.0033   1.00   10.4
2024/07/31 15:22:32.000   28.287328256  -16.512746905  2233.0940   1   8   0.0015   0.0013   0.0106   0.0009   0.0024   0.0033   2.00   18.4
2024/07/31 15:22:33.000   28.287328256  -16.512746905  2233.0939   1   8   0.0015   0.0013   0.0106   0.0009   0.0024   0.0033   3.00   25.1
2024/07/31 15:22:34.000   28.287328256  -16.512746905  2233.0937   1   8   0.0015   0.0013   0.0106   0.0009   0.0024   0.0033   4.00   30.6
2024/07/31 15:22:35.000   28.287328256  -16.512746906  2233.0935   1   8   0.0015   0.0013   0.0106   0.0009   0.0024   0.0033   5.00   35.6
2024/07/31 15:22:36.000   28.287328256  -16.512746906  2233.0934   1   8   0.0015   0.0013   0.0106   0.0009   0.0024   0.0033   6.00   39.7
2024/07/31 15:22:37.000   28.287328256  -16.512746906  2233.0933   1   8   0.0015   0.0013   0.0106   0.0009   0.0024   0.0033   7.00   43.1
2024/07/31 15:22:38.000   28.287328256  -16.512746906  2233.0933   1   8   0.0015   0.0013   0.0106   0.0009   0.0024   0.0033   8.00   46.1
2024/07/31 15:22:39.000   28.287328256  -16.512746906  2233.0932   1   8   0.0015   0.0013   0.0106   0.0009   0.0024   0.0033   9.00   48.2
2024/07/31 15:22:40.000   28.287328255  -16.512746906  2233.0932   1   8   0.0015   0.0013   0.0106   0.0009   0.0024   0.0033  10.00   49.3
2024/07/31 15:22:41.000   28.287328255  -16.512746906  2233.0931   1   8   0.0015   0.0013   0.0106   0.0009   0.0024   0.0033  11.00   50.3
2024/07/31 15:22:42.000   28.287328255  -16.512746906  2233.0931   1   8   0.0015   0.0013   0.0106   0.0009   0.0024   0.0033  12.00   51.2
2024/07/31 15:22:43.000   28.287328255  -16.512746906  2233.0931   1   8   0.0015   0.0013   0.0106   0.0009   0.0024   0.0033  13.00   52.1
2024/07/31 15:22:44.000   28.287328255  -16.512746906  2233.0931   1   8   0.0015   0.0013   0.0106   0.0009   0.0024   0.0033  14.00   53.2
2024/07/31 15:22:45.000   28.287328255  -16.512746906  2233.0930   1   8   0.0015   0.0013   0.0106   0.0009   0.0024   0.0033 -15.00   54.1
2024/07/31 15:22:46.000   28.287328255  -16.512746906  2233.0930   1   8   0.0015   0.0013   0.0106   0.0009   0.0024   0.0033 -14.00   55.0
2024/07/31 15:22:47.000   28.287328255  -16.512746906  2233.0930   1   8   0.0015   0.0013   0.0106   0.0009   0.0024   0.0033 -13.00   55.8
2024/07/31 15:22:48.000   28.287328255  -16.512746906  2233.0930   1   8   0.0015   0.0013   0.0106   0.0009   0.0024   0.0033 -12.00   56.7
2024/07/31 15:22:49.000   28.287328255  -16.512746906  2233.0930   1   8   0.0015   0.0013   0.0106   0.0009   0.0024   0.0033 -11.00   57.6
2024/07/31 15:22:50.000   28.287328255  -16.512746906  2233.0930   1   8   0.0015   0.0013   0.0106   0.0009   0.0024   0.0033 -10.00   58.4
2024/07/31 15:22:51.000   28.287328256  -16.512746906  2233.0930   1   8   0.0015   0.0013   0.0106   0.0009   0.0024   0.0033  -9.00   59.3
2024/07/31 15:22:52.000   28.287328256  -16.512746906  2233.0930   1   8   0.0015   0.0013   0.0106   0.0009   0.0024   0.0033  -8.00   60.0
2024/07/31 15:22:53.000   28.287328256  -16.512746906  2233.0930   1   8   0.0015   0.0013   0.0106   0.0009   0.0024   0.0033  -7.00   60.8
2024/07/31 15:22:54.000   28.287328256  -16.512746907  2233.0930   1   8   0.0015   0.0013   0.0106   0.0009   0.0024   0.0033  -6.00   61.6
2024/07/31 15:22:55.000   28.287328256  -16.512746907  2233.0929   1   8   0.0015   0.0013   0.0106   0.0009   0.0024   0.0033  -5.00   62.7
2024/07/31 15:22:56.000   28.287328256  -16.512746907  2233.0929   1   8   0.0015   0.0012   0.0106   0.0009   0.0024   0.0033  -4.00   63.2
2024/07/31 15:22:57.000   28.287328256  -16.512746907  2233.0929   1   8   0.0015   0.0012   0.0106   0.0009   0.0024   0.0033  -3.00   64.1
2024/07/31 15:22:58.000   28.287328256  -16.512746907  2233.0929   1   8   0.0015   0.0012   0.0106   0.0009   0.0024   0.0033  -2.00   64.6
2024/07/31 15:22:59.000   28.287328256  -16.512746907  2233.0929   1   8   0.0015   0.0012   0.0106   0.0009   0.0024   0.0033  -1.00   65.0
2024/07/31 15:23:00.000   28.287328259  -16.512746903  2233.0954   1   8   0.0015   0.0012   0.0104   0.0009   0.0023   0.0033   0.00   65.2
2024/07/31 15:23:01.000   28.287328256  -16.512746908  2233.0794   1   8   0.0015   0.0012   0.0108   0.0009   0.0024   0.0033   1.00   24.9
2024/07/31 15:23:02.000   28.287328256  -16.512746908  2233.0794   1   8   0.0015   0.0012   0.0108   0.0009   0.0024   0.0033   2.00   43.6
2024/07/31 15:23:03.000   28.287328256  -16.512746908  2233.0792   1   8   0.0015   0.0012   0.0108   0.0009   0.0024   0.0033   3.00   59.3
2024/07/31 15:23:04.000   28.287328256  -16.512746909  2233.0791   1   8   0.0015   0.0012   0.0108   0.0009   0.0024   0.0033   4.00   72.1
2024/07/31 15:23:05.000   28.287328256  -16.512746909  2233.0791   1   8   0.0015   0.0012   0.0108   0.0009   0.0024   0.0033   5.00   82.7
2024/07/31 15:23:06.000   28.287328256  -16.512746909  2233.0791   1   8   0.0015   0.0012   0.0108   0.0009   0.0024   0.0033   6.00   89.9
2024/07/31 15:23:07.000   28.287328256  -16.512746909  2233.0790   1   8   0.0015   0.0012   0.0108   0.0009   0.0024   0.0033   7.00   95.5
2024/07/31 15:23:08.000   28.287328256  -16.512746909  2233.0790   1   8   0.0015   0.0012   0.0108   0.0009   0.0024   0.0033   8.00  100.2
2024/07/31 15:23:09.000   28.287328256  -16.512746909  2233.0789   1   8   0.0015   0.0012   0.0108   0.0009   0.0024   0.0033   9.00  104.9
2024/07/31 15:23:10.000   28.287328256  -16.512746909  2233.0789   1   8   0.0015   0.0012   0.0108   0.0009   0.0024   0.0033  10.00  108.8
2024/07/31 15:23:11.000   28.287328256  -16.512746909  2233.0789   1   8   0.0015   0.0012   0.0108   0.0009   0.0024   0.0033  11.00  111.6
2024/07/31 15:23:12.000   28.287328256  -16.512746909  2233.0788   1   8   0.0015   0.0012   0.0108   0.0009   0.0024   0.0033  12.00  114.0
2024/07/31 15:23:13.000   28.287328256  -16.512746909  2233.0788   1   8   0.0015   0.0012   0.0108   0.0009   0.0024   0.0033  13.00  116.2
2024/07/31 15:23:14.000   28.287328256  -16.512746909  2233.0788   1   8   0.0015   0.0012   0.0108   0.0009   0.0024   0.0033  14.00  118.5
2024/07/31 15:23:15.000   28.287328256  -16.512746909  2233.0788   1   8   0.0015   0.0012   0.0108   0.0009   0.0024   0.0033 -15.00  120.6
2024/07/31 15:23:16.000   28.287328256  -16.512746909  2233.0788   1   8   0.0015   0.0012   0.0108   0.0009   0.0024   0.0033 -14.00  123.0
2024/07/31 15:23:17.000   28.287328256  -16.512746909  2233.0788   1   8   0.0015   0.0012   0.0108   0.0009   0.0024   0.0033 -13.00  125.5
2024/07/31 15:23:18.000   28.287328256  -16.512746909  2233.0789   1   8   0.0015   0.0012   0.0108   0.0009   0.0024   0.0033 -12.00  128.3
2024/07/31 15:23:19.000   28.287328256  -16.512746909  2233.0789   1   8   0.0015   0.0012   0.0108   0.0009   0.0024   0.0033 -11.00  131.1
2024/07/31 15:23:20.000   28.287328256  -16.512746909  2233.0789   1   8   0.0015   0.0012   0.0108   0.0009   0.0024   0.0033 -10.00  133.9
2024/07/31 15:23:21.000   28.287328256  -16.512746909  2233.0790   1   8   0.0015   0.0012   0.0108   0.0009   0.0024   0.0033  -9.00  136.5
2024/07/31 15:23:22.000   28.287328256  -16.512746909  2233.0790   1   8   0.0015   0.0012   0.0108   0.0009   0.0024   0.0033  -8.00  137.9
2024/07/31 15:23:23.000   28.287328256  -16.512746909  2233.0791   1   8   0.0015   0.0012   0.0108   0.0009   0.0024   0.0033  -7.00  139.8
2024/07/31 15:23:24.000   28.287328256  -16.512746909  2233.0791   1   8   0.0015   0.0012   0.0108   0.0009   0.0024   0.0033  -6.00  141.9
2024/07/31 15:23:25.000   28.287328256  -16.512746909  2233.0792   1   8   0.0015   0.0012   0.0107   0.0009   0.0024   0.0033  -5.00  144.1
2024/07/31 15:23:26.000   28.287328256  -16.512746909  2233.0791   1   8   0.0015   0.0012   0.0107   0.0009   0.0024   0.0033  -4.00  144.8
2024/07/31 15:23:27.000   28.287328256  -16.512746909  2233.0792   1   8   0.0015   0.0012   0.0107   0.0009   0.0024   0.0033  -3.00  145.2
2024/07/31 15:23:28.000   28.287328256  -16.512746909  2233.0792   1   8   0.0015   0.0012   0.0107   0.0009   0.0024   0.0033  -2.00  144.7
2024/07/31 15:23:29.000   28.287328256  -16.512746909  2233.0792   1   8   0.0015   0.0012   0.0107   0.0009   0.0024   0.0033  -1.00  144.5
2024/07/31 15:23:30.000   28.287328262  -16.512746904  2233.0836   1   8   0.0015   0.0012   0.0106   0.0009   0.0023   0.0032   0.00  145.2
2024/07/31 15:23:31.000   28.287328260  -16.512746906  2233.0806   1   8   0.0015   0.0012   0.0107   0.0009   0.0023   0.0032   1.00   22.7
2024/07/31 15:23:32.000   28.287328260  -16.512746906  2233.0807   1   8   0.0015   0.0012   0.0107   0.0009   0.0023   0.0033   2.00   38.8
2024/07/31 15:23:33.000   28.287328260  -16.512746906  2233.0808   1   8   0.0015   0.0012   0.0107   0.0009   0.0023   0.0033   3.00   53.5
2024/07/31 15:23:34.000   28.287328260  -16.512746906  2233.0808   1   8   0.0015   0.0012   0.0107   0.0009   0.0023   0.0033   4.00   64.6
2024/07/31 15:23:35.000   28.287328260  -16.512746906  2233.0808   1   8   0.0015   0.0012   0.0107   0.0009   0.0024   0.0033   5.00   73.3
2024/07/31 15:23:36.000   28.287328260  -16.512746906  2233.0808   1   8   0.0015   0.0012   0.0107   0.0009   0.0024   0.0033   6.00   80.2
2024/07/31 15:23:37.000   28.287328260  -16.512746906  2233.0808   1   8   0.0015   0.0012   0.0107   0.0009   0.0024   0.0033   7.00   85.9
2024/07/31 15:23:38.000   28.287328260  -16.512746906  2233.0808   1   8   0.0015   0.0012   0.0107   0.0009   0.0024   0.0033   8.00   90.0
2024/07/31 15:23:39.000   28.287328260  -16.512746906  2233.0808   1   8   0.0015   0.0012   0.0107   0.0009   0.0024   0.0033   9.00   92.8
2024/07/31 15:23:40.000   28.287328260  -16.512746906  2233.0808   1   8   0.0015   0.0012   0.0107   0.0009   0.0024   0.0033  10.00   94.7
2024/07/31 15:23:41.000   28.287328260  -16.512746906  2233.0808   1   8   0.0015   0.0012   0.0107   0.0009   0.0024   0.0033  11.00   96.6
2024/07/31 15:23:42.000   28.287328260  -16.512746906  2233.0809   1   8   0.0015   0.0012   0.0107   0.0009   0.0024   0.0033  12.00   98.1
2024/07/31 15:23:43.000   28.287328260  -16.512746906  2233.0809   1   8   0.0015   0.0012   0.0107   0.0009   0.0024   0.0033  13.00   99.8
2024/07/31 15:23:44.000   28.287328260  -16.512746906  2233.0809   1   8   0.0015   0.0012   0.0107   0.0009   0.0024   0.0033  14.00  101.3
2024/07/31 15:23:45.000   28.287328260  -16.512746906  2233.0809   1   8   0.0015   0.0012   0.0107   0.0009   0.0024   0.0033 -15.00  102.4
2024/07/31 15:23:46.000   28.287328260  -16.512746906  2233.0809   1   8   0.0015   0.0012   0.0107   0.0009   0.0024   0.0033 -14.00  103.0
2024/07/31 15:23:47.000   28.287328260  -16.512746906  2233.0809   1   8   0.0015   0.0012   0.0107   0.0009   0.0024   0.0033 -13.00  104.1
2024/07/31 15:23:48.000   28.287328260  -16.512746906  2233.0809   1   8   0.0015   0.0012   0.0107   0.0009   0.0024   0.0033 -12.00  105.1
2024/07/31 15:23:49.000   28.287328260  -16.512746906  2233.0809   1   8   0.0015   0.0012   0.0107   0.0009   0.0024   0.0033 -11.00  105.7
2024/07/31 15:23:50.000   28.287328260  -16.512746906  2233.0810   1   8   0.0015   0.0012   0.0107   0.0009   0.0024   0.0033 -10.00  106.1
2024/07/31 15:23:51.000   28.287328261  -16.512746906  2233.0811   1   8   0.0015   0.0012   0.0107   0.0009   0.0024   0.0033  -9.00  106.4
2024/07/31 15:23:52.000   28.287328261  -16.512746906  2233.0812   1   8   0.0015   0.0012   0.0107   0.0009   0.0024   0.0033  -8.00  106.3
2024/07/31 15:23:53.000   28.287328261  -16.512746906  2233.0813   1   8   0.0015   0.0012   0.0107   0.0009   0.0024   0.0032  -7.00  106.5
2024/07/31 15:23:54.000   28.287328261  -16.512746906  2233.0814   1   8   0.0015   0.0012   0.0107   0.0009   0.0024   0.0032  -6.00  106.7
2024/07/31 15:23:55.000   28.287328261  -16.512746906  2233.0816   1   8   0.0015   0.0012   0.0107   0.0009   0.0024   0.0032  -5.00  106.3
2024/07/31 15:23:56.000   28.287328261  -16.512746906  2233.0817   1   8   0.0015   0.0012   0.0107   0.0009   0.0024   0.0032  -4.00  106.0
2024/07/31 15:23:57.000   28.287328261  -16.512746906  2233.0818   1   8   0.0015   0.0012   0.0107   0.0009   0.0024   0.0032  -3.00  105.6
2024/07/31 15:23:58.000   28.287328262  -16.512746906  2233.0819   1   8   0.0015   0.0012   0.0107   0.0009   0.0024   0.0032  -2.00  105.8
2024/07/31 15:23:59.000   28.287328262  -16.512746906  2233.0820   1   8   0.0015   0.0012   0.0107   0.0009   0.0024   0.0032  -1.00  106.2
2024/07/31 15:24:00.000   28.287328264  -16.512746904  2233.0855   1   8   0.0015   0.0012   0.0105   0.0009   0.0023   0.0032   0.00  106.9
2024/07/31 15:24:01.000   28.287328259  -16.512746908  2233.0817   1   8   0.0015   0.0012   0.0106   0.0009   0.0023   0.0032   1.00   18.4
2024/07/31 15:24:02.000   28.287328259  -16.512746908  2233.0818   1   8   0.0015   0.0012   0.0106   0.0009   0.0023   0.0032   2.00   32.2
2024/07/31 15:24:03.000   28.287328259  -16.512746908  2233.0819   1   8   0.0015   0.0012   0.0106   0.0009   0.0023   0.0032   3.00   45.0
2024/07/31 15:24:04.000   28.287328259  -16.512746908  2233.0820   1   8   0.0015   0.0012   0.0106   0.0009   0.0023   0.0032   4.00   55.6
2024/07/31 15:24:05.000   28.287328259  -16.512746908  2233.0820   1   8   0.0015   0.0012   0.0106   0.0009   0.0023   0.0032   5.00   64.8
2024/07/31 15:24:06.000   28.287328259  -16.512746908  2233.0820   1   8   0.0015   0.0012   0.0106   0.0009   0.0023   0.0032   6.00   72.1
2024/07/31 15:24:07.000   28.287328259  -16.512746908  2233.0820   1   8   0.0015   0.0012   0.0106   0.0009   0.0023   0.0032   7.00   77.5
2024/07/31 15:24:08.000   28.287328260  -16.512746908  2233.0819   1   8   0.0015   0.0012   0.0106   0.0009   0.0023   0.0032   8.00   82.4
2024/07/31 15:24:09.000   28.287328260  -16.512746908  2233.0819   1   8   0.0015   0.0012   0.0106   0.0009   0.0023   0.0032   9.00   86.7
2024/07/31 15:24:10.000   28.287328259  -16.512746908  2233.0819   1   8   0.0015   0.0012   0.0106   0.0009   0.0023   0.0032  10.00   90.5
2024/07/31 15:24:11.000   28.287328259  -16.512746908  2233.0818   1   8   0.0015   0.0012   0.0106   0.0009   0.0023   0.0032  11.00   93.9
2024/07/31 15:24:12.000   28.287328259  -16.512746908  2233.0817   1   8   0.0015   0.0012   0.0106   0.0009   0.0023   0.0032  12.00   96.8
2024/07/31 15:24:13.000   28.287328259  -16.512746908  2233.0817   1   8   0.0015   0.0012   0.0106   0.0009   0.0023   0.0032  13.00   99.1
2024/07/31 15:24:14.000   28.287328259  -16.512746908  2233.0817   1   8   0.0015   0.0012   0.0106   0.0009   0.0023   0.0032  14.00  101.4
2024/07/31 15:24:15.000   28.287328259  -16.512746908  2233.0816   1   8   0.0015   0.0012   0.0106   0.0009   0.0023   0.0032 -15.00  103.4
2024/07/31 15:24:16.000   28.287328259  -16.512746908  2233.0816   1   8   0.0015   0.0012   0.0106   0.0009   0.0023   0.0032 -14.00  105.5
2024/07/31 15:24:17.000   28.287328259  -16.512746908  2233.0816   1   8   0.0015   0.0012   0.0106   0.0009   0.0023   0.0032 -13.00  107.6
2024/07/31 15:24:18.000   28.287328259  -16.512746908  2233.0816   1   8   0.0015   0.0012   0.0106   0.0009   0.0023   0.0032 -12.00  109.7
2024/07/31 15:24:19.000   28.287328259  -16.512746908  2233.0816   1   8   0.0015   0.0012   0.0106   0.0009   0.0023   0.0032 -11.00  111.8
2024/07/31 15:24:20.000   28.287328259  -16.512746908  2233.0816   1   8   0.0015   0.0012   0.0106   0.0009   0.0023   0.0032 -10.00  113.5
2024/07/31 15:24:21.000   28.287328259  -16.512746908  2233.0815   1   8   0.0015   0.0012   0.0106   0.0009   0.0023   0.0032  -9.00  115.0
2024/07/31 15:24:22.000   28.287328260  -16.512746908  2233.0816   1   8   0.0015   0.0012   0.0106   0.0009   0.0023   0.0032  -8.00  117.1
2024/07/31 15:24:23.000   28.287328260  -16.512746908  2233.0816   1   8   0.0015   0.0012   0.0106   0.0009   0.0023   0.0032  -7.00  118.6
2024/07/31 15:24:24.000   28.287328260  -16.512746908  2233.0817   1   8   0.0015   0.0012   0.0106   0.0009   0.0023   0.0032  -6.00  120.2
2024/07/31 15:24:25.000   28.287328260  -16.512746908  2233.0817   1   8   0.0015   0.0012   0.0106   0.0009   0.0023   0.0032  -5.00  121.3
2024/07/31 15:24:26.000   28.287328260  -16.512746908  2233.0817   1   8   0.0015   0.0012   0.0106   0.0009   0.0023   0.0032  -4.00  122.5
2024/07/31 15:24:27.000   28.287328260  -16.512746908  2233.0817   1   8   0.0015   0.0012   0.0106   0.0009   0.0023   0.0032  -3.00  123.7
2024/07/31 15:24:28.000   28.287328260  -16.512746908  2233.0819   1   8   0.0015   0.0012   0.0106   0.0009   0.0023   0.0032  -2.00  124.6
2024/07/31 15:24:29.000   28.287328260  -16.512746908  2233.0821   1   8   0.0015   0.0012   0.0106   0.0009   0.0023   0.0032  -1.00  125.1
2024/07/31 15:24:30.000   28.287328260  -16.512746907  2233.0823   1   8   0.0015   0.0012   0.0104   0.0009   0.0023   0.0032   0.00  125.6
2024/07/31 15:24:31.000   28.287328258  -16.512746910  2233.0790   1   8   0.0015   0.0012   0.0106   0.0009   0.0023   0.0032   1.00   18.6
2024/07/31 15:24:32.000   28.287328258  -16.512746910  2233.0791   1   8   0.0015   0.0012   0.0106   0.0009   0.0023   0.0032   2.00   32.9
2024/07/31 15:24:33.000   28.287328258  -16.512746910  2233.0792   1   8   0.0015   0.0012   0.0106   0.0009   0.0023   0.0032   3.00   45.7
2024/07/31 15:24:34.000   28.287328258  -16.512746910  2233.0792   1   8   0.0015   0.0012   0.0106   0.0009   0.0023   0.0032   4.00   55.2
2024/07/31 15:24:35.000   28.287328258  -16.512746910  2233.0792   1   8   0.0015   0.0012   0.0106   0.0009   0.0023   0.0032   5.00   63.8
2024/07/31 15:24:36.000   28.287328259  -16.512746910  2233.0793   1   8   0.0015   0.0012   0.0106   0.0009   0.0023   0.0032   6.00   71.3
2024/07/31 15:24:37.000   28.287328259  -16.512746910  2233.0793   1   8   0.0015   0.0012   0.0106   0.0009   0.0023   0.0032   7.00   75.5
2024/07/31 15:24:38.000   28.287328259  -16.512746910  2233.0794   1   8   0.0015   0.0012   0.0106   0.0009   0.0023   0.0032   8.00   78.7
2024/07/31 15:24:39.000   28.287328259  -16.512746910  2233.0794   1   8   0.0015   0.0012   0.0106   0.0009   0.0023   0.0032   9.00   81.3
2024/07/31 15:24:40.000   28.287328259  -16.512746910  2233.0794   1   8   0.0015   0.0012   0.0106   0.0009   0.0023   0.0032  10.00   82.6
2024/07/31 15:24:41.000   28.287328259  -16.512746910  2233.0795   1   8   0.0015   0.0012   0.0106   0.0009   0.0023   0.0032  11.00   83.8
2024/07/31 15:24:42.000   28.287328259  -16.512746910  2233.0795   1   8   0.0015   0.0012   0.0106   0.0009   0.0023   0.0032  12.00   85.1
2024/07/31 15:24:43.000   28.287328259  -16.512746910  2233.0795   1   8   0.0015   0.0012   0.0106   0.0009   0.0023   0.0032  13.00   86.3
2024/07/31 15:24:44.000   28.287328259  -16.512746909  2233.0796   1   8   0.0015   0.0012   0.0106   0.0009   0.0023   0.0032  14.00   87.7
2024/07/31 15:24:45.000   28.287328259  -16.512746909  2233.0796   1   8   0.0015   0.0012   0.0106   0.0009   0.0023   0.0032 -15.00   89.1
2024/07/31 15:24:46.000   28.287328259  -16.512746909  2233.0796   1   8   0.0015   0.0012   0.0106   0.0009   0.0023   0.0032 -14.00   90.4
2024/07/31 15:24:47.000   28.287328259  -16.512746909  2233.0796   1   8   0.0015   0.0012   0.0106   0.0009   0.0023   0.0032 -13.00   91.8
2024/07/31 15:24:48.000   28.287328259  -16.512746909  2233.0797   1   8   0.0015   0.0012   0.0106   0.0009   0.0023   0.0032 -12.00   93.2
2024/07/31 15:24:49.000   28.287328260  -16.512746909  2233.0797   1   8   0.0015   0.0012   0.0106   0.0009   0.0023   0.0032 -11.00   94.5
2024/07/31 15:24:50.000   28.287328260  -16.512746909  2233.0797   1   8   0.0015   0.0012   0.0106   0.0009   0.0023   0.0032 -10.00   95.7
2024/07/31 15:24:51.000   28.287328260  -16.512746909  2233.0798   1   8   0.0015   0.0012   0.0106   0.0009   0.0023   0.0032  -9.00   97.0
2024/07/31 15:24:52.000   28.287328260  -16.512746909  2233.0799   1   8   0.0015   0.0012   0.0106   0.0009   0.0023   0.0032  -8.00   98.3
2024/07/31 15:24:53.000   28.287328260  -16.512746909  2233.0800   1   8   0.0015   0.0012   0.0106   0.0009   0.0023   0.0032  -7.00   99.3
2024/07/31 15:24:54.000   28.287328260  -16.512746909  2233.0801   1   8   0.0015   0.0012   0.0106   0.0009   0.0023   0.0032  -6.00  100.1
2024/07/31 15:24:55.000   28.287328260  -16.512746909  2233.0802   1   8   0.0015   0.0012   0.0106   0.0009   0.0023   0.0032  -5.00  100.9
2024/07/31 15:24:56.000   28.287328260  -16.512746909  2233.0802   1   8   0.0015   0.0012   0.0106   0.0009   0.0023   0.0032  -4.00  101.1
2024/07/31 15:24:57.000   28.287328260  -16.512746909  2233.0803   1   8   0.0015   0.0012   0.0105   0.0009   0.0023   0.0032  -3.00  101.2
2024/07/31 15:24:58.000   28.287328260  -16.512746909  2233.0806   1   8   0.0015   0.0012   0.0105   0.0009   0.0023   0.0032  -2.00  101.3
2024/07/31 15:24:59.000   28.287328261  -16.512746908  2233.0808   1   8   0.0015   0.0012   0.0106   0.0009   0.0023   0.0032  -1.00  101.5
2024/07/31 15:25:00.000   28.287328260  -16.512746909  2233.0813   1   8   0.0015   0.0012   0.0104   0.0009   0.0022   0.0031   0.00  101.5
2024/07/31 15:25:01.000   28.287328260  -16.512746910  2233.0798   1   8   0.0015   0.0012   0.0105   0.0009   0.0023   0.0032   1.00   15.0
2024/07/31 15:25:02.000   28.287328260  -16.512746910  2233.0799   1   8   0.0015   0.0012   0.0105   0.0009   0.0023   0.0032   2.00   26.9
2024/07/31 15:25:03.000   28.287328260  -16.512746909  2233.0800   1   8   0.0015   0.0012   0.0105   0.0009   0.0023   0.0032   3.00   37.8
2024/07/31 15:25:04.001   28.287328260  -16.512746909  2233.0800   1   8   0.0015   0.0012   0.0105   0.0009   0.0023   0.0032   4.00   46.1
2024/07/31 15:25:05.000   28.287328260  -16.512746909  2233.0800   1   8   0.0015   0.0012   0.0105   0.0009   0.0023   0.0032   5.00   53.5
2024/07/31 15:25:06.000   28.287328260  -16.512746909  2233.0800   1   8   0.0015   0.0012   0.0105   0.0009   0.0023   0.0032   6.00   59.8
2024/07/31 15:25:07.000   28.287328260  -16.512746909  2233.0800   1   8   0.0015   0.0012   0.0105   0.0009   0.0023   0.0032   7.00   64.8
2024/07/31 15:25:08.000   28.287328260  -16.512746909  2233.0800   1   8   0.0015   0.0012   0.0105   0.0009   0.0023   0.0032   8.00   69.4
2024/07/31 15:25:09.000   28.287328260  -16.512746909  2233.0800   1   8   0.0015   0.0012   0.0105   0.0009   0.0023   0.0032   9.00   72.1
2024/07/31 15:25:10.000   28.287328260  -16.512746909  2233.0800   1   8   0.0015   0.0012   0.0105   0.0009   0.0023   0.0032  10.00   73.6
2024/07/31 15:25:11.000   28.287328260  -16.512746909  2233.0800   1   8   0.0015   0.0012   0.0105   0.0009   0.0023   0.0032  11.00   74.8
2024/07/31 15:25:12.000   28.287328260  -16.512746909  2233.0800   1   8   0.0015   0.0012   0.0105   0.0009   0.0023   0.0032  12.00   76.3
2024/07/31 15:25:13.000   28.287328260  -16.512746909  2233.0800   1   8   0.0015   0.0012   0.0105   0.0009   0.0023   0.0032  13.00   77.8
2024/07/31 15:25:14.000   28.287328260  -16.512746909  2233.0800   1   8   0.0015   0.0012   0.0105   0.0009   0.0023   0.0032  14.00   79.1
2024/07/31 15:25:15.000   28.287328260  -16.512746909  2233.0799   1   8   0.0015   0.0012   0.0105   0.0009   0.0023   0.0032 -15.00   80.4
2024/07/31 15:25:16.000   28.287328260  -16.512746909  2233.0799   1   8   0.0015   0.0012   0.0105   0.0009   0.0023   0.0032 -14.00   81.8
2024/07/31 15:25:17.000   28.287328260  -16.512746909  2233.0799   1   8   0.0015   0.0012   0.0105   0.0009   0.0023   0.0032 -13.00   83.1
2024/07/31 15:25:18.000   28.287328260  -16.512746909  2233.0799   1   8   0.0015   0.0012   0.0105   0.0009   0.0023   0.0032 -12.00   84.4
2024/07/31 15:25:19.000   28.287328260  -16.512746909  2233.0799   1   8   0.0015   0.0012   0.0105   0.0009   0.0023   0.0032 -11.00   85.8
2024/07/31 15:25:20.000   28.287328261  -16.512746909  2233.0799   1   8   0.0015   0.0012   0.0105   0.0009   0.0023   0.0032 -10.00   87.1
2024/07/31 15:25:21.000   28.287328261  -16.512746909  2233.0799   1   8   0.0015   0.0012   0.0105   0.0009   0.0023   0.0032  -9.00   88.2
2024/07/31 15:25:22.000   28.287328261  -16.512746909  2233.0799   1   8   0.0015   0.0012   0.0105   0.0009   0.0023   0.0032  -8.00   89.5
2024/07/31 15:25:23.000   28.287328261  -16.512746909  2233.0800   1   8   0.0015   0.0012   0.0105   0.0009   0.0023   0.0032  -7.00   90.4
2024/07/31 15:25:24.000   28.287328261  -16.512746909  2233.0801   1   8   0.0015   0.0012   0.0105   0.0009   0.0023   0.0032  -6.00   91.2
2024/07/31 15:25:25.000   28.287328261  -16.512746909  2233.0801   1   8   0.0015   0.0012   0.0105   0.0009   0.0023   0.0032  -5.00   91.7
2024/07/31 15:25:26.000   28.287328261  -16.512746909  2233.0804   1   8   0.0015   0.0012   0.0105   0.0009   0.0023   0.0032  -4.00   91.8
2024/07/31 15:25:27.000   28.287328261  -16.512746909  2233.0804   1   8   0.0015   0.0012   0.0105   0.0009   0.0023   0.0032  -3.00   92.7
2024/07/31 15:25:28.000   28.287328261  -16.512746909  2233.0805   1   8   0.0015   0.0012   0.0105   0.0009   0.0023   0.0032  -2.00   93.3
2024/07/31 15:25:29.000   28.287328261  -16.512746909  2233.0806   1   8   0.0015   0.0012   0.0105   0.0009   0.0023   0.0032  -1.00   94.0
2024/07/31 15:25:30.000   28.287328259  -16.512746911  2233.0792   1   8   0.0015   0.0012   0.0103   0.0009   0.0022   0.0031   0.00   95.0
2024/07/31 15:25:31.000   28.287328258  -16.512746912  2233.0786   1   8   0.0015   0.0012   0.0104   0.0009   0.0023   0.0032   1.00   12.2
2024/07/31 15:25:32.000   28.287328258  -16.512746912  2233.0786   1   8   0.0015   0.0012   0.0104   0.0009   0.0023   0.0032   2.00   22.0
2024/07/31 15:25:33.000   28.287328258  -16.512746911  2233.0787   1   8   0.0015   0.0012   0.0104   0.0009   0.0023   0.0032   3.00   30.1
2024/07/31 15:25:34.000   28.287328258  -16.512746911  2233.0788   1   8   0.0015   0.0012   0.0104   0.0009   0.0023   0.0032   4.00   37.2
2024/07/31 15:25:35.000   28.287328258  -16.512746911  2233.0789   1   8   0.0015   0.0012   0.0104   0.0009   0.0023   0.0032   5.00   43.6
2024/07/31 15:25:36.000   28.287328258  -16.512746911  2233.0789   1   8   0.0015   0.0012   0.0104   0.0009   0.0023   0.0032   6.00   49.4
2024/07/31 15:25:37.000   28.287328258  -16.512746911  2233.0790   1   8   0.0015   0.0012   0.0104   0.0009   0.0023   0.0032   7.00   54.2
2024/07/31 15:25:38.000   28.287328258  -16.512746911  2233.0790   1   8   0.0015   0.0012   0.0104   0.0009   0.0023   0.0032   8.00   58.4
2024/07/31 15:25:39.000   28.287328258  -16.512746911  2233.0790   1   8   0.0015   0.0012   0.0104   0.0009   0.0023   0.0032   9.00   61.7
2024/07/31 15:25:40.000   28.287328259  -16.512746911  2233.0790   1   8   0.0015   0.0012   0.0104   0.0009   0.0023   0.0032  10.00   63.7
2024/07/31 15:25:41.000   28.287328259  -16.512746911  2233.0791   1   8   0.0015   0.0012   0.0104   0.0009   0.0023   0.0032  11.00   65.5
2024/07/31 15:25:42.000   28.287328259  -16.512746911  2233.0791   1   8   0.0015   0.0012   0.0104   0.0009   0.0023   0.0032  12.00   67.3
2024/07/31 15:25:43.000   28.287328259  -16.512746911  2233.0791   1   8   0.0015   0.0012   0.0104   0.0009   0.0023   0.0032  13.00   68.9
2024/07/31 15:25:44.000   28.287328259  -16.512746911  2233.0791   1   8   0.0015   0.0012   0.0104   0.0009   0.0023   0.0032  14.00   70.5
2024/07/31 15:25:45.000   28.287328259  -16.512746911  2233.0792   1   8   0.0015   0.0012   0.0104   0.0009   0.0023   0.0032 -15.00   71.9
2024/07/31 15:25:46.000   28.287328259  -16.512746911  2233.0791   1   8   0.0015   0.0012   0.0104   0.0009   0.0023   0.0032 -14.00   73.2
2024/07/31 15:25:47.000   28.287328259  -16.512746911  2233.0791   1   8   0.0015   0.0012   0.0104   0.0009   0.0023   0.0032 -13.00   74.6
2024/07/31 15:25:48.000   28.287328259  -16.512746911  2233.0791   1   8   0.0015   0.0012   0.0104   0.0009   0.0023   0.0032 -12.00   76.0
