% program   : RTKPOST-EX 2.5.0
% inp file  : C:\Users\SallyHenry\Desktop\Sally Internship\GNSS gravi\DATA\Survey Rover Obs\CAMI9.24o
% inp file  : C:\Users\SallyHenry\Desktop\Sally Internship\GNSS gravi\DATA\BaseStations\IZAN\IZAN00ESP_R_20242130000_01D_30S_MO.rnx
% inp file  : C:\Users\SallyHenry\Desktop\Sally Internship\GNSS gravi\DATA\BaseStations\IZAN\IZAN00ESP_R_20242130000_01D_MN.rnx
% inp file  : C:\Users\SallyHenry\Desktop\Sally Internship\GNSS gravi\DATA\aux_files\Survey\IGS0OPSFIN_20242130000_01D_15M_ORB.SP3
% inp file  : C:\Users\SallyHenry\Desktop\Sally Internship\GNSS gravi\DATA\aux_files\Survey\IGS0OPSFIN_20242130000_01D_30S_CLK.CLK
% obs start : 2024/07/31 15:44:07.0 GPST (week2325 315847.0s)
% obs end   : 2024/07/31 15:59:08.0 GPST (week2325 316748.0s)
% pos mode  : Static
% freqs     : L1+L2/E5b
% solution  : Combined-No Phase Reset
% elev mask : 15.0 deg
% dynamics  : on
% tidecorr  : solid
% ionos opt : Estimate TEC
% tropo opt : Estimate ZTD+Grad
% ephemeris : Precise
% navi sys  : GPS GLONASS Galileo QZSS BDS
% amb res   : Fix and Hold
% amb glo   : Fix and Hold
% amb bds   : on
% val thres : 3.0
% antenna1  :                       ( 0.0000  0.0000  1.8000)
% antenna2  :                       ( 0.0000  0.0000  0.0000)
% ref pos   :  28.308069410  -16.499677180  2417.4044
%
% (lat/lon/height=WGS84/ellipsoidal,Q=1:fix,2:float,3:sbas,4:dgps,5:single,6:ppp,ns=# of satellites)
%  GPST                  latitude(deg) longitude(deg)  height(m)   Q  ns   sdn(m)   sde(m)   sdu(m)  sdne(m)  sdeu(m)  sdun(m) age(s)  ratio
2024/07/31 15:44:07.000   28.297288010  -16.511362890  2379.3955   1   8   0.0024   0.0014   0.0133   0.0011   0.0022   0.0038   7.00   47.4
2024/07/31 15:44:08.000   28.297288011  -16.511362889  2379.3956   1   8   0.0024   0.0014   0.0133   0.0011   0.0022   0.0039   8.00   45.9
2024/07/31 15:44:09.000   28.297288011  -16.511362889  2379.3956   1   8   0.0024   0.0014   0.0133   0.0011   0.0022   0.0039   9.00   44.6
2024/07/31 15:44:10.000   28.297288010  -16.511362889  2379.3956   1   8   0.0024   0.0014   0.0133   0.0011   0.0022   0.0039  10.00   43.5
2024/07/31 15:44:11.000   28.297288010  -16.511362889  2379.3957   1   8   0.0024   0.0014   0.0133   0.0011   0.0022   0.0039  11.00   42.5
2024/07/31 15:44:12.000   28.297288010  -16.511362889  2379.3958   1   8   0.0024   0.0014   0.0133   0.0011   0.0022   0.0039  12.00   41.7
2024/07/31 15:44:13.000   28.297288010  -16.511362889  2379.3960   1   8   0.0024   0.0014   0.0133   0.0011   0.0022   0.0039  13.00   40.7
2024/07/31 15:44:14.000   28.297288010  -16.511362889  2379.3961   1   8   0.0024   0.0014   0.0133   0.0011   0.0022   0.0039  14.00   39.8
2024/07/31 15:44:15.000   28.297288010  -16.511362889  2379.3962   1   8   0.0024   0.0014   0.0133   0.0011   0.0022   0.0039  15.00   39.0
2024/07/31 15:44:16.000   28.297288010  -16.511362889  2379.3963   1   8   0.0024   0.0014   0.0133   0.0012   0.0022   0.0039 -14.00   38.2
2024/07/31 15:44:17.000   28.297288010  -16.511362889  2379.3964   1   8   0.0024   0.0014   0.0134   0.0012   0.0022   0.0039 -13.00   37.4
2024/07/31 15:44:18.000   28.297288010  -16.511362889  2379.3966   1   8   0.0024   0.0014   0.0134   0.0012   0.0022   0.0039 -12.00   36.5
2024/07/31 15:44:19.000   28.297288010  -16.511362889  2379.3967   1   8   0.0024   0.0014   0.0134   0.0012   0.0022   0.0039 -11.00   35.5
2024/07/31 15:44:20.000   28.297288010  -16.511362889  2379.3968   1   8   0.0024   0.0014   0.0134   0.0012   0.0022   0.0039 -10.00   34.3
2024/07/31 15:44:21.000   28.297288010  -16.511362889  2379.3969   1   8   0.0024   0.0014   0.0134   0.0012   0.0022   0.0039  -9.00   32.9
2024/07/31 15:44:22.000   28.297288010  -16.511362889  2379.3970   1   8   0.0024   0.0014   0.0134   0.0012   0.0023   0.0040  -8.00   31.3
2024/07/31 15:44:23.000   28.297288010  -16.511362889  2379.3971   1   8   0.0024   0.0015   0.0134   0.0012   0.0023   0.0040  -7.00   29.5
2024/07/31 15:44:24.000   28.297288010  -16.511362889  2379.3973   1   8   0.0025   0.0015   0.0134   0.0012   0.0023   0.0040  -6.00   27.3
2024/07/31 15:44:25.000   28.297288010  -16.511362889  2379.3974   1   8   0.0025   0.0015   0.0134   0.0012   0.0023   0.0040  -5.00   24.7
2024/07/31 15:44:26.000   28.297288010  -16.511362889  2379.3975   1   8   0.0025   0.0015   0.0135   0.0012   0.0023   0.0040  -4.00   21.6
2024/07/31 15:44:27.000   28.297288010  -16.511362888  2379.3976   1   8   0.0025   0.0015   0.0135   0.0012   0.0023   0.0040  -3.00   17.7
2024/07/31 15:44:28.001   28.297288009  -16.511362888  2379.3976   1   8   0.0025   0.0015   0.0135   0.0012   0.0023   0.0041  -2.00   13.2
2024/07/31 15:44:29.000   28.297288009  -16.511362889  2379.3975   1   8   0.0025   0.0015   0.0136   0.0012   0.0023   0.0041  -1.00    7.6
2024/07/31 15:44:30.000   28.297288015  -16.511362888  2379.3985   1   8   0.0024   0.0014   0.0131   0.0011   0.0021   0.0037   0.00   58.6
2024/07/31 15:44:31.000   28.297288015  -16.511362888  2379.3984   1   8   0.0024   0.0014   0.0132   0.0011   0.0021   0.0037   1.00   58.1
2024/07/31 15:44:32.000   28.297288014  -16.511362888  2379.3983   1   8   0.0024   0.0014   0.0132   0.0011   0.0021   0.0038   2.00   57.5
2024/07/31 15:44:33.000   28.297288014  -16.511362888  2379.3982   1   8   0.0024   0.0014   0.0132   0.0011   0.0021   0.0038   3.00   56.9
2024/07/31 15:44:34.000   28.297288014  -16.511362888  2379.3980   1   8   0.0024   0.0014   0.0133   0.0011   0.0022   0.0038   4.00   56.2
2024/07/31 15:44:35.000   28.297288013  -16.511362888  2379.3978   1   8   0.0024   0.0014   0.0133   0.0011   0.0022   0.0039   5.00   55.4
2024/07/31 15:44:36.000   28.297288013  -16.511362888  2379.3977   1   8   0.0024   0.0014   0.0133   0.0011   0.0022   0.0039   6.00   53.6
2024/07/31 15:44:37.000   28.297288013  -16.511362888  2379.3977   1   8   0.0024   0.0014   0.0134   0.0011   0.0022   0.0039   7.00   52.1
2024/07/31 15:44:38.000   28.297288012  -16.511362888  2379.3977   1   8   0.0024   0.0014   0.0134   0.0011   0.0022   0.0039   8.00   50.8
2024/07/31 15:44:39.000   28.297288012  -16.511362888  2379.3977   1   8   0.0024   0.0014   0.0134   0.0011   0.0022   0.0039   9.00   49.5
2024/07/31 15:44:40.000   28.297288012  -16.511362888  2379.3977   1   8   0.0024   0.0014   0.0134   0.0011   0.0022   0.0039  10.00   48.4
2024/07/31 15:44:41.000   28.297288012  -16.511362888  2379.3977   1   8   0.0024   0.0014   0.0134   0.0011   0.0022   0.0039  11.00   47.4
2024/07/31 15:44:42.000   28.297288012  -16.511362888  2379.3978   1   8   0.0024   0.0015   0.0134   0.0011   0.0022   0.0039  12.00   46.5
2024/07/31 15:44:43.000   28.297288012  -16.511362888  2379.3978   1   8   0.0024   0.0015   0.0134   0.0012   0.0022   0.0039  13.00   45.7
2024/07/31 15:44:44.000   28.297288012  -16.511362888  2379.3979   1   8   0.0024   0.0015   0.0134   0.0012   0.0022   0.0039  14.00   44.9
2024/07/31 15:44:45.000   28.297288011  -16.511362888  2379.3979   1   8   0.0024   0.0015   0.0134   0.0012   0.0022   0.0039  15.00   44.3
2024/07/31 15:44:46.000   28.297288011  -16.511362888  2379.3980   1   8   0.0024   0.0015   0.0134   0.0012   0.0022   0.0039 -14.00   43.6
2024/07/31 15:44:47.000   28.297288011  -16.511362888  2379.3981   1   8   0.0024   0.0015   0.0134   0.0012   0.0022   0.0040 -13.00   42.8
2024/07/31 15:44:48.000   28.297288011  -16.511362888  2379.3982   1   8   0.0024   0.0015   0.0134   0.0012   0.0022   0.0040 -12.00   41.7
2024/07/31 15:44:49.000   28.297288011  -16.511362888  2379.3982   1   8   0.0025   0.0015   0.0134   0.0012   0.0022   0.0040 -11.00   40.6
2024/07/31 15:44:50.000   28.297288011  -16.511362888  2379.3983   1   8   0.0025   0.0015   0.0134   0.0012   0.0023   0.0040 -10.00   39.2
2024/07/31 15:44:51.000   28.297288011  -16.511362888  2379.3983   1   8   0.0025   0.0015   0.0134   0.0012   0.0023   0.0040  -9.00   37.6
2024/07/31 15:44:52.000   28.297288011  -16.511362888  2379.3984   1   8   0.0025   0.0015   0.0135   0.0012   0.0023   0.0040  -8.00   35.8
2024/07/31 15:44:53.000   28.297288011  -16.511362888  2379.3985   1   8   0.0025   0.0015   0.0135   0.0012   0.0023   0.0040  -7.00   33.8
2024/07/31 15:44:54.000   28.297288010  -16.511362888  2379.3986   1   8   0.0025   0.0015   0.0135   0.0012   0.0023   0.0040  -6.00   31.3
2024/07/31 15:44:55.000   28.297288010  -16.511362888  2379.3986   1   8   0.0025   0.0015   0.0135   0.0012   0.0023   0.0040  -5.00   28.3
2024/07/31 15:44:56.000   28.297288010  -16.511362888  2379.3987   1   8   0.0025   0.0015   0.0135   0.0012   0.0023   0.0041  -4.00   24.8
2024/07/31 15:44:57.000   28.297288010  -16.511362888  2379.3988   1   8   0.0025   0.0015   0.0136   0.0012   0.0023   0.0041  -3.00   20.6
2024/07/31 15:44:58.000   28.297288010  -16.511362888  2379.3988   1   8   0.0025   0.0015   0.0136   0.0012   0.0023   0.0041  -2.00   15.3
2024/07/31 15:44:59.000   28.297288010  -16.511362888  2379.3988   1   8   0.0025   0.0015   0.0137   0.0012   0.0024   0.0041  -1.00    8.8
2024/07/31 15:45:00.000   28.297288016  -16.511362887  2379.4004   1   8   0.0024   0.0014   0.0132   0.0011   0.0021   0.0038   0.00   67.2
2024/07/31 15:45:01.000   28.297288017  -16.511362887  2379.4004   1   8   0.0024   0.0014   0.0132   0.0011   0.0021   0.0038   1.00   67.2
2024/07/31 15:45:02.000   28.297288016  -16.511362886  2379.4005   1   8   0.0024   0.0014   0.0133   0.0011   0.0021   0.0038   2.00   67.0
2024/07/31 15:45:03.000   28.297288016  -16.511362887  2379.4003   1   8   0.0024   0.0014   0.0133   0.0011   0.0021   0.0038   3.00   66.7
2024/07/31 15:45:04.000   28.297288016  -16.511362887  2379.4003   1   8   0.0024   0.0014   0.0133   0.0011   0.0022   0.0039   4.00   66.3
2024/07/31 15:45:05.000   28.297288015  -16.511362887  2379.4003   1   8   0.0024   0.0014   0.0134   0.0011   0.0022   0.0039   5.00   65.8
2024/07/31 15:45:06.000   28.297288015  -16.511362887  2379.4003   1   8   0.0024   0.0014   0.0134   0.0011   0.0022   0.0039   6.00   64.2
2024/07/31 15:45:07.000   28.297288015  -16.511362887  2379.4003   1   8   0.0024   0.0014   0.0134   0.0011   0.0022   0.0039   7.00   62.7
2024/07/31 15:45:08.000   28.297288014  -16.511362888  2379.4004   1   8   0.0024   0.0015   0.0134   0.0011   0.0022   0.0039   8.00   61.2
2024/07/31 15:45:09.000   28.297288014  -16.511362888  2379.4004   1   8   0.0024   0.0015   0.0135   0.0011   0.0022   0.0039   9.00   59.8
2024/07/31 15:45:10.000   28.297288014  -16.511362888  2379.4004   1   8   0.0025   0.0015   0.0135   0.0011   0.0022   0.0040  10.00   58.5
2024/07/31 15:45:11.000   28.297288014  -16.511362888  2379.4006   1   8   0.0025   0.0015   0.0135   0.0012   0.0022   0.0040  11.00   57.4
2024/07/31 15:45:12.000   28.297288014  -16.511362888  2379.4006   1   8   0.0025   0.0015   0.0135   0.0012   0.0022   0.0040  12.00   56.3
2024/07/31 15:45:13.000   28.297288014  -16.511362888  2379.4006   1   8   0.0025   0.0015   0.0135   0.0012   0.0022   0.0040  13.00   55.3
2024/07/31 15:45:14.000   28.297288014  -16.511362888  2379.4007   1   8   0.0025   0.0015   0.0135   0.0012   0.0022   0.0040  14.00   54.3
2024/07/31 15:45:15.000   28.297288014  -16.511362888  2379.4008   1   8   0.0025   0.0015   0.0135   0.0012   0.0022   0.0040  15.00   53.1
2024/07/31 15:45:16.000   28.297288014  -16.511362888  2379.4008   1   8   0.0025   0.0015   0.0135   0.0012   0.0022   0.0040 -14.00   52.0
2024/07/31 15:45:17.000   28.297288014  -16.511362888  2379.4009   1   8   0.0025   0.0015   0.0135   0.0012   0.0022   0.0040 -13.00   50.7
2024/07/31 15:45:18.000   28.297288013  -16.511362888  2379.4009   1   8   0.0025   0.0015   0.0135   0.0012   0.0022   0.0040 -12.00   49.4
2024/07/31 15:45:19.000   28.297288013  -16.511362888  2379.4010   1   8   0.0025   0.0015   0.0135   0.0012   0.0023   0.0040 -11.00   47.8
2024/07/31 15:45:20.000   28.297288013  -16.511362888  2379.4011   1   8   0.0025   0.0015   0.0135   0.0012   0.0023   0.0040 -10.00   46.1
2024/07/31 15:45:21.000   28.297288013  -16.511362888  2379.4012   1   8   0.0025   0.0015   0.0135   0.0012   0.0023   0.0040  -9.00   44.3
2024/07/31 15:45:22.000   28.297288013  -16.511362888  2379.4012   1   8   0.0025   0.0015   0.0135   0.0012   0.0023   0.0040  -8.00   42.1
2024/07/31 15:45:23.000   28.297288013  -16.511362888  2379.4014   1   8   0.0025   0.0015   0.0135   0.0012   0.0023   0.0040  -7.00   39.7
2024/07/31 15:45:24.000   28.297288013  -16.511362888  2379.4015   1   8   0.0025   0.0015   0.0136   0.0012   0.0023   0.0041  -6.00   36.7
2024/07/31 15:45:25.000   28.297288013  -16.511362888  2379.4017   1   8   0.0025   0.0015   0.0136   0.0012   0.0023   0.0041  -5.00   33.2
2024/07/31 15:45:26.000   28.297288013  -16.511362888  2379.4017   1   8   0.0025   0.0015   0.0136   0.0012   0.0023   0.0041  -4.00   29.0
2024/07/31 15:45:27.000   28.297288013  -16.511362888  2379.4018   1   8   0.0025   0.0015   0.0136   0.0012   0.0023   0.0041  -3.00   23.7
2024/07/31 15:45:28.000   28.297288013  -16.511362888  2379.4017   1   8   0.0025   0.0015   0.0137   0.0012   0.0023   0.0041  -2.00   17.5
2024/07/31 15:45:29.000   28.297288012  -16.511362888  2379.4016   1   8   0.0025   0.0015   0.0137   0.0012   0.0024   0.0042  -1.00   10.1
2024/07/31 15:45:30.000   28.297288016  -16.511362888  2379.4021   1   8   0.0024   0.0014   0.0132   0.0011   0.0021   0.0038   0.00   70.0
2024/07/31 15:45:31.000   28.297288016  -16.511362888  2379.4020   1   8   0.0024   0.0014   0.0133   0.0011   0.0021   0.0038   1.00   69.7
2024/07/31 15:45:32.000   28.297288015  -16.511362888  2379.4020   1   8   0.0024   0.0014   0.0133   0.0011   0.0021   0.0038   2.00   69.4
2024/07/31 15:45:33.000   28.297288015  -16.511362888  2379.4019   1   8   0.0024   0.0014   0.0134   0.0011   0.0022   0.0039   3.00   68.9
2024/07/31 15:45:34.000   28.297288015  -16.511362888  2379.4020   1   8   0.0024   0.0014   0.0134   0.0011   0.0022   0.0039   4.00   68.2
2024/07/31 15:45:35.000   28.297288015  -16.511362888  2379.4020   1   8   0.0024   0.0014   0.0134   0.0011   0.0022   0.0039   5.00   67.3
2024/07/31 15:45:36.000   28.297288015  -16.511362888  2379.4020   1   8   0.0024   0.0014   0.0135   0.0011   0.0022   0.0039   6.00   66.5
2024/07/31 15:45:37.000   28.297288011  -16.511362899  2379.4045   1   8   0.0023   0.0014   0.0127   0.0010   0.0020   0.0036   7.00    3.2
2024/07/31 15:45:38.000   28.297288012  -16.511362899  2379.4046   1   8   0.0023   0.0014   0.0127   0.0010   0.0020   0.0036   8.00    3.2
2024/07/31 15:45:39.000   28.297288012  -16.511362899  2379.4047   1   8   0.0023   0.0014   0.0127   0.0010   0.0020   0.0036   9.00    3.2
2024/07/31 15:45:40.000   28.297288011  -16.511362900  2379.4049   1   8   0.0023   0.0014   0.0127   0.0010   0.0020   0.0036  10.00    3.2
2024/07/31 15:45:41.000   28.297288012  -16.511362900  2379.4050   1   8   0.0023   0.0014   0.0127   0.0010   0.0020   0.0036  11.00    3.2
2024/07/31 15:45:42.000   28.297288012  -16.511362900  2379.4051   1   8   0.0023   0.0014   0.0127   0.0010   0.0020   0.0036  12.00    3.2
2024/07/31 15:45:43.000   28.297288011  -16.511362900  2379.4052   1   8   0.0023   0.0014   0.0127   0.0010   0.0020   0.0036  13.00    3.2
2024/07/31 15:45:44.000   28.297288011  -16.511362900  2379.4053   1   8   0.0023   0.0014   0.0127   0.0010   0.0020   0.0036  14.00    3.3
2024/07/31 15:45:45.000   28.297288011  -16.511362900  2379.4054   1   8   0.0023   0.0014   0.0127   0.0010   0.0020   0.0036 -15.00    3.3
2024/07/31 15:45:46.000   28.297288011  -16.511362900  2379.4054   1   8   0.0023   0.0014   0.0127   0.0010   0.0020   0.0036 -14.00    3.3
2024/07/31 15:45:47.000   28.297288011  -16.511362900  2379.4055   1   8   0.0023   0.0013   0.0127   0.0010   0.0020   0.0036 -13.00    3.3
2024/07/31 15:45:48.000   28.297288011  -16.511362900  2379.4056   1   8   0.0023   0.0013   0.0127   0.0010   0.0020   0.0036 -12.00    3.3
2024/07/31 15:45:49.000   28.297288011  -16.511362900  2379.4057   1   8   0.0023   0.0013   0.0127   0.0010   0.0020   0.0036 -11.00    3.3
2024/07/31 15:45:50.000   28.297288010  -16.511362900  2379.4058   1   8   0.0023   0.0013   0.0127   0.0010   0.0020   0.0036 -10.00    3.3
2024/07/31 15:45:51.000   28.297288010  -16.511362900  2379.4059   1   8   0.0023   0.0013   0.0127   0.0010   0.0020   0.0036  -9.00    3.3
2024/07/31 15:45:52.000   28.297288010  -16.511362900  2379.4061   1   8   0.0023   0.0013   0.0127   0.0010   0.0020   0.0036  -8.00    3.3
2024/07/31 15:45:53.000   28.297288010  -16.511362900  2379.4063   1   8   0.0023   0.0013   0.0127   0.0010   0.0020   0.0036  -7.00    3.3
2024/07/31 15:45:54.000   28.297288010  -16.511362900  2379.4065   1   8   0.0023   0.0013   0.0127   0.0010   0.0020   0.0036  -6.00    3.3
2024/07/31 15:45:55.000   28.297288010  -16.511362900  2379.4066   1   8   0.0023   0.0013   0.0127   0.0010   0.0020   0.0036  -5.00    3.3
2024/07/31 15:45:56.000   28.297288010  -16.511362900  2379.4067   1   8   0.0023   0.0013   0.0127   0.0010   0.0020   0.0036  -4.00    3.3
2024/07/31 15:45:57.000   28.297288010  -16.511362900  2379.4070   1   8   0.0023   0.0013   0.0127   0.0010   0.0020   0.0036  -3.00    6.6
2024/07/31 15:45:58.000   28.297287999  -16.511362899  2379.4056   1   8   0.0022   0.0013   0.0127   0.0010   0.0020   0.0036  -2.00    6.0
2024/07/31 15:45:59.000   28.297287998  -16.511362897  2379.4039   1   8   0.0022   0.0013   0.0126   0.0010   0.0020   0.0036  -1.00    5.6
2024/07/31 15:46:00.000   28.297288009  -16.511362895  2379.4078   1   8   0.0021   0.0013   0.0122   0.0010   0.0018   0.0033   0.00    8.4
2024/07/31 15:46:01.000   28.297288014  -16.511362884  2379.4027   1   8   0.0022   0.0013   0.0125   0.0011   0.0021   0.0036   1.00    4.7
2024/07/31 15:46:02.000   28.297288014  -16.511362885  2379.4027   1   8   0.0022   0.0013   0.0125   0.0011   0.0021   0.0036   2.00    5.7
2024/07/31 15:46:03.000   28.297288014  -16.511362885  2379.4027   1   8   0.0022   0.0013   0.0125   0.0011   0.0021   0.0036   3.00    6.4
2024/07/31 15:46:04.000   28.297288014  -16.511362885  2379.4026   1   8   0.0022   0.0013   0.0125   0.0011   0.0021   0.0036   4.00    6.9
2024/07/31 15:46:05.000   28.297288013  -16.511362885  2379.4024   1   8   0.0022   0.0013   0.0125   0.0011   0.0021   0.0036   5.00    7.3
2024/07/31 15:46:06.000   28.297288013  -16.511362885  2379.4023   1   8   0.0022   0.0013   0.0125   0.0011   0.0021   0.0036   6.00    7.8
2024/07/31 15:46:07.000   28.297288012  -16.511362885  2379.4022   1   8   0.0022   0.0013   0.0125   0.0011   0.0021   0.0036   7.00    8.3
2024/07/31 15:46:08.000   28.297288012  -16.511362885  2379.4021   1   8   0.0022   0.0013   0.0125   0.0011   0.0021   0.0036   8.00    8.7
2024/07/31 15:46:09.000   28.297288012  -16.511362886  2379.4021   1   8   0.0022   0.0013   0.0125   0.0011   0.0021   0.0036   9.00    9.1
2024/07/31 15:46:10.000   28.297288012  -16.511362886  2379.4020   1   8   0.0022   0.0013   0.0124   0.0011   0.0021   0.0036  10.00    9.5
2024/07/31 15:46:11.000   28.297288011  -16.511362886  2379.4019   1   8   0.0022   0.0013   0.0124   0.0011   0.0021   0.0036  11.00   10.0
2024/07/31 15:46:12.000   28.297288011  -16.511362886  2379.4019   1   8   0.0022   0.0013   0.0124   0.0011   0.0021   0.0036  12.00   10.4
2024/07/31 15:46:13.000   28.297288011  -16.511362886  2379.4019   1   8   0.0022   0.0013   0.0124   0.0011   0.0021   0.0036  13.00   10.9
2024/07/31 15:46:14.000   28.297288011  -16.511362886  2379.4018   1   8   0.0022   0.0013   0.0124   0.0011   0.0021   0.0036  14.00   11.3
2024/07/31 15:46:15.000   28.297288011  -16.511362886  2379.4018   1   8   0.0022   0.0013   0.0124   0.0011   0.0021   0.0036 -15.00   11.7
2024/07/31 15:46:16.000   28.297288011  -16.511362886  2379.4018   1   8   0.0022   0.0013   0.0124   0.0011   0.0021   0.0036 -14.00   12.2
2024/07/31 15:46:17.000   28.297288011  -16.511362886  2379.4018   1   8   0.0022   0.0013   0.0124   0.0011   0.0021   0.0036 -13.00   12.6
2024/07/31 15:46:18.000   28.297288010  -16.511362886  2379.4017   1   8   0.0022   0.0013   0.0124   0.0011   0.0021   0.0036 -12.00   13.0
2024/07/31 15:46:19.000   28.297288010  -16.511362886  2379.4016   1   8   0.0022   0.0013   0.0124   0.0011   0.0021   0.0036 -11.00   13.5
2024/07/31 15:46:20.000   28.297288010  -16.511362886  2379.4015   1   8   0.0022   0.0013   0.0124   0.0011   0.0021   0.0036 -10.00   13.9
2024/07/31 15:46:21.000   28.297288010  -16.511362887  2379.4014   1   8   0.0022   0.0013   0.0124   0.0011   0.0021   0.0036  -9.00   14.3
2024/07/31 15:46:22.000   28.297288010  -16.511362887  2379.4014   1   8   0.0022   0.0013   0.0124   0.0011   0.0021   0.0036  -8.00   14.7
2024/07/31 15:46:23.000   28.297288009  -16.511362887  2379.4012   1   8   0.0022   0.0013   0.0124   0.0011   0.0021   0.0036  -7.00   15.1
2024/07/31 15:46:24.000   28.297288009  -16.511362887  2379.4011   1   8   0.0022   0.0013   0.0124   0.0011   0.0021   0.0036  -6.00   15.6
2024/07/31 15:46:25.000   28.297288009  -16.511362887  2379.4009   1   8   0.0022   0.0013   0.0124   0.0011   0.0021   0.0036  -5.00   15.9
2024/07/31 15:46:26.000   28.297288009  -16.511362887  2379.4009   1   8   0.0022   0.0013   0.0124   0.0011   0.0021   0.0036  -4.00   16.3
2024/07/31 15:46:27.000   28.297288008  -16.511362888  2379.4006   1   8   0.0022   0.0013   0.0124   0.0010   0.0021   0.0036  -3.00   16.6
2024/07/31 15:46:28.000   28.297288008  -16.511362888  2379.4004   1   8   0.0022   0.0013   0.0124   0.0010   0.0021   0.0036  -2.00   16.9
2024/07/31 15:46:29.000   28.297288007  -16.511362888  2379.4001   1   8   0.0022   0.0013   0.0124   0.0010   0.0021   0.0036  -1.00   17.1
2024/07/31 15:46:30.000   28.297288015  -16.511362887  2379.4028   1   8   0.0021   0.0013   0.0120   0.0010   0.0019   0.0033   0.00   17.5
2024/07/31 15:46:31.000   28.297288013  -16.511362886  2379.4034   1   8   0.0022   0.0013   0.0124   0.0011   0.0021   0.0036   1.00    7.5
2024/07/31 15:46:32.000   28.297288013  -16.511362886  2379.4035   1   8   0.0022   0.0013   0.0123   0.0010   0.0021   0.0036   2.00   12.4
2024/07/31 15:46:33.000   28.297288012  -16.511362886  2379.4034   1   8   0.0022   0.0013   0.0123   0.0010   0.0021   0.0036   3.00   15.5
2024/07/31 15:46:34.000   28.297288012  -16.511362886  2379.4034   1   8   0.0022   0.0013   0.0123   0.0010   0.0021   0.0036   4.00   16.6
2024/07/31 15:46:35.000   28.297288012  -16.511362886  2379.4034   1   8   0.0022   0.0013   0.0123   0.0010   0.0021   0.0036   5.00   17.6
2024/07/31 15:46:36.000   28.297288012  -16.511362886  2379.4033   1   8   0.0022   0.0013   0.0123   0.0010   0.0021   0.0036   6.00   18.4
2024/07/31 15:46:37.000   28.297288012  -16.511362886  2379.4033   1   8   0.0022   0.0013   0.0123   0.0010   0.0021   0.0036   7.00   19.1
2024/07/31 15:46:38.000   28.297288012  -16.511362886  2379.4032   1   8   0.0022   0.0013   0.0123   0.0010   0.0021   0.0036   8.00   19.7
2024/07/31 15:46:39.000   28.297288012  -16.511362886  2379.4031   1   8   0.0022   0.0013   0.0123   0.0010   0.0021   0.0036   9.00   20.2
2024/07/31 15:46:40.000   28.297288012  -16.511362886  2379.4031   1   8   0.0022   0.0013   0.0123   0.0010   0.0021   0.0036  10.00   20.7
2024/07/31 15:46:41.000   28.297288011  -16.511362886  2379.4031   1   8   0.0022   0.0013   0.0123   0.0011   0.0021   0.0036  11.00   21.2
2024/07/31 15:46:42.000   28.297288011  -16.511362886  2379.4032   1   8   0.0022   0.0013   0.0123   0.0011   0.0021   0.0036  12.00   21.7
2024/07/31 15:46:43.000   28.297288011  -16.511362886  2379.4032   1   8   0.0022   0.0013   0.0123   0.0011   0.0021   0.0036  13.00   22.2
2024/07/31 15:46:44.000   28.297288011  -16.511362886  2379.4032   1   8   0.0022   0.0013   0.0123   0.0011   0.0021   0.0036  14.00   22.6
2024/07/31 15:46:45.000   28.297288011  -16.511362886  2379.4033   1   8   0.0022   0.0013   0.0123   0.0011   0.0021   0.0036 -15.00   23.1
2024/07/31 15:46:46.000   28.297288011  -16.511362886  2379.4033   1   8   0.0022   0.0013   0.0123   0.0011   0.0021   0.0036 -14.00   23.6
2024/07/31 15:46:47.000   28.297288011  -16.511362886  2379.4034   1   8   0.0022   0.0013   0.0123   0.0011   0.0021   0.0036 -13.00   24.0
2024/07/31 15:46:48.000   28.297288011  -16.511362886  2379.4035   1   8   0.0022   0.0013   0.0123   0.0010   0.0021   0.0036 -12.00   24.5
2024/07/31 15:46:49.000   28.297288011  -16.511362886  2379.4035   1   8   0.0022   0.0013   0.0123   0.0010   0.0021   0.0036 -11.00   24.9
2024/07/31 15:46:50.000   28.297288011  -16.511362886  2379.4035   1   8   0.0022   0.0013   0.0123   0.0010   0.0021   0.0036 -10.00   25.4
2024/07/31 15:46:51.000   28.297288011  -16.511362886  2379.4035   1   8   0.0022   0.0013   0.0123   0.0010   0.0021   0.0036  -9.00   25.8
2024/07/31 15:46:52.000   28.297288011  -16.511362886  2379.4034   1   8   0.0022   0.0013   0.0123   0.0010   0.0021   0.0036  -8.00   26.3
2024/07/31 15:46:53.000   28.297288011  -16.511362886  2379.4035   1   8   0.0022   0.0013   0.0123   0.0010   0.0021   0.0036  -7.00   26.8
2024/07/31 15:46:54.000   28.297288011  -16.511362886  2379.4035   1   8   0.0022   0.0013   0.0123   0.0010   0.0021   0.0036  -6.00   27.2
2024/07/31 15:46:55.000   28.297288011  -16.511362886  2379.4036   1   8   0.0022   0.0013   0.0123   0.0010   0.0021   0.0036  -5.00   27.7
2024/07/31 15:46:56.000   28.297288011  -16.511362886  2379.4037   1   8   0.0022   0.0013   0.0123   0.0010   0.0021   0.0036  -4.00   28.1
2024/07/31 15:46:57.000   28.297288011  -16.511362886  2379.4036   1   8   0.0022   0.0013   0.0123   0.0010   0.0021   0.0036  -3.00   28.4
2024/07/31 15:46:58.000   28.297288010  -16.511362887  2379.4035   1   8   0.0022   0.0013   0.0122   0.0010   0.0021   0.0036  -2.00   28.8
2024/07/31 15:46:59.000   28.297288010  -16.511362887  2379.4034   1   8   0.0022   0.0013   0.0122   0.0010   0.0021   0.0036  -1.00   29.3
2024/07/31 15:47:00.000   28.297288014  -16.511362886  2379.4054   1   8   0.0021   0.0013   0.0119   0.0010   0.0019   0.0033   0.00   29.7
2024/07/31 15:47:01.000   28.297288009  -16.511362887  2379.4047   1   8   0.0022   0.0013   0.0122   0.0010   0.0021   0.0036   1.00    7.9
2024/07/31 15:47:02.000   28.297288009  -16.511362886  2379.4046   1   8   0.0022   0.0013   0.0122   0.0010   0.0021   0.0036   2.00   13.2
2024/07/31 15:47:03.000   28.297288008  -16.511362887  2379.4043   1   8   0.0022   0.0013   0.0122   0.0010   0.0021   0.0036   3.00   17.5
2024/07/31 15:47:04.000   28.297288008  -16.511362887  2379.4041   1   8   0.0022   0.0013   0.0122   0.0010   0.0021   0.0036   4.00   21.1
2024/07/31 15:47:05.000   28.297288008  -16.511362887  2379.4039   1   8   0.0022   0.0013   0.0122   0.0010   0.0021   0.0036   5.00   24.0
2024/07/31 15:47:06.000   28.297288007  -16.511362887  2379.4038   1   8   0.0022   0.0013   0.0122   0.0010   0.0021   0.0036   6.00   26.0
2024/07/31 15:47:07.000   28.297288007  -16.511362887  2379.4036   1   8   0.0022   0.0013   0.0122   0.0010   0.0021   0.0036   7.00   27.0
2024/07/31 15:47:08.000   28.297288007  -16.511362887  2379.4034   1   8   0.0022   0.0013   0.0122   0.0010   0.0021   0.0036   8.00   27.7
2024/07/31 15:47:09.000   28.297288006  -16.511362887  2379.4033   1   8   0.0022   0.0013   0.0122   0.0010   0.0021   0.0036   9.00   28.5
2024/07/31 15:47:10.000   28.297288006  -16.511362887  2379.4032   1   8   0.0022   0.0013   0.0122   0.0010   0.0021   0.0036  10.00   29.2
2024/07/31 15:47:11.000   28.297288006  -16.511362887  2379.4031   1   8   0.0022   0.0013   0.0122   0.0010   0.0021   0.0036  11.00   29.9
2024/07/31 15:47:12.000   28.297288006  -16.511362888  2379.4030   1   8   0.0022   0.0013   0.0122   0.0010   0.0021   0.0036  12.00   30.5
2024/07/31 15:47:13.000   28.297288006  -16.511362888  2379.4030   1   8   0.0022   0.0013   0.0122   0.0010   0.0021   0.0036  13.00   31.1
2024/07/31 15:47:14.000   28.297288006  -16.511362888  2379.4030   1   8   0.0022   0.0013   0.0122   0.0010   0.0021   0.0036  14.00   31.8
2024/07/31 15:47:15.000   28.297288006  -16.511362888  2379.4029   1   8   0.0022   0.0013   0.0122   0.0010   0.0021   0.0036 -15.00   32.3
2024/07/31 15:47:16.000   28.297288005  -16.511362888  2379.4029   1   8   0.0022   0.0013   0.0122   0.0010   0.0021   0.0036 -14.00   33.0
2024/07/31 15:47:17.000   28.297288005  -16.511362888  2379.4028   1   8   0.0022   0.0013   0.0122   0.0010   0.0021   0.0036 -13.00   33.6
2024/07/31 15:47:18.000   28.297288005  -16.511362888  2379.4028   1   8   0.0022   0.0013   0.0122   0.0010   0.0021   0.0036 -12.00   34.3
2024/07/31 15:47:19.000   28.297288005  -16.511362888  2379.4027   1   8   0.0022   0.0013   0.0122   0.0010   0.0021   0.0036 -11.00   34.9
2024/07/31 15:47:20.000   28.297288005  -16.511362888  2379.4027   1   8   0.0022   0.0013   0.0122   0.0010   0.0021   0.0036 -10.00   35.5
2024/07/31 15:47:21.000   28.297288005  -16.511362888  2379.4026   1   8   0.0022   0.0013   0.0122   0.0010   0.0021   0.0036  -9.00   36.2
2024/07/31 15:47:22.000   28.297288004  -16.511362888  2379.4026   1   8   0.0022   0.0013   0.0122   0.0010   0.0021   0.0036  -8.00   36.9
2024/07/31 15:47:23.000   28.297288004  -16.511362889  2379.4025   1   8   0.0022   0.0013   0.0122   0.0010   0.0021   0.0036  -7.00   37.7
2024/07/31 15:47:24.000   28.297288004  -16.511362889  2379.4023   1   8   0.0022   0.0013   0.0122   0.0010   0.0021   0.0036  -6.00   38.4
2024/07/31 15:47:25.000   28.297288004  -16.511362889  2379.4022   1   8   0.0022   0.0013   0.0122   0.0010   0.0021   0.0036  -5.00   39.2
2024/07/31 15:47:26.000   28.297288003  -16.511362889  2379.4021   1   8   0.0022   0.0013   0.0121   0.0010   0.0021   0.0036  -4.00   40.0
2024/07/31 15:47:27.000   28.297288003  -16.511362889  2379.4019   1   8   0.0022   0.0013   0.0121   0.0010   0.0021   0.0036  -3.00   40.8
2024/07/31 15:47:28.000   28.297288002  -16.511362890  2379.4017   1   8   0.0022   0.0013   0.0121   0.0010   0.0021   0.0036  -2.00   41.6
2024/07/31 15:47:29.000   28.297288002  -16.511362890  2379.4015   1   8   0.0022   0.0013   0.0121   0.0010   0.0021   0.0036  -1.00   42.7
2024/07/31 15:47:30.000   28.297288008  -16.511362888  2379.4038   1   8   0.0021   0.0012   0.0117   0.0010   0.0019   0.0033   0.00   43.6
2024/07/31 15:47:31.000   28.297288008  -16.511362887  2379.4047   1   8   0.0022   0.0013   0.0121   0.0010   0.0021   0.0036   1.00    9.3
2024/07/31 15:47:32.000   28.297288008  -16.511362887  2379.4046   1   8   0.0022   0.0013   0.0121   0.0010   0.0021   0.0036   2.00   16.0
2024/07/31 15:47:33.000   28.297288008  -16.511362888  2379.4043   1   8   0.0022   0.0013   0.0121   0.0010   0.0021   0.0036   3.00   21.2
2024/07/31 15:47:34.000   28.297288007  -16.511362888  2379.4041   1   8   0.0022   0.0013   0.0121   0.0010   0.0021   0.0036   4.00   25.4
2024/07/31 15:47:35.000   28.297288007  -16.511362888  2379.4039   1   8   0.0022   0.0013   0.0121   0.0010   0.0021   0.0036   5.00   28.8
2024/07/31 15:47:36.000   28.297288007  -16.511362888  2379.4038   1   8   0.0022   0.0013   0.0121   0.0010   0.0021   0.0036   6.00   31.6
2024/07/31 15:47:37.000   28.297288006  -16.511362888  2379.4036   1   8   0.0022   0.0013   0.0121   0.0010   0.0021   0.0036   7.00   33.8
2024/07/31 15:47:38.000   28.297288007  -16.511362888  2379.4036   1   8   0.0022   0.0013   0.0121   0.0010   0.0021   0.0036   8.00   35.9
2024/07/31 15:47:39.000   28.297288006  -16.511362888  2379.4036   1   8   0.0022   0.0013   0.0121   0.0010   0.0021   0.0036   9.00   37.5
2024/07/31 15:47:40.000   28.297288006  -16.511362888  2379.4035   1   8   0.0022   0.0013   0.0121   0.0010   0.0021   0.0036  10.00   39.0
2024/07/31 15:47:41.000   28.297288006  -16.511362888  2379.4035   1   8   0.0022   0.0013   0.0121   0.0010   0.0021   0.0036  11.00   40.3
2024/07/31 15:47:42.000   28.297288006  -16.511362888  2379.4035   1   8   0.0022   0.0013   0.0121   0.0010   0.0021   0.0036  12.00   41.1
2024/07/31 15:47:43.000   28.297288006  -16.511362889  2379.4034   1   8   0.0022   0.0013   0.0121   0.0010   0.0021   0.0036  13.00   41.8
2024/07/31 15:47:44.000   28.297288006  -16.511362889  2379.4034   1   8   0.0022   0.0013   0.0121   0.0010   0.0021   0.0036  14.00   42.5
2024/07/31 15:47:45.000   28.297288006  -16.511362889  2379.4034   1   8   0.0022   0.0013   0.0121   0.0010   0.0021   0.0036 -15.00   43.2
2024/07/31 15:47:46.000   28.297288006  -16.511362889  2379.4034   1   8   0.0022   0.0013   0.0121   0.0010   0.0021   0.0036 -14.00   43.9
2024/07/31 15:47:47.000   28.297288006  -16.511362889  2379.4034   1   8   0.0022   0.0013   0.0121   0.0010   0.0021   0.0036 -13.00   44.7
2024/07/31 15:47:48.000   28.297288006  -16.511362889  2379.4033   1   8   0.0022   0.0013   0.0121   0.0010   0.0021   0.0036 -12.00   45.4
2024/07/31 15:47:49.000   28.297288006  -16.511362889  2379.4033   1   8   0.0022   0.0013   0.0121   0.0010   0.0021   0.0036 -11.00   46.1
2024/07/31 15:47:50.000   28.297288006  -16.511362889  2379.4032   1   8   0.0022   0.0013   0.0121   0.0010   0.0021   0.0036 -10.00   46.9
2024/07/31 15:47:51.000   28.297288006  -16.511362889  2379.4031   1   8   0.0022   0.0013   0.0121   0.0010   0.0021   0.0036  -9.00   47.6
2024/07/31 15:47:52.000   28.297288006  -16.511362889  2379.4030   1   8   0.0022   0.0013   0.0121   0.0010   0.0021   0.0036  -8.00   48.2
2024/07/31 15:47:53.000   28.297288006  -16.511362889  2379.4030   1   8   0.0022   0.0013   0.0121   0.0010   0.0021   0.0036  -7.00   48.8
2024/07/31 15:47:54.000   28.297288006  -16.511362889  2379.4029   1   8   0.0022   0.0013   0.0121   0.0010   0.0021   0.0036  -6.00   49.6
2024/07/31 15:47:55.000   28.297288005  -16.511362889  2379.4028   1   8   0.0022   0.0013   0.0121   0.0010   0.0021   0.0036  -5.00   50.2
2024/07/31 15:47:56.000   28.297288005  -16.511362889  2379.4027   1   8   0.0022   0.0013   0.0120   0.0010   0.0021   0.0036  -4.00   51.1
2024/07/31 15:47:57.000   28.297288005  -16.511362889  2379.4027   1   8   0.0022   0.0013   0.0120   0.0010   0.0021   0.0036  -3.00   51.7
2024/07/31 15:47:58.000   28.297288005  -16.511362890  2379.4026   1   8   0.0022   0.0013   0.0120   0.0010   0.0021   0.0036  -2.00   52.5
2024/07/31 15:47:59.000   28.297288005  -16.511362890  2379.4024   1   8   0.0022   0.0013   0.0120   0.0010   0.0021   0.0036  -1.00   53.3
2024/07/31 15:48:00.000   28.297288011  -16.511362888  2379.4050   1   8   0.0020   0.0012   0.0116   0.0010   0.0019   0.0033   0.00   53.9
2024/07/31 15:48:01.000   28.297288008  -16.511362888  2379.4050   1   8   0.0022   0.0013   0.0120   0.0010   0.0021   0.0036   1.00   10.3
2024/07/31 15:48:02.000   28.297288008  -16.511362888  2379.4051   1   8   0.0022   0.0013   0.0120   0.0010   0.0021   0.0036   2.00   17.9
2024/07/31 15:48:03.000   28.297288008  -16.511362888  2379.4052   1   8   0.0022   0.0013   0.0120   0.0010   0.0021   0.0036   3.00   24.1
2024/07/31 15:48:04.000   28.297288008  -16.511362888  2379.4052   1   8   0.0022   0.0013   0.0120   0.0010   0.0021   0.0036   4.00   28.9
2024/07/31 15:48:05.000   28.297288008  -16.511362888  2379.4052   1   8   0.0022   0.0013   0.0120   0.0010   0.0021   0.0036   5.00   33.0
2024/07/31 15:48:06.000   28.297288007  -16.511362888  2379.4052   1   8   0.0022   0.0013   0.0120   0.0010   0.0021   0.0036   6.00   36.2
2024/07/31 15:48:07.000   28.297288007  -16.511362888  2379.4052   1   8   0.0022   0.0013   0.0120   0.0010   0.0021   0.0036   7.00   38.9
2024/07/31 15:48:08.000   28.297288007  -16.511362888  2379.4052   1   8   0.0022   0.0013   0.0120   0.0010   0.0021   0.0036   8.00   41.1
2024/07/31 15:48:09.000   28.297288007  -16.511362888  2379.4053   1   8   0.0022   0.0013   0.0120   0.0010   0.0021   0.0036   9.00   43.1
2024/07/31 15:48:10.000   28.297288007  -16.511362888  2379.4053   1   8   0.0022   0.0013   0.0120   0.0010   0.0021   0.0036  10.00   44.8
2024/07/31 15:48:11.000   28.297288007  -16.511362888  2379.4053   1   8   0.0022   0.0013   0.0120   0.0010   0.0021   0.0036  11.00   46.3
2024/07/31 15:48:12.000   28.297288007  -16.511362888  2379.4054   1   8   0.0022   0.0013   0.0120   0.0010   0.0021   0.0036  12.00   47.6
2024/07/31 15:48:13.000   28.297288007  -16.511362888  2379.4054   1   8   0.0022   0.0013   0.0120   0.0010   0.0021   0.0036  13.00   48.8
2024/07/31 15:48:14.000   28.297288007  -16.511362888  2379.4054   1   8   0.0022   0.0013   0.0120   0.0010   0.0021   0.0036  14.00   49.9
2024/07/31 15:48:15.000   28.297288007  -16.511362888  2379.4055   1   8   0.0022   0.0013   0.0120   0.0010   0.0021   0.0036 -15.00   50.9
2024/07/31 15:48:16.000   28.297288007  -16.511362888  2379.4055   1   8   0.0022   0.0013   0.0120   0.0010   0.0021   0.0036 -14.00   52.0
2024/07/31 15:48:17.000   28.297288007  -16.511362888  2379.4056   1   8   0.0022   0.0013   0.0120   0.0010   0.0021   0.0036 -13.00   53.1
2024/07/31 15:48:18.000   28.297288006  -16.511362888  2379.4057   1   8   0.0022   0.0013   0.0120   0.0010   0.0021   0.0036 -12.00   54.5
2024/07/31 15:48:19.000   28.297288006  -16.511362888  2379.4058   1   8   0.0022   0.0013   0.0120   0.0010   0.0021   0.0036 -11.00   55.9
2024/07/31 15:48:20.000   28.297288006  -16.511362888  2379.4058   1   8   0.0022   0.0013   0.0120   0.0010   0.0021   0.0036 -10.00   57.5
2024/07/31 15:48:21.000   28.297288006  -16.511362888  2379.4059   1   8   0.0022   0.0013   0.0120   0.0010   0.0021   0.0036  -9.00   59.1
2024/07/31 15:48:22.000   28.297288006  -16.511362888  2379.4060   1   8   0.0022   0.0013   0.0120   0.0010   0.0021   0.0036  -8.00   60.1
2024/07/31 15:48:23.000   28.297288006  -16.511362888  2379.4061   1   8   0.0021   0.0013   0.0120   0.0010   0.0021   0.0036  -7.00   61.1
2024/07/31 15:48:24.000   28.297288006  -16.511362888  2379.4062   1   8   0.0021   0.0013   0.0120   0.0010   0.0021   0.0036  -6.00   62.1
2024/07/31 15:48:25.000   28.297288006  -16.511362888  2379.4063   1   8   0.0021   0.0012   0.0120   0.0010   0.0021   0.0036  -5.00   62.9
2024/07/31 15:48:26.000   28.297288006  -16.511362888  2379.4063   1   8   0.0021   0.0012   0.0120   0.0010   0.0021   0.0036  -4.00   63.7
2024/07/31 15:48:27.000   28.297288006  -16.511362887  2379.4064   1   8   0.0021   0.0012   0.0119   0.0010   0.0021   0.0036  -3.00   64.4
2024/07/31 15:48:28.000   28.297288006  -16.511362887  2379.4064   1   8   0.0021   0.0012   0.0119   0.0010   0.0021   0.0036  -2.00   65.1
2024/07/31 15:48:29.000   28.297288005  -16.511362888  2379.4063   1   8   0.0021   0.0012   0.0119   0.0010   0.0021   0.0036  -1.00   65.8
2024/07/31 15:48:30.000   28.297288010  -16.511362886  2379.4084   1   8   0.0020   0.0012   0.0116   0.0010   0.0019   0.0033   0.00   66.3
2024/07/31 15:48:31.000   28.297288008  -16.511362887  2379.4079   1   8   0.0021   0.0012   0.0119   0.0010   0.0021   0.0036   1.00   10.2
2024/07/31 15:48:32.000   28.297288008  -16.511362887  2379.4079   1   8   0.0021   0.0012   0.0119   0.0010   0.0021   0.0036   2.00   17.3
2024/07/31 15:48:33.000   28.297288007  -16.511362887  2379.4079   1   8   0.0021   0.0012   0.0119   0.0010   0.0021   0.0036   3.00   23.0
2024/07/31 15:48:34.000   28.297288007  -16.511362887  2379.4079   1   8   0.0021   0.0012   0.0119   0.0010   0.0021   0.0036   4.00   28.0
2024/07/31 15:48:35.000   28.297288007  -16.511362887  2379.4077   1   8   0.0021   0.0012   0.0119   0.0010   0.0021   0.0036   5.00   32.0
2024/07/31 15:48:36.000   28.297288007  -16.511362887  2379.4077   1   8   0.0021   0.0012   0.0119   0.0010   0.0021   0.0036   6.00   35.3
2024/07/31 15:48:37.000   28.297288006  -16.511362887  2379.4076   1   8   0.0021   0.0012   0.0119   0.0010   0.0021   0.0036   7.00   37.9
2024/07/31 15:48:38.000   28.297288006  -16.511362887  2379.4075   1   8   0.0021   0.0012   0.0119   0.0010   0.0021   0.0036   8.00   40.1
2024/07/31 15:48:39.000   28.297288006  -16.511362888  2379.4075   1   8   0.0021   0.0012   0.0119   0.0010   0.0021   0.0036   9.00   42.0
2024/07/31 15:48:40.000   28.297288006  -16.511362888  2379.4075   1   8   0.0021   0.0012   0.0119   0.0010   0.0021   0.0036  10.00   43.6
2024/07/31 15:48:41.000   28.297288006  -16.511362888  2379.4075   1   8   0.0021   0.0012   0.0119   0.0010   0.0021   0.0036  11.00   45.1
2024/07/31 15:48:42.000   28.297288006  -16.511362888  2379.4075   1   8   0.0021   0.0012   0.0119   0.0010   0.0021   0.0036  12.00   46.4
2024/07/31 15:48:43.000   28.297288006  -16.511362888  2379.4076   1   8   0.0021   0.0012   0.0119   0.0010   0.0021   0.0036  13.00   47.6
2024/07/31 15:48:44.000   28.297288006  -16.511362888  2379.4076   1   8   0.0021   0.0012   0.0119   0.0010   0.0021   0.0036  14.00   48.7
2024/07/31 15:48:45.000   28.297288006  -16.511362888  2379.4076   1   8   0.0021   0.0012   0.0119   0.0010   0.0021   0.0036 -15.00   49.8
2024/07/31 15:48:46.000   28.297288006  -16.511362888  2379.4076   1   8   0.0021   0.0012   0.0119   0.0010   0.0021   0.0036 -14.00   50.9
2024/07/31 15:48:47.000   28.297288006  -16.511362888  2379.4076   1   8   0.0021   0.0012   0.0119   0.0010   0.0021   0.0036 -13.00   52.1
2024/07/31 15:48:48.000   28.297288006  -16.511362888  2379.4076   1   8   0.0021   0.0012   0.0119   0.0010   0.0021   0.0036 -12.00   53.4
2024/07/31 15:48:49.000   28.297288005  -16.511362888  2379.4076   1   8   0.0021   0.0012   0.0119   0.0010   0.0021   0.0036 -11.00   54.9
2024/07/31 15:48:50.000   28.297288005  -16.511362888  2379.4076   1   8   0.0021   0.0012   0.0119   0.0010   0.0021   0.0036 -10.00   56.6
2024/07/31 15:48:51.000   28.297288005  -16.511362888  2379.4076   1   8   0.0021   0.0012   0.0119   0.0010   0.0021   0.0036  -9.00   58.3
2024/07/31 15:48:52.000   28.297288005  -16.511362888  2379.4076   1   8   0.0021   0.0012   0.0119   0.0010   0.0021   0.0036  -8.00   60.2
2024/07/31 15:48:53.000   28.297288005  -16.511362888  2379.4076   1   8   0.0021   0.0012   0.0119   0.0010   0.0021   0.0036  -7.00   62.0
2024/07/31 15:48:54.000   28.297288005  -16.511362888  2379.4076   1   8   0.0021   0.0012   0.0119   0.0010   0.0021   0.0036  -6.00   63.9
2024/07/31 15:48:55.000   28.297288005  -16.511362888  2379.4075   1   8   0.0021   0.0012   0.0119   0.0010   0.0021   0.0036  -5.00   65.9
2024/07/31 15:48:56.000   28.297288005  -16.511362888  2379.4074   1   8   0.0021   0.0012   0.0119   0.0010   0.0021   0.0036  -4.00   66.9
2024/07/31 15:48:57.000   28.297288005  -16.511362888  2379.4072   1   8   0.0021   0.0012   0.0119   0.0010   0.0021   0.0036  -3.00   68.1
2024/07/31 15:48:58.000   28.297288005  -16.511362888  2379.4071   1   8   0.0021   0.0012   0.0119   0.0010   0.0021   0.0036  -2.00   69.0
2024/07/31 15:48:59.000   28.297288004  -16.511362889  2379.4068   1   8   0.0021   0.0012   0.0118   0.0010   0.0021   0.0036  -1.00   70.0
2024/07/31 15:49:00.000   28.297288006  -16.511362888  2379.4073   1   8   0.0020   0.0012   0.0115   0.0010   0.0019   0.0033   0.00   70.9
2024/07/31 15:49:01.000   28.297288005  -16.511362888  2379.4070   1   8   0.0021   0.0012   0.0119   0.0010   0.0021   0.0036   1.00   10.4
2024/07/31 15:49:02.000   28.297288004  -16.511362889  2379.4068   1   8   0.0021   0.0012   0.0118   0.0010   0.0021   0.0036   2.00   17.9
2024/07/31 15:49:03.000   28.297288004  -16.511362889  2379.4066   1   8   0.0021   0.0012   0.0118   0.0010   0.0021   0.0036   3.00   23.9
2024/07/31 15:49:04.000   28.297288003  -16.511362889  2379.4064   1   8   0.0021   0.0012   0.0118   0.0010   0.0021   0.0036   4.00   28.5
2024/07/31 15:49:05.000   28.297288003  -16.511362889  2379.4063   1   8   0.0021   0.0012   0.0119   0.0010   0.0021   0.0036   5.00   32.1
2024/07/31 15:49:06.000   28.297288003  -16.511362889  2379.4063   1   8   0.0021   0.0012   0.0118   0.0010   0.0021   0.0036   6.00   35.1
2024/07/31 15:49:07.000   28.297288003  -16.511362890  2379.4061   1   8   0.0021   0.0012   0.0118   0.0010   0.0021   0.0036   7.00   37.4
2024/07/31 15:49:08.000   28.297288003  -16.511362890  2379.4061   1   8   0.0021   0.0012   0.0118   0.0010   0.0021   0.0036   8.00   39.5
2024/07/31 15:49:09.000   28.297288002  -16.511362890  2379.4060   1   8   0.0021   0.0012   0.0118   0.0010   0.0021   0.0036   9.00   41.1
2024/07/31 15:49:10.000   28.297288002  -16.511362890  2379.4060   1   8   0.0021   0.0012   0.0118   0.0010   0.0021   0.0036  10.00   42.5
2024/07/31 15:49:11.000   28.297288002  -16.511362890  2379.4060   1   8   0.0021   0.0012   0.0118   0.0010   0.0021   0.0036  11.00   43.8
2024/07/31 15:49:12.000   28.297288002  -16.511362890  2379.4060   1   8   0.0021   0.0012   0.0118   0.0010   0.0021   0.0036  12.00   45.0
2024/07/31 15:49:13.000   28.297288002  -16.511362890  2379.4060   1   8   0.0021   0.0012   0.0118   0.0010   0.0021   0.0036  13.00   46.0
2024/07/31 15:49:14.000   28.297288002  -16.511362890  2379.4060   1   8   0.0021   0.0012   0.0118   0.0010   0.0021   0.0036  14.00   47.0
2024/07/31 15:49:15.000   28.297288002  -16.511362890  2379.4060   1   8   0.0021   0.0012   0.0118   0.0010   0.0021   0.0036 -15.00   47.9
2024/07/31 15:49:16.000   28.297288002  -16.511362890  2379.4060   1   8   0.0021   0.0012   0.0118   0.0010   0.0021   0.0036 -14.00   48.8
2024/07/31 15:49:17.000   28.297288002  -16.511362890  2379.4060   1   8   0.0021   0.0012   0.0118   0.0010   0.0021   0.0036 -13.00   49.7
2024/07/31 15:49:18.000   28.297288002  -16.511362890  2379.4059   1   8   0.0021   0.0012   0.0118   0.0010   0.0021   0.0036 -12.00   50.8
2024/07/31 15:49:19.000   28.297288002  -16.511362890  2379.4059   1   8   0.0021   0.0012   0.0118   0.0010   0.0021   0.0036 -11.00   52.0
2024/07/31 15:49:20.000   28.297288002  -16.511362890  2379.4059   1   8   0.0021   0.0012   0.0118   0.0010   0.0021   0.0036 -10.00   53.5
2024/07/31 15:49:21.000   28.297288002  -16.511362890  2379.4058   1   8   0.0021   0.0012   0.0118   0.0010   0.0021   0.0036  -9.00   55.1
2024/07/31 15:49:22.000   28.297288002  -16.511362890  2379.4058   1   8   0.0021   0.0012   0.0118   0.0010   0.0021   0.0036  -8.00   57.0
2024/07/31 15:49:23.000   28.297288002  -16.511362890  2379.4058   1   8   0.0021   0.0012   0.0118   0.0010   0.0021   0.0036  -7.00   59.2
2024/07/31 15:49:24.000   28.297288001  -16.511362890  2379.4058   1   8   0.0021   0.0012   0.0118   0.0010   0.0021   0.0036  -6.00   61.7
2024/07/31 15:49:25.000   28.297288001  -16.511362890  2379.4057   1   8   0.0021   0.0012   0.0118   0.0010   0.0021   0.0036  -5.00   64.2
2024/07/31 15:49:26.000   28.297288001  -16.511362891  2379.4057   1   8   0.0021   0.0012   0.0118   0.0010   0.0021   0.0036  -4.00   65.0
2024/07/31 15:49:27.000   28.297288001  -16.511362891  2379.4055   1   8   0.0021   0.0012   0.0118   0.0010   0.0021   0.0036  -3.00   66.0
2024/07/31 15:49:28.000   28.297288001  -16.511362891  2379.4057   1   8   0.0021   0.0012   0.0118   0.0010   0.0021   0.0036  -2.00   67.1
2024/07/31 15:49:29.000   28.297288001  -16.511362891  2379.4056   1   8   0.0021   0.0012   0.0118   0.0010   0.0021   0.0036  -1.00   68.0
2024/07/31 15:49:30.000   28.297288005  -16.511362890  2379.4072   1   8   0.0020   0.0012   0.0114   0.0009   0.0019   0.0033   0.00   68.8
2024/07/31 15:49:31.000   28.297288006  -16.511362888  2379.4084   1   8   0.0021   0.0012   0.0118   0.0010   0.0021   0.0036   1.00   10.5
2024/07/31 15:49:32.000   28.297288005  -16.511362889  2379.4083   1   8   0.0021   0.0012   0.0118   0.0010   0.0021   0.0036   2.00   17.9
2024/07/31 15:49:33.000   28.297288005  -16.511362889  2379.4083   1   8   0.0021   0.0012   0.0118   0.0010   0.0021   0.0036   3.00   23.9
2024/07/31 15:49:34.000   28.297288005  -16.511362889  2379.4082   1   8   0.0021   0.0012   0.0118   0.0010   0.0021   0.0036   4.00   28.7
2024/07/31 15:49:35.000   28.297288005  -16.511362889  2379.4082   1   8   0.0021   0.0012   0.0118   0.0010   0.0021   0.0036   5.00   32.8
2024/07/31 15:49:36.000   28.297288005  -16.511362889  2379.4081   1   8   0.0021   0.0012   0.0118   0.0010   0.0021   0.0036   6.00   36.1
2024/07/31 15:49:37.000   28.297288005  -16.511362889  2379.4081   1   8   0.0021   0.0012   0.0118   0.0010   0.0021   0.0036   7.00   38.9
2024/07/31 15:49:38.000   28.297288005  -16.511362889  2379.4081   1   8   0.0021   0.0012   0.0118   0.0010   0.0021   0.0036   8.00   41.3
2024/07/31 15:49:39.000   28.297288005  -16.511362889  2379.4081   1   8   0.0021   0.0012   0.0118   0.0010   0.0021   0.0036   9.00   43.2
2024/07/31 15:49:40.000   28.297288005  -16.511362889  2379.4081   1   8   0.0021   0.0012   0.0118   0.0010   0.0021   0.0036  10.00   45.0
2024/07/31 15:49:41.000   28.297288005  -16.511362889  2379.4081   1   8   0.0021   0.0012   0.0118   0.0010   0.0021   0.0036  11.00   46.6
2024/07/31 15:49:42.000   28.297288005  -16.511362889  2379.4081   1   8   0.0021   0.0012   0.0118   0.0010   0.0021   0.0036  12.00   48.1
2024/07/31 15:49:43.000   28.297288004  -16.511362889  2379.4080   1   8   0.0021   0.0012   0.0118   0.0010   0.0021   0.0036  13.00   49.4
2024/07/31 15:49:44.000   28.297288004  -16.511362889  2379.4080   1   8   0.0021   0.0012   0.0118   0.0010   0.0021   0.0036  14.00   50.5
2024/07/31 15:49:45.000   28.297288004  -16.511362889  2379.4080   1   8   0.0021   0.0012   0.0118   0.0010   0.0021   0.0036 -15.00   51.5
2024/07/31 15:49:46.000   28.297288004  -16.511362889  2379.4080   1   8   0.0021   0.0012   0.0117   0.0010   0.0021   0.0036 -14.00   52.6
2024/07/31 15:49:47.000   28.297288004  -16.511362889  2379.4079   1   8   0.0021   0.0012   0.0117   0.0010   0.0021   0.0036 -13.00   53.8
2024/07/31 15:49:48.000   28.297288004  -16.511362890  2379.4080   1   8   0.0021   0.0012   0.0117   0.0010   0.0021   0.0036 -12.00   55.1
2024/07/31 15:49:49.000   28.297288004  -16.511362890  2379.4080   1   8   0.0021   0.0012   0.0117   0.0010   0.0021   0.0036 -11.00   56.6
2024/07/31 15:49:50.000   28.297288004  -16.511362890  2379.4080   1   8   0.0021   0.0012   0.0117   0.0010   0.0021   0.0036 -10.00   58.1
2024/07/31 15:49:51.000   28.297288004  -16.511362890  2379.4080   1   8   0.0021   0.0012   0.0117   0.0010   0.0021   0.0036  -9.00   59.8
2024/07/31 15:49:52.000   28.297288004  -16.511362890  2379.4079   1   8   0.0021   0.0012   0.0117   0.0010   0.0021   0.0036  -8.00   61.8
2024/07/31 15:49:53.000   28.297288004  -16.511362890  2379.4079   1   8   0.0021   0.0012   0.0117   0.0010   0.0021   0.0036  -7.00   63.9
2024/07/31 15:49:54.000   28.297288003  -16.511362890  2379.4078   1   8   0.0021   0.0012   0.0117   0.0010   0.0021   0.0036  -6.00   65.6
2024/07/31 15:49:55.000   28.297288003  -16.511362890  2379.4077   1   8   0.0021   0.0012   0.0117   0.0010   0.0021   0.0036  -5.00   67.6
2024/07/31 15:49:56.000   28.297288003  -16.511362890  2379.4076   1   8   0.0021   0.0012   0.0117   0.0010   0.0021   0.0036  -4.00   69.5
2024/07/31 15:49:57.000   28.297288003  -16.511362890  2379.4075   1   8   0.0021   0.0012   0.0117   0.0010   0.0021   0.0036  -3.00   70.8
2024/07/31 15:49:58.000   28.297288003  -16.511362890  2379.4074   1   8   0.0021   0.0012   0.0117   0.0010   0.0021   0.0036  -2.00   71.3
2024/07/31 15:49:59.000   28.297288003  -16.511362890  2379.4073   1   8   0.0021   0.0012   0.0117   0.0010   0.0021   0.0036  -1.00   72.0
2024/07/31 15:50:00.000   28.297288003  -16.511362891  2379.4068   1   8   0.0020   0.0012   0.0113   0.0009   0.0019   0.0033   0.00   72.6
2024/07/31 15:50:01.000   28.297288002  -16.511362891  2379.4070   1   8   0.0021   0.0012   0.0117   0.0010   0.0021   0.0036   1.00    9.9
2024/07/31 15:50:02.000   28.297288003  -16.511362891  2379.4070   1   8   0.0021   0.0012   0.0117   0.0010   0.0021   0.0036   2.00   17.4
2024/07/31 15:50:03.000   28.297288002  -16.511362891  2379.4069   1   8   0.0021   0.0012   0.0117   0.0010   0.0021   0.0036   3.00   23.1
2024/07/31 15:50:04.000   28.297288002  -16.511362891  2379.4069   1   8   0.0021   0.0012   0.0117   0.0010   0.0021   0.0036   4.00   27.6
2024/07/31 15:50:05.000   28.297288002  -16.511362891  2379.4069   1   8   0.0021   0.0012   0.0117   0.0010   0.0021   0.0036   5.00   31.4
2024/07/31 15:50:06.000   28.297288002  -16.511362891  2379.4069   1   8   0.0021   0.0012   0.0117   0.0010   0.0021   0.0036   6.00   34.4
2024/07/31 15:50:07.000   28.297288002  -16.511362891  2379.4069   1   8   0.0021   0.0012   0.0117   0.0010   0.0021   0.0036   7.00   36.7
2024/07/31 15:50:08.000   28.297288002  -16.511362891  2379.4069   1   8   0.0021   0.0012   0.0117   0.0010   0.0021   0.0036   8.00   38.8
2024/07/31 15:50:09.000   28.297288002  -16.511362891  2379.4069   1   8   0.0021   0.0012   0.0117   0.0010   0.0021   0.0036   9.00   40.6
2024/07/31 15:50:10.000   28.297288002  -16.511362891  2379.4069   1   8   0.0021   0.0012   0.0117   0.0010   0.0021   0.0036  10.00   42.2
2024/07/31 15:50:11.000   28.297288002  -16.511362891  2379.4069   1   8   0.0021   0.0012   0.0117   0.0010   0.0021   0.0036  11.00   43.7
2024/07/31 15:50:12.000   28.297288002  -16.511362892  2379.4069   1   8   0.0021   0.0012   0.0117   0.0010   0.0021   0.0036  12.00   45.0
2024/07/31 15:50:13.000   28.297288002  -16.511362892  2379.4068   1   8   0.0021   0.0012   0.0117   0.0010   0.0021   0.0036  13.00   46.2
2024/07/31 15:50:14.000   28.297288002  -16.511362892  2379.4068   1   8   0.0021   0.0012   0.0117   0.0010   0.0021   0.0036  14.00   47.2
2024/07/31 15:50:15.000   28.297288002  -16.511362892  2379.4068   1   8   0.0021   0.0012   0.0117   0.0010   0.0021   0.0036 -15.00   48.2
2024/07/31 15:50:16.000   28.297288002  -16.511362892  2379.4068   1   8   0.0021   0.0012   0.0117   0.0010   0.0021   0.0036 -14.00   49.2
2024/07/31 15:50:17.000   28.297288002  -16.511362892  2379.4068   1   8   0.0021   0.0012   0.0117   0.0010   0.0021   0.0036 -13.00   50.4
2024/07/31 15:50:18.000   28.297288002  -16.511362892  2379.4067   1   8   0.0021   0.0012   0.0117   0.0010   0.0021   0.0036 -12.00   51.7
2024/07/31 15:50:19.000   28.297288002  -16.511362892  2379.4067   1   8   0.0021   0.0012   0.0117   0.0010   0.0021   0.0036 -11.00   53.2
2024/07/31 15:50:20.000   28.297288001  -16.511362892  2379.4067   1   8   0.0021   0.0012   0.0117   0.0010   0.0021   0.0036 -10.00   54.7
2024/07/31 15:50:21.000   28.297288001  -16.511362892  2379.4066   1   8   0.0021   0.0012   0.0117   0.0010   0.0021   0.0036  -9.00   56.6
2024/07/31 15:50:22.000   28.297288001  -16.511362892  2379.4066   1   8   0.0021   0.0012   0.0116   0.0010   0.0021   0.0036  -8.00   58.6
2024/07/31 15:50:23.000   28.297288001  -16.511362892  2379.4065   1   8   0.0021   0.0012   0.0116   0.0010   0.0021   0.0036  -7.00   60.9
2024/07/31 15:50:24.000   28.297288001  -16.511362892  2379.4065   1   8   0.0021   0.0012   0.0116   0.0010   0.0021   0.0036  -6.00   63.7
2024/07/31 15:50:25.000   28.297288001  -16.511362893  2379.4064   1   8   0.0021   0.0012   0.0116   0.0010   0.0021   0.0036  -5.00   66.6
2024/07/31 15:50:26.000   28.297288001  -16.511362893  2379.4063   1   8   0.0021   0.0012   0.0116   0.0010   0.0021   0.0036  -4.00   69.0
2024/07/31 15:50:27.000   28.297288001  -16.511362893  2379.4063   1   8   0.0021   0.0012   0.0116   0.0010   0.0021   0.0036  -3.00   70.5
2024/07/31 15:50:28.000   28.297288000  -16.511362893  2379.4063   1   8   0.0021   0.0012   0.0116   0.0010   0.0021   0.0036  -2.00   72.1
2024/07/31 15:50:29.000   28.297288000  -16.511362893  2379.4060   1   8   0.0021   0.0012   0.0116   0.0010   0.0021   0.0036  -1.00   73.3
2024/07/31 15:50:30.000   28.297287998  -16.511362894  2379.4050   1   8   0.0020   0.0012   0.0112   0.0009   0.0019   0.0033   0.00   74.6
2024/07/31 15:50:31.000   28.297287999  -16.511362893  2379.4062   1   8   0.0021   0.0012   0.0116   0.0010   0.0021   0.0036   1.00   10.9
2024/07/31 15:50:32.000   28.297287999  -16.511362893  2379.4061   1   8   0.0021   0.0012   0.0116   0.0010   0.0021   0.0036   2.00   19.3
2024/07/31 15:50:33.000   28.297287999  -16.511362894  2379.4060   1   8   0.0021   0.0012   0.0116   0.0010   0.0021   0.0036   3.00   25.8
2024/07/31 15:50:34.000   28.297287999  -16.511362894  2379.4060   1   8   0.0021   0.0012   0.0116   0.0010   0.0021   0.0036   4.00   31.4
2024/07/31 15:50:35.000   28.297287998  -16.511362894  2379.4059   1   8   0.0021   0.0012   0.0116   0.0010   0.0021   0.0036   5.00   36.1
2024/07/31 15:50:36.000   28.297287998  -16.511362894  2379.4058   1   8   0.0021   0.0012   0.0116   0.0010   0.0021   0.0036   6.00   40.1
2024/07/31 15:50:37.000   28.297287998  -16.511362894  2379.4057   1   8   0.0021   0.0012   0.0116   0.0010   0.0021   0.0036   7.00   43.4
2024/07/31 15:50:38.000   28.297287998  -16.511362894  2379.4056   1   8   0.0021   0.0012   0.0116   0.0010   0.0021   0.0036   8.00   46.1
2024/07/31 15:50:39.000   28.297287997  -16.511362894  2379.4054   1   8   0.0021   0.0012   0.0116   0.0010   0.0021   0.0036   9.00   48.4
2024/07/31 15:50:40.000   28.297287997  -16.511362894  2379.4053   1   8   0.0021   0.0012   0.0116   0.0010   0.0021   0.0036  10.00   50.3
2024/07/31 15:50:41.000   28.297287997  -16.511362895  2379.4052   1   8   0.0021   0.0012   0.0116   0.0010   0.0021   0.0036  11.00   52.0
2024/07/31 15:50:42.000   28.297287997  -16.511362895  2379.4052   1   8   0.0021   0.0012   0.0116   0.0010   0.0021   0.0036  12.00   53.5
2024/07/31 15:50:43.000   28.297287997  -16.511362895  2379.4051   1   8   0.0021   0.0012   0.0116   0.0010   0.0021   0.0036  13.00   54.9
2024/07/31 15:50:44.000   28.297287997  -16.511362895  2379.4051   1   8   0.0021   0.0012   0.0116   0.0010   0.0021   0.0036  14.00   56.1
2024/07/31 15:50:45.000   28.297287997  -16.511362895  2379.4051   1   8   0.0021   0.0012   0.0116   0.0010   0.0021   0.0036 -15.00   57.3
2024/07/31 15:50:46.000   28.297287997  -16.511362895  2379.4051   1   8   0.0021   0.0012   0.0116   0.0010   0.0021   0.0036 -14.00   58.6
2024/07/31 15:50:47.000   28.297287997  -16.511362895  2379.4050   1   8   0.0021   0.0012   0.0116   0.0010   0.0021   0.0036 -13.00   59.9
2024/07/31 15:50:48.000   28.297287997  -16.511362895  2379.4050   1   8   0.0021   0.0012   0.0116   0.0010   0.0021   0.0036 -12.00   61.3
2024/07/31 15:50:49.000   28.297287997  -16.511362895  2379.4050   1   8   0.0021   0.0012   0.0116   0.0010   0.0021   0.0036 -11.00   62.9
2024/07/31 15:50:50.000   28.297287996  -16.511362895  2379.4049   1   8   0.0021   0.0012   0.0116   0.0010   0.0021   0.0036 -10.00   64.8
2024/07/31 15:50:51.000   28.297287996  -16.511362895  2379.4049   1   8   0.0021   0.0012   0.0116   0.0010   0.0021   0.0036  -9.00   66.9
2024/07/31 15:50:52.000   28.297287996  -16.511362895  2379.4049   1   8   0.0021   0.0012   0.0116   0.0010   0.0021   0.0036  -8.00   68.8
2024/07/31 15:50:53.000   28.297287996  -16.511362896  2379.4048   1   8   0.0021   0.0012   0.0116   0.0010   0.0021   0.0036  -7.00   70.7
2024/07/31 15:50:54.000   28.297287996  -16.511362896  2379.4048   1   8   0.0021   0.0012   0.0116   0.0010   0.0021   0.0036  -6.00   72.9
2024/07/31 15:50:55.000   28.297287996  -16.511362896  2379.4048   1   8   0.0021   0.0012   0.0116   0.0010   0.0021   0.0036  -5.00   75.3
2024/07/31 15:50:56.000   28.297287996  -16.511362896  2379.4048   1   8   0.0021   0.0012   0.0115   0.0010   0.0021   0.0036  -4.00   77.9
2024/07/31 15:50:57.000   28.297287996  -16.511362896  2379.4047   1   8   0.0021   0.0012   0.0115   0.0010   0.0021   0.0035  -3.00   80.5
