% program   : RTKPOST-EX 2.5.0
% inp file  : C:\Users\SallyHenry\Desktop\Sally Internship\GNSS gravi\DATA\Survey Rover Obs\CAMI1.24o
% inp file  : C:\Users\SallyHenry\Desktop\Sally Internship\GNSS gravi\DATA\BaseStations\IZAN\IZAN00ESP_R_20242130000_01D_30S_MO.rnx
% inp file  : C:\Users\SallyHenry\Desktop\Sally Internship\GNSS gravi\DATA\BaseStations\IZAN\IZAN00ESP_R_20242130000_01D_MN.rnx
% inp file  : C:\Users\SallyHenry\Desktop\Sally Internship\GNSS gravi\DATA\aux_files\Survey\IGS0OPSFIN_20242130000_01D_15M_ORB.SP3
% inp file  : C:\Users\SallyHenry\Desktop\Sally Internship\GNSS gravi\DATA\aux_files\Survey\IGS0OPSFIN_20242130000_01D_30S_CLK.CLK
% obs start : 2024/07/31 11:55:38.0 GPST (week2325 302138.0s)
% obs end   : 2024/07/31 12:11:38.0 GPST (week2325 303098.0s)
% pos mode  : Static
% freqs     : L1+L2/E5b
% solution  : Combined-No Phase Reset
% elev mask : 15.0 deg
% dynamics  : on
% tidecorr  : solid
% ionos opt : Estimate TEC
% tropo opt : Estimate ZTD+Grad
% ephemeris : Precise
% navi sys  : GPS GLONASS Galileo QZSS BDS
% amb res   : Fix and Hold
% amb glo   : Fix and Hold
% amb bds   : on
% val thres : 3.0
% antenna1  :                       ( 0.0000  0.0000  1.8000)
% antenna2  :                       ( 0.0000  0.0000  0.0000)
% ref pos   :  28.308069410  -16.499677180  2417.4044
%
% (lat/lon/height=WGS84/ellipsoidal,Q=1:fix,2:float,3:sbas,4:dgps,5:single,6:ppp,ns=# of satellites)
%  GPST                  latitude(deg) longitude(deg)  height(m)   Q  ns   sdn(m)   sde(m)   sdu(m)  sdne(m)  sdeu(m)  sdun(m) age(s)  ratio
2024/07/31 11:55:38.000   28.330279566  -16.532011242  1628.1023   2   7   0.0155   0.0314   0.0875   0.0095   0.0366   0.0122 -22.00    0.0
2024/07/31 11:55:39.000   28.330279566  -16.532011241  1628.1013   2   7   0.0155   0.0314   0.0875   0.0095   0.0366   0.0122 -21.00    0.0
2024/07/31 11:55:40.000   28.330279566  -16.532011238  1628.1022   2   7   0.0155   0.0314   0.0875   0.0095   0.0366   0.0122 -20.00    0.0
2024/07/31 11:55:41.000   28.330279566  -16.532011242  1628.1017   2   7   0.0155   0.0314   0.0875   0.0095   0.0366   0.0122 -19.00    0.0
2024/07/31 11:55:42.000   28.330279566  -16.532011241  1628.1019   2   7   0.0155   0.0314   0.0876   0.0095   0.0366   0.0122 -18.00    0.0
2024/07/31 11:55:43.000   28.330279566  -16.532011239  1628.1024   2   7   0.0155   0.0314   0.0876   0.0095   0.0366   0.0122 -17.00    0.0
2024/07/31 11:55:44.000   28.330279566  -16.532011239  1628.1023   2   7   0.0155   0.0314   0.0876   0.0095   0.0366   0.0122 -16.00    0.0
2024/07/31 11:55:45.000   28.330279565  -16.532011239  1628.1025   2   7   0.0155   0.0314   0.0876   0.0095   0.0366   0.0122 -15.00    0.0
2024/07/31 11:55:46.000   28.330279565  -16.532011241  1628.1020   2   7   0.0155   0.0314   0.0876   0.0095   0.0366   0.0122 -14.00    0.0
2024/07/31 11:55:47.000   28.330279565  -16.532011242  1628.1017   2   7   0.0155   0.0314   0.0876   0.0095   0.0365   0.0122 -13.00    0.0
2024/07/31 11:55:48.000   28.330279564  -16.532011241  1628.1013   2   7   0.0155   0.0314   0.0876   0.0095   0.0365   0.0122 -12.00    0.0
2024/07/31 11:55:49.000   28.330279564  -16.532011244  1628.1005   2   7   0.0155   0.0314   0.0876   0.0095   0.0365   0.0122 -11.00    0.0
2024/07/31 11:55:50.000   28.330279562  -16.532011248  1628.0994   2   7   0.0155   0.0314   0.0876   0.0095   0.0365   0.0122 -10.00    0.0
2024/07/31 11:55:51.000   28.330279561  -16.532011250  1628.0983   2   7   0.0155   0.0314   0.0876   0.0095   0.0365   0.0122  -9.00    0.0
2024/07/31 11:55:52.000   28.330279561  -16.532011249  1628.0969   2   7   0.0155   0.0314   0.0877   0.0095   0.0365   0.0122  -8.00    0.0
2024/07/31 11:55:53.000   28.330279560  -16.532011250  1628.0958   2   7   0.0155   0.0314   0.0877   0.0095   0.0365   0.0122  -7.00    0.0
2024/07/31 11:55:54.000   28.330279559  -16.532011249  1628.0953   2   7   0.0155   0.0314   0.0877   0.0095   0.0365   0.0122  -6.00    0.0
2024/07/31 11:55:55.000   28.330279559  -16.532011246  1628.0941   2   7   0.0155   0.0314   0.0877   0.0095   0.0365   0.0122  -5.00    0.0
2024/07/31 11:55:56.000   28.330279558  -16.532011244  1628.0928   2   7   0.0155   0.0314   0.0878   0.0095   0.0365   0.0122  -4.00    0.0
2024/07/31 11:55:57.000   28.330279557  -16.532011242  1628.0906   2   7   0.0155   0.0314   0.0878   0.0095   0.0365   0.0122  -3.00    0.0
2024/07/31 11:55:58.000   28.330279557  -16.532011237  1628.0884   2   7   0.0155   0.0314   0.0879   0.0095   0.0365   0.0122  -2.00    0.0
2024/07/31 11:55:59.000   28.330279559  -16.532011231  1628.0856   2   7   0.0155   0.0314   0.0880   0.0095   0.0365   0.0122  -1.00    0.0
2024/07/31 11:56:00.000   28.330279559  -16.532011227  1628.0819   2   7   0.0155   0.0314   0.0880   0.0095   0.0365   0.0122   0.00    0.0
2024/07/31 11:56:01.000   28.330279559  -16.532011211  1628.0851   2   7   0.0156   0.0314   0.0881   0.0095   0.0365   0.0122   1.00    0.0
2024/07/31 11:56:02.000   28.330279557  -16.532011201  1628.0855   2   7   0.0156   0.0314   0.0882   0.0095   0.0366   0.0122   2.00    0.0
2024/07/31 11:56:03.000   28.330279557  -16.532011191  1628.0848   2   7   0.0156   0.0314   0.0882   0.0095   0.0366   0.0122   3.00    0.0
2024/07/31 11:56:04.000   28.330279555  -16.532011183  1628.0861   2   7   0.0156   0.0314   0.0883   0.0095   0.0366   0.0122   4.00    0.0
2024/07/31 11:56:05.000   28.330279556  -16.532011175  1628.0866   2   8   0.0156   0.0314   0.0884   0.0095   0.0366   0.0122   5.00    0.0
2024/07/31 11:56:06.000   28.330279555  -16.532011167  1628.0905   2   8   0.0156   0.0314   0.0884   0.0095   0.0366   0.0122   6.00    0.0
2024/07/31 11:56:07.000   28.330279552  -16.532011160  1628.0933   2   8   0.0156   0.0314   0.0884   0.0095   0.0366   0.0122   7.00    0.0
2024/07/31 11:56:08.000   28.330279552  -16.532011159  1628.0931   2   8   0.0156   0.0314   0.0885   0.0095   0.0366   0.0122   8.00    0.0
2024/07/31 11:56:09.000   28.330279552  -16.532011152  1628.0937   2   8   0.0156   0.0314   0.0885   0.0095   0.0366   0.0122   9.00    0.0
2024/07/31 11:56:10.000   28.330279550  -16.532011151  1628.0937   2   8   0.0156   0.0314   0.0885   0.0095   0.0366   0.0122  10.00    0.0
2024/07/31 11:56:11.000   28.330279549  -16.532011150  1628.0936   2   8   0.0156   0.0314   0.0886   0.0095   0.0366   0.0122  11.00    0.0
2024/07/31 11:56:12.000   28.330279548  -16.532011149  1628.0939   2   8   0.0156   0.0314   0.0886   0.0095   0.0365   0.0122  12.00    0.0
2024/07/31 11:56:13.000   28.330279547  -16.532011149  1628.0944   2   8   0.0156   0.0314   0.0886   0.0095   0.0365   0.0122  13.00    0.0
2024/07/31 11:56:14.000   28.330279546  -16.532011148  1628.0949   2   8   0.0156   0.0314   0.0886   0.0095   0.0365   0.0122  14.00    0.0
2024/07/31 11:56:15.000   28.330279545  -16.532011148  1628.0952   2   8   0.0156   0.0314   0.0886   0.0095   0.0365   0.0122 -15.00    0.0
2024/07/31 11:56:16.000   28.330279544  -16.532011148  1628.0954   2   8   0.0156   0.0314   0.0886   0.0095   0.0365   0.0122 -14.00    0.0
2024/07/31 11:56:17.000   28.330279544  -16.532011148  1628.0952   2   8   0.0156   0.0314   0.0886   0.0095   0.0365   0.0122 -13.00    0.0
2024/07/31 11:56:18.000   28.330279542  -16.532011149  1628.0945   2   8   0.0156   0.0314   0.0887   0.0095   0.0365   0.0122 -12.00    0.0
2024/07/31 11:56:19.000   28.330279540  -16.532011151  1628.0943   2   8   0.0156   0.0314   0.0887   0.0095   0.0365   0.0122 -11.00    0.0
2024/07/31 11:56:20.000   28.330279539  -16.532011149  1628.0944   2   8   0.0156   0.0314   0.0887   0.0095   0.0365   0.0122 -10.00    0.0
2024/07/31 11:56:21.000   28.330279539  -16.532011149  1628.0941   2   8   0.0156   0.0314   0.0887   0.0095   0.0365   0.0122  -9.00    0.0
2024/07/31 11:56:22.000   28.330279538  -16.532011149  1628.0939   2   8   0.0156   0.0314   0.0887   0.0095   0.0365   0.0122  -8.00    0.0
2024/07/31 11:56:23.000   28.330279536  -16.532011146  1628.0940   2   8   0.0156   0.0314   0.0888   0.0095   0.0365   0.0122  -7.00    0.0
2024/07/31 11:56:24.000   28.330279534  -16.532011145  1628.0934   2   8   0.0157   0.0314   0.0888   0.0095   0.0365   0.0122  -6.00    0.0
2024/07/31 11:56:25.000   28.330279533  -16.532011143  1628.0918   2   8   0.0157   0.0313   0.0888   0.0095   0.0365   0.0122  -5.00    0.0
2024/07/31 11:56:26.000   28.330279531  -16.532011140  1628.0897   2   8   0.0157   0.0313   0.0888   0.0095   0.0365   0.0121  -4.00    0.0
2024/07/31 11:56:27.000   28.330279532  -16.532011135  1628.0864   2   8   0.0157   0.0313   0.0889   0.0095   0.0365   0.0121  -3.00    0.0
2024/07/31 11:56:28.000   28.330279533  -16.532011131  1628.0828   2   8   0.0157   0.0313   0.0889   0.0095   0.0365   0.0121  -2.00    0.0
2024/07/31 11:56:29.000   28.330279537  -16.532011122  1628.0794   2   8   0.0157   0.0314   0.0890   0.0095   0.0365   0.0121  -1.00    0.0
2024/07/31 11:56:30.000   28.330279542  -16.532011115  1628.0748   2   8   0.0157   0.0314   0.0891   0.0095   0.0365   0.0121   0.00    0.0
2024/07/31 11:56:31.000   28.330279544  -16.532011101  1628.0715   2   8   0.0157   0.0314   0.0891   0.0095   0.0365   0.0122   1.00    0.0
2024/07/31 11:56:32.000   28.330279544  -16.532011096  1628.0679   2   7   0.0157   0.0314   0.0892   0.0095   0.0365   0.0122   2.00    0.0
2024/07/31 11:56:33.000   28.330279545  -16.532011083  1628.0644   2   8   0.0157   0.0314   0.0893   0.0095   0.0365   0.0122   3.00    0.0
2024/07/31 11:56:34.000   28.330279546  -16.532011076  1628.0616   2   8   0.0157   0.0314   0.0893   0.0095   0.0365   0.0122   4.00    0.0
2024/07/31 11:56:35.000   28.330279546  -16.532011074  1628.0591   2   7   0.0157   0.0314   0.0894   0.0095   0.0365   0.0122   5.00    0.0
2024/07/31 11:56:36.000   28.330279547  -16.532011070  1628.0570   2   7   0.0158   0.0314   0.0894   0.0095   0.0365   0.0122   6.00    0.0
2024/07/31 11:56:37.000   28.330279547  -16.532011067  1628.0548   2   7   0.0158   0.0314   0.0895   0.0095   0.0366   0.0122   7.00    0.0
2024/07/31 11:56:38.000   28.330279547  -16.532011064  1628.0534   2   7   0.0158   0.0314   0.0895   0.0095   0.0366   0.0122   8.00    0.0
2024/07/31 11:56:39.000   28.330279549  -16.532011062  1628.0524   2   7   0.0158   0.0314   0.0896   0.0095   0.0366   0.0122   9.00    0.0
2024/07/31 11:56:40.000   28.330279550  -16.532011060  1628.0514   2   7   0.0158   0.0314   0.0896   0.0095   0.0366   0.0122  10.00    0.0
2024/07/31 11:56:41.000   28.330279551  -16.532011059  1628.0503   2   7   0.0158   0.0314   0.0896   0.0095   0.0366   0.0122  11.00    0.0
2024/07/31 11:56:42.000   28.330279551  -16.532011064  1628.0487   2   6   0.0158   0.0314   0.0896   0.0095   0.0366   0.0122  12.00    0.0
2024/07/31 11:56:43.000   28.330279552  -16.532011062  1628.0486   2   6   0.0158   0.0314   0.0896   0.0095   0.0366   0.0122  13.00    0.0
2024/07/31 11:56:44.000   28.330279552  -16.532011059  1628.0484   2   6   0.0158   0.0314   0.0897   0.0095   0.0366   0.0122  14.00    0.0
2024/07/31 11:56:45.000   28.330279552  -16.532011056  1628.0483   2   6   0.0158   0.0314   0.0897   0.0095   0.0366   0.0122 -15.00    0.0
2024/07/31 11:56:46.000   28.330279552  -16.532011055  1628.0479   2   6   0.0158   0.0313   0.0897   0.0095   0.0366   0.0122 -14.00    0.0
2024/07/31 11:56:47.000   28.330279553  -16.532011053  1628.0477   2   6   0.0158   0.0313   0.0897   0.0095   0.0366   0.0122 -13.00    0.0
2024/07/31 11:56:48.000   28.330279553  -16.532011050  1628.0475   2   6   0.0158   0.0313   0.0897   0.0095   0.0366   0.0122 -12.00    0.0
2024/07/31 11:56:49.000   28.330279554  -16.532011047  1628.0472   2   6   0.0158   0.0313   0.0897   0.0095   0.0366   0.0122 -11.00    0.0
2024/07/31 11:56:50.000   28.330279554  -16.532011044  1628.0467   2   6   0.0158   0.0313   0.0897   0.0095   0.0365   0.0122 -10.00    0.0
2024/07/31 11:56:51.000   28.330279554  -16.532011040  1628.0462   2   6   0.0158   0.0313   0.0897   0.0095   0.0365   0.0122  -9.00    0.0
2024/07/31 11:56:52.000   28.330279554  -16.532011037  1628.0452   2   6   0.0158   0.0313   0.0898   0.0095   0.0365   0.0122  -8.00    0.0
2024/07/31 11:56:53.000   28.330279555  -16.532011034  1628.0436   2   6   0.0158   0.0313   0.0898   0.0095   0.0365   0.0122  -7.00    0.0
2024/07/31 11:56:54.000   28.330279556  -16.532011030  1628.0417   2   6   0.0158   0.0313   0.0898   0.0095   0.0365   0.0122  -6.00    0.0
2024/07/31 11:56:55.000   28.330279557  -16.532011024  1628.0396   2   6   0.0158   0.0313   0.0898   0.0095   0.0365   0.0122  -5.00    0.0
2024/07/31 11:56:56.000   28.330279559  -16.532011017  1628.0373   2   6   0.0158   0.0313   0.0899   0.0095   0.0365   0.0122  -4.00    0.0
2024/07/31 11:56:57.000   28.330279561  -16.532011009  1628.0342   2   6   0.0158   0.0313   0.0899   0.0095   0.0366   0.0122  -3.00    0.0
2024/07/31 11:56:58.000   28.330279562  -16.532011000  1628.0289   2   6   0.0158   0.0313   0.0900   0.0095   0.0366   0.0122  -2.00    0.0
2024/07/31 11:56:59.000   28.330279562  -16.532010989  1628.0231   2   6   0.0158   0.0313   0.0900   0.0095   0.0366   0.0122  -1.00    0.0
2024/07/31 11:57:00.000   28.330279564  -16.532010979  1628.0159   2   6   0.0158   0.0313   0.0901   0.0095   0.0366   0.0122   0.00    0.0
2024/07/31 11:57:01.000   28.330279563  -16.532010971  1628.0082   2   6   0.0158   0.0313   0.0902   0.0095   0.0366   0.0122   1.00    0.0
2024/07/31 11:57:02.000   28.330279563  -16.532010962  1628.0016   2   6   0.0159   0.0313   0.0902   0.0095   0.0366   0.0122   2.00    0.0
2024/07/31 11:57:03.000   28.330279568  -16.532010951  1627.9959   2   6   0.0159   0.0313   0.0903   0.0095   0.0366   0.0122   3.00    0.0
2024/07/31 11:57:04.000   28.330279572  -16.532010942  1627.9917   2   6   0.0159   0.0313   0.0904   0.0095   0.0366   0.0122   4.00    0.0
2024/07/31 11:57:05.000   28.330279576  -16.532010935  1627.9883   2   6   0.0159   0.0313   0.0904   0.0095   0.0366   0.0122   5.00    0.0
2024/07/31 11:57:06.000   28.330279579  -16.532010927  1627.9854   2   6   0.0159   0.0313   0.0905   0.0095   0.0366   0.0122   6.00    0.0
2024/07/31 11:57:07.000   28.330279581  -16.532010920  1627.9836   2   6   0.0159   0.0313   0.0905   0.0095   0.0366   0.0122   7.00    0.0
2024/07/31 11:57:08.000   28.330279583  -16.532010915  1627.9819   2   6   0.0159   0.0313   0.0906   0.0095   0.0366   0.0122   8.00    0.0
2024/07/31 11:57:09.000   28.330279585  -16.532010910  1627.9805   2   6   0.0159   0.0313   0.0906   0.0095   0.0366   0.0122   9.00    0.0
2024/07/31 11:57:10.000   28.330279587  -16.532010906  1627.9795   2   6   0.0159   0.0313   0.0906   0.0095   0.0366   0.0122  10.00    0.0
2024/07/31 11:57:11.000   28.330279588  -16.532010903  1627.9783   2   6   0.0159   0.0313   0.0906   0.0095   0.0366   0.0122  11.00    0.0
2024/07/31 11:57:12.000   28.330279588  -16.532010900  1627.9773   2   6   0.0159   0.0313   0.0907   0.0095   0.0366   0.0122  12.00    0.0
2024/07/31 11:57:13.000   28.330279590  -16.532010897  1627.9765   2   6   0.0159   0.0313   0.0907   0.0095   0.0366   0.0122  13.00    0.0
2024/07/31 11:57:14.000   28.330279591  -16.532010894  1627.9758   2   6   0.0159   0.0313   0.0907   0.0095   0.0366   0.0122  14.00    0.0
2024/07/31 11:57:15.000   28.330279591  -16.532010893  1627.9750   2   6   0.0159   0.0313   0.0907   0.0095   0.0366   0.0122 -15.00    0.0
2024/07/31 11:57:16.000   28.330279592  -16.532010890  1627.9743   2   6   0.0159   0.0313   0.0907   0.0095   0.0366   0.0122 -14.00    0.0
2024/07/31 11:57:17.000   28.330279593  -16.532010888  1627.9733   2   6   0.0159   0.0313   0.0907   0.0095   0.0366   0.0122 -13.00    0.0
2024/07/31 11:57:18.000   28.330279595  -16.532010886  1627.9723   2   6   0.0159   0.0313   0.0907   0.0095   0.0366   0.0122 -12.00    0.0
2024/07/31 11:57:19.000   28.330279596  -16.532010885  1627.9710   2   6   0.0159   0.0313   0.0907   0.0095   0.0366   0.0122 -11.00    0.0
2024/07/31 11:57:20.000   28.330279598  -16.532010882  1627.9699   2   6   0.0159   0.0313   0.0908   0.0095   0.0366   0.0122 -10.00    0.0
2024/07/31 11:57:21.000   28.330279599  -16.532010880  1627.9685   2   6   0.0159   0.0313   0.0908   0.0095   0.0366   0.0122  -9.00    0.0
2024/07/31 11:57:22.000   28.330279602  -16.532010877  1627.9668   2   6   0.0159   0.0313   0.0908   0.0095   0.0366   0.0122  -8.00    0.0
2024/07/31 11:57:23.000   28.330279605  -16.532010874  1627.9645   2   6   0.0159   0.0313   0.0908   0.0095   0.0366   0.0122  -7.00    0.0
2024/07/31 11:57:24.000   28.330279607  -16.532010871  1627.9619   2   6   0.0159   0.0313   0.0909   0.0095   0.0366   0.0122  -6.00    0.0
2024/07/31 11:57:25.000   28.330279609  -16.532010866  1627.9592   2   6   0.0159   0.0313   0.0909   0.0095   0.0366   0.0122  -5.00    0.0
2024/07/31 11:57:26.000   28.330279612  -16.532010861  1627.9558   2   6   0.0159   0.0313   0.0909   0.0095   0.0366   0.0122  -4.00    0.0
2024/07/31 11:57:27.000   28.330279615  -16.532010855  1627.9517   2   6   0.0159   0.0313   0.0910   0.0095   0.0366   0.0122  -3.00    0.0
2024/07/31 11:57:28.000   28.330279618  -16.532010848  1627.9469   2   6   0.0159   0.0313   0.0910   0.0095   0.0366   0.0122  -2.00    0.0
2024/07/31 11:57:29.000   28.330279619  -16.532010842  1627.9413   2   6   0.0159   0.0313   0.0911   0.0095   0.0366   0.0122  -1.00    0.0
2024/07/31 11:57:30.000   28.330279621  -16.532010832  1627.9353   2   6   0.0159   0.0313   0.0912   0.0095   0.0366   0.0122   0.00    0.0
2024/07/31 11:57:31.000   28.330279624  -16.532010823  1627.9284   2   6   0.0160   0.0313   0.0912   0.0095   0.0366   0.0122   1.00    0.0
2024/07/31 11:57:32.000   28.330279627  -16.532010814  1627.9227   2   6   0.0160   0.0313   0.0913   0.0095   0.0366   0.0122   2.00    0.0
2024/07/31 11:57:33.000   28.330279627  -16.532010808  1627.9179   2   6   0.0160   0.0313   0.0914   0.0095   0.0366   0.0122   3.00    0.0
2024/07/31 11:57:34.000   28.330279626  -16.532010802  1627.9140   2   6   0.0160   0.0313   0.0915   0.0095   0.0366   0.0123   4.00    0.0
2024/07/31 11:57:35.000   28.330279623  -16.532010799  1627.9108   2   6   0.0160   0.0313   0.0915   0.0095   0.0366   0.0123   5.00    0.0
2024/07/31 11:57:36.000   28.330279622  -16.532010796  1627.9089   2   6   0.0160   0.0313   0.0916   0.0095   0.0366   0.0123   6.00    0.0
2024/07/31 11:57:37.000   28.330279619  -16.532010794  1627.9077   2   6   0.0160   0.0313   0.0916   0.0095   0.0366   0.0123   7.00    0.0
2024/07/31 11:57:38.000   28.330279617  -16.532010791  1627.9074   2   6   0.0160   0.0313   0.0917   0.0095   0.0366   0.0123   8.00    0.0
2024/07/31 11:57:39.000   28.330279615  -16.532010790  1627.9071   2   6   0.0160   0.0313   0.0917   0.0095   0.0366   0.0123   9.00    0.0
2024/07/31 11:57:40.000   28.330279613  -16.532010789  1627.9070   2   7   0.0160   0.0313   0.0917   0.0095   0.0366   0.0123  10.00    0.0
2024/07/31 11:57:41.000   28.330279612  -16.532010789  1627.9071   2   7   0.0160   0.0313   0.0918   0.0095   0.0366   0.0123  11.00    0.0
2024/07/31 11:57:42.000   28.330279612  -16.532010788  1627.9076   2   7   0.0160   0.0313   0.0918   0.0095   0.0366   0.0123  12.00    0.0
2024/07/31 11:57:43.000   28.330279617  -16.532010785  1627.9098   2   7   0.0160   0.0313   0.0918   0.0095   0.0366   0.0123  13.00    0.0
2024/07/31 11:57:44.000   28.330279617  -16.532010785  1627.9103   2   7   0.0160   0.0313   0.0918   0.0095   0.0366   0.0123  14.00    0.0
2024/07/31 11:57:45.000   28.330279616  -16.532010785  1627.9107   2   7   0.0160   0.0313   0.0918   0.0095   0.0366   0.0123 -15.00    0.0
2024/07/31 11:57:46.000   28.330279616  -16.532010784  1627.9113   2   7   0.0160   0.0313   0.0918   0.0095   0.0366   0.0123 -14.00    0.0
2024/07/31 11:57:47.000   28.330279615  -16.532010785  1627.9118   2   7   0.0160   0.0313   0.0919   0.0095   0.0366   0.0123 -13.00    0.0
2024/07/31 11:57:48.000   28.330279614  -16.532010785  1627.9125   2   7   0.0160   0.0313   0.0919   0.0095   0.0366   0.0123 -12.00    0.0
2024/07/31 11:57:49.000   28.330279613  -16.532010785  1627.9130   2   7   0.0160   0.0313   0.0919   0.0095   0.0366   0.0123 -11.00    0.0
2024/07/31 11:57:50.000   28.330279612  -16.532010782  1627.9138   2   7   0.0160   0.0313   0.0919   0.0095   0.0366   0.0123 -10.00    0.0
2024/07/31 11:57:51.000   28.330279610  -16.532010780  1627.9145   2   7   0.0160   0.0313   0.0919   0.0095   0.0366   0.0123  -9.00    0.0
2024/07/31 11:57:52.000   28.330279608  -16.532010778  1627.9152   2   7   0.0160   0.0313   0.0920   0.0095   0.0366   0.0123  -8.00    0.0
2024/07/31 11:57:53.000   28.330279607  -16.532010777  1627.9157   2   7   0.0160   0.0313   0.0920   0.0095   0.0366   0.0123  -7.00    0.0
2024/07/31 11:57:54.000   28.330279605  -16.532010773  1627.9169   2   7   0.0160   0.0313   0.0920   0.0095   0.0366   0.0123  -6.00    0.0
2024/07/31 11:57:55.000   28.330279603  -16.532010773  1627.9166   2   7   0.0160   0.0313   0.0920   0.0095   0.0367   0.0123  -5.00    0.0
2024/07/31 11:57:56.000   28.330279602  -16.532010771  1627.9163   2   7   0.0160   0.0313   0.0921   0.0095   0.0367   0.0123  -4.00    0.0
2024/07/31 11:57:57.000   28.330279599  -16.532010767  1627.9171   2   7   0.0160   0.0313   0.0921   0.0095   0.0367   0.0123  -3.00    0.0
2024/07/31 11:57:58.000   28.330279600  -16.532010763  1627.9169   2   7   0.0160   0.0313   0.0922   0.0095   0.0367   0.0123  -2.00    0.0
2024/07/31 11:57:59.000   28.330279602  -16.532010761  1627.9151   2   7   0.0161   0.0313   0.0923   0.0095   0.0367   0.0123  -1.00    0.0
2024/07/31 11:58:00.000   28.330279603  -16.532010757  1627.9146   2   7   0.0161   0.0313   0.0924   0.0095   0.0367   0.0123   0.00    0.0
2024/07/31 11:58:01.000   28.330279603  -16.532010762  1627.9093   2   7   0.0161   0.0313   0.0925   0.0095   0.0367   0.0123   1.00    1.3
2024/07/31 11:58:02.000   28.330279601  -16.532010764  1627.9050   2   7   0.0161   0.0313   0.0925   0.0095   0.0367   0.0123   2.00    1.0
2024/07/31 11:58:03.000   28.330279600  -16.532010766  1627.9009   2   7   0.0161   0.0313   0.0926   0.0095   0.0367   0.0124   3.00    1.4
2024/07/31 11:58:04.000   28.330279601  -16.532010770  1627.8965   2   7   0.0161   0.0313   0.0927   0.0095   0.0367   0.0124   4.00    1.2
2024/07/31 11:58:05.000   28.330279598  -16.532010775  1627.8924   2   7   0.0161   0.0313   0.0927   0.0095   0.0367   0.0124   5.00    1.2
2024/07/31 11:58:06.000   28.330279599  -16.532010776  1627.8896   2   7   0.0161   0.0313   0.0928   0.0095   0.0367   0.0124   6.00    1.1
2024/07/31 11:58:07.000   28.330279598  -16.532010779  1627.8871   2   7   0.0161   0.0313   0.0928   0.0095   0.0367   0.0124   7.00    1.2
2024/07/31 11:58:08.000   28.330279598  -16.532010781  1627.8851   2   7   0.0161   0.0313   0.0929   0.0095   0.0367   0.0124   8.00    1.1
2024/07/31 11:58:09.000   28.330279596  -16.532010784  1627.8830   2   7   0.0161   0.0313   0.0929   0.0095   0.0367   0.0124   9.00    1.1
2024/07/31 11:58:10.000   28.330279595  -16.532010787  1627.8815   2   8   0.0161   0.0313   0.0929   0.0095   0.0367   0.0124  10.00    1.3
2024/07/31 11:58:11.000   28.330279595  -16.532010786  1627.8828   2   8   0.0161   0.0313   0.0930   0.0095   0.0367   0.0124  11.00    1.1
2024/07/31 11:58:12.000   28.330279595  -16.532010785  1627.8838   2   8   0.0161   0.0313   0.0930   0.0095   0.0367   0.0124  12.00    1.2
2024/07/31 11:58:13.000   28.330279594  -16.532010784  1627.8844   2   8   0.0161   0.0313   0.0930   0.0095   0.0367   0.0124  13.00    1.2
2024/07/31 11:58:14.000   28.330279594  -16.532010789  1627.8839   2   8   0.0161   0.0313   0.0930   0.0095   0.0367   0.0124  14.00    1.2
2024/07/31 11:58:15.000   28.330279595  -16.532010788  1627.8828   2   8   0.0161   0.0313   0.0931   0.0095   0.0367   0.0124 -15.00    1.1
2024/07/31 11:58:16.000   28.330279594  -16.532010788  1627.8826   2   8   0.0161   0.0313   0.0931   0.0095   0.0367   0.0124 -14.00    1.0
2024/07/31 11:58:17.000   28.330279595  -16.532010789  1627.8818   2   7   0.0162   0.0313   0.0931   0.0095   0.0367   0.0124 -13.00    1.1
2024/07/31 11:58:18.000   28.330279595  -16.532010792  1627.8814   2   8   0.0162   0.0313   0.0931   0.0095   0.0367   0.0124 -12.00    1.0
2024/07/31 11:58:19.000   28.330279596  -16.532010792  1627.8812   2   8   0.0162   0.0313   0.0931   0.0095   0.0367   0.0124 -11.00    1.2
2024/07/31 11:58:20.000   28.330279597  -16.532010792  1627.8812   2   8   0.0162   0.0313   0.0931   0.0095   0.0367   0.0124 -10.00    1.8
2024/07/31 11:58:21.000   28.330279599  -16.532010793  1627.8811   2   7   0.0162   0.0313   0.0932   0.0095   0.0367   0.0124  -9.00    1.1
2024/07/31 11:58:22.000   28.330279600  -16.532010794  1627.8802   2   7   0.0162   0.0313   0.0932   0.0095   0.0367   0.0124  -8.00    1.1
2024/07/31 11:58:23.000   28.330279602  -16.532010796  1627.8787   2   7   0.0162   0.0313   0.0932   0.0095   0.0367   0.0124  -7.00    1.1
2024/07/31 11:58:24.000   28.330279604  -16.532010798  1627.8776   2   7   0.0162   0.0313   0.0932   0.0095   0.0367   0.0124  -6.00    1.0
2024/07/31 11:58:25.000   28.330279607  -16.532010799  1627.8769   2   7   0.0162   0.0313   0.0933   0.0095   0.0367   0.0124  -5.00    1.0
2024/07/31 11:58:26.000   28.330279611  -16.532010802  1627.8755   2   7   0.0162   0.0313   0.0933   0.0095   0.0367   0.0124  -4.00    1.4
2024/07/31 11:58:27.000   28.330279618  -16.532010807  1627.8722   2   7   0.0162   0.0313   0.0933   0.0095   0.0367   0.0124  -3.00    1.4
2024/07/31 11:58:28.000   28.330279627  -16.532010811  1627.8683   2   7   0.0162   0.0313   0.0934   0.0095   0.0367   0.0124  -2.00    1.2
2024/07/31 11:58:29.000   28.330279637  -16.532010814  1627.8645   2   7   0.0162   0.0313   0.0935   0.0095   0.0367   0.0124  -1.00    1.1
2024/07/31 11:58:30.000   28.330279650  -16.532010820  1627.8601   2   7   0.0162   0.0313   0.0935   0.0095   0.0367   0.0124   0.00    1.2
2024/07/31 11:58:31.000   28.330279663  -16.532010830  1627.8538   2   7   0.0162   0.0313   0.0936   0.0095   0.0367   0.0124   1.00    1.0
2024/07/31 11:58:32.000   28.330279675  -16.532010837  1627.8494   2   7   0.0162   0.0313   0.0937   0.0095   0.0367   0.0124   2.00    1.1
2024/07/31 11:58:33.000   28.330279685  -16.532010840  1627.8460   2   7   0.0163   0.0313   0.0938   0.0095   0.0368   0.0124   3.00    1.4
2024/07/31 11:58:34.000   28.330279696  -16.532010842  1627.8444   2   7   0.0163   0.0313   0.0938   0.0095   0.0368   0.0124   4.00    1.5
2024/07/31 11:58:35.000   28.330279705  -16.532010844  1627.8428   2   7   0.0163   0.0313   0.0939   0.0095   0.0368   0.0124   5.00    1.3
2024/07/31 11:58:36.000   28.330279713  -16.532010845  1627.8425   2   7   0.0163   0.0313   0.0939   0.0095   0.0368   0.0124   6.00    1.0
2024/07/31 11:58:37.000   28.330279721  -16.532010845  1627.8421   2   7   0.0163   0.0313   0.0940   0.0095   0.0368   0.0124   7.00    1.2
2024/07/31 11:58:38.000   28.330279727  -16.532010845  1627.8419   2   7   0.0163   0.0313   0.0940   0.0095   0.0368   0.0124   8.00    1.2
2024/07/31 11:58:39.000   28.330279732  -16.532010845  1627.8418   2   7   0.0163   0.0313   0.0940   0.0095   0.0368   0.0124   9.00    1.1
2024/07/31 11:58:40.000   28.330279736  -16.532010844  1627.8423   2   7   0.0163   0.0313   0.0941   0.0095   0.0368   0.0124  10.00    1.3
2024/07/31 11:58:41.000   28.330279740  -16.532010843  1627.8428   2   7   0.0163   0.0313   0.0941   0.0095   0.0368   0.0124  11.00    1.5
2024/07/31 11:58:42.000   28.330279743  -16.532010843  1627.8428   2   7   0.0163   0.0313   0.0941   0.0095   0.0368   0.0124  12.00    1.2
2024/07/31 11:58:43.000   28.330279746  -16.532010844  1627.8427   2   7   0.0163   0.0313   0.0941   0.0095   0.0368   0.0124  13.00    1.0
2024/07/31 11:58:44.000   28.330279749  -16.532010844  1627.8425   2   7   0.0163   0.0313   0.0941   0.0095   0.0367   0.0124  14.00    1.2
2024/07/31 11:58:45.000   28.330279751  -16.532010844  1627.8423   2   7   0.0163   0.0313   0.0941   0.0095   0.0367   0.0124 -15.00    1.2
2024/07/31 11:58:46.000   28.330279752  -16.532010844  1627.8420   2   7   0.0163   0.0313   0.0941   0.0095   0.0367   0.0124 -14.00    1.1
2024/07/31 11:58:47.000   28.330279754  -16.532010845  1627.8414   2   7   0.0163   0.0313   0.0941   0.0095   0.0367   0.0124 -13.00    1.3
2024/07/31 11:58:48.000   28.330279756  -16.532010844  1627.8412   2   7   0.0163   0.0313   0.0941   0.0095   0.0367   0.0124 -12.00    1.5
2024/07/31 11:58:49.000   28.330279758  -16.532010846  1627.8407   2   7   0.0163   0.0313   0.0942   0.0095   0.0367   0.0124 -11.00    1.2
2024/07/31 11:58:50.000   28.330279760  -16.532010847  1627.8403   2   7   0.0163   0.0312   0.0942   0.0095   0.0367   0.0123 -10.00    1.0
2024/07/31 11:58:51.000   28.330279762  -16.532010848  1627.8399   2   7   0.0163   0.0312   0.0942   0.0095   0.0367   0.0123  -9.00    1.1
2024/07/31 11:58:52.000   28.330279765  -16.532010850  1627.8399   2   7   0.0163   0.0312   0.0942   0.0095   0.0367   0.0123  -8.00    1.2
2024/07/31 11:58:53.000   28.330279768  -16.532010851  1627.8397   2   7   0.0163   0.0312   0.0942   0.0095   0.0367   0.0123  -7.00    1.1
2024/07/31 11:58:54.000   28.330279771  -16.532010853  1627.8394   2   7   0.0163   0.0312   0.0942   0.0095   0.0367   0.0123  -6.00    1.2
2024/07/31 11:58:55.000   28.330279777  -16.532010855  1627.8396   2   7   0.0163   0.0312   0.0942   0.0095   0.0367   0.0123  -5.00    1.4
2024/07/31 11:58:56.000   28.330279784  -16.532010857  1627.8401   2   7   0.0163   0.0312   0.0943   0.0095   0.0367   0.0123  -4.00    1.2
2024/07/31 11:58:57.000   28.330279793  -16.532010862  1627.8401   2   8   0.0163   0.0312   0.0943   0.0095   0.0367   0.0123  -3.00    1.3
2024/07/31 11:58:58.000   28.330279802  -16.532010869  1627.8372   2   8   0.0163   0.0312   0.0943   0.0095   0.0367   0.0123  -2.00    1.1
2024/07/31 11:58:59.000   28.330279814  -16.532010874  1627.8385   2   8   0.0164   0.0312   0.0944   0.0095   0.0367   0.0123  -1.00    1.1
2024/07/31 11:59:00.000   28.330279870  -16.532010865  1627.8364   2   8   0.0164   0.0312   0.0944   0.0095   0.0367   0.0123   0.00    1.1
2024/07/31 11:59:01.000   28.330279929  -16.532010854  1627.8338   2   8   0.0164   0.0312   0.0945   0.0095   0.0367   0.0123   1.00    1.0
2024/07/31 11:59:02.000   28.330279950  -16.532010857  1627.8318   2   8   0.0164   0.0312   0.0946   0.0095   0.0367   0.0123   2.00    1.0
2024/07/31 11:59:03.000   28.330279972  -16.532010855  1627.8299   2   8   0.0164   0.0312   0.0947   0.0095   0.0367   0.0123   3.00    1.0
2024/07/31 11:59:04.000   28.330279991  -16.532010856  1627.8286   2   8   0.0164   0.0312   0.0948   0.0095   0.0367   0.0123   4.00    1.2
2024/07/31 11:59:05.000   28.330280007  -16.532010857  1627.8269   2   8   0.0164   0.0312   0.0948   0.0095   0.0367   0.0123   5.00    1.0
2024/07/31 11:59:06.000   28.330280020  -16.532010855  1627.8256   2   8   0.0165   0.0312   0.0949   0.0095   0.0368   0.0123   6.00    1.1
2024/07/31 11:59:07.000   28.330280032  -16.532010856  1627.8239   2   8   0.0165   0.0312   0.0949   0.0095   0.0368   0.0123   7.00    1.0
2024/07/31 11:59:08.000   28.330280042  -16.532010856  1627.8222   2   8   0.0165   0.0312   0.0950   0.0095   0.0368   0.0122   8.00    1.4
2024/07/31 11:59:09.000   28.330280051  -16.532010855  1627.8208   2   8   0.0165   0.0312   0.0950   0.0095   0.0368   0.0122   9.00    1.4
2024/07/31 11:59:10.000   28.330280058  -16.532010854  1627.8194   2   8   0.0165   0.0312   0.0950   0.0095   0.0368   0.0122  10.00    1.1
2024/07/31 11:59:11.000   28.330280064  -16.532010854  1627.8181   2   8   0.0165   0.0312   0.0951   0.0095   0.0368   0.0122  11.00    1.1
2024/07/31 11:59:12.000   28.330280069  -16.532010851  1627.8179   2   8   0.0165   0.0312   0.0951   0.0095   0.0368   0.0122  12.00    1.2
2024/07/31 11:59:13.000   28.330280072  -16.532010850  1627.8170   2   8   0.0165   0.0312   0.0951   0.0095   0.0368   0.0122  13.00    1.1
2024/07/31 11:59:14.000   28.330280076  -16.532010849  1627.8162   2   8   0.0165   0.0312   0.0951   0.0095   0.0368   0.0122  14.00    1.1
2024/07/31 11:59:15.000   28.330280078  -16.532010849  1627.8155   2   8   0.0165   0.0312   0.0952   0.0095   0.0368   0.0122 -15.00    1.0
2024/07/31 11:59:16.000   28.330280080  -16.532010848  1627.8150   2   8   0.0165   0.0312   0.0952   0.0095   0.0368   0.0122 -14.00    1.3
2024/07/31 11:59:17.000   28.330280083  -16.532010847  1627.8145   2   8   0.0165   0.0312   0.0952   0.0095   0.0368   0.0122 -13.00    1.3
2024/07/31 11:59:18.000   28.330280085  -16.532010846  1627.8144   2   8   0.0165   0.0312   0.0952   0.0095   0.0368   0.0122 -12.00    1.0
2024/07/31 11:59:19.000   28.330280088  -16.532010845  1627.8146   2   8   0.0165   0.0312   0.0952   0.0095   0.0368   0.0122 -11.00    1.2
2024/07/31 11:59:20.000   28.330280091  -16.532010844  1627.8145   2   8   0.0165   0.0312   0.0952   0.0095   0.0368   0.0122 -10.00    1.2
2024/07/31 11:59:21.000   28.330280093  -16.532010844  1627.8144   2   8   0.0165   0.0312   0.0952   0.0095   0.0368   0.0122  -9.00    1.1
2024/07/31 11:59:22.000   28.330280096  -16.532010844  1627.8147   2   8   0.0165   0.0312   0.0953   0.0095   0.0368   0.0122  -8.00    1.1
2024/07/31 11:59:23.000   28.330280100  -16.532010843  1627.8151   2   8   0.0165   0.0312   0.0953   0.0095   0.0368   0.0122  -7.00    1.0
2024/07/31 11:59:24.000   28.330280104  -16.532010844  1627.8155   2   8   0.0165   0.0312   0.0953   0.0095   0.0368   0.0122  -6.00    1.3
2024/07/31 11:59:25.000   28.330280107  -16.532010845  1627.8165   2   8   0.0165   0.0312   0.0953   0.0095   0.0368   0.0122  -5.00    1.3
2024/07/31 11:59:26.000   28.330280113  -16.532010843  1627.8185   2   8   0.0165   0.0312   0.0954   0.0095   0.0368   0.0122  -4.00    1.0
2024/07/31 11:59:27.000   28.330280125  -16.532010841  1627.8197   2   8   0.0165   0.0312   0.0954   0.0095   0.0368   0.0121  -3.00    1.1
2024/07/31 11:59:28.000   28.330280140  -16.532010842  1627.8206   2   8   0.0165   0.0312   0.0954   0.0095   0.0368   0.0121  -2.00    1.1
2024/07/31 11:59:29.000   28.330280156  -16.532010844  1627.8211   2   8   0.0165   0.0312   0.0955   0.0095   0.0368   0.0121  -1.00    1.1
2024/07/31 11:59:30.000   28.330280172  -16.532010847  1627.8197   2   8   0.0165   0.0312   0.0956   0.0095   0.0368   0.0121   0.00    1.0
2024/07/31 11:59:31.000   28.330280186  -16.532010853  1627.8162   2   8   0.0166   0.0312   0.0956   0.0095   0.0368   0.0121   1.00    1.0
2024/07/31 11:59:32.000   28.330280199  -16.532010863  1627.8109   2   8   0.0166   0.0312   0.0957   0.0095   0.0368   0.0121   2.00    1.2
2024/07/31 11:59:33.000   28.330280208  -16.532010870  1627.8068   2   8   0.0166   0.0312   0.0958   0.0095   0.0368   0.0121   3.00    1.1
2024/07/31 11:59:34.000   28.330280217  -16.532010875  1627.8029   2   8   0.0166   0.0312   0.0958   0.0095   0.0368   0.0121   4.00    1.0
2024/07/31 11:59:35.000   28.330280224  -16.532010880  1627.8001   2   8   0.0166   0.0312   0.0959   0.0095   0.0368   0.0121   5.00    1.0
2024/07/31 11:59:36.000   28.330280230  -16.532010886  1627.7972   2   8   0.0166   0.0312   0.0960   0.0095   0.0368   0.0121   6.00    1.1
2024/07/31 11:59:37.000   28.330280234  -16.532010890  1627.7932   2   8   0.0166   0.0312   0.0960   0.0095   0.0368   0.0121   7.00    1.0
2024/07/31 11:59:38.000   28.330280238  -16.532010894  1627.7890   2   8   0.0166   0.0312   0.0960   0.0095   0.0368   0.0121   8.00    1.0
2024/07/31 11:59:39.000   28.330280241  -16.532010898  1627.7859   2   8   0.0166   0.0312   0.0961   0.0095   0.0368   0.0120   9.00    1.0
2024/07/31 11:59:40.000   28.330280243  -16.532010901  1627.7832   2   8   0.0166   0.0312   0.0961   0.0095   0.0368   0.0120  10.00    1.1
2024/07/31 11:59:41.000   28.330280245  -16.532010904  1627.7815   2   8   0.0166   0.0312   0.0962   0.0095   0.0368   0.0120  11.00    1.1
2024/07/31 11:59:42.000   28.330280247  -16.532010906  1627.7801   2   8   0.0166   0.0312   0.0962   0.0095   0.0368   0.0120  12.00    1.0
2024/07/31 11:59:43.000   28.330280248  -16.532010909  1627.7783   2   8   0.0166   0.0312   0.0962   0.0095   0.0368   0.0120  13.00    1.0
2024/07/31 11:59:44.000   28.330280249  -16.532010911  1627.7763   2   8   0.0166   0.0312   0.0962   0.0095   0.0369   0.0120  14.00    1.1
2024/07/31 11:59:45.000   28.330280250  -16.532010913  1627.7747   2   8   0.0166   0.0312   0.0962   0.0095   0.0368   0.0120 -15.00    1.1
2024/07/31 11:59:46.000   28.330280251  -16.532010914  1627.7736   2   8   0.0166   0.0312   0.0962   0.0095   0.0368   0.0120 -14.00    1.0
2024/07/31 11:59:47.000   28.330280251  -16.532010917  1627.7725   2   8   0.0167   0.0312   0.0963   0.0095   0.0368   0.0120 -13.00    1.0
2024/07/31 11:59:48.000   28.330280252  -16.532010920  1627.7708   2   8   0.0167   0.0312   0.0963   0.0095   0.0368   0.0120 -12.00    1.0
2024/07/31 11:59:49.000   28.330280252  -16.532010924  1627.7692   2   8   0.0167   0.0312   0.0963   0.0095   0.0368   0.0120 -11.00    1.0
2024/07/31 11:59:50.000   28.330280252  -16.532010925  1627.7683   2   8   0.0167   0.0312   0.0963   0.0095   0.0368   0.0120 -10.00    1.0
2024/07/31 11:59:51.000   28.330280254  -16.532010927  1627.7675   2   8   0.0167   0.0312   0.0963   0.0095   0.0368   0.0120  -9.00    1.0
2024/07/31 11:59:52.000   28.330280255  -16.532010929  1627.7664   2   8   0.0167   0.0312   0.0963   0.0095   0.0368   0.0120  -8.00    1.0
2024/07/31 11:59:53.000   28.330280254  -16.532010934  1627.7644   2   8   0.0167   0.0312   0.0964   0.0095   0.0368   0.0120  -7.00    1.1
2024/07/31 11:59:54.000   28.330280254  -16.532010940  1627.7618   2   8   0.0167   0.0312   0.0964   0.0095   0.0368   0.0120  -6.00    1.0
2024/07/31 11:59:55.000   28.330280253  -16.532010947  1627.7584   2   8   0.0167   0.0312   0.0964   0.0095   0.0368   0.0120  -5.00    1.0
2024/07/31 11:59:56.000   28.330280252  -16.532010952  1627.7567   2   8   0.0167   0.0312   0.0964   0.0095   0.0369   0.0120  -4.00    1.1
2024/07/31 11:59:57.000   28.330280250  -16.532010960  1627.7559   2   8   0.0167   0.0312   0.0965   0.0095   0.0369   0.0119  -3.00    1.1
2024/07/31 11:59:58.000   28.330280247  -16.532010968  1627.7541   2   8   0.0167   0.0312   0.0965   0.0095   0.0369   0.0119  -2.00    1.0
2024/07/31 11:59:59.000   28.330280242  -16.532010981  1627.7497   2   8   0.0167   0.0312   0.0965   0.0095   0.0369   0.0119  -1.00    1.1
2024/07/31 12:00:00.000   28.330280238  -16.532010996  1627.7436   2   8   0.0167   0.0312   0.0966   0.0095   0.0369   0.0119   0.00    1.0
2024/07/31 12:00:01.000   28.330280235  -16.532011009  1627.7398   2   8   0.0167   0.0312   0.0966   0.0095   0.0369   0.0119   1.00    1.0
2024/07/31 12:00:02.000   28.330280232  -16.532011022  1627.7347   2   8   0.0167   0.0312   0.0967   0.0095   0.0369   0.0119   2.00    1.0
2024/07/31 12:00:03.000   28.330280234  -16.532011031  1627.7286   2   8   0.0167   0.0312   0.0967   0.0095   0.0369   0.0119   3.00    1.0
2024/07/31 12:00:04.000   28.330280235  -16.532011042  1627.7219   2   8   0.0167   0.0312   0.0968   0.0095   0.0369   0.0119   4.00    1.1
2024/07/31 12:00:05.000   28.330280237  -16.532011050  1627.7167   2   8   0.0167   0.0312   0.0968   0.0095   0.0369   0.0119   5.00    1.0
2024/07/31 12:00:06.000   28.330280237  -16.532011057  1627.7129   2   7   0.0168   0.0312   0.0968   0.0095   0.0369   0.0119   6.00    1.0
2024/07/31 12:00:07.000   28.330280237  -16.532011061  1627.7081   2   8   0.0168   0.0312   0.0969   0.0095   0.0369   0.0119   7.00    1.0
2024/07/31 12:00:08.000   28.330280237  -16.532011067  1627.7039   2   8   0.0168   0.0312   0.0969   0.0095   0.0369   0.0118   8.00    1.1
2024/07/31 12:00:09.000   28.330280238  -16.532011072  1627.7006   2   8   0.0168   0.0312   0.0969   0.0095   0.0369   0.0118   9.00    1.0
2024/07/31 12:00:10.000   28.330280239  -16.532011076  1627.6984   2   7   0.0168   0.0312   0.0969   0.0095   0.0369   0.0118  10.00    1.0
2024/07/31 12:00:11.000   28.330280242  -16.532011077  1627.6949   2   8   0.0168   0.0312   0.0970   0.0095   0.0369   0.0118  11.00    1.1
2024/07/31 12:00:12.000   28.330280242  -16.532011080  1627.6934   2   7   0.0168   0.0312   0.0970   0.0095   0.0369   0.0118  12.00    1.0
2024/07/31 12:00:13.000   28.330280244  -16.532011080  1627.6908   2   8   0.0168   0.0312   0.0970   0.0095   0.0369   0.0118  13.00    1.1
2024/07/31 12:00:14.000   28.330280244  -16.532011083  1627.6903   2   7   0.0168   0.0312   0.0970   0.0095   0.0369   0.0118  14.00    1.0
2024/07/31 12:00:15.000   28.330280246  -16.532011082  1627.6892   2   7   0.0168   0.0312   0.0970   0.0095   0.0369   0.0118 -15.00    1.1
2024/07/31 12:00:16.000   28.330280247  -16.532011083  1627.6881   2   7   0.0168   0.0312   0.0970   0.0095   0.0369   0.0118 -14.00    1.2
2024/07/31 12:00:17.000   28.330280247  -16.532011086  1627.6863   2   7   0.0168   0.0312   0.0970   0.0095   0.0369   0.0118 -13.00    1.0
2024/07/31 12:00:18.000   28.330280247  -16.532011088  1627.6844   2   7   0.0168   0.0312   0.0970   0.0095   0.0369   0.0118 -12.00    1.1
2024/07/31 12:00:19.000   28.330280248  -16.532011089  1627.6832   2   7   0.0168   0.0312   0.0970   0.0095   0.0369   0.0118 -11.00    1.0
2024/07/31 12:00:20.000   28.330280248  -16.532011091  1627.6815   2   7   0.0168   0.0312   0.0970   0.0095   0.0369   0.0118 -10.00    1.1
2024/07/31 12:00:21.001   28.330280248  -16.532011093  1627.6799   2   7   0.0168   0.0312   0.0970   0.0095   0.0369   0.0118  -9.00    1.0
2024/07/31 12:00:22.000   28.330280248  -16.532011094  1627.6778   2   7   0.0168   0.0312   0.0971   0.0095   0.0369   0.0118  -8.00    1.1
2024/07/31 12:00:23.000   28.330280246  -16.532011097  1627.6749   2   7   0.0168   0.0312   0.0971   0.0095   0.0369   0.0118  -7.00    1.2
2024/07/31 12:00:24.000   28.330280244  -16.532011100  1627.6723   2   7   0.0168   0.0312   0.0971   0.0095   0.0369   0.0118  -6.00    1.0
2024/07/31 12:00:25.000   28.330280242  -16.532011104  1627.6702   2   7   0.0168   0.0311   0.0971   0.0095   0.0369   0.0118  -5.00    1.1
2024/07/31 12:00:26.000   28.330280238  -16.532011111  1627.6677   2   7   0.0168   0.0311   0.0971   0.0095   0.0369   0.0118  -4.00    1.0
2024/07/31 12:00:27.000   28.330280230  -16.532011121  1627.6630   2   7   0.0168   0.0311   0.0971   0.0095   0.0369   0.0118  -3.00    1.1
2024/07/31 12:00:28.000   28.330280218  -16.532011132  1627.6577   2   7   0.0168   0.0311   0.0971   0.0095   0.0369   0.0118  -2.00    1.0
2024/07/31 12:00:29.000   28.330280209  -16.532011145  1627.6513   2   7   0.0168   0.0311   0.0972   0.0095   0.0369   0.0118  -1.00    1.1
2024/07/31 12:00:30.000   28.330280201  -16.532011155  1627.6467   2   7   0.0168   0.0311   0.0972   0.0095   0.0369   0.0118   0.00    1.1
2024/07/31 12:00:31.000   28.330280195  -16.532011164  1627.6433   2   7   0.0168   0.0311   0.0972   0.0095   0.0369   0.0118   1.00    1.1
2024/07/31 12:00:32.000   28.330280184  -16.532011174  1627.6400   2   7   0.0168   0.0311   0.0973   0.0095   0.0369   0.0118   2.00    1.1
2024/07/31 12:00:33.000   28.330280172  -16.532011184  1627.6377   2   7   0.0168   0.0311   0.0973   0.0094   0.0369   0.0118   3.00    1.0
2024/07/31 12:00:34.000   28.330280163  -16.532011192  1627.6349   2   7   0.0168   0.0311   0.0973   0.0094   0.0369   0.0118   4.00    1.1
2024/07/31 12:00:35.000   28.330280154  -16.532011199  1627.6326   2   7   0.0168   0.0311   0.0974   0.0094   0.0369   0.0117   5.00    1.1
2024/07/31 12:00:36.000   28.330280147  -16.532011204  1627.6302   2   7   0.0169   0.0311   0.0974   0.0094   0.0369   0.0117   6.00    1.1
2024/07/31 12:00:37.000   28.330280142  -16.532011208  1627.6276   2   7   0.0169   0.0311   0.0974   0.0094   0.0369   0.0117   7.00    1.0
2024/07/31 12:00:38.000   28.330280137  -16.532011214  1627.6254   2   7   0.0169   0.0311   0.0974   0.0094   0.0369   0.0117   8.00    1.1
2024/07/31 12:00:39.000   28.330280133  -16.532011218  1627.6235   2   7   0.0169   0.0311   0.0974   0.0094   0.0369   0.0117   9.00    1.1
2024/07/31 12:00:40.000   28.330280130  -16.532011221  1627.6218   2   7   0.0169   0.0311   0.0974   0.0094   0.0369   0.0117  10.00    1.0
2024/07/31 12:00:41.000   28.330280126  -16.532011223  1627.6208   2   7   0.0169   0.0311   0.0975   0.0094   0.0369   0.0117  11.00    1.1
2024/07/31 12:00:42.000   28.330280122  -16.532011224  1627.6195   2   7   0.0169   0.0311   0.0975   0.0094   0.0369   0.0117  12.00    1.0
2024/07/31 12:00:43.000   28.330280119  -16.532011226  1627.6179   2   7   0.0169   0.0311   0.0975   0.0094   0.0369   0.0117  13.00    1.1
2024/07/31 12:00:44.000   28.330280117  -16.532011228  1627.6165   2   7   0.0169   0.0311   0.0975   0.0094   0.0369   0.0117  14.00    1.0
2024/07/31 12:00:45.000   28.330280115  -16.532011230  1627.6151   2   7   0.0169   0.0311   0.0975   0.0094   0.0369   0.0117 -15.00    1.1
2024/07/31 12:00:46.000   28.330280113  -16.532011231  1627.6140   2   7   0.0169   0.0311   0.0975   0.0094   0.0369   0.0117 -14.00    1.1
2024/07/31 12:00:47.000   28.330280109  -16.532011231  1627.6130   2   7   0.0169   0.0311   0.0975   0.0094   0.0369   0.0117 -13.00    1.0
2024/07/31 12:00:48.000   28.330280106  -16.532011232  1627.6122   2   7   0.0169   0.0311   0.0975   0.0094   0.0369   0.0117 -12.00    1.1
2024/07/31 12:00:49.000   28.330280101  -16.532011234  1627.6109   2   7   0.0169   0.0311   0.0975   0.0094   0.0369   0.0117 -11.00    1.1
2024/07/31 12:00:50.000   28.330280096  -16.532011236  1627.6096   2   7   0.0169   0.0311   0.0975   0.0094   0.0369   0.0117 -10.00    1.1
2024/07/31 12:00:51.000   28.330280089  -16.532011239  1627.6075   2   7   0.0169   0.0311   0.0975   0.0094   0.0369   0.0117  -9.00    1.0
2024/07/31 12:00:52.000   28.330280082  -16.532011242  1627.6055   2   7   0.0169   0.0311   0.0975   0.0094   0.0369   0.0117  -8.00    1.1
2024/07/31 12:00:53.000   28.330280074  -16.532011246  1627.6027   2   7   0.0169   0.0311   0.0975   0.0094   0.0369   0.0117  -7.00    1.1
2024/07/31 12:00:54.000   28.330280068  -16.532011248  1627.6011   2   7   0.0169   0.0311   0.0975   0.0094   0.0369   0.0117  -6.00    1.0
2024/07/31 12:00:55.000   28.330280058  -16.532011251  1627.5993   2   7   0.0169   0.0311   0.0975   0.0094   0.0369   0.0117  -5.00    1.1
2024/07/31 12:00:56.000   28.330280042  -16.532011257  1627.5962   2   7   0.0169   0.0311   0.0975   0.0094   0.0369   0.0117  -4.00    1.1
2024/07/31 12:00:57.000   28.330280021  -16.532011264  1627.5944   2   7   0.0169   0.0311   0.0975   0.0094   0.0369   0.0117  -3.00    1.0
2024/07/31 12:00:58.000   28.330280000  -16.532011271  1627.5899   2   7   0.0169   0.0311   0.0975   0.0094   0.0369   0.0117  -2.00    1.0
2024/07/31 12:00:59.000   28.330279978  -16.532011280  1627.5859   2   7   0.0169   0.0311   0.0976   0.0094   0.0369   0.0117  -1.00    1.1
2024/07/31 12:01:00.000   28.330279955  -16.532011288  1627.5810   2   7   0.0169   0.0311   0.0976   0.0094   0.0369   0.0117   0.00    1.0
2024/07/31 12:01:01.000   28.330279929  -16.532011294  1627.5774   2   7   0.0169   0.0311   0.0976   0.0094   0.0369   0.0117   1.00    1.0
2024/07/31 12:01:02.000   28.330279905  -16.532011302  1627.5723   2   7   0.0169   0.0311   0.0976   0.0094   0.0369   0.0117   2.00    1.0
2024/07/31 12:01:03.000   28.330279884  -16.532011312  1627.5667   2   7   0.0169   0.0311   0.0976   0.0094   0.0369   0.0117   3.00    1.1
2024/07/31 12:01:04.000   28.330279866  -16.532011318  1627.5633   2   7   0.0169   0.0311   0.0976   0.0094   0.0369   0.0117   4.00    1.0
2024/07/31 12:01:05.000   28.330279852  -16.532011322  1627.5602   2   7   0.0169   0.0311   0.0976   0.0094   0.0369   0.0117   5.00    1.0
2024/07/31 12:01:06.000   28.330279842  -16.532011323  1627.5571   2   7   0.0169   0.0311   0.0976   0.0094   0.0369   0.0117   6.00    1.1
2024/07/31 12:01:07.000   28.330279831  -16.532011328  1627.5539   2   7   0.0169   0.0311   0.0976   0.0094   0.0369   0.0117   7.00    1.0
2024/07/31 12:01:08.000   28.330279821  -16.532011331  1627.5514   2   7   0.0169   0.0311   0.0977   0.0094   0.0369   0.0117   8.00    1.0
2024/07/31 12:01:09.000   28.330279812  -16.532011335  1627.5493   2   7   0.0169   0.0311   0.0977   0.0094   0.0369   0.0116   9.00    1.0
2024/07/31 12:01:10.000   28.330279805  -16.532011338  1627.5475   2   7   0.0169   0.0311   0.0977   0.0094   0.0369   0.0116  10.00    1.1
2024/07/31 12:01:11.000   28.330279798  -16.532011340  1627.5461   2   7   0.0169   0.0311   0.0977   0.0094   0.0369   0.0116  11.00    1.0
2024/07/31 12:01:12.000   28.330279792  -16.532011343  1627.5451   2   7   0.0169   0.0311   0.0977   0.0094   0.0369   0.0116  12.00    1.0
2024/07/31 12:01:13.000   28.330279787  -16.532011343  1627.5441   2   7   0.0169   0.0311   0.0977   0.0094   0.0369   0.0116  13.00    1.1
2024/07/31 12:01:14.000   28.330279783  -16.532011342  1627.5434   2   7   0.0169   0.0311   0.0977   0.0094   0.0369   0.0116  14.00    1.0
2024/07/31 12:01:15.000   28.330279779  -16.532011343  1627.5425   2   7   0.0169   0.0311   0.0977   0.0094   0.0369   0.0116 -15.00    1.0
2024/07/31 12:01:16.000   28.330279775  -16.532011343  1627.5418   2   7   0.0169   0.0311   0.0977   0.0094   0.0369   0.0116 -14.00    1.0
2024/07/31 12:01:17.000   28.330279771  -16.532011344  1627.5411   2   7   0.0169   0.0311   0.0977   0.0094   0.0369   0.0116 -13.00    1.1
2024/07/31 12:01:18.000   28.330279765  -16.532011346  1627.5404   2   7   0.0169   0.0311   0.0977   0.0094   0.0369   0.0116 -12.00    1.0
2024/07/31 12:01:19.000   28.330279760  -16.532011347  1627.5391   2   7   0.0169   0.0311   0.0977   0.0094   0.0369   0.0116 -11.00    1.0
2024/07/31 12:01:20.000   28.330279752  -16.532011350  1627.5380   2   7   0.0169   0.0311   0.0977   0.0094   0.0369   0.0116 -10.00    1.1
2024/07/31 12:01:21.000   28.330279743  -16.532011353  1627.5368   2   7   0.0169   0.0311   0.0977   0.0094   0.0369   0.0116  -9.00    1.0
2024/07/31 12:01:22.000   28.330279733  -16.532011354  1627.5359   2   7   0.0169   0.0311   0.0977   0.0094   0.0369   0.0116  -8.00    1.0
2024/07/31 12:01:23.000   28.330279721  -16.532011357  1627.5356   2   7   0.0169   0.0311   0.0977   0.0094   0.0369   0.0116  -7.00    1.0
2024/07/31 12:01:24.000   28.330279710  -16.532011360  1627.5344   2   7   0.0169   0.0310   0.0977   0.0094   0.0369   0.0116  -6.00    1.1
2024/07/31 12:01:25.000   28.330279696  -16.532011365  1627.5321   2   7   0.0169   0.0310   0.0977   0.0094   0.0369   0.0116  -5.00    1.0
2024/07/31 12:01:26.000   28.330279681  -16.532011367  1627.5313   2   7   0.0169   0.0310   0.0977   0.0094   0.0369   0.0116  -4.00    1.0
2024/07/31 12:01:27.000   28.330279668  -16.532011373  1627.5297   2   7   0.0169   0.0310   0.0977   0.0094   0.0369   0.0116  -3.00    1.1
2024/07/31 12:01:28.000   28.330279652  -16.532011378  1627.5287   2   7   0.0169   0.0310   0.0977   0.0093   0.0369   0.0116  -2.00    1.0
2024/07/31 12:01:29.000   28.330279633  -16.532011382  1627.5290   2   7   0.0169   0.0310   0.0977   0.0093   0.0369   0.0116  -1.00    1.0
2024/07/31 12:01:30.000   28.330279619  -16.532011388  1627.5254   2   7   0.0169   0.0310   0.0977   0.0093   0.0369   0.0116   0.00    1.0
2024/07/31 12:01:31.000   28.330279604  -16.532011389  1627.5263   2   7   0.0169   0.0310   0.0977   0.0093   0.0369   0.0116   1.00    1.0
2024/07/31 12:01:32.000   28.330279586  -16.532011395  1627.5252   2   7   0.0169   0.0310   0.0977   0.0093   0.0369   0.0116   2.00    1.0
2024/07/31 12:01:33.000   28.330279569  -16.532011396  1627.5261   2   7   0.0169   0.0310   0.0977   0.0093   0.0369   0.0116   3.00    1.0
2024/07/31 12:01:34.000   28.330279553  -16.532011399  1627.5260   2   7   0.0169   0.0310   0.0977   0.0093   0.0369   0.0115   4.00    1.0
2024/07/31 12:01:35.000   28.330279542  -16.532011403  1627.5257   2   7   0.0169   0.0310   0.0977   0.0093   0.0369   0.0115   5.00    1.0
2024/07/31 12:01:36.000   28.330279533  -16.532011407  1627.5256   2   7   0.0169   0.0310   0.0977   0.0093   0.0369   0.0115   6.00    1.0
2024/07/31 12:01:37.000   28.330279527  -16.532011408  1627.5250   2   7   0.0169   0.0310   0.0977   0.0093   0.0369   0.0115   7.00    1.0
2024/07/31 12:01:38.000   28.330279523  -16.532011410  1627.5247   2   7   0.0170   0.0310   0.0977   0.0093   0.0369   0.0115   8.00    1.0
2024/07/31 12:01:39.000   28.330279519  -16.532011410  1627.5241   2   7   0.0170   0.0310   0.0977   0.0093   0.0369   0.0115   9.00    1.0
2024/07/31 12:01:40.000   28.330279516  -16.532011411  1627.5233   2   7   0.0170   0.0310   0.0977   0.0093   0.0369   0.0115  10.00    1.0
2024/07/31 12:01:41.000   28.330279513  -16.532011412  1627.5227   2   7   0.0170   0.0310   0.0977   0.0093   0.0369   0.0115  11.00    1.0
2024/07/31 12:01:42.000   28.330279512  -16.532011414  1627.5222   2   7   0.0170   0.0310   0.0977   0.0093   0.0369   0.0115  12.00    1.0
2024/07/31 12:01:43.000   28.330279510  -16.532011414  1627.5221   2   7   0.0170   0.0310   0.0977   0.0093   0.0369   0.0115  13.00    1.0
2024/07/31 12:01:44.000   28.330279509  -16.532011414  1627.5222   2   7   0.0170   0.0310   0.0977   0.0093   0.0369   0.0115  14.00    1.0
2024/07/31 12:01:45.000   28.330279509  -16.532011413  1627.5221   2   7   0.0170   0.0310   0.0977   0.0093   0.0369   0.0115 -15.00    1.0
2024/07/31 12:01:46.000   28.330279508  -16.532011413  1627.5221   2   7   0.0170   0.0310   0.0977   0.0093   0.0369   0.0115 -14.00    1.0
2024/07/31 12:01:47.000   28.330279508  -16.532011413  1627.5221   2   7   0.0170   0.0310   0.0977   0.0093   0.0369   0.0115 -13.00    1.0
2024/07/31 12:01:48.000   28.330279507  -16.532011413  1627.5223   2   8   0.0170   0.0310   0.0977   0.0093   0.0369   0.0115 -12.00    1.0
2024/07/31 12:01:49.000   28.330279506  -16.532011413  1627.5224   2   8   0.0170   0.0310   0.0977   0.0093   0.0369   0.0115 -11.00    1.0
2024/07/31 12:01:50.000   28.330279506  -16.532011414  1627.5248   2   8   0.0170   0.0310   0.0977   0.0093   0.0369   0.0115 -10.00    1.0
2024/07/31 12:01:51.000   28.330279507  -16.532011412  1627.5251   2   8   0.0170   0.0310   0.0977   0.0093   0.0368   0.0115  -9.00    1.0
2024/07/31 12:01:52.000   28.330279508  -16.532011412  1627.5255   2   8   0.0169   0.0310   0.0977   0.0093   0.0368   0.0115  -8.00    1.0
2024/07/31 12:01:53.000   28.330279510  -16.532011410  1627.5254   2   8   0.0169   0.0310   0.0977   0.0093   0.0368   0.0115  -7.00    1.1
2024/07/31 12:01:54.000   28.330279512  -16.532011412  1627.5267   2   8   0.0169   0.0310   0.0977   0.0093   0.0368   0.0115  -6.00    1.1
2024/07/31 12:01:55.000   28.330279513  -16.532011410  1627.5248   2   8   0.0169   0.0310   0.0976   0.0093   0.0368   0.0115  -5.00    1.0
2024/07/31 12:01:56.000   28.330279510  -16.532011409  1627.5207   2   8   0.0169   0.0310   0.0976   0.0093   0.0368   0.0115  -4.00    1.0
2024/07/31 12:01:57.000   28.330279504  -16.532011417  1627.5203   2   8   0.0169   0.0310   0.0976   0.0093   0.0368   0.0115  -3.00    1.0
2024/07/31 12:01:58.000   28.330279498  -16.532011426  1627.5206   2   8   0.0169   0.0310   0.0976   0.0093   0.0368   0.0115  -2.00    1.0
2024/07/31 12:01:59.000   28.330279492  -16.532011431  1627.5187   2   8   0.0169   0.0310   0.0976   0.0093   0.0368   0.0114  -1.00    1.0
2024/07/31 12:02:00.000   28.330279488  -16.532011441  1627.5155   2   8   0.0169   0.0310   0.0977   0.0092   0.0369   0.0114   0.00    1.0
2024/07/31 12:02:01.000   28.330279488  -16.532011447  1627.5168   2   8   0.0169   0.0310   0.0977   0.0092   0.0368   0.0114   1.00    1.1
2024/07/31 12:02:02.000   28.330279486  -16.532011449  1627.5181   2   8   0.0169   0.0310   0.0977   0.0092   0.0368   0.0114   2.00    1.1
2024/07/31 12:02:03.000   28.330279480  -16.532011456  1627.5197   2   8   0.0169   0.0310   0.0977   0.0092   0.0368   0.0114   3.00    1.1
2024/07/31 12:02:04.000   28.330279477  -16.532011456  1627.5222   2   9   0.0169   0.0310   0.0977   0.0092   0.0368   0.0114   4.00    1.0
2024/07/31 12:02:05.000   28.330279479  -16.532011455  1627.5240   2   9   0.0169   0.0310   0.0977   0.0092   0.0368   0.0114   5.00    1.0
2024/07/31 12:02:06.000   28.330279477  -16.532011454  1627.5350   2   9   0.0169   0.0310   0.0977   0.0092   0.0368   0.0113   6.00    1.0
2024/07/31 12:02:07.000   28.330279476  -16.532011455  1627.5352   2   9   0.0169   0.0310   0.0977   0.0092   0.0368   0.0113   7.00    1.0
2024/07/31 12:02:08.000   28.330279474  -16.532011462  1627.5365   2   9   0.0169   0.0310   0.0977   0.0092   0.0368   0.0113   8.00    1.1
2024/07/31 12:02:09.000   28.330279473  -16.532011462  1627.5365   2   9   0.0169   0.0310   0.0978   0.0092   0.0368   0.0113   9.00    1.1
2024/07/31 12:02:10.000   28.330279472  -16.532011464  1627.5372   2   9   0.0169   0.0310   0.0978   0.0092   0.0368   0.0113  10.00    1.2
2024/07/31 12:02:11.000   28.330279472  -16.532011466  1627.5366   2   9   0.0169   0.0309   0.0978   0.0092   0.0368   0.0113  11.00    1.1
2024/07/31 12:02:12.000   28.330279472  -16.532011468  1627.5365   2   9   0.0169   0.0309   0.0978   0.0092   0.0368   0.0113  12.00    1.1
2024/07/31 12:02:13.000   28.330279474  -16.532011467  1627.5370   2   9   0.0169   0.0309   0.0978   0.0092   0.0368   0.0113  13.00    1.0
2024/07/31 12:02:14.000   28.330279476  -16.532011467  1627.5375   2   9   0.0169   0.0309   0.0978   0.0092   0.0368   0.0113  14.00    1.0
2024/07/31 12:02:15.000   28.330279477  -16.532011466  1627.5371   2   9   0.0169   0.0309   0.0978   0.0092   0.0368   0.0113 -15.00    1.0
2024/07/31 12:02:16.000   28.330279478  -16.532011466  1627.5365   2   9   0.0169   0.0309   0.0978   0.0092   0.0368   0.0113 -14.00    1.0
2024/07/31 12:02:17.000   28.330279478  -16.532011467  1627.5360   2   9   0.0169   0.0309   0.0978   0.0092   0.0368   0.0113 -13.00    1.1
2024/07/31 12:02:18.000   28.330279479  -16.532011468  1627.5351   2   9   0.0169   0.0309   0.0978   0.0092   0.0368   0.0113 -12.00    1.2
2024/07/31 12:02:19.000   28.330279478  -16.532011470  1627.5345   2   9   0.0169   0.0309   0.0978   0.0092   0.0368   0.0113 -11.00    1.2
2024/07/31 12:02:20.000   28.330279475  -16.532011472  1627.5345   2   9   0.0169   0.0309   0.0978   0.0092   0.0368   0.0112 -10.00    1.1
2024/07/31 12:02:21.000   28.330279472  -16.532011480  1627.5337   2   9   0.0169   0.0309   0.0978   0.0092   0.0368   0.0112  -9.00    1.2
2024/07/31 12:02:22.000   28.330279473  -16.532011484  1627.5327   2   9   0.0169   0.0309   0.0978   0.0092   0.0368   0.0112  -8.00    1.1
2024/07/31 12:02:23.000   28.330279471  -16.532011489  1627.5315   2   9   0.0169   0.0309   0.0978   0.0092   0.0368   0.0112  -7.00    1.0
2024/07/31 12:02:24.000   28.330279467  -16.532011497  1627.5306   2   9   0.0169   0.0309   0.0978   0.0092   0.0368   0.0112  -6.00    1.0
2024/07/31 12:02:25.000   28.330279464  -16.532011503  1627.5312   2   9   0.0169   0.0309   0.0978   0.0092   0.0368   0.0112  -5.00    1.0
2024/07/31 12:02:26.000   28.330279461  -16.532011514  1627.5303   2   9   0.0169   0.0309   0.0978   0.0092   0.0368   0.0112  -4.00    1.1
2024/07/31 12:02:27.000   28.330279457  -16.532011526  1627.5288   2   9   0.0169   0.0309   0.0978   0.0092   0.0368   0.0112  -3.00    1.2
2024/07/31 12:02:28.000   28.330279453  -16.532011539  1627.5289   2   9   0.0169   0.0309   0.0978   0.0092   0.0368   0.0111  -2.00    1.2
