% program   : RTKPOST-EX 2.5.0
% inp file  : C:\Users\SallyHenry\Desktop\Sally Internship\GNSS gravi\DATA\Survey Rover Obs\CAMI7.24o
% inp file  : C:\Users\SallyHenry\Desktop\Sally Internship\GNSS gravi\DATA\BaseStations\IZAN\IZAN00ESP_R_20242130000_01D_30S_MO.rnx
% inp file  : C:\Users\SallyHenry\Desktop\Sally Internship\GNSS gravi\DATA\BaseStations\IZAN\IZAN00ESP_R_20242130000_01D_MN.rnx
% inp file  : C:\Users\SallyHenry\Desktop\Sally Internship\GNSS gravi\DATA\aux_files\Survey\IGS0OPSFIN_20242130000_01D_15M_ORB.SP3
% inp file  : C:\Users\SallyHenry\Desktop\Sally Internship\GNSS gravi\DATA\aux_files\Survey\IGS0OPSFIN_20242130000_01D_30S_CLK.CLK
% obs start : 2024/07/31 14:46:40.0 GPST (week2325 312400.0s)
% obs end   : 2024/07/31 15:01:51.0 GPST (week2325 313311.0s)
% pos mode  : Static
% freqs     : L1+L2/E5b
% solution  : Combined-No Phase Reset
% elev mask : 15.0 deg
% dynamics  : on
% tidecorr  : solid
% ionos opt : Estimate TEC
% tropo opt : Estimate ZTD+Grad
% ephemeris : Precise
% navi sys  : GPS GLONASS Galileo QZSS BDS
% amb res   : Fix and Hold
% amb glo   : Fix and Hold
% amb bds   : on
% val thres : 3.0
% antenna1  :                       ( 0.0000  0.0000  1.8000)
% antenna2  :                       ( 0.0000  0.0000  0.0000)
% ref pos   :  28.308069410  -16.499677180  2417.4044
%
% (lat/lon/height=WGS84/ellipsoidal,Q=1:fix,2:float,3:sbas,4:dgps,5:single,6:ppp,ns=# of satellites)
%  GPST                  latitude(deg) longitude(deg)  height(m)   Q  ns   sdn(m)   sde(m)   sdu(m)  sdne(m)  sdeu(m)  sdun(m) age(s)  ratio
2024/07/31 14:46:40.000   28.307786001  -16.518197964  2302.4984   1   8   0.0012   0.0017   0.0120   0.0010   0.0032   0.0021  10.00  387.9
2024/07/31 14:46:41.000   28.307786001  -16.518197964  2302.4983   1   8   0.0012   0.0017   0.0120   0.0010   0.0032   0.0021  11.00  387.5
2024/07/31 14:46:42.000   28.307786001  -16.518197965  2302.4982   1   8   0.0012   0.0017   0.0120   0.0010   0.0032   0.0021  12.00  387.0
2024/07/31 14:46:43.000   28.307786001  -16.518197965  2302.4981   1   8   0.0012   0.0017   0.0120   0.0010   0.0032   0.0021  13.00  386.6
2024/07/31 14:46:44.000   28.307786001  -16.518197965  2302.4980   1   8   0.0012   0.0017   0.0120   0.0010   0.0032   0.0021  14.00  386.1
2024/07/31 14:46:45.000   28.307786001  -16.518197965  2302.4979   1   8   0.0012   0.0017   0.0120   0.0010   0.0032   0.0021  15.00  385.6
2024/07/31 14:46:46.000   28.307786001  -16.518197965  2302.4979   1   8   0.0012   0.0017   0.0120   0.0010   0.0032   0.0021 -14.00  385.0
2024/07/31 14:46:47.000   28.307786001  -16.518197965  2302.4978   1   8   0.0012   0.0017   0.0120   0.0010   0.0032   0.0021 -13.00  384.5
2024/07/31 14:46:48.000   28.307786001  -16.518197965  2302.4977   1   8   0.0012   0.0017   0.0120   0.0010   0.0032   0.0021 -12.00  384.3
2024/07/31 14:46:49.000   28.307786001  -16.518197965  2302.4976   1   8   0.0012   0.0017   0.0120   0.0010   0.0032   0.0021 -11.00  384.1
2024/07/31 14:46:50.000   28.307786001  -16.518197965  2302.4975   1   8   0.0012   0.0017   0.0120   0.0010   0.0032   0.0021 -10.00  384.0
2024/07/31 14:46:51.000   28.307786001  -16.518197965  2302.4974   1   8   0.0012   0.0017   0.0120   0.0010   0.0032   0.0021  -9.00  383.5
2024/07/31 14:46:52.000   28.307786001  -16.518197965  2302.4974   1   8   0.0012   0.0017   0.0120   0.0010   0.0032   0.0021  -8.00  383.2
2024/07/31 14:46:53.000   28.307786001  -16.518197965  2302.4973   1   8   0.0012   0.0017   0.0120   0.0010   0.0032   0.0021  -7.00  382.9
2024/07/31 14:46:54.000   28.307786001  -16.518197965  2302.4972   1   8   0.0012   0.0017   0.0120   0.0010   0.0032   0.0021  -6.00  382.7
2024/07/31 14:46:55.000   28.307786001  -16.518197965  2302.4972   1   8   0.0012   0.0017   0.0120   0.0010   0.0032   0.0021  -5.00  382.7
2024/07/31 14:46:56.000   28.307786001  -16.518197965  2302.4971   1   8   0.0012   0.0017   0.0120   0.0010   0.0032   0.0021  -4.00  382.6
2024/07/31 14:46:57.000   28.307786001  -16.518197965  2302.4970   1   8   0.0012   0.0017   0.0120   0.0010   0.0032   0.0021  -3.00  382.4
2024/07/31 14:46:58.000   28.307786001  -16.518197964  2302.4970   1   8   0.0012   0.0017   0.0120   0.0010   0.0032   0.0021  -2.00  383.1
2024/07/31 14:46:59.000   28.307786001  -16.518197964  2302.4968   1   8   0.0012   0.0017   0.0120   0.0010   0.0032   0.0021  -1.00  384.0
2024/07/31 14:47:00.000   28.307786001  -16.518197964  2302.4967   1   8   0.0012   0.0017   0.0120   0.0010   0.0032   0.0021   0.00  383.9
2024/07/31 14:47:01.000   28.307786002  -16.518197963  2302.4967   1   8   0.0012   0.0017   0.0121   0.0010   0.0032   0.0021   1.00  384.1
2024/07/31 14:47:02.000   28.307786002  -16.518197963  2302.4968   1   8   0.0012   0.0017   0.0121   0.0010   0.0032   0.0021   2.00  383.9
2024/07/31 14:47:03.000   28.307786002  -16.518197963  2302.4968   1   8   0.0012   0.0017   0.0121   0.0010   0.0032   0.0021   3.00  383.6
2024/07/31 14:47:04.000   28.307786002  -16.518197962  2302.4968   1   8   0.0012   0.0017   0.0121   0.0010   0.0032   0.0021   4.00  383.8
2024/07/31 14:47:05.000   28.307786002  -16.518197962  2302.4968   1   8   0.0012   0.0017   0.0121   0.0010   0.0032   0.0021   5.00  383.8
2024/07/31 14:47:06.000   28.307786002  -16.518197962  2302.4967   1   8   0.0012   0.0017   0.0121   0.0010   0.0032   0.0021   6.00  383.4
2024/07/31 14:47:07.000   28.307786002  -16.518197962  2302.4967   1   8   0.0012   0.0017   0.0121   0.0010   0.0032   0.0021   7.00  383.0
2024/07/31 14:47:08.000   28.307786002  -16.518197962  2302.4967   1   8   0.0012   0.0017   0.0121   0.0010   0.0032   0.0021   8.00  382.5
2024/07/31 14:47:09.000   28.307786002  -16.518197962  2302.4966   1   8   0.0012   0.0017   0.0121   0.0010   0.0032   0.0021   9.00  382.1
2024/07/31 14:47:10.000   28.307786002  -16.518197962  2302.4966   1   8   0.0012   0.0017   0.0121   0.0010   0.0032   0.0021  10.00  381.7
2024/07/31 14:47:11.000   28.307786002  -16.518197962  2302.4966   1   8   0.0012   0.0017   0.0121   0.0010   0.0032   0.0021  11.00  381.2
2024/07/31 14:47:12.000   28.307786002  -16.518197962  2302.4965   1   8   0.0012   0.0017   0.0121   0.0010   0.0032   0.0021  12.00  380.8
2024/07/31 14:47:13.000   28.307786002  -16.518197962  2302.4964   1   8   0.0012   0.0017   0.0121   0.0010   0.0032   0.0021  13.00  380.4
2024/07/31 14:47:14.000   28.307786002  -16.518197962  2302.4964   1   8   0.0012   0.0017   0.0121   0.0010   0.0032   0.0021  14.00  380.0
2024/07/31 14:47:15.000   28.307786002  -16.518197962  2302.4964   1   8   0.0012   0.0017   0.0121   0.0010   0.0032   0.0021  15.00  379.5
2024/07/31 14:47:16.000   28.307786002  -16.518197962  2302.4964   1   8   0.0012   0.0017   0.0121   0.0010   0.0032   0.0021 -14.00  378.9
2024/07/31 14:47:17.000   28.307786002  -16.518197962  2302.4963   1   8   0.0012   0.0017   0.0121   0.0010   0.0032   0.0021 -13.00  378.5
2024/07/31 14:47:18.000   28.307786002  -16.518197962  2302.4963   1   8   0.0012   0.0017   0.0121   0.0010   0.0032   0.0021 -12.00  378.0
2024/07/31 14:47:19.000   28.307786002  -16.518197962  2302.4962   1   8   0.0012   0.0017   0.0121   0.0010   0.0032   0.0021 -11.00  377.7
2024/07/31 14:47:20.000   28.307786002  -16.518197962  2302.4961   1   8   0.0012   0.0017   0.0121   0.0010   0.0032   0.0021 -10.00  377.2
2024/07/31 14:47:21.000   28.307786002  -16.518197962  2302.4960   1   8   0.0012   0.0017   0.0121   0.0010   0.0032   0.0021  -9.00  376.8
2024/07/31 14:47:22.000   28.307786002  -16.518197962  2302.4959   1   8   0.0012   0.0017   0.0121   0.0010   0.0032   0.0021  -8.00  376.4
2024/07/31 14:47:23.000   28.307786002  -16.518197962  2302.4958   1   8   0.0012   0.0017   0.0121   0.0010   0.0032   0.0021  -7.00  375.9
2024/07/31 14:47:24.000   28.307786002  -16.518197962  2302.4956   1   8   0.0012   0.0017   0.0121   0.0010   0.0032   0.0021  -6.00  375.5
2024/07/31 14:47:25.000   28.307786002  -16.518197962  2302.4955   1   8   0.0012   0.0017   0.0121   0.0010   0.0032   0.0021  -5.00  375.2
2024/07/31 14:47:26.000   28.307786002  -16.518197962  2302.4954   1   8   0.0012   0.0017   0.0121   0.0010   0.0032   0.0021  -4.00  374.9
2024/07/31 14:47:27.000   28.307786002  -16.518197962  2302.4953   1   8   0.0012   0.0017   0.0121   0.0010   0.0032   0.0021  -3.00  374.8
2024/07/31 14:47:28.000   28.307786002  -16.518197962  2302.4952   1   8   0.0012   0.0017   0.0121   0.0010   0.0032   0.0021  -2.00  374.8
2024/07/31 14:47:29.000   28.307786002  -16.518197962  2302.4950   1   8   0.0012   0.0017   0.0121   0.0010   0.0032   0.0021  -1.00  374.8
2024/07/31 14:47:30.000   28.307786002  -16.518197961  2302.4950   1   8   0.0012   0.0017   0.0122   0.0010   0.0032   0.0021   0.00  374.7
2024/07/31 14:47:31.000   28.307786002  -16.518197961  2302.4949   1   8   0.0012   0.0017   0.0122   0.0010   0.0032   0.0021   1.00  375.3
2024/07/31 14:47:32.000   28.307786002  -16.518197961  2302.4948   1   8   0.0012   0.0018   0.0122   0.0010   0.0032   0.0021   2.00  375.8
2024/07/31 14:47:33.000   28.307786002  -16.518197961  2302.4948   1   8   0.0012   0.0018   0.0122   0.0010   0.0032   0.0021   3.00  375.8
2024/07/31 14:47:34.000   28.307786002  -16.518197960  2302.4948   1   8   0.0012   0.0018   0.0122   0.0010   0.0032   0.0022   4.00  375.4
2024/07/31 14:47:35.000   28.307786002  -16.518197960  2302.4948   1   8   0.0012   0.0018   0.0122   0.0010   0.0032   0.0022   5.00  374.9
2024/07/31 14:47:36.000   28.307786002  -16.518197960  2302.4947   1   8   0.0012   0.0018   0.0122   0.0010   0.0032   0.0022   6.00  374.4
2024/07/31 14:47:37.000   28.307786002  -16.518197960  2302.4947   1   8   0.0012   0.0018   0.0122   0.0010   0.0032   0.0022   7.00  374.2
2024/07/31 14:47:38.000   28.307786002  -16.518197960  2302.4947   1   8   0.0012   0.0018   0.0122   0.0010   0.0032   0.0022   8.00  374.0
2024/07/31 14:47:39.000   28.307786002  -16.518197960  2302.4947   1   8   0.0012   0.0018   0.0122   0.0010   0.0032   0.0022   9.00  373.7
2024/07/31 14:47:40.000   28.307786002  -16.518197960  2302.4948   1   8   0.0012   0.0018   0.0122   0.0010   0.0033   0.0022  10.00  373.4
2024/07/31 14:47:41.000   28.307786002  -16.518197960  2302.4948   1   8   0.0012   0.0018   0.0122   0.0010   0.0033   0.0022  11.00  372.9
2024/07/31 14:47:42.000   28.307786002  -16.518197959  2302.4949   1   8   0.0012   0.0018   0.0122   0.0010   0.0032   0.0022  12.00  372.5
2024/07/31 14:47:43.000   28.307786002  -16.518197959  2302.4949   1   8   0.0012   0.0018   0.0122   0.0010   0.0032   0.0022  13.00  372.2
2024/07/31 14:47:44.000   28.307786002  -16.518197959  2302.4950   1   8   0.0012   0.0018   0.0122   0.0010   0.0032   0.0022  14.00  371.8
2024/07/31 14:47:45.000   28.307786002  -16.518197959  2302.4951   1   8   0.0012   0.0018   0.0122   0.0010   0.0032   0.0022  15.00  371.3
2024/07/31 14:47:46.000   28.307786002  -16.518197959  2302.4951   1   8   0.0012   0.0017   0.0122   0.0010   0.0032   0.0022 -14.00  370.7
2024/07/31 14:47:47.000   28.307786002  -16.518197959  2302.4952   1   8   0.0012   0.0017   0.0122   0.0010   0.0032   0.0022 -13.00  370.2
2024/07/31 14:47:48.000   28.307786002  -16.518197959  2302.4952   1   8   0.0012   0.0017   0.0122   0.0010   0.0032   0.0022 -12.00  369.6
2024/07/31 14:47:49.000   28.307786002  -16.518197959  2302.4952   1   8   0.0012   0.0017   0.0122   0.0010   0.0032   0.0022 -11.00  369.1
2024/07/31 14:47:50.000   28.307786002  -16.518197959  2302.4952   1   8   0.0012   0.0017   0.0122   0.0010   0.0032   0.0022 -10.00  368.6
2024/07/31 14:47:51.000   28.307786002  -16.518197959  2302.4952   1   8   0.0012   0.0017   0.0122   0.0010   0.0032   0.0022  -9.00  368.2
2024/07/31 14:47:52.000   28.307786002  -16.518197959  2302.4953   1   8   0.0012   0.0017   0.0122   0.0010   0.0032   0.0022  -8.00  367.9
2024/07/31 14:47:53.000   28.307786002  -16.518197959  2302.4952   1   8   0.0012   0.0017   0.0122   0.0010   0.0032   0.0022  -7.00  367.5
2024/07/31 14:47:54.000   28.307786002  -16.518197959  2302.4952   1   8   0.0012   0.0017   0.0122   0.0010   0.0032   0.0022  -6.00  367.1
2024/07/31 14:47:55.000   28.307786002  -16.518197959  2302.4951   1   8   0.0012   0.0017   0.0122   0.0010   0.0032   0.0022  -5.00  366.9
2024/07/31 14:47:56.000   28.307786002  -16.518197959  2302.4951   1   8   0.0012   0.0017   0.0122   0.0010   0.0032   0.0022  -4.00  366.8
2024/07/31 14:47:57.000   28.307786001  -16.518197959  2302.4950   1   8   0.0012   0.0017   0.0122   0.0010   0.0033   0.0022  -3.00  366.3
2024/07/31 14:47:58.000   28.307786001  -16.518197959  2302.4949   1   8   0.0012   0.0017   0.0122   0.0010   0.0033   0.0022  -2.00  366.2
2024/07/31 14:47:59.000   28.307786001  -16.518197959  2302.4949   1   8   0.0012   0.0017   0.0123   0.0010   0.0033   0.0022  -1.00  367.2
2024/07/31 14:48:00.000   28.307786001  -16.518197959  2302.4949   1   8   0.0012   0.0018   0.0123   0.0010   0.0033   0.0022   0.00  367.1
2024/07/31 14:48:01.000   28.307786001  -16.518197958  2302.4949   1   8   0.0012   0.0018   0.0123   0.0010   0.0033   0.0022   1.00  367.1
2024/07/31 14:48:02.000   28.307786001  -16.518197959  2302.4949   1   8   0.0012   0.0018   0.0123   0.0010   0.0033   0.0022   2.00  367.2
2024/07/31 14:48:03.000   28.307786001  -16.518197959  2302.4950   1   8   0.0012   0.0018   0.0123   0.0010   0.0033   0.0022   3.00  366.1
2024/07/31 14:48:04.000   28.307786001  -16.518197959  2302.4950   1   8   0.0012   0.0018   0.0123   0.0010   0.0033   0.0022   4.00  365.3
2024/07/31 14:48:05.000   28.307786001  -16.518197959  2302.4951   1   8   0.0012   0.0018   0.0123   0.0010   0.0033   0.0022   5.00  365.0
2024/07/31 14:48:06.000   28.307786001  -16.518197959  2302.4952   1   8   0.0012   0.0018   0.0123   0.0010   0.0033   0.0022   6.00  364.6
2024/07/31 14:48:07.000   28.307786001  -16.518197959  2302.4952   1   8   0.0012   0.0018   0.0123   0.0010   0.0033   0.0022   7.00  364.2
2024/07/31 14:48:08.000   28.307786001  -16.518197959  2302.4952   1   8   0.0012   0.0018   0.0123   0.0010   0.0033   0.0022   8.00  363.8
2024/07/31 14:48:09.000   28.307786001  -16.518197959  2302.4953   1   8   0.0012   0.0018   0.0123   0.0010   0.0033   0.0022   9.00  363.4
2024/07/31 14:48:10.000   28.307786001  -16.518197959  2302.4953   1   8   0.0012   0.0018   0.0123   0.0010   0.0033   0.0022  10.00  363.0
2024/07/31 14:48:11.000   28.307786001  -16.518197959  2302.4954   1   8   0.0012   0.0018   0.0123   0.0010   0.0033   0.0022  11.00  362.5
2024/07/31 14:48:12.000   28.307786001  -16.518197959  2302.4955   1   8   0.0012   0.0018   0.0123   0.0010   0.0033   0.0022  12.00  362.0
2024/07/31 14:48:13.000   28.307786001  -16.518197959  2302.4955   1   8   0.0012   0.0018   0.0123   0.0010   0.0033   0.0022  13.00  361.6
2024/07/31 14:48:14.000   28.307786001  -16.518197959  2302.4956   1   8   0.0012   0.0018   0.0123   0.0010   0.0033   0.0022  14.00  361.1
2024/07/31 14:48:15.000   28.307786001  -16.518197958  2302.4956   1   8   0.0012   0.0018   0.0123   0.0010   0.0033   0.0022  15.00  360.5
2024/07/31 14:48:16.000   28.307786001  -16.518197958  2302.4957   1   8   0.0012   0.0018   0.0123   0.0010   0.0033   0.0022 -14.00  360.0
2024/07/31 14:48:17.000   28.307786001  -16.518197958  2302.4957   1   8   0.0012   0.0018   0.0123   0.0010   0.0033   0.0022 -13.00  359.6
2024/07/31 14:48:18.000   28.307786001  -16.518197958  2302.4957   1   8   0.0012   0.0018   0.0123   0.0010   0.0033   0.0022 -12.00  359.2
2024/07/31 14:48:19.000   28.307786001  -16.518197958  2302.4958   1   8   0.0012   0.0018   0.0123   0.0010   0.0033   0.0022 -11.00  358.9
2024/07/31 14:48:20.000   28.307786001  -16.518197958  2302.4957   1   8   0.0012   0.0018   0.0123   0.0010   0.0033   0.0022 -10.00  358.6
2024/07/31 14:48:21.000   28.307786001  -16.518197958  2302.4958   1   8   0.0012   0.0018   0.0123   0.0010   0.0033   0.0022  -9.00  358.4
2024/07/31 14:48:22.000   28.307786001  -16.518197958  2302.4959   1   8   0.0012   0.0018   0.0123   0.0010   0.0033   0.0022  -8.00  358.2
2024/07/31 14:48:23.000   28.307786001  -16.518197958  2302.4959   1   8   0.0012   0.0017   0.0123   0.0010   0.0033   0.0022  -7.00  358.0
2024/07/31 14:48:24.000   28.307786001  -16.518197959  2302.4959   1   8   0.0012   0.0017   0.0123   0.0010   0.0033   0.0022  -6.00  357.8
2024/07/31 14:48:25.000   28.307786001  -16.518197959  2302.4959   1   8   0.0012   0.0017   0.0123   0.0010   0.0033   0.0022  -5.00  357.8
2024/07/31 14:48:26.000   28.307786001  -16.518197959  2302.4960   1   8   0.0012   0.0018   0.0123   0.0010   0.0033   0.0022  -4.00  357.7
2024/07/31 14:48:27.000   28.307786001  -16.518197959  2302.4961   1   8   0.0012   0.0018   0.0123   0.0010   0.0033   0.0022  -3.00  358.0
2024/07/31 14:48:28.000   28.307786001  -16.518197959  2302.4962   1   8   0.0012   0.0018   0.0123   0.0010   0.0033   0.0022  -2.00  358.4
2024/07/31 14:48:29.000   28.307786001  -16.518197959  2302.4963   1   8   0.0012   0.0018   0.0124   0.0010   0.0033   0.0022  -1.00  358.7
2024/07/31 14:48:30.000   28.307786001  -16.518197959  2302.4963   1   8   0.0012   0.0018   0.0124   0.0010   0.0033   0.0022   0.00  359.8
2024/07/31 14:48:31.000   28.307786001  -16.518197959  2302.4962   1   8   0.0012   0.0018   0.0124   0.0010   0.0033   0.0022   1.00  361.4
2024/07/31 14:48:32.000   28.307786001  -16.518197960  2302.4962   1   8   0.0012   0.0018   0.0124   0.0010   0.0033   0.0022   2.00  363.1
2024/07/31 14:48:33.000   28.307786001  -16.518197960  2302.4963   1   8   0.0012   0.0018   0.0124   0.0010   0.0033   0.0022   3.00  364.0
2024/07/31 14:48:34.000   28.307786001  -16.518197960  2302.4964   1   8   0.0012   0.0018   0.0124   0.0010   0.0033   0.0022   4.00  364.5
2024/07/31 14:48:35.000   28.307786001  -16.518197960  2302.4964   1   8   0.0012   0.0018   0.0124   0.0010   0.0033   0.0022   5.00  364.8
2024/07/31 14:48:36.000   28.307786001  -16.518197960  2302.4964   1   8   0.0012   0.0018   0.0124   0.0010   0.0033   0.0022   6.00  364.7
2024/07/31 14:48:37.000   28.307786001  -16.518197960  2302.4964   1   8   0.0012   0.0018   0.0124   0.0010   0.0033   0.0022   7.00  364.5
2024/07/31 14:48:38.000   28.307786001  -16.518197960  2302.4964   1   8   0.0012   0.0018   0.0124   0.0010   0.0033   0.0022   8.00  364.4
2024/07/31 14:48:39.000   28.307786001  -16.518197960  2302.4964   1   8   0.0012   0.0018   0.0124   0.0010   0.0033   0.0022   9.00  364.2
2024/07/31 14:48:40.000   28.307786001  -16.518197960  2302.4964   1   8   0.0012   0.0018   0.0124   0.0010   0.0033   0.0022  10.00  363.9
2024/07/31 14:48:41.000   28.307786001  -16.518197960  2302.4964   1   8   0.0012   0.0018   0.0124   0.0010   0.0033   0.0022  11.00  363.4
2024/07/31 14:48:42.000   28.307786001  -16.518197960  2302.4964   1   8   0.0012   0.0018   0.0124   0.0010   0.0033   0.0022  12.00  362.9
2024/07/31 14:48:43.000   28.307786001  -16.518197960  2302.4964   1   8   0.0012   0.0018   0.0124   0.0010   0.0033   0.0022  13.00  362.5
2024/07/31 14:48:44.000   28.307786001  -16.518197961  2302.4964   1   8   0.0012   0.0018   0.0124   0.0010   0.0033   0.0022  14.00  362.0
2024/07/31 14:48:45.000   28.307786001  -16.518197961  2302.4964   1   8   0.0012   0.0018   0.0124   0.0010   0.0033   0.0022  15.00  361.5
2024/07/31 14:48:46.000   28.307786001  -16.518197961  2302.4963   1   8   0.0012   0.0018   0.0124   0.0010   0.0033   0.0022 -14.00  361.0
2024/07/31 14:48:47.000   28.307786001  -16.518197961  2302.4963   1   8   0.0012   0.0018   0.0124   0.0010   0.0033   0.0022 -13.00  360.5
2024/07/31 14:48:48.000   28.307786000  -16.518197961  2302.4962   1   8   0.0012   0.0018   0.0124   0.0010   0.0033   0.0022 -12.00  359.9
2024/07/31 14:48:49.000   28.307786000  -16.518197961  2302.4962   1   8   0.0012   0.0018   0.0124   0.0010   0.0033   0.0022 -11.00  359.5
2024/07/31 14:48:50.000   28.307786000  -16.518197961  2302.4962   1   8   0.0012   0.0018   0.0124   0.0010   0.0033   0.0022 -10.00  358.9
2024/07/31 14:48:51.000   28.307786000  -16.518197961  2302.4961   1   8   0.0012   0.0018   0.0124   0.0010   0.0033   0.0022  -9.00  358.4
2024/07/31 14:48:52.000   28.307786000  -16.518197961  2302.4961   1   8   0.0012   0.0018   0.0124   0.0010   0.0033   0.0022  -8.00  357.9
2024/07/31 14:48:53.000   28.307786000  -16.518197961  2302.4960   1   8   0.0012   0.0018   0.0124   0.0010   0.0033   0.0022  -7.00  357.5
2024/07/31 14:48:54.000   28.307786000  -16.518197962  2302.4961   1   8   0.0012   0.0018   0.0124   0.0010   0.0033   0.0023  -6.00  357.2
2024/07/31 14:48:55.000   28.307786001  -16.518197962  2302.4961   1   8   0.0012   0.0018   0.0124   0.0010   0.0033   0.0023  -5.00  357.0
2024/07/31 14:48:56.000   28.307786001  -16.518197962  2302.4961   1   8   0.0012   0.0018   0.0124   0.0010   0.0033   0.0023  -4.00  356.9
2024/07/31 14:48:57.000   28.307786001  -16.518197962  2302.4961   1   8   0.0012   0.0018   0.0124   0.0010   0.0033   0.0023  -3.00  356.7
2024/07/31 14:48:58.000   28.307786001  -16.518197962  2302.4963   1   8   0.0012   0.0018   0.0124   0.0010   0.0033   0.0023  -2.00  357.3
2024/07/31 14:48:59.000   28.307786001  -16.518197962  2302.4964   1   8   0.0012   0.0018   0.0125   0.0010   0.0033   0.0023  -1.00  357.9
2024/07/31 14:49:00.000   28.307786001  -16.518197962  2302.4966   1   8   0.0012   0.0018   0.0125   0.0010   0.0033   0.0023   0.00  359.5
2024/07/31 14:49:01.000   28.307786001  -16.518197962  2302.4967   1   8   0.0012   0.0018   0.0125   0.0010   0.0033   0.0023   1.00  361.0
2024/07/31 14:49:02.000   28.307786001  -16.518197962  2302.4969   1   8   0.0012   0.0018   0.0125   0.0010   0.0033   0.0023   2.00  362.0
2024/07/31 14:49:03.000   28.307786002  -16.518197962  2302.4971   1   8   0.0012   0.0018   0.0125   0.0010   0.0033   0.0023   3.00  363.1
2024/07/31 14:49:04.000   28.307786002  -16.518197962  2302.4973   1   8   0.0012   0.0018   0.0125   0.0010   0.0033   0.0023   4.00  363.9
2024/07/31 14:49:05.000   28.307786002  -16.518197962  2302.4975   1   8   0.0012   0.0018   0.0125   0.0010   0.0033   0.0023   5.00  364.1
2024/07/31 14:49:06.000   28.307786002  -16.518197961  2302.4978   1   8   0.0012   0.0018   0.0125   0.0010   0.0033   0.0023   6.00  364.2
2024/07/31 14:49:07.000   28.307786002  -16.518197961  2302.4979   1   8   0.0012   0.0018   0.0125   0.0010   0.0033   0.0023   7.00  364.2
2024/07/31 14:49:08.000   28.307786002  -16.518197961  2302.4981   1   8   0.0012   0.0018   0.0125   0.0010   0.0033   0.0023   8.00  363.9
2024/07/31 14:49:09.000   28.307786003  -16.518197961  2302.4983   1   8   0.0012   0.0018   0.0125   0.0010   0.0033   0.0023   9.00  363.8
2024/07/31 14:49:10.000   28.307786003  -16.518197961  2302.4985   1   8   0.0012   0.0018   0.0125   0.0010   0.0033   0.0023  10.00  363.3
2024/07/31 14:49:11.000   28.307786003  -16.518197961  2302.4987   1   8   0.0012   0.0018   0.0125   0.0010   0.0033   0.0023  11.00  362.8
2024/07/31 14:49:12.000   28.307786003  -16.518197961  2302.4989   1   8   0.0012   0.0018   0.0125   0.0010   0.0033   0.0023  12.00  362.3
2024/07/31 14:49:13.000   28.307786003  -16.518197960  2302.4990   1   8   0.0012   0.0018   0.0125   0.0010   0.0033   0.0023  13.00  361.8
2024/07/31 14:49:14.000   28.307786003  -16.518197960  2302.4992   1   8   0.0012   0.0018   0.0125   0.0010   0.0033   0.0023  14.00  361.2
2024/07/31 14:49:15.000   28.307786003  -16.518197960  2302.4994   1   8   0.0012   0.0018   0.0125   0.0010   0.0033   0.0023  15.00  360.7
2024/07/31 14:49:16.000   28.307786003  -16.518197960  2302.4996   1   8   0.0012   0.0018   0.0125   0.0010   0.0033   0.0023 -14.00  360.1
2024/07/31 14:49:17.000   28.307786003  -16.518197960  2302.4997   1   8   0.0012   0.0018   0.0125   0.0010   0.0033   0.0023 -13.00  359.6
2024/07/31 14:49:18.000   28.307786003  -16.518197960  2302.4998   1   8   0.0012   0.0018   0.0125   0.0010   0.0033   0.0023 -12.00  359.0
2024/07/31 14:49:19.000   28.307786003  -16.518197960  2302.4999   1   8   0.0012   0.0018   0.0125   0.0010   0.0033   0.0023 -11.00  358.6
2024/07/31 14:49:20.000   28.307786003  -16.518197960  2302.5001   1   8   0.0012   0.0018   0.0125   0.0010   0.0033   0.0023 -10.00  358.3
2024/07/31 14:49:21.000   28.307786003  -16.518197960  2302.5002   1   8   0.0012   0.0018   0.0125   0.0010   0.0033   0.0023  -9.00  357.8
2024/07/31 14:49:22.000   28.307786004  -16.518197960  2302.5004   1   8   0.0012   0.0018   0.0125   0.0010   0.0033   0.0023  -8.00  357.3
2024/07/31 14:49:23.000   28.307786004  -16.518197960  2302.5005   1   8   0.0012   0.0018   0.0125   0.0010   0.0033   0.0023  -7.00  357.1
2024/07/31 14:49:24.000   28.307786004  -16.518197960  2302.5007   1   8   0.0012   0.0018   0.0125   0.0010   0.0033   0.0023  -6.00  357.5
2024/07/31 14:49:25.000   28.307786004  -16.518197960  2302.5009   1   8   0.0012   0.0018   0.0125   0.0010   0.0033   0.0023  -5.00  357.7
2024/07/31 14:49:26.000   28.307786004  -16.518197960  2302.5011   1   8   0.0012   0.0018   0.0125   0.0010   0.0033   0.0023  -4.00  358.2
2024/07/31 14:49:27.000   28.307786004  -16.518197960  2302.5013   1   8   0.0012   0.0018   0.0125   0.0010   0.0033   0.0023  -3.00  358.8
2024/07/31 14:49:28.000   28.307786004  -16.518197960  2302.5015   1   8   0.0012   0.0018   0.0125   0.0010   0.0033   0.0023  -2.00  359.7
2024/07/31 14:49:29.000   28.307786004  -16.518197959  2302.5018   1   8   0.0012   0.0018   0.0125   0.0010   0.0033   0.0023  -1.00  360.2
2024/07/31 14:49:30.000   28.307786004  -16.518197960  2302.5021   1   8   0.0012   0.0018   0.0126   0.0010   0.0033   0.0023   0.00  361.3
2024/07/31 14:49:31.000   28.307786004  -16.518197960  2302.5023   1   8   0.0012   0.0018   0.0126   0.0010   0.0033   0.0023   1.00  363.1
2024/07/31 14:49:32.000   28.307786004  -16.518197960  2302.5025   1   8   0.0012   0.0018   0.0126   0.0010   0.0033   0.0023   2.00  364.1
2024/07/31 14:49:33.000   28.307786004  -16.518197960  2302.5027   1   8   0.0012   0.0018   0.0126   0.0010   0.0033   0.0023   3.00  365.0
2024/07/31 14:49:34.000   28.307786004  -16.518197960  2302.5029   1   8   0.0012   0.0018   0.0126   0.0010   0.0034   0.0023   4.00  365.5
2024/07/31 14:49:35.000   28.307786004  -16.518197960  2302.5030   1   8   0.0012   0.0018   0.0126   0.0010   0.0034   0.0023   5.00  365.6
2024/07/31 14:49:36.000   28.307786004  -16.518197960  2302.5031   1   8   0.0012   0.0018   0.0126   0.0010   0.0034   0.0023   6.00  365.5
2024/07/31 14:49:37.000   28.307786004  -16.518197960  2302.5032   1   8   0.0012   0.0018   0.0126   0.0010   0.0034   0.0023   7.00  365.3
2024/07/31 14:49:38.000   28.307786004  -16.518197960  2302.5033   1   8   0.0012   0.0018   0.0126   0.0010   0.0034   0.0023   8.00  365.0
2024/07/31 14:49:39.000   28.307786004  -16.518197960  2302.5033   1   8   0.0012   0.0018   0.0126   0.0010   0.0034   0.0023   9.00  364.5
2024/07/31 14:49:40.000   28.307786004  -16.518197960  2302.5034   1   8   0.0012   0.0018   0.0126   0.0010   0.0034   0.0023  10.00  364.0
2024/07/31 14:49:41.000   28.307786013  -16.518197956  2302.5082   1   8   0.0011   0.0016   0.0118   0.0009   0.0031   0.0023  11.00    3.3
2024/07/31 14:49:42.000   28.307786013  -16.518197956  2302.5081   1   8   0.0011   0.0016   0.0118   0.0009   0.0031   0.0023  12.00    3.3
2024/07/31 14:49:43.000   28.307786013  -16.518197956  2302.5080   1   8   0.0011   0.0016   0.0118   0.0009   0.0031   0.0023  13.00    3.3
2024/07/31 14:49:44.000   28.307786013  -16.518197956  2302.5079   1   8   0.0011   0.0016   0.0118   0.0009   0.0031   0.0023  14.00    3.3
2024/07/31 14:49:45.000   28.307786013  -16.518197957  2302.5078   1   8   0.0011   0.0016   0.0118   0.0009   0.0031   0.0023 -15.00    3.3
2024/07/31 14:49:46.000   28.307786013  -16.518197957  2302.5077   1   8   0.0011   0.0016   0.0118   0.0009   0.0031   0.0023 -14.00    3.3
2024/07/31 14:49:47.000   28.307786013  -16.518197957  2302.5076   1   8   0.0011   0.0016   0.0118   0.0009   0.0031   0.0023 -13.00    3.4
2024/07/31 14:49:48.000   28.307786013  -16.518197957  2302.5075   1   8   0.0011   0.0016   0.0118   0.0009   0.0031   0.0023 -12.00    3.4
2024/07/31 14:49:49.000   28.307786013  -16.518197957  2302.5074   1   8   0.0011   0.0016   0.0117   0.0009   0.0031   0.0023 -11.00    3.4
2024/07/31 14:49:50.000   28.307786013  -16.518197957  2302.5072   1   8   0.0011   0.0016   0.0117   0.0009   0.0031   0.0023 -10.00    3.4
2024/07/31 14:49:51.000   28.307786013  -16.518197957  2302.5070   1   8   0.0011   0.0016   0.0117   0.0009   0.0031   0.0023  -9.00    3.4
2024/07/31 14:49:52.000   28.307786013  -16.518197957  2302.5068   1   8   0.0011   0.0016   0.0117   0.0009   0.0031   0.0023  -8.00    3.4
2024/07/31 14:49:53.000   28.307786013  -16.518197957  2302.5067   1   8   0.0011   0.0016   0.0117   0.0009   0.0031   0.0023  -7.00    3.4
2024/07/31 14:49:54.000   28.307786012  -16.518197958  2302.5064   1   8   0.0011   0.0016   0.0117   0.0009   0.0031   0.0023  -6.00    3.5
2024/07/31 14:49:55.000   28.307786012  -16.518197958  2302.5063   1   8   0.0011   0.0016   0.0117   0.0009   0.0031   0.0023  -5.00    3.5
2024/07/31 14:49:56.000   28.307786012  -16.518197958  2302.5062   1   8   0.0011   0.0016   0.0117   0.0009   0.0031   0.0023  -4.00    3.5
2024/07/31 14:49:57.000   28.307786013  -16.518197958  2302.5061   1   8   0.0011   0.0016   0.0117   0.0009   0.0031   0.0023  -3.00    3.5
2024/07/31 14:49:58.000   28.307786013  -16.518197958  2302.5062   1   8   0.0011   0.0016   0.0117   0.0009   0.0031   0.0023  -2.00    3.5
2024/07/31 14:49:59.000   28.307786013  -16.518197958  2302.5065   1   8   0.0011   0.0016   0.0117   0.0009   0.0031   0.0023  -1.00    3.6
2024/07/31 14:50:00.000   28.307786013  -16.518197958  2302.5068   1   8   0.0011   0.0016   0.0117   0.0009   0.0031   0.0023   0.00    3.6
2024/07/31 14:50:01.000   28.307786013  -16.518197958  2302.5073   1   8   0.0011   0.0016   0.0117   0.0009   0.0031   0.0023   1.00    7.3
2024/07/31 14:50:02.000   28.307786013  -16.518197957  2302.5077   1   8   0.0011   0.0016   0.0117   0.0009   0.0031   0.0023   2.00    8.6
2024/07/31 14:50:03.000   28.307786014  -16.518197957  2302.5080   1   8   0.0011   0.0016   0.0117   0.0009   0.0031   0.0023   3.00    9.7
2024/07/31 14:50:04.000   28.307786014  -16.518197957  2302.5083   1   8   0.0011   0.0016   0.0117   0.0009   0.0031   0.0023   4.00   10.7
2024/07/31 14:50:05.000   28.307786014  -16.518197956  2302.5086   1   8   0.0011   0.0016   0.0117   0.0009   0.0031   0.0023   5.00   11.6
2024/07/31 14:50:06.000   28.307786014  -16.518197956  2302.5089   1   8   0.0011   0.0016   0.0117   0.0009   0.0031   0.0023   6.00   12.5
2024/07/31 14:50:07.000   28.307786014  -16.518197956  2302.5092   1   8   0.0011   0.0016   0.0117   0.0009   0.0031   0.0023   7.00   13.3
2024/07/31 14:50:08.000   28.307786014  -16.518197956  2302.5094   1   8   0.0011   0.0016   0.0117   0.0009   0.0031   0.0023   8.00   14.3
2024/07/31 14:50:09.000   28.307786014  -16.518197956  2302.5096   1   8   0.0011   0.0016   0.0117   0.0009   0.0031   0.0023   9.00   15.2
2024/07/31 14:50:10.000   28.307786015  -16.518197956  2302.5097   1   8   0.0011   0.0016   0.0117   0.0009   0.0031   0.0023  10.00   16.1
2024/07/31 14:50:11.000   28.307786015  -16.518197956  2302.5099   1   8   0.0011   0.0016   0.0117   0.0009   0.0031   0.0023  11.00   17.1
2024/07/31 14:50:12.000   28.307786015  -16.518197956  2302.5100   1   8   0.0011   0.0016   0.0117   0.0009   0.0031   0.0023  12.00   18.0
2024/07/31 14:50:13.000   28.307786015  -16.518197955  2302.5101   1   8   0.0011   0.0016   0.0117   0.0009   0.0031   0.0023  13.00   19.0
2024/07/31 14:50:14.000   28.307786015  -16.518197955  2302.5101   1   8   0.0011   0.0016   0.0117   0.0009   0.0031   0.0023  14.00   20.0
2024/07/31 14:50:15.000   28.307786015  -16.518197955  2302.5102   1   8   0.0011   0.0016   0.0117   0.0009   0.0031   0.0023 -15.00   21.0
2024/07/31 14:50:16.000   28.307786015  -16.518197955  2302.5103   1   8   0.0011   0.0015   0.0117   0.0009   0.0031   0.0023 -14.00   21.9
2024/07/31 14:50:17.000   28.307786015  -16.518197955  2302.5103   1   8   0.0011   0.0015   0.0117   0.0009   0.0031   0.0023 -13.00   22.9
2024/07/31 14:50:18.000   28.307786015  -16.518197955  2302.5104   1   8   0.0011   0.0015   0.0117   0.0009   0.0031   0.0023 -12.00   23.9
2024/07/31 14:50:19.000   28.307786015  -16.518197955  2302.5105   1   8   0.0011   0.0015   0.0117   0.0009   0.0031   0.0023 -11.00   25.0
2024/07/31 14:50:20.000   28.307786015  -16.518197955  2302.5106   1   8   0.0011   0.0015   0.0117   0.0009   0.0031   0.0023 -10.00   26.0
2024/07/31 14:50:21.000   28.307786015  -16.518197955  2302.5107   1   8   0.0011   0.0015   0.0117   0.0009   0.0031   0.0023  -9.00   27.0
2024/07/31 14:50:22.000   28.307786015  -16.518197955  2302.5108   1   8   0.0011   0.0015   0.0117   0.0009   0.0031   0.0023  -8.00   28.1
2024/07/31 14:50:23.000   28.307786015  -16.518197955  2302.5108   1   8   0.0011   0.0015   0.0116   0.0009   0.0031   0.0023  -7.00   29.2
2024/07/31 14:50:24.000   28.307786015  -16.518197955  2302.5109   1   8   0.0011   0.0015   0.0116   0.0009   0.0031   0.0023  -6.00   30.2
2024/07/31 14:50:25.000   28.307786015  -16.518197955  2302.5112   1   8   0.0011   0.0015   0.0116   0.0009   0.0031   0.0023  -5.00   31.3
2024/07/31 14:50:26.000   28.307786015  -16.518197955  2302.5113   1   8   0.0011   0.0015   0.0116   0.0009   0.0031   0.0023  -4.00   32.4
2024/07/31 14:50:27.000   28.307786016  -16.518197954  2302.5116   1   8   0.0011   0.0015   0.0116   0.0009   0.0031   0.0023  -3.00   33.4
2024/07/31 14:50:28.000   28.307786016  -16.518197954  2302.5119   1   8   0.0011   0.0015   0.0116   0.0009   0.0030   0.0023  -2.00   34.5
2024/07/31 14:50:29.000   28.307786016  -16.518197954  2302.5122   1   8   0.0011   0.0015   0.0116   0.0009   0.0030   0.0023  -1.00   35.5
2024/07/31 14:50:30.000   28.307786016  -16.518197954  2302.5126   1   8   0.0011   0.0015   0.0116   0.0009   0.0030   0.0023   0.00   36.5
2024/07/31 14:50:31.000   28.307786016  -16.518197954  2302.5128   1   8   0.0011   0.0015   0.0116   0.0009   0.0030   0.0023   1.00   37.8
2024/07/31 14:50:32.000   28.307786017  -16.518197954  2302.5131   1   8   0.0011   0.0015   0.0116   0.0009   0.0030   0.0023   2.00   38.9
2024/07/31 14:50:33.000   28.307786017  -16.518197953  2302.5135   1   8   0.0011   0.0015   0.0116   0.0009   0.0030   0.0023   3.00   39.9
2024/07/31 14:50:34.000   28.307786017  -16.518197953  2302.5138   1   8   0.0011   0.0015   0.0116   0.0009   0.0030   0.0023   4.00   40.8
2024/07/31 14:50:35.000   28.307786017  -16.518197953  2302.5141   1   8   0.0011   0.0015   0.0116   0.0009   0.0030   0.0023   5.00   41.7
2024/07/31 14:50:36.000   28.307786017  -16.518197953  2302.5144   1   8   0.0011   0.0015   0.0116   0.0009   0.0030   0.0023   6.00   42.5
2024/07/31 14:50:37.000   28.307786017  -16.518197952  2302.5146   1   8   0.0011   0.0015   0.0116   0.0009   0.0030   0.0023   7.00   43.4
2024/07/31 14:50:38.000   28.307786018  -16.518197952  2302.5149   1   8   0.0011   0.0015   0.0116   0.0009   0.0030   0.0023   8.00   44.3
2024/07/31 14:50:39.000   28.307786018  -16.518197952  2302.5151   1   8   0.0011   0.0015   0.0116   0.0009   0.0030   0.0023   9.00   45.3
2024/07/31 14:50:40.000   28.307786018  -16.518197952  2302.5154   1   8   0.0011   0.0015   0.0116   0.0009   0.0030   0.0023  10.00   46.2
2024/07/31 14:50:41.000   28.307786018  -16.518197952  2302.5157   1   8   0.0011   0.0015   0.0116   0.0009   0.0030   0.0023  11.00   47.1
2024/07/31 14:50:42.000   28.307786018  -16.518197951  2302.5159   1   8   0.0011   0.0015   0.0116   0.0009   0.0030   0.0023  12.00   47.9
2024/07/31 14:50:43.000   28.307786018  -16.518197951  2302.5162   1   8   0.0011   0.0015   0.0116   0.0009   0.0030   0.0023  13.00   48.8
2024/07/31 14:50:44.000   28.307786018  -16.518197951  2302.5164   1   8   0.0011   0.0015   0.0116   0.0009   0.0030   0.0023  14.00   49.7
2024/07/31 14:50:45.000   28.307786018  -16.518197951  2302.5166   1   8   0.0011   0.0015   0.0116   0.0009   0.0030   0.0023 -15.00   50.6
2024/07/31 14:50:46.000   28.307786019  -16.518197950  2302.5168   1   8   0.0011   0.0015   0.0116   0.0009   0.0030   0.0023 -14.00   51.6
2024/07/31 14:50:47.000   28.307786019  -16.518197950  2302.5170   1   8   0.0011   0.0015   0.0116   0.0009   0.0030   0.0023 -13.00   52.6
2024/07/31 14:50:48.000   28.307786019  -16.518197950  2302.5171   1   8   0.0011   0.0015   0.0116   0.0009   0.0030   0.0023 -12.00   53.7
2024/07/31 14:50:49.000   28.307786019  -16.518197950  2302.5172   1   8   0.0011   0.0015   0.0116   0.0009   0.0030   0.0023 -11.00   54.7
2024/07/31 14:50:50.000   28.307786019  -16.518197950  2302.5173   1   8   0.0011   0.0015   0.0116   0.0009   0.0030   0.0023 -10.00   55.8
2024/07/31 14:50:51.000   28.307786019  -16.518197950  2302.5174   1   8   0.0011   0.0015   0.0116   0.0009   0.0030   0.0023  -9.00   57.0
2024/07/31 14:50:52.000   28.307786019  -16.518197950  2302.5175   1   8   0.0011   0.0015   0.0116   0.0009   0.0030   0.0023  -8.00   58.2
2024/07/31 14:50:53.000   28.307786019  -16.518197950  2302.5176   1   8   0.0011   0.0015   0.0116   0.0009   0.0030   0.0023  -7.00   59.4
2024/07/31 14:50:54.000   28.307786019  -16.518197950  2302.5176   1   8   0.0011   0.0015   0.0115   0.0009   0.0030   0.0023  -6.00   60.8
2024/07/31 14:50:55.000   28.307786019  -16.518197950  2302.5176   1   8   0.0011   0.0015   0.0115   0.0009   0.0030   0.0023  -5.00   62.2
2024/07/31 14:50:56.000   28.307786019  -16.518197950  2302.5177   1   8   0.0011   0.0015   0.0115   0.0009   0.0030   0.0023  -4.00   63.3
2024/07/31 14:50:57.000   28.307786019  -16.518197950  2302.5178   1   8   0.0011   0.0015   0.0115   0.0009   0.0030   0.0023  -3.00   64.7
2024/07/31 14:50:58.000   28.307786019  -16.518197950  2302.5180   1   8   0.0011   0.0015   0.0115   0.0009   0.0030   0.0023  -2.00   65.6
2024/07/31 14:50:59.000   28.307786019  -16.518197950  2302.5183   1   8   0.0011   0.0015   0.0115   0.0009   0.0030   0.0023  -1.00   66.8
2024/07/31 14:51:00.000   28.307786019  -16.518197949  2302.5185   1   8   0.0011   0.0015   0.0115   0.0009   0.0030   0.0023   0.00   67.7
2024/07/31 14:51:01.000   28.307786019  -16.518197949  2302.5186   1   8   0.0011   0.0015   0.0115   0.0009   0.0030   0.0023   1.00   69.1
2024/07/31 14:51:02.000   28.307786020  -16.518197949  2302.5188   1   8   0.0011   0.0015   0.0115   0.0009   0.0030   0.0023   2.00   70.5
2024/07/31 14:51:03.000   28.307786020  -16.518197949  2302.5190   1   8   0.0011   0.0015   0.0115   0.0009   0.0030   0.0023   3.00   71.6
2024/07/31 14:51:04.000   28.307786020  -16.518197949  2302.5190   1   8   0.0011   0.0015   0.0115   0.0009   0.0030   0.0023   4.00   72.9
2024/07/31 14:51:05.000   28.307786020  -16.518197949  2302.5192   1   8   0.0011   0.0015   0.0115   0.0009   0.0030   0.0023   5.00   73.8
2024/07/31 14:51:06.000   28.307786020  -16.518197949  2302.5194   1   8   0.0011   0.0015   0.0115   0.0009   0.0030   0.0023   6.00   75.2
2024/07/31 14:51:07.000   28.307786020  -16.518197949  2302.5195   1   8   0.0011   0.0015   0.0115   0.0009   0.0030   0.0023   7.00   76.4
2024/07/31 14:51:08.000   28.307786020  -16.518197949  2302.5196   1   8   0.0011   0.0015   0.0115   0.0009   0.0030   0.0023   8.00   77.6
2024/07/31 14:51:09.000   28.307786020  -16.518197948  2302.5198   1   8   0.0011   0.0015   0.0115   0.0009   0.0030   0.0023   9.00   78.5
2024/07/31 14:51:10.000   28.307786020  -16.518197948  2302.5200   1   8   0.0011   0.0015   0.0115   0.0009   0.0030   0.0023  10.00   79.5
2024/07/31 14:51:11.000   28.307786020  -16.518197948  2302.5201   1   8   0.0011   0.0015   0.0115   0.0009   0.0030   0.0023  11.00   80.7
2024/07/31 14:51:12.000   28.307786020  -16.518197948  2302.5203   1   8   0.0011   0.0015   0.0115   0.0009   0.0030   0.0023  12.00   81.8
2024/07/31 14:51:13.000   28.307786020  -16.518197948  2302.5204   1   8   0.0011   0.0015   0.0115   0.0009   0.0030   0.0023  13.00   82.8
2024/07/31 14:51:14.000   28.307786021  -16.518197948  2302.5205   1   8   0.0011   0.0015   0.0115   0.0009   0.0030   0.0023  14.00   83.9
2024/07/31 14:51:15.000   28.307786021  -16.518197948  2302.5206   1   8   0.0011   0.0015   0.0115   0.0009   0.0030   0.0023 -15.00   85.1
2024/07/31 14:51:16.000   28.307786021  -16.518197948  2302.5206   1   8   0.0011   0.0015   0.0115   0.0009   0.0030   0.0023 -14.00   86.3
2024/07/31 14:51:17.000   28.307786021  -16.518197948  2302.5207   1   8   0.0011   0.0015   0.0115   0.0009   0.0030   0.0023 -13.00   87.4
2024/07/31 14:51:18.000   28.307786021  -16.518197948  2302.5208   1   8   0.0011   0.0015   0.0115   0.0009   0.0030   0.0023 -12.00   88.5
2024/07/31 14:51:19.000   28.307786021  -16.518197947  2302.5210   1   8   0.0011   0.0015   0.0115   0.0009   0.0030   0.0023 -11.00   89.4
2024/07/31 14:51:20.000   28.307786021  -16.518197947  2302.5212   1   8   0.0011   0.0015   0.0115   0.0009   0.0030   0.0023 -10.00   90.2
2024/07/31 14:51:21.000   28.307786021  -16.518197947  2302.5214   1   8   0.0011   0.0015   0.0115   0.0009   0.0030   0.0023  -9.00   91.0
2024/07/31 14:51:22.000   28.307786021  -16.518197947  2302.5215   1   8   0.0011   0.0015   0.0114   0.0009   0.0030   0.0023  -8.00   91.8
2024/07/31 14:51:23.000   28.307786021  -16.518197947  2302.5217   1   8   0.0011   0.0015   0.0114   0.0009   0.0030   0.0023  -7.00   92.7
2024/07/31 14:51:24.000   28.307786021  -16.518197947  2302.5219   1   8   0.0011   0.0015   0.0114   0.0009   0.0030   0.0023  -6.00   93.7
2024/07/31 14:51:25.000   28.307786021  -16.518197947  2302.5220   1   8   0.0011   0.0015   0.0114   0.0009   0.0030   0.0023  -5.00   94.2
2024/07/31 14:51:26.000   28.307786021  -16.518197947  2302.5221   1   8   0.0011   0.0015   0.0114   0.0009   0.0030   0.0023  -4.00   95.1
2024/07/31 14:51:27.000   28.307786021  -16.518197947  2302.5223   1   8   0.0011   0.0015   0.0114   0.0009   0.0030   0.0023  -3.00   95.7
2024/07/31 14:51:28.000   28.307786021  -16.518197947  2302.5224   1   8   0.0011   0.0015   0.0114   0.0009   0.0030   0.0023  -2.00   96.2
2024/07/31 14:51:29.000   28.307786022  -16.518197947  2302.5226   1   8   0.0011   0.0015   0.0114   0.0009   0.0030   0.0023  -1.00   96.7
2024/07/31 14:51:30.000   28.307786022  -16.518197947  2302.5227   1   8   0.0011   0.0015   0.0114   0.0009   0.0030   0.0023   0.00   96.8
2024/07/31 14:51:31.000   28.307786022  -16.518197947  2302.5227   1   7   0.0011   0.0015   0.0114   0.0009   0.0030   0.0023   1.00   97.9
2024/07/31 14:51:32.000   28.307786021  -16.518197947  2302.5226   1   7   0.0011   0.0015   0.0114   0.0009   0.0030   0.0023   2.00   98.6
2024/07/31 14:51:33.000   28.307786023  -16.518197946  2302.5246   1   7   0.0011   0.0015   0.0113   0.0009   0.0030   0.0022   3.00   12.3
2024/07/31 14:51:34.000   28.307786023  -16.518197946  2302.5245   1   7   0.0011   0.0015   0.0113   0.0009   0.0030   0.0022   4.00   13.0
2024/07/31 14:51:35.000   28.307786001  -16.518197957  2302.5012   1   7   0.0010   0.0015   0.0107   0.0008   0.0028   0.0019   5.00    4.4
2024/07/31 14:51:36.000   28.307786001  -16.518197957  2302.5011   1   7   0.0010   0.0015   0.0107   0.0008   0.0028   0.0019   6.00    4.7
2024/07/31 14:51:37.000   28.307786001  -16.518197957  2302.5011   1   7   0.0010   0.0015   0.0107   0.0008   0.0028   0.0019   7.00    5.0
2024/07/31 14:51:38.000   28.307786001  -16.518197957  2302.5011   1   7   0.0010   0.0015   0.0107   0.0008   0.0028   0.0019   8.00    5.3
2024/07/31 14:51:39.000   28.307786001  -16.518197957  2302.5011   1   7   0.0010   0.0015   0.0107   0.0008   0.0028   0.0019   9.00    5.6
2024/07/31 14:51:40.000   28.307786001  -16.518197957  2302.5011   1   7   0.0010   0.0015   0.0107   0.0008   0.0028   0.0019  10.00    5.9
2024/07/31 14:51:41.000   28.307786001  -16.518197957  2302.5011   1   7   0.0010   0.0015   0.0107   0.0008   0.0028   0.0019  11.00    6.2
2024/07/31 14:51:42.000   28.307786001  -16.518197957  2302.5011   1   7   0.0010   0.0015   0.0106   0.0008   0.0028   0.0019  12.00    6.6
2024/07/31 14:51:43.000   28.307786001  -16.518197957  2302.5011   1   7   0.0010   0.0015   0.0106   0.0008   0.0028   0.0019  13.00    6.9
2024/07/31 14:51:44.000   28.307786001  -16.518197957  2302.5011   1   7   0.0010   0.0015   0.0106   0.0008   0.0028   0.0019  14.00    7.2
2024/07/31 14:51:45.000   28.307786001  -16.518197957  2302.5011   1   7   0.0010   0.0015   0.0106   0.0008   0.0028   0.0019 -15.00    7.5
2024/07/31 14:51:46.000   28.307786001  -16.518197957  2302.5011   1   7   0.0010   0.0015   0.0106   0.0008   0.0028   0.0019 -14.00    7.8
2024/07/31 14:51:47.000   28.307786001  -16.518197957  2302.5011   1   7   0.0010   0.0015   0.0106   0.0008   0.0028   0.0019 -13.00    8.1
2024/07/31 14:51:48.000   28.307786001  -16.518197957  2302.5012   1   7   0.0010   0.0015   0.0106   0.0008   0.0028   0.0019 -12.00    8.4
2024/07/31 14:51:49.000   28.307786001  -16.518197957  2302.5012   1   7   0.0010   0.0015   0.0106   0.0008   0.0028   0.0019 -11.00    8.8
2024/07/31 14:51:50.000   28.307786001  -16.518197957  2302.5012   1   7   0.0010   0.0015   0.0106   0.0008   0.0028   0.0019 -10.00    9.1
2024/07/31 14:51:51.000   28.307786001  -16.518197957  2302.5012   1   7   0.0010   0.0015   0.0106   0.0008   0.0028   0.0019  -9.00    9.4
2024/07/31 14:51:52.000   28.307786001  -16.518197957  2302.5012   1   7   0.0010   0.0015   0.0106   0.0008   0.0028   0.0019  -8.00    9.8
2024/07/31 14:51:53.000   28.307786001  -16.518197957  2302.5012   1   7   0.0010   0.0015   0.0106   0.0008   0.0028   0.0019  -7.00   10.1
2024/07/31 14:51:54.000   28.307786001  -16.518197957  2302.5012   1   7   0.0010   0.0015   0.0106   0.0008   0.0028   0.0019  -6.00   10.5
2024/07/31 14:51:55.000   28.307786001  -16.518197957  2302.5012   1   7   0.0010   0.0015   0.0106   0.0008   0.0028   0.0019  -5.00   10.9
2024/07/31 14:51:56.000   28.307786001  -16.518197957  2302.5012   1   7   0.0010   0.0015   0.0106   0.0008   0.0028   0.0019  -4.00   11.3
2024/07/31 14:51:57.000   28.307786001  -16.518197957  2302.5012   1   7   0.0010   0.0015   0.0106   0.0008   0.0028   0.0019  -3.00   11.7
2024/07/31 14:51:58.000   28.307786001  -16.518197957  2302.5012   1   7   0.0010   0.0015   0.0106   0.0008   0.0028   0.0019  -2.00   12.0
2024/07/31 14:51:59.000   28.307786001  -16.518197957  2302.5013   1   7   0.0010   0.0015   0.0106   0.0008   0.0028   0.0019  -1.00   12.5
2024/07/31 14:52:00.000   28.307786001  -16.518197957  2302.5013   1   7   0.0010   0.0015   0.0106   0.0008   0.0028   0.0019   0.00   12.9
2024/07/31 14:52:01.000   28.307786001  -16.518197957  2302.5012   1   7   0.0010   0.0015   0.0106   0.0008   0.0028   0.0019   1.00   13.3
2024/07/31 14:52:02.000   28.307786001  -16.518197957  2302.5013   1   7   0.0010   0.0015   0.0106   0.0008   0.0028   0.0019   2.00   13.7
2024/07/31 14:52:03.000   28.307786001  -16.518197957  2302.5013   1   7   0.0010   0.0015   0.0106   0.0008   0.0028   0.0019   3.00   14.2
2024/07/31 14:52:04.000   28.307786001  -16.518197957  2302.5013   1   7   0.0010   0.0015   0.0106   0.0008   0.0028   0.0019   4.00   14.7
2024/07/31 14:52:05.000   28.307786001  -16.518197957  2302.5012   1   7   0.0010   0.0015   0.0106   0.0008   0.0028   0.0019   5.00   15.1
2024/07/31 14:52:06.000   28.307786001  -16.518197957  2302.5013   1   7   0.0010   0.0015   0.0106   0.0008   0.0028   0.0019   6.00   15.6
2024/07/31 14:52:07.000   28.307786001  -16.518197957  2302.5012   1   7   0.0010   0.0015   0.0106   0.0008   0.0028   0.0019   7.00   16.0
2024/07/31 14:52:08.000   28.307786001  -16.518197957  2302.5012   1   7   0.0010   0.0015   0.0106   0.0008   0.0028   0.0019   8.00   16.4
2024/07/31 14:52:09.000   28.307786001  -16.518197957  2302.5011   1   7   0.0010   0.0015   0.0106   0.0008   0.0028   0.0019   9.00   16.9
2024/07/31 14:52:10.000   28.307786001  -16.518197957  2302.5011   1   7   0.0010   0.0015   0.0106   0.0008   0.0028   0.0019  10.00   17.3
2024/07/31 14:52:11.000   28.307786001  -16.518197957  2302.5010   1   7   0.0010   0.0015   0.0106   0.0008   0.0028   0.0019  11.00   17.7
2024/07/31 14:52:12.000   28.307786001  -16.518197957  2302.5010   1   7   0.0010   0.0015   0.0106   0.0008   0.0028   0.0019  12.00   18.1
2024/07/31 14:52:13.000   28.307786001  -16.518197957  2302.5010   1   7   0.0010   0.0015   0.0106   0.0008   0.0028   0.0019  13.00   18.5
2024/07/31 14:52:14.000   28.307786001  -16.518197957  2302.5010   1   7   0.0010   0.0015   0.0106   0.0008   0.0028   0.0019  14.00   18.9
2024/07/31 14:52:15.000   28.307786001  -16.518197957  2302.5010   1   7   0.0010   0.0015   0.0106   0.0008   0.0028   0.0019 -15.00   19.3
2024/07/31 14:52:16.000   28.307786001  -16.518197957  2302.5009   1   7   0.0010   0.0015   0.0106   0.0008   0.0028   0.0019 -14.00   19.8
2024/07/31 14:52:17.000   28.307786001  -16.518197957  2302.5009   1   7   0.0010   0.0015   0.0106   0.0008   0.0028   0.0019 -13.00   20.2
2024/07/31 14:52:18.000   28.307786001  -16.518197957  2302.5008   1   7   0.0010   0.0015   0.0106   0.0008   0.0028   0.0019 -12.00   20.7
2024/07/31 14:52:19.000   28.307786001  -16.518197958  2302.5008   1   7   0.0010   0.0015   0.0106   0.0008   0.0028   0.0019 -11.00   21.1
2024/07/31 14:52:20.000   28.307786001  -16.518197958  2302.5008   1   7   0.0010   0.0015   0.0106   0.0008   0.0028   0.0019 -10.00   21.6
2024/07/31 14:52:21.000   28.307786001  -16.518197958  2302.5007   1   7   0.0010   0.0015   0.0105   0.0008   0.0028   0.0019  -9.00   22.1
2024/07/31 14:52:22.000   28.307786001  -16.518197958  2302.5007   1   7   0.0010   0.0015   0.0105   0.0008   0.0028   0.0019  -8.00   22.6
2024/07/31 14:52:23.000   28.307786001  -16.518197958  2302.5006   1   7   0.0010   0.0015   0.0105   0.0008   0.0028   0.0019  -7.00   23.1
2024/07/31 14:52:24.000   28.307786001  -16.518197958  2302.5006   1   7   0.0010   0.0015   0.0105   0.0008   0.0028   0.0019  -6.00   23.6
2024/07/31 14:52:25.000   28.307786001  -16.518197958  2302.5005   1   7   0.0010   0.0015   0.0105   0.0008   0.0028   0.0019  -5.00   24.0
2024/07/31 14:52:26.000   28.307786001  -16.518197958  2302.5005   1   7   0.0010   0.0015   0.0105   0.0008   0.0028   0.0019  -4.00   24.5
2024/07/31 14:52:27.000   28.307786001  -16.518197958  2302.5005   1   7   0.0010   0.0015   0.0105   0.0008   0.0028   0.0019  -3.00   24.9
2024/07/31 14:52:28.000   28.307786001  -16.518197958  2302.5005   1   7   0.0010   0.0015   0.0105   0.0008   0.0028   0.0019  -2.00   25.5
2024/07/31 14:52:29.000   28.307786001  -16.518197958  2302.5004   1   7   0.0010   0.0015   0.0105   0.0008   0.0028   0.0019  -1.00   26.0
2024/07/31 14:52:30.000   28.307786001  -16.518197958  2302.5003   1   7   0.0010   0.0015   0.0105   0.0008   0.0028   0.0019   0.00   26.4
2024/07/31 14:52:31.000   28.307786001  -16.518197958  2302.5004   1   7   0.0010   0.0015   0.0105   0.0008   0.0028   0.0019   1.00   26.8
2024/07/31 14:52:32.000   28.307786001  -16.518197958  2302.5004   1   7   0.0010   0.0015   0.0105   0.0008   0.0028   0.0019   2.00   27.2
2024/07/31 14:52:33.000   28.307786001  -16.518197958  2302.5005   1   7   0.0010   0.0015   0.0105   0.0008   0.0028   0.0019   3.00   27.5
2024/07/31 14:52:34.000   28.307786001  -16.518197958  2302.5007   1   7   0.0010   0.0015   0.0105   0.0008   0.0028   0.0019   4.00   27.8
2024/07/31 14:52:35.000   28.307786001  -16.518197958  2302.5008   1   7   0.0010   0.0015   0.0105   0.0008   0.0028   0.0019   5.00   28.1
2024/07/31 14:52:36.000   28.307786001  -16.518197958  2302.5009   1   7   0.0010   0.0015   0.0105   0.0008   0.0028   0.0019   6.00   28.4
2024/07/31 14:52:37.000   28.307786001  -16.518197958  2302.5010   1   7   0.0010   0.0015   0.0105   0.0008   0.0028   0.0019   7.00   28.7
2024/07/31 14:52:38.000   28.307786001  -16.518197958  2302.5011   1   7   0.0010   0.0015   0.0105   0.0008   0.0028   0.0019   8.00   29.0
2024/07/31 14:52:39.000   28.307786001  -16.518197958  2302.5011   1   7   0.0010   0.0015   0.0105   0.0008   0.0028   0.0019   9.00   29.4
2024/07/31 14:52:40.000   28.307786001  -16.518197958  2302.5012   1   7   0.0010   0.0015   0.0105   0.0008   0.0028   0.0019  10.00   29.7
2024/07/31 14:52:41.000   28.307786001  -16.518197957  2302.5013   1   7   0.0010   0.0014   0.0105   0.0008   0.0028   0.0019  11.00   30.0
2024/07/31 14:52:42.000   28.307786001  -16.518197957  2302.5014   1   7   0.0010   0.0014   0.0105   0.0008   0.0028   0.0019  12.00   30.4
2024/07/31 14:52:43.000   28.307786001  -16.518197957  2302.5015   1   7   0.0010   0.0014   0.0105   0.0008   0.0028   0.0019  13.00   30.7
2024/07/31 14:52:44.000   28.307786001  -16.518197957  2302.5016   1   7   0.0010   0.0014   0.0105   0.0008   0.0028   0.0019  14.00   31.0
2024/07/31 14:52:45.000   28.307786001  -16.518197957  2302.5016   1   7   0.0010   0.0014   0.0105   0.0008   0.0028   0.0019 -15.00   31.3
2024/07/31 14:52:46.000   28.307786001  -16.518197957  2302.5017   1   7   0.0010   0.0014   0.0105   0.0008   0.0028   0.0019 -14.00   31.6
2024/07/31 14:52:47.000   28.307786001  -16.518197957  2302.5018   1   7   0.0010   0.0014   0.0105   0.0008   0.0028   0.0019 -13.00   31.9
2024/07/31 14:52:48.000   28.307786001  -16.518197957  2302.5019   1   7   0.0010   0.0014   0.0105   0.0008   0.0028   0.0019 -12.00   32.2
2024/07/31 14:52:49.000   28.307786001  -16.518197957  2302.5020   1   7   0.0010   0.0014   0.0105   0.0008   0.0028   0.0019 -11.00   32.6
2024/07/31 14:52:50.000   28.307786001  -16.518197957  2302.5021   1   7   0.0010   0.0014   0.0105   0.0008   0.0028   0.0019 -10.00   32.9
2024/07/31 14:52:51.000   28.307786001  -16.518197957  2302.5022   1   7   0.0010   0.0014   0.0105   0.0008   0.0028   0.0019  -9.00   33.2
2024/07/31 14:52:52.000   28.307786001  -16.518197956  2302.5023   1   7   0.0010   0.0014   0.0105   0.0008   0.0028   0.0019  -8.00   33.5
2024/07/31 14:52:53.000   28.307786001  -16.518197956  2302.5024   1   7   0.0010   0.0014   0.0105   0.0008   0.0028   0.0019  -7.00   33.9
2024/07/31 14:52:54.000   28.307786001  -16.518197956  2302.5025   1   7   0.0010   0.0014   0.0105   0.0008   0.0028   0.0019  -6.00   34.2
2024/07/31 14:52:55.000   28.307786001  -16.518197956  2302.5027   1   7   0.0010   0.0014   0.0105   0.0008   0.0028   0.0019  -5.00   34.6
2024/07/31 14:52:56.000   28.307786001  -16.518197956  2302.5028   1   7   0.0010   0.0014   0.0105   0.0008   0.0028   0.0019  -4.00   35.0
2024/07/31 14:52:57.000   28.307786001  -16.518197956  2302.5029   1   7   0.0010   0.0014   0.0105   0.0008   0.0028   0.0019  -3.00   35.6
2024/07/31 14:52:58.000   28.307786001  -16.518197956  2302.5030   1   7   0.0010   0.0014   0.0105   0.0008   0.0028   0.0019  -2.00   36.2
2024/07/31 14:52:59.000   28.307786001  -16.518197956  2302.5030   1   7   0.0010   0.0014   0.0105   0.0008   0.0028   0.0019  -1.00   36.8
2024/07/31 14:53:00.000   28.307786001  -16.518197956  2302.5030   1   7   0.0010   0.0014   0.0105   0.0008   0.0028   0.0019   0.00   37.4
2024/07/31 14:53:01.000   28.307786001  -16.518197956  2302.5029   1   7   0.0010   0.0014   0.0105   0.0008   0.0028   0.0019   1.00   38.0
2024/07/31 14:53:02.000   28.307786001  -16.518197956  2302.5029   1   7   0.0010   0.0014   0.0105   0.0008   0.0028   0.0019   2.00   38.5
2024/07/31 14:53:03.000   28.307786001  -16.518197956  2302.5029   1   7   0.0010   0.0014   0.0105   0.0008   0.0028   0.0019   3.00   39.1
2024/07/31 14:53:04.000   28.307786001  -16.518197956  2302.5029   1   7   0.0010   0.0014   0.0104   0.0008   0.0028   0.0019   4.00   39.6
2024/07/31 14:53:05.000   28.307786001  -16.518197956  2302.5029   1   7   0.0010   0.0014   0.0104   0.0008   0.0028   0.0019   5.00   40.2
2024/07/31 14:53:06.000   28.307786001  -16.518197956  2302.5029   1   7   0.0010   0.0014   0.0104   0.0008   0.0028   0.0019   6.00   40.7
2024/07/31 14:53:07.000   28.307786001  -16.518197956  2302.5029   1   7   0.0010   0.0014   0.0104   0.0008   0.0028   0.0019   7.00   41.3
2024/07/31 14:53:08.000   28.307786001  -16.518197956  2302.5029   1   7   0.0010   0.0014   0.0104   0.0008   0.0028   0.0019   8.00   41.8
2024/07/31 14:53:09.000   28.307786001  -16.518197956  2302.5029   1   7   0.0010   0.0014   0.0104   0.0008   0.0028   0.0019   9.00   42.3
2024/07/31 14:53:10.000   28.307786001  -16.518197956  2302.5029   1   7   0.0010   0.0014   0.0104   0.0008   0.0028   0.0019  10.00   42.8
2024/07/31 14:53:11.000   28.307786001  -16.518197956  2302.5029   1   7   0.0010   0.0014   0.0104   0.0008   0.0028   0.0019  11.00   43.3
2024/07/31 14:53:12.000   28.307786001  -16.518197956  2302.5029   1   7   0.0010   0.0014   0.0104   0.0008   0.0028   0.0019  12.00   43.8
2024/07/31 14:53:13.000   28.307786001  -16.518197956  2302.5030   1   7   0.0010   0.0014   0.0104   0.0008   0.0028   0.0019  13.00   44.3
2024/07/31 14:53:14.000   28.307786001  -16.518197956  2302.5030   1   7   0.0010   0.0014   0.0104   0.0008   0.0028   0.0019  14.00   44.8
2024/07/31 14:53:15.000   28.307786001  -16.518197956  2302.5030   1   7   0.0010   0.0014   0.0104   0.0008   0.0028   0.0019 -15.00   45.2
2024/07/31 14:53:16.000   28.307786001  -16.518197956  2302.5030   1   7   0.0010   0.0014   0.0104   0.0008   0.0028   0.0019 -14.00   45.7
2024/07/31 14:53:17.000   28.307786001  -16.518197956  2302.5030   1   7   0.0010   0.0014   0.0104   0.0008   0.0028   0.0019 -13.00   46.2
2024/07/31 14:53:18.000   28.307786001  -16.518197956  2302.5030   1   7   0.0010   0.0014   0.0104   0.0008   0.0028   0.0019 -12.00   46.7
2024/07/31 14:53:19.000   28.307786001  -16.518197956  2302.5031   1   7   0.0010   0.0014   0.0104   0.0008   0.0028   0.0019 -11.00   47.2
2024/07/31 14:53:20.000   28.307786001  -16.518197956  2302.5031   1   7   0.0010   0.0014   0.0104   0.0008   0.0028   0.0019 -10.00   47.7
2024/07/31 14:53:21.000   28.307786001  -16.518197956  2302.5030   1   7   0.0010   0.0014   0.0104   0.0008   0.0028   0.0019  -9.00   48.2
2024/07/31 14:53:22.000   28.307786001  -16.518197956  2302.5031   1   7   0.0010   0.0014   0.0104   0.0008   0.0028   0.0019  -8.00   48.8
2024/07/31 14:53:23.000   28.307786001  -16.518197956  2302.5030   1   7   0.0010   0.0014   0.0104   0.0008   0.0028   0.0019  -7.00   49.3
2024/07/31 14:53:24.000   28.307786001  -16.518197956  2302.5030   1   7   0.0010   0.0014   0.0104   0.0008   0.0028   0.0019  -6.00   49.8
2024/07/31 14:53:25.000   28.307786001  -16.518197956  2302.5030   1   7   0.0010   0.0014   0.0104   0.0008   0.0028   0.0019  -5.00   50.2
2024/07/31 14:53:26.000   28.307786001  -16.518197956  2302.5030   1   7   0.0010   0.0014   0.0104   0.0008   0.0028   0.0019  -4.00   50.7
2024/07/31 14:53:27.000   28.307786001  -16.518197956  2302.5030   1   7   0.0010   0.0014   0.0104   0.0008   0.0028   0.0019  -3.00   51.0
2024/07/31 14:53:28.000   28.307786001  -16.518197956  2302.5030   1   7   0.0010   0.0014   0.0104   0.0008   0.0028   0.0019  -2.00   51.3
2024/07/31 14:53:29.000   28.307786001  -16.518197956  2302.5031   1   7   0.0010   0.0014   0.0104   0.0008   0.0028   0.0019  -1.00   51.7
2024/07/31 14:53:30.000   28.307786001  -16.518197956  2302.5031   1   7   0.0010   0.0014   0.0104   0.0008   0.0028   0.0019   0.00   52.2
