% program   : RTKPOST-EX 2.5.0
% inp file  : C:\Users\SallyHenry\Desktop\Sally Internship\GNSS gravi\DATA\Survey Rover Obs\CAMI4.24o
% inp file  : C:\Users\SallyHenry\Desktop\Sally Internship\GNSS gravi\DATA\BaseStations\IZAN\IZAN00ESP_R_20242130000_01D_30S_MO.rnx
% inp file  : C:\Users\SallyHenry\Desktop\Sally Internship\GNSS gravi\DATA\BaseStations\IZAN\IZAN00ESP_R_20242130000_01D_MN.rnx
% inp file  : C:\Users\SallyHenry\Desktop\Sally Internship\GNSS gravi\DATA\aux_files\Survey\IGS0OPSFIN_20242130000_01D_15M_ORB.SP3
% inp file  : C:\Users\SallyHenry\Desktop\Sally Internship\GNSS gravi\DATA\aux_files\Survey\IGS0OPSFIN_20242130000_01D_30S_CLK.CLK
% obs start : 2024/07/31 13:20:09.0 GPST (week2325 307209.0s)
% obs end   : 2024/07/31 13:35:12.0 GPST (week2325 308112.0s)
% pos mode  : Static
% freqs     : L1+L2/E5b
% solution  : Combined-No Phase Reset
% elev mask : 15.0 deg
% dynamics  : on
% tidecorr  : solid
% ionos opt : Estimate TEC
% tropo opt : Estimate ZTD+Grad
% ephemeris : Precise
% navi sys  : GPS GLONASS Galileo QZSS BDS
% amb res   : Fix and Hold
% amb glo   : Fix and Hold
% amb bds   : on
% val thres : 3.0
% antenna1  :                       ( 0.0000  0.0000  1.8000)
% antenna2  :                       ( 0.0000  0.0000  0.0000)
% ref pos   :  28.308069410  -16.499677180  2417.4044
%
% (lat/lon/height=WGS84/ellipsoidal,Q=1:fix,2:float,3:sbas,4:dgps,5:single,6:ppp,ns=# of satellites)
%  GPST                  latitude(deg) longitude(deg)  height(m)   Q  ns   sdn(m)   sde(m)   sdu(m)  sdne(m)  sdeu(m)  sdun(m) age(s)  ratio
2024/07/31 13:20:09.000   28.327866604  -16.510517742  1956.9730   1   7   0.0014   0.0019   0.0097  -0.0010  -0.0013   0.0012   9.00   47.4
2024/07/31 13:20:10.000   28.327866604  -16.510517742  1956.9730   1   7   0.0014   0.0019   0.0097  -0.0010  -0.0013   0.0012  10.00   47.2
2024/07/31 13:20:11.000   28.327866603  -16.510517742  1956.9730   1   7   0.0014   0.0019   0.0097  -0.0010  -0.0013   0.0012  11.00   47.1
2024/07/31 13:20:12.000   28.327866603  -16.510517742  1956.9730   1   7   0.0014   0.0019   0.0097  -0.0010  -0.0013   0.0012  12.00   47.0
2024/07/31 13:20:13.000   28.327866603  -16.510517742  1956.9730   1   7   0.0014   0.0019   0.0096  -0.0010  -0.0013   0.0012  13.00   46.8
2024/07/31 13:20:14.000   28.327866603  -16.510517741  1956.9731   1   7   0.0014   0.0019   0.0096  -0.0010  -0.0013   0.0012  14.00   46.7
2024/07/31 13:20:15.000   28.327866603  -16.510517741  1956.9731   1   7   0.0014   0.0019   0.0096  -0.0010  -0.0013   0.0012  15.00   46.5
2024/07/31 13:20:16.000   28.327866603  -16.510517741  1956.9731   1   7   0.0014   0.0019   0.0096  -0.0010  -0.0013   0.0012 -14.00   46.4
2024/07/31 13:20:17.000   28.327866603  -16.510517741  1956.9731   1   7   0.0014   0.0019   0.0096  -0.0010  -0.0013   0.0012 -13.00   46.2
2024/07/31 13:20:18.000   28.327866603  -16.510517741  1956.9731   1   7   0.0014   0.0019   0.0096  -0.0010  -0.0013   0.0012 -12.00   46.1
2024/07/31 13:20:19.000   28.327866602  -16.510517741  1956.9731   1   7   0.0014   0.0019   0.0096  -0.0010  -0.0013   0.0012 -11.00   45.9
2024/07/31 13:20:20.000   28.327866602  -16.510517741  1956.9731   1   7   0.0014   0.0019   0.0096  -0.0010  -0.0013   0.0012 -10.00   45.8
2024/07/31 13:20:21.000   28.327866602  -16.510517741  1956.9731   1   7   0.0014   0.0019   0.0096  -0.0010  -0.0013   0.0012  -9.00   45.6
2024/07/31 13:20:22.000   28.327866602  -16.510517741  1956.9731   1   7   0.0014   0.0019   0.0096  -0.0010  -0.0013   0.0012  -8.00   45.4
2024/07/31 13:20:23.000   28.327866602  -16.510517741  1956.9731   1   7   0.0014   0.0019   0.0096  -0.0010  -0.0013   0.0012  -7.00   45.3
2024/07/31 13:20:24.000   28.327866602  -16.510517740  1956.9731   1   7   0.0014   0.0019   0.0096  -0.0010  -0.0013   0.0012  -6.00   45.1
2024/07/31 13:20:25.000   28.327866601  -16.510517740  1956.9732   1   7   0.0014   0.0019   0.0096  -0.0010  -0.0013   0.0012  -5.00   44.9
2024/07/31 13:20:26.000   28.327866601  -16.510517739  1956.9732   1   7   0.0014   0.0019   0.0096  -0.0010  -0.0013   0.0012  -4.00   44.8
2024/07/31 13:20:27.000   28.327866601  -16.510517739  1956.9733   1   7   0.0014   0.0019   0.0096  -0.0010  -0.0013   0.0012  -3.00   44.6
2024/07/31 13:20:28.000   28.327866601  -16.510517738  1956.9733   1   7   0.0014   0.0019   0.0096  -0.0010  -0.0013   0.0012  -2.00   44.5
2024/07/31 13:20:29.000   28.327866600  -16.510517737  1956.9734   1   7   0.0014   0.0019   0.0096  -0.0010  -0.0013   0.0012  -1.00   44.3
2024/07/31 13:20:30.000   28.327866600  -16.510517736  1956.9735   1   7   0.0014   0.0019   0.0096  -0.0010  -0.0013   0.0012   0.00   44.1
2024/07/31 13:20:31.000   28.327866600  -16.510517735  1956.9736   1   7   0.0014   0.0019   0.0096  -0.0010  -0.0012   0.0012   1.00   43.9
2024/07/31 13:20:32.000   28.327866600  -16.510517734  1956.9737   1   7   0.0014   0.0019   0.0096  -0.0010  -0.0012   0.0012   2.00   43.8
2024/07/31 13:20:33.000   28.327866599  -16.510517733  1956.9739   1   7   0.0014   0.0020   0.0097  -0.0010  -0.0012   0.0012   3.00   43.7
2024/07/31 13:20:34.000   28.327866599  -16.510517732  1956.9739   1   7   0.0014   0.0020   0.0097  -0.0010  -0.0012   0.0012   4.00   43.6
2024/07/31 13:20:35.000   28.327866599  -16.510517731  1956.9740   1   7   0.0014   0.0020   0.0097  -0.0010  -0.0012   0.0012   5.00   43.5
2024/07/31 13:20:36.000   28.327866599  -16.510517731  1956.9741   1   7   0.0014   0.0020   0.0097  -0.0010  -0.0012   0.0012   6.00   43.4
2024/07/31 13:20:37.000   28.327866598  -16.510517730  1956.9741   1   7   0.0014   0.0020   0.0097  -0.0010  -0.0012   0.0012   7.00   43.3
2024/07/31 13:20:38.000   28.327866598  -16.510517730  1956.9742   1   7   0.0014   0.0020   0.0097  -0.0010  -0.0012   0.0012   8.00   43.1
2024/07/31 13:20:39.000   28.327866598  -16.510517729  1956.9742   1   7   0.0014   0.0020   0.0097  -0.0010  -0.0012   0.0012   9.00   43.0
2024/07/31 13:20:40.000   28.327866598  -16.510517729  1956.9742   1   7   0.0014   0.0020   0.0097  -0.0010  -0.0012   0.0012  10.00   42.9
2024/07/31 13:20:41.000   28.327866598  -16.510517729  1956.9743   1   7   0.0014   0.0020   0.0097  -0.0010  -0.0012   0.0012  11.00   42.8
2024/07/31 13:20:42.000   28.327866598  -16.510517729  1956.9743   1   7   0.0014   0.0020   0.0096  -0.0010  -0.0012   0.0012  12.00   42.6
2024/07/31 13:20:43.000   28.327866597  -16.510517729  1956.9743   1   7   0.0014   0.0020   0.0096  -0.0010  -0.0012   0.0012  13.00   42.5
2024/07/31 13:20:44.000   28.327866597  -16.510517728  1956.9743   1   7   0.0014   0.0019   0.0096  -0.0010  -0.0012   0.0012  14.00   42.3
2024/07/31 13:20:45.000   28.327866597  -16.510517728  1956.9743   1   7   0.0014   0.0019   0.0096  -0.0010  -0.0012   0.0012  15.00   42.2
2024/07/31 13:20:46.000   28.327866597  -16.510517728  1956.9743   1   7   0.0014   0.0019   0.0096  -0.0010  -0.0012   0.0012 -14.00   42.1
2024/07/31 13:20:47.000   28.327866597  -16.510517728  1956.9743   1   7   0.0014   0.0019   0.0096  -0.0010  -0.0012   0.0012 -13.00   41.9
2024/07/31 13:20:48.000   28.327866597  -16.510517728  1956.9744   1   7   0.0014   0.0019   0.0096  -0.0010  -0.0012   0.0012 -12.00   41.8
2024/07/31 13:20:49.000   28.327866597  -16.510517728  1956.9744   1   7   0.0014   0.0019   0.0096  -0.0010  -0.0012   0.0012 -11.00   41.7
2024/07/31 13:20:50.000   28.327866597  -16.510517727  1956.9744   1   7   0.0014   0.0019   0.0096  -0.0010  -0.0012   0.0012 -10.00   41.5
2024/07/31 13:20:51.000   28.327866597  -16.510517727  1956.9744   1   7   0.0014   0.0019   0.0096  -0.0010  -0.0012   0.0012  -9.00   41.4
2024/07/31 13:20:52.000   28.327866596  -16.510517727  1956.9745   1   7   0.0014   0.0019   0.0096  -0.0010  -0.0012   0.0012  -8.00   41.3
2024/07/31 13:20:53.000   28.327866596  -16.510517727  1956.9745   1   7   0.0014   0.0019   0.0096  -0.0010  -0.0012   0.0012  -7.00   41.2
2024/07/31 13:20:54.000   28.327866596  -16.510517726  1956.9746   1   7   0.0014   0.0019   0.0096  -0.0010  -0.0012   0.0012  -6.00   41.1
2024/07/31 13:20:55.000   28.327866596  -16.510517726  1956.9747   1   7   0.0014   0.0019   0.0096  -0.0010  -0.0012   0.0012  -5.00   41.0
2024/07/31 13:20:56.000   28.327866596  -16.510517726  1956.9748   1   7   0.0014   0.0019   0.0096  -0.0010  -0.0012   0.0012  -4.00   40.9
2024/07/31 13:20:57.000   28.327866596  -16.510517725  1956.9750   1   7   0.0014   0.0019   0.0096  -0.0010  -0.0012   0.0012  -3.00   40.9
2024/07/31 13:20:58.000   28.327866596  -16.510517724  1956.9753   1   7   0.0014   0.0019   0.0096  -0.0010  -0.0012   0.0012  -2.00   41.0
2024/07/31 13:20:59.000   28.327866596  -16.510517724  1956.9756   1   7   0.0014   0.0019   0.0096  -0.0010  -0.0012   0.0012  -1.00   41.0
2024/07/31 13:21:00.000   28.327866596  -16.510517723  1956.9761   1   7   0.0014   0.0019   0.0096  -0.0010  -0.0012   0.0012   0.00   41.1
2024/07/31 13:21:01.000   28.327866596  -16.510517722  1956.9765   1   7   0.0014   0.0020   0.0096  -0.0010  -0.0012   0.0012   1.00   41.3
2024/07/31 13:21:02.000   28.327866596  -16.510517721  1956.9770   1   7   0.0014   0.0020   0.0096  -0.0010  -0.0012   0.0012   2.00   41.5
2024/07/31 13:21:03.000   28.327866596  -16.510517720  1956.9773   1   7   0.0014   0.0020   0.0097  -0.0010  -0.0012   0.0012   3.00   41.7
2024/07/31 13:21:04.000   28.327866596  -16.510517720  1956.9776   1   7   0.0014   0.0020   0.0097  -0.0010  -0.0012   0.0012   4.00   41.8
2024/07/31 13:21:05.000   28.327866596  -16.510517719  1956.9778   1   7   0.0014   0.0020   0.0097  -0.0010  -0.0012   0.0012   5.00   42.0
2024/07/31 13:21:06.000   28.327866596  -16.510517719  1956.9780   1   7   0.0014   0.0020   0.0097  -0.0010  -0.0012   0.0012   6.00   42.1
2024/07/31 13:21:07.000   28.327866596  -16.510517718  1956.9782   1   7   0.0014   0.0020   0.0097  -0.0010  -0.0012   0.0012   7.00   42.2
2024/07/31 13:21:08.000   28.327866596  -16.510517718  1956.9783   1   7   0.0014   0.0020   0.0097  -0.0010  -0.0012   0.0012   8.00   42.2
2024/07/31 13:21:09.000   28.327866596  -16.510517718  1956.9784   1   7   0.0014   0.0020   0.0097  -0.0010  -0.0012   0.0012   9.00   42.2
2024/07/31 13:21:10.000   28.327866596  -16.510517717  1956.9785   1   7   0.0014   0.0020   0.0097  -0.0010  -0.0012   0.0012  10.00   42.2
2024/07/31 13:21:11.000   28.327866596  -16.510517717  1956.9786   1   7   0.0014   0.0020   0.0096  -0.0010  -0.0012   0.0012  11.00   42.2
2024/07/31 13:21:12.000   28.327866596  -16.510517717  1956.9786   1   7   0.0014   0.0020   0.0096  -0.0010  -0.0012   0.0012  12.00   42.1
2024/07/31 13:21:13.000   28.327866596  -16.510517717  1956.9787   1   7   0.0014   0.0020   0.0096  -0.0010  -0.0012   0.0012  13.00   42.1
2024/07/31 13:21:14.000   28.327866596  -16.510517716  1956.9787   1   7   0.0014   0.0020   0.0096  -0.0010  -0.0012   0.0012  14.00   42.0
2024/07/31 13:21:15.000   28.327866596  -16.510517716  1956.9788   1   7   0.0014   0.0020   0.0096  -0.0010  -0.0012   0.0012  15.00   41.9
2024/07/31 13:21:16.000   28.327866596  -16.510517716  1956.9788   1   7   0.0014   0.0020   0.0096  -0.0010  -0.0012   0.0012 -14.00   41.9
2024/07/31 13:21:17.000   28.327866596  -16.510517716  1956.9789   1   7   0.0014   0.0020   0.0096  -0.0010  -0.0012   0.0012 -13.00   41.8
2024/07/31 13:21:18.000   28.327866596  -16.510517716  1956.9789   1   7   0.0014   0.0020   0.0096  -0.0010  -0.0012   0.0012 -12.00   41.7
2024/07/31 13:21:19.000   28.327866596  -16.510517716  1956.9790   1   7   0.0014   0.0020   0.0096  -0.0010  -0.0012   0.0012 -11.00   41.7
2024/07/31 13:21:20.000   28.327866596  -16.510517715  1956.9790   1   7   0.0014   0.0020   0.0096  -0.0010  -0.0012   0.0012 -10.00   41.6
2024/07/31 13:21:21.000   28.327866596  -16.510517715  1956.9791   1   7   0.0014   0.0020   0.0096  -0.0010  -0.0012   0.0012  -9.00   41.6
2024/07/31 13:21:22.000   28.327866596  -16.510517715  1956.9792   1   7   0.0014   0.0019   0.0096  -0.0010  -0.0012   0.0012  -8.00   41.5
2024/07/31 13:21:23.000   28.327866596  -16.510517715  1956.9793   1   7   0.0014   0.0019   0.0096  -0.0010  -0.0012   0.0012  -7.00   41.5
2024/07/31 13:21:24.000   28.327866596  -16.510517714  1956.9795   1   7   0.0014   0.0019   0.0096  -0.0010  -0.0012   0.0012  -6.00   41.5
2024/07/31 13:21:25.000   28.327866596  -16.510517714  1956.9796   1   7   0.0014   0.0019   0.0096  -0.0010  -0.0012   0.0012  -5.00   41.6
2024/07/31 13:21:26.000   28.327866596  -16.510517713  1956.9798   1   7   0.0014   0.0019   0.0096  -0.0010  -0.0012   0.0012  -4.00   41.7
2024/07/31 13:21:27.000   28.327866596  -16.510517713  1956.9801   1   7   0.0014   0.0020   0.0096  -0.0010  -0.0012   0.0012  -3.00   41.8
2024/07/31 13:21:28.000   28.327866596  -16.510517712  1956.9803   1   7   0.0014   0.0020   0.0096  -0.0010  -0.0012   0.0012  -2.00   42.0
2024/07/31 13:21:29.000   28.327866597  -16.510517711  1956.9807   1   7   0.0014   0.0020   0.0096  -0.0010  -0.0012   0.0012  -1.00   42.2
2024/07/31 13:21:30.000   28.327866597  -16.510517710  1956.9810   1   7   0.0014   0.0020   0.0096  -0.0010  -0.0012   0.0012   0.00   42.4
2024/07/31 13:21:31.000   28.327866597  -16.510517709  1956.9815   1   7   0.0014   0.0020   0.0096  -0.0010  -0.0012   0.0011   1.00   42.7
2024/07/31 13:21:32.000   28.327866597  -16.510517709  1956.9818   1   7   0.0014   0.0020   0.0096  -0.0010  -0.0011   0.0011   2.00   43.1
2024/07/31 13:21:33.000   28.327866598  -16.510517708  1956.9822   1   7   0.0014   0.0020   0.0096  -0.0010  -0.0011   0.0011   3.00   43.3
2024/07/31 13:21:34.000   28.327866598  -16.510517707  1956.9824   1   7   0.0014   0.0020   0.0097  -0.0010  -0.0011   0.0011   4.00   43.5
2024/07/31 13:21:35.000   28.327866598  -16.510517706  1956.9826   1   7   0.0014   0.0020   0.0097  -0.0010  -0.0011   0.0011   5.00   43.7
2024/07/31 13:21:36.000   28.327866598  -16.510517706  1956.9828   1   7   0.0014   0.0020   0.0097  -0.0010  -0.0011   0.0011   6.00   43.8
2024/07/31 13:21:37.000   28.327866598  -16.510517705  1956.9829   1   7   0.0014   0.0020   0.0097  -0.0010  -0.0011   0.0011   7.00   43.9
2024/07/31 13:21:38.000   28.327866598  -16.510517705  1956.9830   1   7   0.0014   0.0020   0.0097  -0.0010  -0.0011   0.0011   8.00   43.9
2024/07/31 13:21:39.000   28.327866598  -16.510517704  1956.9831   1   7   0.0014   0.0020   0.0097  -0.0010  -0.0011   0.0011   9.00   43.9
2024/07/31 13:21:40.000   28.327866598  -16.510517704  1956.9832   1   7   0.0014   0.0020   0.0096  -0.0010  -0.0011   0.0011  10.00   44.0
2024/07/31 13:21:41.000   28.327866599  -16.510517704  1956.9832   1   7   0.0014   0.0020   0.0096  -0.0010  -0.0011   0.0011  11.00   44.0
2024/07/31 13:21:42.000   28.327866599  -16.510517704  1956.9832   1   7   0.0014   0.0020   0.0096  -0.0010  -0.0011   0.0011  12.00   43.9
2024/07/31 13:21:43.000   28.327866599  -16.510517704  1956.9833   1   7   0.0014   0.0020   0.0096  -0.0010  -0.0011   0.0011  13.00   43.9
2024/07/31 13:21:44.000   28.327866599  -16.510517703  1956.9833   1   7   0.0014   0.0020   0.0096  -0.0010  -0.0011   0.0011  14.00   43.8
2024/07/31 13:21:45.000   28.327866599  -16.510517703  1956.9834   1   7   0.0014   0.0020   0.0096  -0.0010  -0.0011   0.0011  15.00   43.7
2024/07/31 13:21:46.000   28.327866599  -16.510517703  1956.9834   1   7   0.0014   0.0020   0.0096  -0.0010  -0.0011   0.0011 -14.00   43.6
2024/07/31 13:21:47.000   28.327866599  -16.510517703  1956.9834   1   7   0.0014   0.0020   0.0096  -0.0010  -0.0011   0.0011 -13.00   43.5
2024/07/31 13:21:48.000   28.327866599  -16.510517703  1956.9834   1   7   0.0014   0.0020   0.0096  -0.0010  -0.0011   0.0011 -12.00   43.4
2024/07/31 13:21:49.000   28.327866599  -16.510517703  1956.9835   1   7   0.0014   0.0020   0.0096  -0.0010  -0.0011   0.0011 -11.00   43.3
2024/07/31 13:21:50.000   28.327866599  -16.510517702  1956.9835   1   7   0.0014   0.0020   0.0096  -0.0010  -0.0011   0.0011 -10.00   43.3
2024/07/31 13:21:51.000   28.327866587  -16.510517733  1956.9799   1   7   0.0013   0.0018   0.0096  -0.0009  -0.0012   0.0011  -9.00    3.4
2024/07/31 13:21:52.000   28.327866587  -16.510517733  1956.9799   1   7   0.0013   0.0018   0.0096  -0.0009  -0.0012   0.0011  -8.00    3.4
2024/07/31 13:21:53.000   28.327866587  -16.510517733  1956.9799   1   7   0.0013   0.0018   0.0096  -0.0009  -0.0012   0.0011  -7.00    3.4
2024/07/31 13:21:54.000   28.327866587  -16.510517733  1956.9799   1   7   0.0013   0.0018   0.0096  -0.0009  -0.0012   0.0011  -6.00    3.4
2024/07/31 13:21:55.000   28.327866586  -16.510517733  1956.9799   1   7   0.0013   0.0018   0.0095  -0.0009  -0.0012   0.0011  -5.00    3.4
2024/07/31 13:21:56.000   28.327866586  -16.510517733  1956.9800   1   7   0.0013   0.0018   0.0095  -0.0009  -0.0012   0.0011  -4.00    3.4
2024/07/31 13:21:57.000   28.327866586  -16.510517733  1956.9800   1   7   0.0013   0.0018   0.0096  -0.0009  -0.0012   0.0011  -3.00    3.3
2024/07/31 13:21:58.000   28.327866586  -16.510517732  1956.9801   1   7   0.0013   0.0018   0.0096  -0.0009  -0.0012   0.0011  -2.00    3.3
2024/07/31 13:21:59.000   28.327866586  -16.510517732  1956.9803   1   7   0.0013   0.0018   0.0096  -0.0009  -0.0012   0.0011  -1.00    3.3
2024/07/31 13:22:00.000   28.327866586  -16.510517732  1956.9804   1   7   0.0013   0.0018   0.0096  -0.0009  -0.0012   0.0011   0.00    3.3
2024/07/31 13:22:01.000   28.327866586  -16.510517732  1956.9805   1   7   0.0013   0.0018   0.0096  -0.0009  -0.0012   0.0011   1.00    3.3
2024/07/31 13:22:02.000   28.327866586  -16.510517732  1956.9807   1   7   0.0013   0.0018   0.0096  -0.0009  -0.0012   0.0010   2.00    3.2
2024/07/31 13:22:03.000   28.327866586  -16.510517731  1956.9809   1   7   0.0013   0.0018   0.0096  -0.0009  -0.0012   0.0010   3.00    3.2
2024/07/31 13:22:04.000   28.327866585  -16.510517731  1956.9811   1   7   0.0013   0.0018   0.0096  -0.0009  -0.0012   0.0010   4.00    3.2
2024/07/31 13:22:05.000   28.327866585  -16.510517731  1956.9812   1   7   0.0013   0.0018   0.0096  -0.0009  -0.0012   0.0010   5.00    3.2
2024/07/31 13:22:06.000   28.327866585  -16.510517731  1956.9814   1   7   0.0013   0.0018   0.0096  -0.0009  -0.0012   0.0010   6.00    3.2
2024/07/31 13:22:07.000   28.327866585  -16.510517731  1956.9815   1   7   0.0013   0.0018   0.0096  -0.0009  -0.0012   0.0010   7.00    3.2
2024/07/31 13:22:08.000   28.327866585  -16.510517730  1956.9816   1   7   0.0013   0.0018   0.0096  -0.0009  -0.0012   0.0010   8.00    3.2
2024/07/31 13:22:09.000   28.327866585  -16.510517730  1956.9817   1   7   0.0013   0.0018   0.0096  -0.0009  -0.0012   0.0010   9.00    3.2
2024/07/31 13:22:10.000   28.327866585  -16.510517730  1956.9817   1   7   0.0013   0.0018   0.0096  -0.0009  -0.0012   0.0010  10.00    3.2
2024/07/31 13:22:11.000   28.327866585  -16.510517730  1956.9818   1   7   0.0013   0.0018   0.0096  -0.0009  -0.0012   0.0010  11.00    5.4
2024/07/31 13:22:12.000   28.327866585  -16.510517730  1956.9818   1   7   0.0013   0.0018   0.0096  -0.0009  -0.0012   0.0010  12.00    6.4
2024/07/31 13:22:13.000   28.327866585  -16.510517730  1956.9819   1   7   0.0013   0.0018   0.0096  -0.0009  -0.0012   0.0010  13.00    7.4
2024/07/31 13:22:14.000   28.327866585  -16.510517730  1956.9819   1   7   0.0013   0.0018   0.0096  -0.0009  -0.0012   0.0010  14.00    8.3
2024/07/31 13:22:15.000   28.327866585  -16.510517730  1956.9820   1   7   0.0013   0.0018   0.0096  -0.0009  -0.0012   0.0010 -15.00    9.3
2024/07/31 13:22:16.000   28.327866585  -16.510517730  1956.9820   1   7   0.0013   0.0018   0.0096  -0.0009  -0.0012   0.0010 -14.00   10.2
2024/07/31 13:22:17.000   28.327866585  -16.510517730  1956.9820   1   7   0.0013   0.0018   0.0096  -0.0009  -0.0012   0.0010 -13.00   11.2
2024/07/31 13:22:18.000   28.327866585  -16.510517729  1956.9820   1   7   0.0013   0.0018   0.0096  -0.0009  -0.0012   0.0010 -12.00   12.1
2024/07/31 13:22:19.000   28.327866585  -16.510517729  1956.9821   1   7   0.0013   0.0018   0.0096  -0.0009  -0.0012   0.0010 -11.00   13.1
2024/07/31 13:22:20.000   28.327866585  -16.510517729  1956.9821   1   7   0.0013   0.0018   0.0095  -0.0009  -0.0012   0.0010 -10.00   14.0
2024/07/31 13:22:21.000   28.327866584  -16.510517729  1956.9822   1   7   0.0013   0.0018   0.0095  -0.0009  -0.0012   0.0010  -9.00   14.9
2024/07/31 13:22:22.000   28.327866584  -16.510517729  1956.9822   1   7   0.0013   0.0018   0.0095  -0.0009  -0.0012   0.0010  -8.00   15.8
2024/07/31 13:22:23.000   28.327866584  -16.510517729  1956.9823   1   7   0.0013   0.0018   0.0095  -0.0009  -0.0012   0.0010  -7.00   16.6
2024/07/31 13:22:24.000   28.327866584  -16.510517729  1956.9824   1   7   0.0013   0.0018   0.0095  -0.0009  -0.0012   0.0010  -6.00   17.4
2024/07/31 13:22:25.000   28.327866584  -16.510517729  1956.9825   1   7   0.0013   0.0018   0.0095  -0.0009  -0.0012   0.0010  -5.00   18.1
2024/07/31 13:22:26.000   28.327866584  -16.510517728  1956.9826   1   7   0.0013   0.0018   0.0095  -0.0009  -0.0012   0.0010  -4.00   18.6
2024/07/31 13:22:27.000   28.327866584  -16.510517728  1956.9827   1   7   0.0013   0.0018   0.0095  -0.0009  -0.0012   0.0010  -3.00   19.2
2024/07/31 13:22:28.000   28.327866584  -16.510517728  1956.9829   1   7   0.0013   0.0018   0.0095  -0.0009  -0.0012   0.0010  -2.00   19.6
2024/07/31 13:22:29.000   28.327866583  -16.510517728  1956.9832   1   7   0.0013   0.0018   0.0095  -0.0009  -0.0012   0.0010  -1.00   20.1
2024/07/31 13:22:30.000   28.327866583  -16.510517728  1956.9834   1   7   0.0013   0.0018   0.0096  -0.0009  -0.0012   0.0010   0.00   20.5
2024/07/31 13:22:31.000   28.327866583  -16.510517727  1956.9836   1   7   0.0013   0.0018   0.0096  -0.0009  -0.0012   0.0010   1.00   20.9
2024/07/31 13:22:32.000   28.327866583  -16.510517727  1956.9837   1   7   0.0013   0.0018   0.0096  -0.0009  -0.0012   0.0010   2.00   21.3
2024/07/31 13:22:33.000   28.327866583  -16.510517727  1956.9839   1   7   0.0013   0.0018   0.0096  -0.0009  -0.0012   0.0010   3.00   21.8
2024/07/31 13:22:34.000   28.327866583  -16.510517727  1956.9841   1   7   0.0013   0.0018   0.0096  -0.0009  -0.0012   0.0010   4.00   22.3
2024/07/31 13:22:35.000   28.327866583  -16.510517727  1956.9842   1   7   0.0013   0.0018   0.0096  -0.0009  -0.0012   0.0010   5.00   22.8
2024/07/31 13:22:36.000   28.327866583  -16.510517727  1956.9843   1   7   0.0013   0.0018   0.0096  -0.0009  -0.0012   0.0010   6.00   23.4
2024/07/31 13:22:37.000   28.327866583  -16.510517727  1956.9844   1   7   0.0013   0.0018   0.0096  -0.0009  -0.0012   0.0010   7.00   24.1
2024/07/31 13:22:38.000   28.327866583  -16.510517726  1956.9845   1   7   0.0013   0.0018   0.0096  -0.0009  -0.0012   0.0010   8.00   24.7
2024/07/31 13:22:39.000   28.327866583  -16.510517726  1956.9845   1   7   0.0013   0.0018   0.0096  -0.0009  -0.0012   0.0010   9.00   25.4
2024/07/31 13:22:40.000   28.327866583  -16.510517726  1956.9846   1   7   0.0013   0.0018   0.0096  -0.0009  -0.0012   0.0010  10.00   26.1
2024/07/31 13:22:41.000   28.327866583  -16.510517726  1956.9846   1   7   0.0013   0.0018   0.0096  -0.0009  -0.0012   0.0010  11.00   26.8
2024/07/31 13:22:42.000   28.327866583  -16.510517726  1956.9846   1   7   0.0013   0.0018   0.0096  -0.0009  -0.0012   0.0010  12.00   27.5
2024/07/31 13:22:43.000   28.327866583  -16.510517726  1956.9846   1   7   0.0013   0.0018   0.0096  -0.0009  -0.0012   0.0010  13.00   28.2
2024/07/31 13:22:44.000   28.327866583  -16.510517726  1956.9847   1   7   0.0013   0.0017   0.0096  -0.0009  -0.0012   0.0010  14.00   29.0
2024/07/31 13:22:45.000   28.327866583  -16.510517726  1956.9847   1   7   0.0013   0.0017   0.0096  -0.0009  -0.0012   0.0010 -15.00   29.7
2024/07/31 13:22:46.000   28.327866583  -16.510517726  1956.9847   1   7   0.0013   0.0017   0.0095  -0.0009  -0.0012   0.0010 -14.00   30.4
2024/07/31 13:22:47.000   28.327866583  -16.510517726  1956.9847   1   7   0.0013   0.0017   0.0095  -0.0009  -0.0012   0.0010 -13.00   31.1
2024/07/31 13:22:48.000   28.327866583  -16.510517726  1956.9847   1   7   0.0013   0.0017   0.0095  -0.0009  -0.0012   0.0010 -12.00   31.8
2024/07/31 13:22:49.000   28.327866583  -16.510517725  1956.9847   1   7   0.0013   0.0017   0.0095  -0.0009  -0.0012   0.0010 -11.00   32.5
2024/07/31 13:22:50.000   28.327866583  -16.510517725  1956.9848   1   7   0.0013   0.0017   0.0095  -0.0009  -0.0012   0.0010 -10.00   33.1
2024/07/31 13:22:51.000   28.327866583  -16.510517725  1956.9848   1   7   0.0013   0.0017   0.0095  -0.0009  -0.0012   0.0010  -9.00   33.7
2024/07/31 13:22:52.000   28.327866583  -16.510517725  1956.9848   1   7   0.0013   0.0017   0.0095  -0.0009  -0.0012   0.0010  -8.00   34.3
2024/07/31 13:22:53.000   28.327866583  -16.510517725  1956.9849   1   7   0.0013   0.0017   0.0095  -0.0009  -0.0012   0.0010  -7.00   34.9
2024/07/31 13:22:54.000   28.327866583  -16.510517725  1956.9850   1   7   0.0013   0.0017   0.0095  -0.0009  -0.0012   0.0010  -6.00   35.4
2024/07/31 13:22:55.000   28.327866583  -16.510517725  1956.9851   1   7   0.0013   0.0017   0.0095  -0.0009  -0.0012   0.0010  -5.00   36.0
2024/07/31 13:22:56.000   28.327866583  -16.510517725  1956.9853   1   7   0.0013   0.0017   0.0095  -0.0009  -0.0012   0.0010  -4.00   36.5
2024/07/31 13:22:57.000   28.327866582  -16.510517724  1956.9855   1   7   0.0013   0.0017   0.0095  -0.0009  -0.0012   0.0010  -3.00   36.9
2024/07/31 13:22:58.000   28.327866582  -16.510517724  1956.9857   1   7   0.0013   0.0017   0.0095  -0.0009  -0.0012   0.0010  -2.00   37.5
2024/07/31 13:22:59.000   28.327866582  -16.510517724  1956.9861   1   7   0.0013   0.0017   0.0095  -0.0009  -0.0012   0.0010  -1.00   37.8
2024/07/31 13:23:00.000   28.327866582  -16.510517724  1956.9864   1   7   0.0013   0.0017   0.0095  -0.0009  -0.0012   0.0010   0.00   38.1
2024/07/31 13:23:01.000   28.327866582  -16.510517724  1956.9867   1   7   0.0013   0.0017   0.0095  -0.0009  -0.0012   0.0010   1.00   38.3
2024/07/31 13:23:02.000   28.327866582  -16.510517724  1956.9870   1   7   0.0013   0.0017   0.0096  -0.0009  -0.0012   0.0010   2.00   38.6
2024/07/31 13:23:03.000   28.327866583  -16.510517723  1956.9872   1   7   0.0013   0.0017   0.0096  -0.0009  -0.0012   0.0010   3.00   39.0
2024/07/31 13:23:04.000   28.327866583  -16.510517723  1956.9874   1   7   0.0013   0.0017   0.0096  -0.0009  -0.0012   0.0010   4.00   39.5
2024/07/31 13:23:05.000   28.327866583  -16.510517723  1956.9876   1   7   0.0013   0.0017   0.0096  -0.0009  -0.0012   0.0010   5.00   39.9
2024/07/31 13:23:06.000   28.327866583  -16.510517723  1956.9877   1   7   0.0013   0.0017   0.0096  -0.0009  -0.0012   0.0010   6.00   40.5
2024/07/31 13:23:07.000   28.327866583  -16.510517723  1956.9878   1   7   0.0013   0.0017   0.0096  -0.0009  -0.0012   0.0010   7.00   41.2
2024/07/31 13:23:08.000   28.327866583  -16.510517723  1956.9878   1   7   0.0013   0.0017   0.0096  -0.0009  -0.0012   0.0010   8.00   41.9
2024/07/31 13:23:09.000   28.327866583  -16.510517723  1956.9879   1   7   0.0013   0.0017   0.0096  -0.0009  -0.0012   0.0010   9.00   42.5
2024/07/31 13:23:10.000   28.327866584  -16.510517723  1956.9879   1   7   0.0013   0.0017   0.0096  -0.0009  -0.0012   0.0010  10.00   43.2
2024/07/31 13:23:11.000   28.327866584  -16.510517723  1956.9879   1   7   0.0013   0.0017   0.0096  -0.0009  -0.0012   0.0010  11.00   43.9
2024/07/31 13:23:12.000   28.327866584  -16.510517723  1956.9879   1   7   0.0013   0.0017   0.0096  -0.0009  -0.0012   0.0010  12.00   44.6
2024/07/31 13:23:13.000   28.327866584  -16.510517723  1956.9879   1   7   0.0013   0.0017   0.0095  -0.0009  -0.0012   0.0010  13.00   45.3
2024/07/31 13:23:14.000   28.327866584  -16.510517723  1956.9879   1   7   0.0013   0.0017   0.0095  -0.0009  -0.0012   0.0010  14.00   46.0
2024/07/31 13:23:15.000   28.327866584  -16.510517723  1956.9880   1   7   0.0013   0.0017   0.0095  -0.0009  -0.0012   0.0010 -15.00   46.6
2024/07/31 13:23:16.000   28.327866584  -16.510517723  1956.9879   1   7   0.0013   0.0017   0.0095  -0.0009  -0.0012   0.0010 -14.00   47.3
2024/07/31 13:23:17.000   28.327866584  -16.510517723  1956.9879   1   7   0.0013   0.0017   0.0095  -0.0009  -0.0012   0.0010 -13.00   47.9
2024/07/31 13:23:18.000   28.327866584  -16.510517722  1956.9879   1   7   0.0013   0.0017   0.0095  -0.0009  -0.0012   0.0010 -12.00   48.5
2024/07/31 13:23:19.000   28.327866585  -16.510517722  1956.9879   1   7   0.0013   0.0017   0.0095  -0.0009  -0.0012   0.0010 -11.00   49.1
2024/07/31 13:23:20.000   28.327866585  -16.510517722  1956.9879   1   7   0.0013   0.0017   0.0095  -0.0009  -0.0012   0.0010 -10.00   49.7
2024/07/31 13:23:21.000   28.327866585  -16.510517722  1956.9879   1   7   0.0013   0.0017   0.0095  -0.0009  -0.0012   0.0010  -9.00   50.4
2024/07/31 13:23:22.000   28.327866585  -16.510517722  1956.9880   1   7   0.0013   0.0017   0.0095  -0.0009  -0.0012   0.0010  -8.00   51.0
2024/07/31 13:23:23.000   28.327866585  -16.510517722  1956.9880   1   7   0.0013   0.0017   0.0095  -0.0009  -0.0012   0.0010  -7.00   51.5
2024/07/31 13:23:24.000   28.327866585  -16.510517722  1956.9881   1   7   0.0013   0.0017   0.0095  -0.0009  -0.0012   0.0010  -6.00   52.1
2024/07/31 13:23:25.000   28.327866585  -16.510517722  1956.9882   1   7   0.0013   0.0017   0.0095  -0.0009  -0.0012   0.0010  -5.00   52.7
2024/07/31 13:23:26.000   28.327866585  -16.510517722  1956.9883   1   7   0.0013   0.0017   0.0095  -0.0009  -0.0012   0.0010  -4.00   53.2
2024/07/31 13:23:27.000   28.327866585  -16.510517722  1956.9885   1   7   0.0013   0.0017   0.0095  -0.0009  -0.0012   0.0010  -3.00   53.5
2024/07/31 13:23:28.000   28.327866586  -16.510517721  1956.9887   1   7   0.0013   0.0017   0.0095  -0.0009  -0.0012   0.0010  -2.00   53.9
2024/07/31 13:23:29.000   28.327866586  -16.510517721  1956.9889   1   7   0.0013   0.0017   0.0095  -0.0009  -0.0012   0.0010  -1.00   54.1
2024/07/31 13:23:30.000   28.327866586  -16.510517721  1956.9892   1   7   0.0013   0.0017   0.0095  -0.0009  -0.0012   0.0010   0.00   54.4
2024/07/31 13:23:31.000   28.327866586  -16.510517721  1956.9894   1   7   0.0013   0.0017   0.0095  -0.0009  -0.0012   0.0010   1.00   54.5
2024/07/31 13:23:32.000   28.327866587  -16.510517721  1956.9897   1   7   0.0013   0.0017   0.0095  -0.0009  -0.0011   0.0009   2.00   54.6
2024/07/31 13:23:33.000   28.327866587  -16.510517721  1956.9900   1   7   0.0013   0.0017   0.0095  -0.0009  -0.0011   0.0009   3.00   54.5
2024/07/31 13:23:34.000   28.327866587  -16.510517721  1956.9902   1   7   0.0013   0.0017   0.0095  -0.0009  -0.0011   0.0009   4.00   54.6
2024/07/31 13:23:35.000   28.327866588  -16.510517721  1956.9904   1   7   0.0013   0.0017   0.0096  -0.0009  -0.0011   0.0009   5.00   54.7
2024/07/31 13:23:36.000   28.327866588  -16.510517721  1956.9905   1   7   0.0013   0.0017   0.0096  -0.0009  -0.0011   0.0009   6.00   54.9
2024/07/31 13:23:37.000   28.327866588  -16.510517721  1956.9907   1   7   0.0013   0.0017   0.0096  -0.0009  -0.0011   0.0009   7.00   55.2
2024/07/31 13:23:38.000   28.327866588  -16.510517721  1956.9908   1   7   0.0013   0.0017   0.0095  -0.0009  -0.0011   0.0009   8.00   55.5
2024/07/31 13:23:39.000   28.327866589  -16.510517721  1956.9909   1   7   0.0013   0.0017   0.0095  -0.0009  -0.0011   0.0009   9.00   55.9
2024/07/31 13:23:40.000   28.327866589  -16.510517721  1956.9909   1   7   0.0013   0.0017   0.0095  -0.0009  -0.0011   0.0009  10.00   56.2
2024/07/31 13:23:41.000   28.327866589  -16.510517721  1956.9910   1   7   0.0013   0.0017   0.0095  -0.0009  -0.0011   0.0009  11.00   56.6
2024/07/31 13:23:42.000   28.327866589  -16.510517721  1956.9911   1   7   0.0013   0.0017   0.0095  -0.0009  -0.0011   0.0009  12.00   57.0
2024/07/31 13:23:43.000   28.327866589  -16.510517721  1956.9911   1   7   0.0013   0.0017   0.0095  -0.0009  -0.0011   0.0009  13.00   57.4
2024/07/31 13:23:44.000   28.327866589  -16.510517721  1956.9911   1   7   0.0013   0.0017   0.0095  -0.0009  -0.0011   0.0009  14.00   57.9
2024/07/31 13:23:45.000   28.327866590  -16.510517721  1956.9912   1   7   0.0013   0.0017   0.0095  -0.0009  -0.0011   0.0009 -15.00   58.3
2024/07/31 13:23:46.000   28.327866590  -16.510517721  1956.9912   1   7   0.0013   0.0017   0.0095  -0.0009  -0.0011   0.0009 -14.00   58.7
2024/07/31 13:23:47.000   28.327866590  -16.510517721  1956.9912   1   7   0.0013   0.0017   0.0095  -0.0009  -0.0011   0.0009 -13.00   59.1
2024/07/31 13:23:48.000   28.327866590  -16.510517721  1956.9912   1   7   0.0013   0.0017   0.0095  -0.0009  -0.0011   0.0009 -12.00   59.4
2024/07/31 13:23:49.000   28.327866590  -16.510517721  1956.9912   1   7   0.0013   0.0017   0.0095  -0.0009  -0.0011   0.0009 -11.00   59.8
2024/07/31 13:23:50.000   28.327866590  -16.510517720  1956.9912   1   7   0.0013   0.0017   0.0095  -0.0009  -0.0011   0.0009 -10.00   60.3
2024/07/31 13:23:51.000   28.327866590  -16.510517720  1956.9913   1   7   0.0013   0.0017   0.0095  -0.0009  -0.0011   0.0009  -9.00   60.7
2024/07/31 13:23:52.000   28.327866591  -16.510517720  1956.9913   1   7   0.0013   0.0017   0.0095  -0.0009  -0.0011   0.0009  -8.00   61.2
2024/07/31 13:23:53.000   28.327866591  -16.510517720  1956.9913   1   7   0.0013   0.0017   0.0095  -0.0009  -0.0011   0.0009  -7.00   61.7
2024/07/31 13:23:54.000   28.327866591  -16.510517720  1956.9913   1   7   0.0013   0.0017   0.0095  -0.0009  -0.0011   0.0009  -6.00   62.2
2024/07/31 13:23:55.000   28.327866591  -16.510517720  1956.9914   1   7   0.0013   0.0017   0.0095  -0.0009  -0.0011   0.0009  -5.00   62.8
2024/07/31 13:23:56.000   28.327866591  -16.510517720  1956.9915   1   7   0.0013   0.0017   0.0095  -0.0009  -0.0011   0.0009  -4.00   63.2
2024/07/31 13:23:57.000   28.327866591  -16.510517720  1956.9915   1   7   0.0013   0.0017   0.0095  -0.0009  -0.0011   0.0009  -3.00   63.7
2024/07/31 13:23:58.000   28.327866591  -16.510517720  1956.9917   1   7   0.0013   0.0017   0.0095  -0.0009  -0.0011   0.0009  -2.00   64.1
2024/07/31 13:23:59.000   28.327866591  -16.510517720  1956.9918   1   7   0.0013   0.0017   0.0095  -0.0009  -0.0011   0.0009  -1.00   64.6
2024/07/31 13:24:00.000   28.327866592  -16.510517720  1956.9921   1   7   0.0013   0.0017   0.0095  -0.0009  -0.0011   0.0009   0.00   65.6
2024/07/31 13:24:01.000   28.327866592  -16.510517720  1956.9923   1   7   0.0013   0.0017   0.0095  -0.0009  -0.0011   0.0009   1.00   66.6
2024/07/31 13:24:02.000   28.327866592  -16.510517719  1956.9925   1   7   0.0013   0.0017   0.0095  -0.0009  -0.0011   0.0009   2.00   67.6
2024/07/31 13:24:03.000   28.327866593  -16.510517719  1956.9926   1   7   0.0013   0.0017   0.0095  -0.0009  -0.0011   0.0009   3.00   69.2
2024/07/31 13:24:04.000   28.327866593  -16.510517719  1956.9928   1   7   0.0013   0.0017   0.0095  -0.0009  -0.0011   0.0009   4.00   70.5
2024/07/31 13:24:05.000   28.327866593  -16.510517719  1956.9929   1   7   0.0013   0.0017   0.0095  -0.0009  -0.0011   0.0009   5.00   71.7
2024/07/31 13:24:06.000   28.327866594  -16.510517719  1956.9930   1   7   0.0013   0.0017   0.0095  -0.0009  -0.0011   0.0009   6.00   72.7
2024/07/31 13:24:07.000   28.327866594  -16.510517719  1956.9931   1   7   0.0013   0.0017   0.0095  -0.0009  -0.0011   0.0009   7.00   73.6
2024/07/31 13:24:08.000   28.327866594  -16.510517719  1956.9931   1   7   0.0013   0.0017   0.0095  -0.0009  -0.0011   0.0009   8.00   74.6
2024/07/31 13:24:09.000   28.327866594  -16.510517719  1956.9931   1   7   0.0013   0.0017   0.0095  -0.0009  -0.0011   0.0009   9.00   75.5
2024/07/31 13:24:10.000   28.327866594  -16.510517719  1956.9932   1   7   0.0013   0.0017   0.0095  -0.0009  -0.0011   0.0009  10.00   76.4
2024/07/31 13:24:11.000   28.327866595  -16.510517719  1956.9932   1   7   0.0013   0.0017   0.0095  -0.0009  -0.0011   0.0009  11.00   77.2
2024/07/31 13:24:12.000   28.327866595  -16.510517719  1956.9932   1   7   0.0013   0.0017   0.0095  -0.0009  -0.0011   0.0009  12.00   77.9
2024/07/31 13:24:13.000   28.327866595  -16.510517719  1956.9932   1   7   0.0013   0.0017   0.0095  -0.0009  -0.0011   0.0009  13.00   78.7
2024/07/31 13:24:14.000   28.327866595  -16.510517719  1956.9932   1   7   0.0013   0.0017   0.0095  -0.0009  -0.0011   0.0009  14.00   79.5
2024/07/31 13:24:15.000   28.327866595  -16.510517719  1956.9933   1   7   0.0013   0.0017   0.0095  -0.0009  -0.0011   0.0009 -15.00   80.3
2024/07/31 13:24:16.000   28.327866595  -16.510517719  1956.9933   1   7   0.0013   0.0017   0.0095  -0.0009  -0.0011   0.0009 -14.00   81.1
2024/07/31 13:24:17.000   28.327866596  -16.510517719  1956.9933   1   7   0.0013   0.0017   0.0095  -0.0009  -0.0011   0.0009 -13.00   81.9
2024/07/31 13:24:18.000   28.327866596  -16.510517719  1956.9933   1   7   0.0013   0.0017   0.0095  -0.0009  -0.0011   0.0009 -12.00   82.7
2024/07/31 13:24:19.000   28.327866596  -16.510517719  1956.9933   1   7   0.0013   0.0017   0.0095  -0.0009  -0.0011   0.0009 -11.00   83.5
2024/07/31 13:24:20.000   28.327866596  -16.510517719  1956.9933   1   7   0.0013   0.0017   0.0095  -0.0009  -0.0011   0.0009 -10.00   84.3
2024/07/31 13:24:21.000   28.327866596  -16.510517719  1956.9933   1   7   0.0013   0.0017   0.0095  -0.0009  -0.0011   0.0009  -9.00   85.2
2024/07/31 13:24:22.000   28.327866596  -16.510517719  1956.9934   1   7   0.0013   0.0017   0.0095  -0.0009  -0.0011   0.0009  -8.00   85.9
2024/07/31 13:24:23.000   28.327866597  -16.510517719  1956.9934   1   7   0.0013   0.0017   0.0095  -0.0009  -0.0011   0.0009  -7.00   86.4
2024/07/31 13:24:24.000   28.327866597  -16.510517718  1956.9934   1   7   0.0013   0.0017   0.0095  -0.0009  -0.0011   0.0009  -6.00   87.0
2024/07/31 13:24:25.000   28.327866597  -16.510517718  1956.9935   1   7   0.0013   0.0017   0.0095  -0.0009  -0.0011   0.0009  -5.00   87.7
2024/07/31 13:24:26.000   28.327866598  -16.510517718  1956.9935   1   7   0.0013   0.0017   0.0095  -0.0009  -0.0011   0.0009  -4.00   88.4
2024/07/31 13:24:27.000   28.327866598  -16.510517718  1956.9936   1   7   0.0013   0.0017   0.0095  -0.0009  -0.0011   0.0009  -3.00   89.3
2024/07/31 13:24:28.000   28.327866598  -16.510517718  1956.9937   1   7   0.0013   0.0017   0.0095  -0.0009  -0.0011   0.0009  -2.00   90.7
2024/07/31 13:24:29.000   28.327866599  -16.510517718  1956.9938   1   7   0.0013   0.0017   0.0095  -0.0009  -0.0011   0.0009  -1.00   92.8
2024/07/31 13:24:30.000   28.327866599  -16.510517718  1956.9940   1   7   0.0013   0.0017   0.0095  -0.0009  -0.0011   0.0009   0.00   95.9
2024/07/31 13:24:31.000   28.327866599  -16.510517718  1956.9942   1   7   0.0013   0.0017   0.0095  -0.0009  -0.0011   0.0009   1.00   98.8
2024/07/31 13:24:32.000   28.327866600  -16.510517718  1956.9943   1   7   0.0013   0.0017   0.0095  -0.0009  -0.0011   0.0009   2.00  101.5
2024/07/31 13:24:33.000   28.327866600  -16.510517718  1956.9945   1   7   0.0013   0.0017   0.0095  -0.0009  -0.0011   0.0009   3.00  104.2
2024/07/31 13:24:34.000   28.327866601  -16.510517718  1956.9947   1   7   0.0013   0.0017   0.0095  -0.0009  -0.0011   0.0009   4.00  106.8
2024/07/31 13:24:35.000   28.327866601  -16.510517718  1956.9948   1   7   0.0013   0.0017   0.0095  -0.0009  -0.0011   0.0009   5.00  109.1
2024/07/31 13:24:36.000   28.327866601  -16.510517718  1956.9949   1   7   0.0013   0.0017   0.0095  -0.0009  -0.0011   0.0009   6.00  111.3
2024/07/31 13:24:37.000   28.327866602  -16.510517718  1956.9950   1   7   0.0013   0.0017   0.0095  -0.0009  -0.0011   0.0009   7.00  113.3
2024/07/31 13:24:38.000   28.327866602  -16.510517718  1956.9951   1   7   0.0013   0.0017   0.0095  -0.0009  -0.0011   0.0009   8.00  115.1
2024/07/31 13:24:39.000   28.327866602  -16.510517718  1956.9952   1   7   0.0013   0.0017   0.0095  -0.0009  -0.0011   0.0009   9.00  116.8
2024/07/31 13:24:40.000   28.327866602  -16.510517718  1956.9953   1   7   0.0013   0.0017   0.0095  -0.0009  -0.0011   0.0009  10.00  118.4
2024/07/31 13:24:41.000   28.327866602  -16.510517718  1956.9954   1   7   0.0013   0.0017   0.0095  -0.0009  -0.0011   0.0009  11.00  120.0
2024/07/31 13:24:42.000   28.327866603  -16.510517718  1956.9954   1   7   0.0013   0.0017   0.0095  -0.0009  -0.0011   0.0009  12.00  121.5
2024/07/31 13:24:43.000   28.327866603  -16.510517718  1956.9955   1   7   0.0013   0.0017   0.0095  -0.0009  -0.0011   0.0009  13.00  123.0
2024/07/31 13:24:44.000   28.327866603  -16.510517718  1956.9956   1   7   0.0013   0.0017   0.0095  -0.0009  -0.0011   0.0009  14.00  124.5
2024/07/31 13:24:45.000   28.327866603  -16.510517718  1956.9957   1   7   0.0013   0.0017   0.0095  -0.0009  -0.0011   0.0009 -15.00  125.9
2024/07/31 13:24:46.000   28.327866603  -16.510517718  1956.9957   1   7   0.0013   0.0017   0.0095  -0.0009  -0.0011   0.0009 -14.00  127.4
2024/07/31 13:24:47.000   28.327866603  -16.510517718  1956.9958   1   7   0.0013   0.0017   0.0095  -0.0009  -0.0011   0.0009 -13.00  129.1
2024/07/31 13:24:48.000   28.327866603  -16.510517718  1956.9959   1   7   0.0013   0.0017   0.0095  -0.0009  -0.0011   0.0009 -12.00  130.9
2024/07/31 13:24:49.000   28.327866603  -16.510517718  1956.9959   1   7   0.0013   0.0017   0.0095  -0.0009  -0.0011   0.0009 -11.00  132.8
2024/07/31 13:24:50.000   28.327866603  -16.510517718  1956.9960   1   7   0.0013   0.0017   0.0095  -0.0009  -0.0011   0.0009 -10.00  134.8
2024/07/31 13:24:51.000   28.327866603  -16.510517718  1956.9961   1   7   0.0013   0.0017   0.0095  -0.0009  -0.0011   0.0009  -9.00  136.9
2024/07/31 13:24:52.000   28.327866603  -16.510517718  1956.9962   1   7   0.0013   0.0016   0.0094  -0.0009  -0.0011   0.0009  -8.00  139.5
2024/07/31 13:24:53.000   28.327866604  -16.510517718  1956.9962   1   7   0.0013   0.0016   0.0094  -0.0009  -0.0011   0.0009  -7.00  142.3
2024/07/31 13:24:54.000   28.327866604  -16.510517718  1956.9963   1   7   0.0013   0.0016   0.0094  -0.0009  -0.0011   0.0009  -6.00  145.3
2024/07/31 13:24:55.000   28.327866604  -16.510517718  1956.9963   1   7   0.0013   0.0016   0.0094  -0.0009  -0.0011   0.0009  -5.00  149.5
2024/07/31 13:24:56.000   28.327866604  -16.510517718  1956.9963   1   7   0.0013   0.0016   0.0094  -0.0009  -0.0011   0.0009  -4.00  154.5
2024/07/31 13:24:57.000   28.327866604  -16.510517718  1956.9964   1   7   0.0013   0.0016   0.0094  -0.0009  -0.0011   0.0009  -3.00  160.4
2024/07/31 13:24:58.000   28.327866605  -16.510517718  1956.9965   1   7   0.0013   0.0016   0.0094  -0.0009  -0.0011   0.0009  -2.00  167.1
2024/07/31 13:24:59.000   28.327866605  -16.510517718  1956.9967   1   7   0.0013   0.0016   0.0095  -0.0009  -0.0011   0.0009  -1.00  174.0
2024/07/31 13:25:00.000   28.327866608  -16.510517717  1956.9978   1   7   0.0013   0.0016   0.0094  -0.0009  -0.0011   0.0009   0.00  180.6
2024/07/31 13:25:01.000   28.327866608  -16.510517717  1956.9979   1   7   0.0013   0.0016   0.0095  -0.0009  -0.0011   0.0009   1.00  188.6
2024/07/31 13:25:02.000   28.327866608  -16.510517717  1956.9981   1   7   0.0013   0.0016   0.0095  -0.0009  -0.0011   0.0009   2.00  195.2
2024/07/31 13:25:03.000   28.327866608  -16.510517717  1956.9982   1   7   0.0013   0.0016   0.0095  -0.0009  -0.0011   0.0009   3.00  199.8
2024/07/31 13:25:04.000   28.327866609  -16.510517717  1956.9983   1   7   0.0013   0.0016   0.0095  -0.0009  -0.0011   0.0009   4.00  203.7
2024/07/31 13:25:05.000   28.327866609  -16.510517717  1956.9984   1   7   0.0013   0.0016   0.0095  -0.0009  -0.0011   0.0009   5.00  207.3
2024/07/31 13:25:06.000   28.327866609  -16.510517717  1956.9985   1   7   0.0013   0.0016   0.0095  -0.0009  -0.0011   0.0009   6.00  210.5
2024/07/31 13:25:07.000   28.327866610  -16.510517717  1956.9986   1   7   0.0013   0.0016   0.0095  -0.0009  -0.0011   0.0009   7.00  213.6
2024/07/31 13:25:08.000   28.327866610  -16.510517717  1956.9987   1   7   0.0013   0.0016   0.0095  -0.0009  -0.0011   0.0009   8.00  216.5
2024/07/31 13:25:09.000   28.327866610  -16.510517717  1956.9987   1   7   0.0013   0.0016   0.0095  -0.0009  -0.0011   0.0009   9.00  218.8
2024/07/31 13:25:10.000   28.327866610  -16.510517717  1956.9987   1   7   0.0013   0.0016   0.0095  -0.0009  -0.0011   0.0009  10.00  221.2
2024/07/31 13:25:11.000   28.327866611  -16.510517717  1956.9988   1   7   0.0013   0.0016   0.0095  -0.0009  -0.0011   0.0009  11.00  223.3
2024/07/31 13:25:12.000   28.327866611  -16.510517717  1956.9989   1   7   0.0013   0.0016   0.0095  -0.0009  -0.0011   0.0009  12.00  225.4
2024/07/31 13:25:13.000   28.327866611  -16.510517717  1956.9989   1   7   0.0013   0.0016   0.0095  -0.0009  -0.0011   0.0009  13.00  227.4
2024/07/31 13:25:14.000   28.327866611  -16.510517717  1956.9989   1   7   0.0013   0.0016   0.0094  -0.0009  -0.0011   0.0009  14.00  229.3
2024/07/31 13:25:15.000   28.327866611  -16.510517717  1956.9990   1   7   0.0013   0.0016   0.0094  -0.0009  -0.0011   0.0009 -15.00  231.0
2024/07/31 13:25:16.000   28.327866611  -16.510517717  1956.9990   1   7   0.0013   0.0016   0.0094  -0.0009  -0.0011   0.0009 -14.00  232.8
2024/07/31 13:25:17.000   28.327866611  -16.510517717  1956.9991   1   7   0.0013   0.0016   0.0094  -0.0009  -0.0011   0.0009 -13.00  234.5
2024/07/31 13:25:18.000   28.327866612  -16.510517717  1956.9991   1   7   0.0013   0.0016   0.0094  -0.0009  -0.0011   0.0009 -12.00  236.6
2024/07/31 13:25:19.000   28.327866612  -16.510517717  1956.9991   1   7   0.0013   0.0016   0.0094  -0.0009  -0.0011   0.0009 -11.00  239.0
2024/07/31 13:25:20.000   28.327866612  -16.510517717  1956.9992   1   7   0.0013   0.0016   0.0094  -0.0009  -0.0011   0.0009 -10.00  241.7
2024/07/31 13:25:21.000   28.327866612  -16.510517717  1956.9992   1   7   0.0013   0.0016   0.0094  -0.0009  -0.0011   0.0009  -9.00  244.5
2024/07/31 13:25:22.000   28.327866612  -16.510517717  1956.9992   1   7   0.0013   0.0016   0.0094  -0.0009  -0.0011   0.0009  -8.00  248.1
2024/07/31 13:25:23.000   28.327866612  -16.510517717  1956.9993   1   7   0.0013   0.0016   0.0094  -0.0009  -0.0011   0.0009  -7.00  252.1
2024/07/31 13:25:24.000   28.327866612  -16.510517717  1956.9993   1   7   0.0013   0.0016   0.0094  -0.0009  -0.0011   0.0009  -6.00  257.2
2024/07/31 13:25:25.000   28.327866613  -16.510517717  1956.9994   1   7   0.0013   0.0016   0.0094  -0.0009  -0.0011   0.0009  -5.00  263.8
2024/07/31 13:25:26.000   28.327866613  -16.510517717  1956.9994   1   7   0.0013   0.0016   0.0094  -0.0009  -0.0011   0.0009  -4.00  270.8
2024/07/31 13:25:27.000   28.327866613  -16.510517717  1956.9994   1   7   0.0013   0.0016   0.0094  -0.0009  -0.0011   0.0009  -3.00  278.6
2024/07/31 13:25:28.000   28.327866613  -16.510517717  1956.9994   1   7   0.0013   0.0016   0.0094  -0.0009  -0.0011   0.0009  -2.00  289.4
2024/07/31 13:25:29.000   28.327866613  -16.510517717  1956.9996   1   7   0.0013   0.0016   0.0094  -0.0009  -0.0011   0.0009  -1.00  298.3
2024/07/31 13:25:30.000   28.327866617  -16.510517716  1957.0012   1   7   0.0013   0.0016   0.0094  -0.0009  -0.0011   0.0008   0.00  304.7
2024/07/31 13:25:31.000   28.327866617  -16.510517716  1957.0012   1   7   0.0013   0.0016   0.0094  -0.0009  -0.0011   0.0008   1.00  311.6
2024/07/31 13:25:32.000   28.327866617  -16.510517716  1957.0013   1   7   0.0013   0.0016   0.0094  -0.0009  -0.0011   0.0008   2.00  317.1
2024/07/31 13:25:33.000   28.327866617  -16.510517716  1957.0014   1   7   0.0013   0.0016   0.0094  -0.0009  -0.0011   0.0008   3.00  321.6
2024/07/31 13:25:34.000   28.327866617  -16.510517716  1957.0014   1   7   0.0013   0.0016   0.0094  -0.0009  -0.0011   0.0008   4.00  325.3
2024/07/31 13:25:35.000   28.327866616  -16.510517715  1957.0014   1   7   0.0013   0.0016   0.0094  -0.0009  -0.0011   0.0008   5.00  327.4
2024/07/31 13:25:36.000   28.327866616  -16.510517715  1957.0014   1   7   0.0013   0.0016   0.0094  -0.0009  -0.0011   0.0008   6.00  329.9
2024/07/31 13:25:37.000   28.327866616  -16.510517715  1957.0015   1   7   0.0013   0.0016   0.0094  -0.0009  -0.0011   0.0008   7.00  332.7
2024/07/31 13:25:38.000   28.327866616  -16.510517715  1957.0015   1   7   0.0013   0.0016   0.0094  -0.0009  -0.0011   0.0008   8.00  335.1
2024/07/31 13:25:39.000   28.327866616  -16.510517715  1957.0016   1   7   0.0013   0.0016   0.0094  -0.0009  -0.0011   0.0008   9.00  337.9
2024/07/31 13:25:40.000   28.327866616  -16.510517715  1957.0016   1   7   0.0013   0.0016   0.0094  -0.0009  -0.0011   0.0008  10.00  339.9
2024/07/31 13:25:41.000   28.327866616  -16.510517715  1957.0016   1   7   0.0013   0.0016   0.0094  -0.0009  -0.0011   0.0008  11.00  342.3
2024/07/31 13:25:42.000   28.327866616  -16.510517715  1957.0016   1   7   0.0013   0.0016   0.0094  -0.0009  -0.0011   0.0008  12.00  344.3
2024/07/31 13:25:43.000   28.327866616  -16.510517715  1957.0017   1   7   0.0013   0.0016   0.0094  -0.0009  -0.0011   0.0008  13.00  346.6
2024/07/31 13:25:44.000   28.327866616  -16.510517715  1957.0017   1   7   0.0013   0.0016   0.0094  -0.0009  -0.0011   0.0008  14.00  348.3
2024/07/31 13:25:45.001   28.327866616  -16.510517715  1957.0017   1   7   0.0013   0.0016   0.0094  -0.0009  -0.0011   0.0008 -15.00  349.9
2024/07/31 13:25:46.000   28.327866616  -16.510517715  1957.0018   1   7   0.0013   0.0016   0.0094  -0.0009  -0.0011   0.0008 -14.00  351.3
2024/07/31 13:25:47.000   28.327866616  -16.510517715  1957.0018   1   7   0.0013   0.0016   0.0094  -0.0009  -0.0011   0.0008 -13.00  352.9
2024/07/31 13:25:48.000   28.327866616  -16.510517715  1957.0019   1   7   0.0013   0.0016   0.0094  -0.0009  -0.0011   0.0008 -12.00  354.1
2024/07/31 13:25:49.000   28.327866616  -16.510517715  1957.0019   1   7   0.0013   0.0016   0.0094  -0.0009  -0.0011   0.0008 -11.00  356.3
2024/07/31 13:25:50.000   28.327866616  -16.510517715  1957.0019   1   7   0.0013   0.0016   0.0094  -0.0009  -0.0011   0.0008 -10.00  357.9
2024/07/31 13:25:51.000   28.327866616  -16.510517715  1957.0020   1   7   0.0013   0.0016   0.0094  -0.0009  -0.0011   0.0008  -9.00  360.2
2024/07/31 13:25:52.000   28.327866616  -16.510517715  1957.0020   1   7   0.0013   0.0016   0.0094  -0.0009  -0.0011   0.0008  -8.00  362.8
2024/07/31 13:25:53.000   28.327866616  -16.510517714  1957.0020   1   7   0.0013   0.0016   0.0094  -0.0009  -0.0011   0.0008  -7.00  364.7
2024/07/31 13:25:54.000   28.327866616  -16.510517714  1957.0020   1   7   0.0013   0.0016   0.0094  -0.0009  -0.0011   0.0008  -6.00  366.8
2024/07/31 13:25:55.000   28.327866616  -16.510517714  1957.0021   1   7   0.0013   0.0016   0.0094  -0.0009  -0.0011   0.0008  -5.00  370.6
2024/07/31 13:25:56.000   28.327866616  -16.510517714  1957.0022   1   7   0.0013   0.0016   0.0094  -0.0009  -0.0011   0.0008  -4.00  375.0
2024/07/31 13:25:57.000   28.327866615  -16.510517714  1957.0023   1   7   0.0013   0.0016   0.0094  -0.0009  -0.0011   0.0008  -3.00  376.5
2024/07/31 13:25:58.000   28.327866615  -16.510517714  1957.0023   1   7   0.0013   0.0016   0.0094  -0.0009  -0.0011   0.0008  -2.00  379.8
2024/07/31 13:25:59.000   28.327866615  -16.510517714  1957.0023   1   7   0.0013   0.0016   0.0094  -0.0009  -0.0011   0.0008  -1.00  381.5
2024/07/31 13:26:00.000   28.327866618  -16.510517713  1957.0038   1   7   0.0013   0.0016   0.0094  -0.0009  -0.0011   0.0008   0.00  380.6
2024/07/31 13:26:01.000   28.327866665  -16.510517706  1957.0095   1   7   0.0014   0.0016   0.0094  -0.0008  -0.0011   0.0010   1.00  575.7
2024/07/31 13:26:02.000   28.327866665  -16.510517706  1957.0095   1   7   0.0014   0.0016   0.0094  -0.0008  -0.0011   0.0010   2.00  570.5
2024/07/31 13:26:03.000   28.327866664  -16.510517706  1957.0095   1   7   0.0014   0.0016   0.0094  -0.0008  -0.0011   0.0010   3.00  568.2
2024/07/31 13:26:04.000   28.327866664  -16.510517706  1957.0095   1   7   0.0014   0.0016   0.0094  -0.0008  -0.0011   0.0010   4.00  566.4
2024/07/31 13:26:05.000   28.327866667  -16.510517706  1957.0014   1   7   0.0013   0.0016   0.0082  -0.0008  -0.0011   0.0015   5.00    3.3
2024/07/31 13:26:06.000   28.327866651  -16.510517703  1957.0014   1   7   0.0012   0.0016   0.0082  -0.0008  -0.0011   0.0014   6.00    7.2
2024/07/31 13:26:07.000   28.327866652  -16.510517703  1957.0019   1   7   0.0012   0.0016   0.0082  -0.0008  -0.0011   0.0014   7.00   10.2
2024/07/31 13:26:08.000   28.327866652  -16.510517703  1957.0019   1   7   0.0012   0.0016   0.0082  -0.0008  -0.0011   0.0014   8.00   15.9
2024/07/31 13:26:09.000   28.327866653  -16.510517703  1957.0022   1   7   0.0012   0.0016   0.0082  -0.0008  -0.0011   0.0014   9.00   15.5
2024/07/31 13:26:10.000   28.327866653  -16.510517703  1957.0022   1   7   0.0012   0.0016   0.0082  -0.0008  -0.0011   0.0014  10.00   16.8
2024/07/31 13:26:11.000   28.327866653  -16.510517703  1957.0023   1   7   0.0012   0.0016   0.0082  -0.0008  -0.0011   0.0014  11.00   18.1
2024/07/31 13:26:12.000   28.327866653  -16.510517703  1957.0023   1   7   0.0012   0.0016   0.0082  -0.0008  -0.0011   0.0014  12.00   19.3
2024/07/31 13:26:13.000   28.327866653  -16.510517703  1957.0024   1   7   0.0012   0.0016   0.0082  -0.0008  -0.0011   0.0014  13.00   20.5
2024/07/31 13:26:14.000   28.327866653  -16.510517703  1957.0024   1   7   0.0012   0.0016   0.0082  -0.0008  -0.0011   0.0014  14.00   21.7
2024/07/31 13:26:15.000   28.327866653  -16.510517703  1957.0024   1   7   0.0012   0.0016   0.0082  -0.0008  -0.0011   0.0014 -15.00   23.0
2024/07/31 13:26:16.000   28.327866653  -16.510517703  1957.0025   1   7   0.0012   0.0016   0.0082  -0.0008  -0.0011   0.0014 -14.00   24.2
2024/07/31 13:26:17.000   28.327866653  -16.510517703  1957.0025   1   7   0.0012   0.0016   0.0082  -0.0008  -0.0011   0.0014 -13.00   25.3
2024/07/31 13:26:18.000   28.327866653  -16.510517702  1957.0026   1   7   0.0012   0.0016   0.0082  -0.0008  -0.0011   0.0014 -12.00   26.5
2024/07/31 13:26:19.000   28.327866653  -16.510517702  1957.0026   1   7   0.0012   0.0016   0.0082  -0.0008  -0.0011   0.0014 -11.00   27.5
2024/07/31 13:26:20.000   28.327866653  -16.510517702  1957.0027   1   7   0.0012   0.0016   0.0082  -0.0008  -0.0011   0.0014 -10.00   28.5
2024/07/31 13:26:21.000   28.327866653  -16.510517702  1957.0028   1   7   0.0012   0.0016   0.0082  -0.0008  -0.0011   0.0014  -9.00   29.6
2024/07/31 13:26:22.000   28.327866653  -16.510517702  1957.0028   1   7   0.0012   0.0016   0.0082  -0.0008  -0.0011   0.0014  -8.00   30.6
2024/07/31 13:26:23.000   28.327866653  -16.510517702  1957.0029   1   7   0.0012   0.0016   0.0082  -0.0008  -0.0011   0.0014  -7.00   31.3
2024/07/31 13:26:24.000   28.327866653  -16.510517702  1957.0030   1   7   0.0012   0.0016   0.0082  -0.0008  -0.0011   0.0014  -6.00   32.0
2024/07/31 13:26:25.000   28.327866654  -16.510517702  1957.0032   1   7   0.0012   0.0016   0.0082  -0.0008  -0.0011   0.0014  -5.00   32.5
2024/07/31 13:26:26.000   28.327866654  -16.510517702  1957.0033   1   7   0.0012   0.0016   0.0082  -0.0008  -0.0011   0.0014  -4.00   33.3
2024/07/31 13:26:27.000   28.327866654  -16.510517702  1957.0034   1   7   0.0012   0.0016   0.0082  -0.0008  -0.0011   0.0014  -3.00   34.1
2024/07/31 13:26:28.000   28.327866654  -16.510517702  1957.0036   1   7   0.0012   0.0016   0.0082  -0.0008  -0.0011   0.0014  -2.00   34.0
2024/07/31 13:26:29.000   28.327866654  -16.510517702  1957.0037   1   7   0.0012   0.0016   0.0081  -0.0008  -0.0011   0.0014  -1.00   34.4
2024/07/31 13:26:30.000   28.327866656  -16.510517702  1957.0044   1   7   0.0012   0.0016   0.0081  -0.0008  -0.0011   0.0014   0.00   34.4
2024/07/31 13:26:31.000   28.327866653  -16.510517702  1957.0033   1   7   0.0012   0.0016   0.0081  -0.0008  -0.0011   0.0014   1.00   40.7
2024/07/31 13:26:32.000   28.327866653  -16.510517702  1957.0034   1   7   0.0012   0.0016   0.0081  -0.0008  -0.0011   0.0014   2.00   57.5
2024/07/31 13:26:33.000   28.327866653  -16.510517702  1957.0035   1   7   0.0012   0.0016   0.0081  -0.0008  -0.0011   0.0014   3.00   55.9
2024/07/31 13:26:34.000   28.327866653  -16.510517702  1957.0035   1   7   0.0012   0.0016   0.0081  -0.0008  -0.0011   0.0014   4.00   54.7
2024/07/31 13:26:35.000   28.327866653  -16.510517702  1957.0036   1   7   0.0012   0.0016   0.0081  -0.0008  -0.0011   0.0014   5.00   54.0
2024/07/31 13:26:36.000   28.327866653  -16.510517702  1957.0036   1   7   0.0012   0.0016   0.0081  -0.0008  -0.0011   0.0014   6.00   54.1
2024/07/31 13:26:37.000   28.327866653  -16.510517702  1957.0037   1   7   0.0012   0.0016   0.0081  -0.0008  -0.0011   0.0014   7.00   54.3
2024/07/31 13:26:38.000   28.327866653  -16.510517702  1957.0037   1   7   0.0012   0.0016   0.0081  -0.0008  -0.0011   0.0014   8.00   54.7
2024/07/31 13:26:39.000   28.327866653  -16.510517702  1957.0037   1   7   0.0012   0.0016   0.0081  -0.0008  -0.0011   0.0014   9.00   55.0
2024/07/31 13:26:40.000   28.327866653  -16.510517702  1957.0038   1   7   0.0012   0.0016   0.0081  -0.0008  -0.0011   0.0014  10.00   55.8
2024/07/31 13:26:41.000   28.327866653  -16.510517702  1957.0038   1   7   0.0012   0.0016   0.0081  -0.0008  -0.0011   0.0014  11.00   56.6
2024/07/31 13:26:42.000   28.327866653  -16.510517702  1957.0038   1   7   0.0012   0.0016   0.0081  -0.0008  -0.0011   0.0014  12.00   57.5
2024/07/31 13:26:43.000   28.327866653  -16.510517702  1957.0038   1   7   0.0012   0.0016   0.0081  -0.0008  -0.0011   0.0014  13.00   58.4
2024/07/31 13:26:44.000   28.327866653  -16.510517702  1957.0039   1   7   0.0012   0.0016   0.0081  -0.0008  -0.0011   0.0014  14.00   59.4
2024/07/31 13:26:45.000   28.327866653  -16.510517702  1957.0039   1   7   0.0012   0.0016   0.0081  -0.0008  -0.0011   0.0014 -15.00   60.4
2024/07/31 13:26:46.000   28.327866653  -16.510517702  1957.0039   1   7   0.0012   0.0016   0.0081  -0.0008  -0.0011   0.0014 -14.00   61.3
2024/07/31 13:26:47.000   28.327866653  -16.510517702  1957.0040   1   7   0.0012   0.0016   0.0081  -0.0008  -0.0011   0.0014 -13.00   62.1
2024/07/31 13:26:48.000   28.327866653  -16.510517702  1957.0040   1   7   0.0012   0.0016   0.0081  -0.0008  -0.0011   0.0014 -12.00   63.1
2024/07/31 13:26:49.000   28.327866653  -16.510517702  1957.0041   1   7   0.0012   0.0016   0.0081  -0.0008  -0.0011   0.0014 -11.00   63.7
2024/07/31 13:26:50.000   28.327866653  -16.510517702  1957.0041   1   7   0.0012   0.0016   0.0081  -0.0008  -0.0011   0.0014 -10.00   64.3
2024/07/31 13:26:51.000   28.327866653  -16.510517702  1957.0042   1   7   0.0012   0.0016   0.0081  -0.0008  -0.0011   0.0014  -9.00   64.7
2024/07/31 13:26:52.000   28.327866653  -16.510517702  1957.0043   1   7   0.0012   0.0016   0.0081  -0.0008  -0.0011   0.0014  -8.00   65.0
2024/07/31 13:26:53.000   28.327866653  -16.510517702  1957.0043   1   7   0.0012   0.0016   0.0081  -0.0008  -0.0011   0.0014  -7.00   65.6
2024/07/31 13:26:54.000   28.327866653  -16.510517702  1957.0044   1   7   0.0012   0.0016   0.0081  -0.0008  -0.0011   0.0014  -6.00   66.1
2024/07/31 13:26:55.000   28.327866653  -16.510517702  1957.0045   1   7   0.0012   0.0016   0.0081  -0.0008  -0.0011   0.0014  -5.00   66.5
2024/07/31 13:26:56.000   28.327866653  -16.510517702  1957.0046   1   7   0.0012   0.0016   0.0081  -0.0008  -0.0011   0.0014  -4.00   66.9
2024/07/31 13:26:57.000   28.327866653  -16.510517702  1957.0046   1   7   0.0012   0.0016   0.0081  -0.0008  -0.0011   0.0014  -3.00   67.4
2024/07/31 13:26:58.000   28.327866653  -16.510517702  1957.0048   1   7   0.0012   0.0016   0.0081  -0.0008  -0.0011   0.0014  -2.00   67.0
2024/07/31 13:26:59.000   28.327866654  -16.510517702  1957.0049   1   7   0.0012   0.0016   0.0081  -0.0008  -0.0011   0.0014  -1.00   66.6
