% program   : RTKPOST-EX 2.5.0
% inp file  : C:\Users\SallyHenry\Desktop\Sally Internship\GNSS gravi\DATA\Survey Rover Obs\CAMI3.24o
% inp file  : C:\Users\SallyHenry\Desktop\Sally Internship\GNSS gravi\DATA\BaseStations\IZAN\IZAN00ESP_R_20242130000_01D_30S_MO.rnx
% inp file  : C:\Users\SallyHenry\Desktop\Sally Internship\GNSS gravi\DATA\BaseStations\IZAN\IZAN00ESP_R_20242130000_01D_MN.rnx
% inp file  : C:\Users\SallyHenry\Desktop\Sally Internship\GNSS gravi\DATA\aux_files\Survey\IGS0OPSFIN_20242130000_01D_15M_ORB.SP3
% inp file  : C:\Users\SallyHenry\Desktop\Sally Internship\GNSS gravi\DATA\aux_files\Survey\IGS0OPSFIN_20242130000_01D_30S_CLK.CLK
% obs start : 2024/07/31 12:50:19.0 GPST (week2325 305419.0s)
% obs end   : 2024/07/31 13:05:52.0 GPST (week2325 306352.0s)
% pos mode  : Static
% freqs     : L1+L2/E5b
% solution  : Combined-No Phase Reset
% elev mask : 15.0 deg
% dynamics  : on
% tidecorr  : solid
% ionos opt : Estimate TEC
% tropo opt : Estimate ZTD+Grad
% ephemeris : Precise
% navi sys  : GPS GLONASS Galileo QZSS BDS
% amb res   : Fix and Hold
% amb glo   : Fix and Hold
% amb bds   : on
% val thres : 3.0
% antenna1  :                       ( 0.0000  0.0000  1.8000)
% antenna2  :                       ( 0.0000  0.0000  0.0000)
% ref pos   :  28.308069410  -16.499677180  2417.4044
%
% (lat/lon/height=WGS84/ellipsoidal,Q=1:fix,2:float,3:sbas,4:dgps,5:single,6:ppp,ns=# of satellites)
%  GPST                  latitude(deg) longitude(deg)  height(m)   Q  ns   sdn(m)   sde(m)   sdu(m)  sdne(m)  sdeu(m)  sdun(m) age(s)  ratio
2024/07/31 12:50:19.000   28.336880795  -16.505797294  1818.4656   2   6   0.0105   0.0326   0.0671  -0.0041  -0.0226  -0.0142 -11.00    0.0
2024/07/31 12:50:20.000   28.336880795  -16.505797295  1818.4650   2   6   0.0105   0.0326   0.0671  -0.0041  -0.0226  -0.0142 -10.00    0.0
2024/07/31 12:50:21.000   28.336880796  -16.505797296  1818.4646   2   6   0.0105   0.0326   0.0672  -0.0041  -0.0226  -0.0142  -9.00    0.0
2024/07/31 12:50:22.000   28.336880797  -16.505797296  1818.4638   2   6   0.0105   0.0326   0.0672  -0.0041  -0.0226  -0.0142  -8.00    0.0
2024/07/31 12:50:23.000   28.336880798  -16.505797298  1818.4629   2   6   0.0105   0.0326   0.0672  -0.0041  -0.0226  -0.0142  -7.00    0.0
2024/07/31 12:50:24.000   28.336880799  -16.505797298  1818.4621   2   6   0.0105   0.0326   0.0672  -0.0041  -0.0226  -0.0142  -6.00    0.0
2024/07/31 12:50:25.000   28.336880800  -16.505797299  1818.4608   2   6   0.0105   0.0326   0.0672  -0.0041  -0.0226  -0.0142  -5.00    0.0
2024/07/31 12:50:26.000   28.336880802  -16.505797300  1818.4596   2   6   0.0105   0.0326   0.0673  -0.0041  -0.0226  -0.0142  -4.00    0.0
2024/07/31 12:50:27.000   28.336880804  -16.505797299  1818.4578   2   6   0.0105   0.0326   0.0673  -0.0041  -0.0226  -0.0142  -3.00    0.0
2024/07/31 12:50:28.000   28.336880805  -16.505797298  1818.4569   2   6   0.0105   0.0326   0.0674  -0.0041  -0.0226  -0.0143  -2.00    0.0
2024/07/31 12:50:29.000   28.336880807  -16.505797301  1818.4552   2   6   0.0105   0.0326   0.0675  -0.0041  -0.0226  -0.0143  -1.00    0.0
2024/07/31 12:50:30.000   28.336880810  -16.505797301  1818.4531   2   6   0.0106   0.0326   0.0675  -0.0041  -0.0226  -0.0143   0.00    0.0
2024/07/31 12:50:31.000   28.336880812  -16.505797302  1818.4515   2   6   0.0106   0.0327   0.0676  -0.0041  -0.0226  -0.0143   1.00    0.0
2024/07/31 12:50:32.000   28.336880815  -16.505797302  1818.4502   2   6   0.0106   0.0327   0.0677  -0.0041  -0.0226  -0.0143   2.00    0.0
2024/07/31 12:50:33.000   28.336880819  -16.505797303  1818.4502   2   6   0.0106   0.0327   0.0678  -0.0041  -0.0227  -0.0143   3.00    0.0
2024/07/31 12:50:34.000   28.336880819  -16.505797303  1818.4495   2   6   0.0106   0.0327   0.0679  -0.0041  -0.0227  -0.0144   4.00    0.0
2024/07/31 12:50:35.000   28.336880821  -16.505797306  1818.4489   2   6   0.0106   0.0327   0.0679  -0.0041  -0.0227  -0.0144   5.00    0.0
2024/07/31 12:50:36.000   28.336880823  -16.505797307  1818.4483   2   6   0.0106   0.0327   0.0680  -0.0041  -0.0227  -0.0144   6.00    0.0
2024/07/31 12:50:37.000   28.336880824  -16.505797308  1818.4482   2   6   0.0106   0.0327   0.0680  -0.0041  -0.0227  -0.0144   7.00    0.0
2024/07/31 12:50:38.000   28.336880825  -16.505797312  1818.4484   2   6   0.0106   0.0327   0.0680  -0.0041  -0.0227  -0.0144   8.00    0.0
2024/07/31 12:50:39.000   28.336880826  -16.505797315  1818.4484   2   6   0.0107   0.0327   0.0681  -0.0041  -0.0227  -0.0144   9.00    0.0
2024/07/31 12:50:40.000   28.336880826  -16.505797316  1818.4484   2   6   0.0107   0.0327   0.0681  -0.0041  -0.0227  -0.0144  10.00    0.0
2024/07/31 12:50:41.000   28.336880827  -16.505797318  1818.4484   2   6   0.0107   0.0327   0.0681  -0.0041  -0.0227  -0.0144  11.00    0.0
2024/07/31 12:50:42.000   28.336880827  -16.505797320  1818.4484   2   6   0.0107   0.0327   0.0681  -0.0041  -0.0227  -0.0144  12.00    0.0
2024/07/31 12:50:43.000   28.336880828  -16.505797322  1818.4485   2   6   0.0107   0.0327   0.0681  -0.0041  -0.0227  -0.0144  13.00    0.0
2024/07/31 12:50:44.000   28.336880828  -16.505797323  1818.4487   2   6   0.0107   0.0327   0.0681  -0.0041  -0.0227  -0.0144  14.00    0.0
2024/07/31 12:50:45.000   28.336880829  -16.505797324  1818.4488   2   6   0.0107   0.0327   0.0681  -0.0041  -0.0227  -0.0144 -15.00    0.0
2024/07/31 12:50:46.000   28.336880829  -16.505797324  1818.4489   2   6   0.0107   0.0327   0.0681  -0.0041  -0.0227  -0.0144 -14.00    0.0
2024/07/31 12:50:47.000   28.336880830  -16.505797325  1818.4491   2   6   0.0107   0.0327   0.0682  -0.0041  -0.0227  -0.0144 -13.00    0.0
2024/07/31 12:50:48.000   28.336880830  -16.505797326  1818.4493   2   6   0.0107   0.0327   0.0682  -0.0041  -0.0227  -0.0144 -12.00    0.0
2024/07/31 12:50:49.000   28.336880831  -16.505797326  1818.4494   2   6   0.0107   0.0327   0.0682  -0.0041  -0.0227  -0.0144 -11.00    0.0
2024/07/31 12:50:50.000   28.336880832  -16.505797325  1818.4495   2   6   0.0107   0.0327   0.0682  -0.0041  -0.0227  -0.0144 -10.00    0.0
2024/07/31 12:50:51.000   28.336880833  -16.505797325  1818.4495   2   6   0.0107   0.0327   0.0682  -0.0041  -0.0227  -0.0144  -9.00    0.0
2024/07/31 12:50:52.000   28.336880834  -16.505797324  1818.4492   2   6   0.0107   0.0327   0.0682  -0.0041  -0.0227  -0.0144  -8.00    0.0
2024/07/31 12:50:53.000   28.336880835  -16.505797324  1818.4492   2   6   0.0107   0.0327   0.0682  -0.0041  -0.0227  -0.0144  -7.00    0.0
2024/07/31 12:50:54.000   28.336880836  -16.505797325  1818.4492   2   6   0.0107   0.0327   0.0683  -0.0041  -0.0227  -0.0144  -6.00    0.0
2024/07/31 12:50:55.000   28.336880838  -16.505797324  1818.4489   2   6   0.0107   0.0327   0.0683  -0.0041  -0.0227  -0.0145  -5.00    0.0
2024/07/31 12:50:56.000   28.336880840  -16.505797323  1818.4484   2   6   0.0107   0.0327   0.0683  -0.0042  -0.0227  -0.0145  -4.00    0.0
2024/07/31 12:50:57.000   28.336880842  -16.505797321  1818.4477   2   6   0.0107   0.0327   0.0684  -0.0042  -0.0227  -0.0145  -3.00    0.0
2024/07/31 12:50:58.000   28.336880845  -16.505797321  1818.4463   2   6   0.0107   0.0327   0.0684  -0.0042  -0.0227  -0.0145  -2.00    0.0
2024/07/31 12:50:59.000   28.336880847  -16.505797319  1818.4448   2   6   0.0107   0.0328   0.0685  -0.0042  -0.0227  -0.0145  -1.00    0.0
2024/07/31 12:51:00.000   28.336880849  -16.505797316  1818.4429   2   6   0.0107   0.0328   0.0686  -0.0042  -0.0228  -0.0145   0.00    0.0
2024/07/31 12:51:01.000   28.336880851  -16.505797314  1818.4405   2   6   0.0108   0.0328   0.0687  -0.0042  -0.0228  -0.0145   1.00    0.0
2024/07/31 12:51:02.000   28.336880852  -16.505797311  1818.4383   2   6   0.0108   0.0328   0.0688  -0.0042  -0.0228  -0.0146   2.00    0.0
2024/07/31 12:51:03.000   28.336880852  -16.505797309  1818.4358   2   6   0.0108   0.0328   0.0688  -0.0042  -0.0228  -0.0146   3.00    0.0
2024/07/31 12:51:04.000   28.336880852  -16.505797305  1818.4334   2   6   0.0108   0.0328   0.0689  -0.0042  -0.0228  -0.0146   4.00    0.0
2024/07/31 12:51:05.000   28.336880852  -16.505797300  1818.4311   2   6   0.0108   0.0328   0.0690  -0.0042  -0.0228  -0.0146   5.00    0.0
2024/07/31 12:51:06.000   28.336880853  -16.505797296  1818.4289   2   6   0.0108   0.0328   0.0690  -0.0042  -0.0228  -0.0146   6.00    0.0
2024/07/31 12:51:07.000   28.336880853  -16.505797294  1818.4271   2   6   0.0108   0.0328   0.0690  -0.0042  -0.0228  -0.0146   7.00    0.0
2024/07/31 12:51:08.000   28.336880854  -16.505797292  1818.4256   2   6   0.0108   0.0328   0.0691  -0.0042  -0.0228  -0.0146   8.00    0.0
2024/07/31 12:51:09.000   28.336880853  -16.505797291  1818.4242   2   6   0.0108   0.0328   0.0691  -0.0042  -0.0228  -0.0146   9.00    0.0
2024/07/31 12:51:10.000   28.336880853  -16.505797290  1818.4230   2   6   0.0108   0.0328   0.0691  -0.0042  -0.0228  -0.0146  10.00    0.0
2024/07/31 12:51:11.000   28.336880853  -16.505797290  1818.4220   2   6   0.0108   0.0328   0.0691  -0.0042  -0.0228  -0.0146  11.00    0.0
2024/07/31 12:51:12.000   28.336880852  -16.505797289  1818.4212   2   6   0.0108   0.0328   0.0691  -0.0042  -0.0228  -0.0146  12.00    0.0
2024/07/31 12:51:13.000   28.336880853  -16.505797288  1818.4205   2   6   0.0108   0.0328   0.0691  -0.0042  -0.0228  -0.0146  13.00    0.0
2024/07/31 12:51:14.000   28.336880852  -16.505797287  1818.4198   2   6   0.0108   0.0328   0.0692  -0.0042  -0.0228  -0.0146  14.00    0.0
2024/07/31 12:51:15.000   28.336880853  -16.505797287  1818.4192   2   6   0.0108   0.0328   0.0692  -0.0042  -0.0228  -0.0146 -15.00    0.0
2024/07/31 12:51:16.000   28.336880853  -16.505797287  1818.4185   2   6   0.0108   0.0328   0.0692  -0.0042  -0.0228  -0.0147 -14.00    0.0
2024/07/31 12:51:17.000   28.336880853  -16.505797286  1818.4178   2   6   0.0108   0.0328   0.0692  -0.0042  -0.0228  -0.0147 -13.00    0.0
2024/07/31 12:51:18.000   28.336880853  -16.505797286  1818.4171   2   6   0.0108   0.0328   0.0692  -0.0042  -0.0228  -0.0147 -12.00    0.0
2024/07/31 12:51:19.000   28.336880853  -16.505797284  1818.4161   2   6   0.0108   0.0328   0.0692  -0.0042  -0.0228  -0.0147 -11.00    0.0
2024/07/31 12:51:20.000   28.336880853  -16.505797283  1818.4149   2   6   0.0108   0.0328   0.0692  -0.0042  -0.0228  -0.0147 -10.00    0.0
2024/07/31 12:51:21.000   28.336880853  -16.505797281  1818.4133   2   6   0.0108   0.0328   0.0692  -0.0042  -0.0228  -0.0147  -9.00    0.0
2024/07/31 12:51:22.000   28.336880853  -16.505797278  1818.4116   2   6   0.0108   0.0328   0.0692  -0.0042  -0.0228  -0.0147  -8.00    0.0
2024/07/31 12:51:23.000   28.336880853  -16.505797275  1818.4098   2   6   0.0108   0.0328   0.0693  -0.0042  -0.0229  -0.0147  -7.00    0.0
2024/07/31 12:51:24.000   28.336880853  -16.505797273  1818.4082   2   6   0.0109   0.0328   0.0693  -0.0042  -0.0229  -0.0147  -6.00    0.0
2024/07/31 12:51:25.000   28.336880852  -16.505797270  1818.4070   2   6   0.0109   0.0328   0.0693  -0.0042  -0.0229  -0.0147  -5.00    0.0
2024/07/31 12:51:26.000   28.336880850  -16.505797269  1818.4061   2   6   0.0109   0.0328   0.0693  -0.0042  -0.0229  -0.0147  -4.00    0.0
2024/07/31 12:51:27.000   28.336880848  -16.505797265  1818.4053   2   6   0.0109   0.0328   0.0694  -0.0042  -0.0229  -0.0147  -3.00    0.0
2024/07/31 12:51:28.000   28.336880845  -16.505797261  1818.4042   2   6   0.0109   0.0328   0.0694  -0.0042  -0.0229  -0.0147  -2.00    0.0
2024/07/31 12:51:29.000   28.336880844  -16.505797258  1818.4033   2   6   0.0109   0.0329   0.0695  -0.0042  -0.0229  -0.0147  -1.00    0.0
2024/07/31 12:51:30.000   28.336880843  -16.505797256  1818.4034   2   6   0.0109   0.0329   0.0696  -0.0042  -0.0229  -0.0147   0.00    0.0
2024/07/31 12:51:31.000   28.336880843  -16.505797252  1818.4035   2   6   0.0109   0.0329   0.0697  -0.0042  -0.0229  -0.0148   1.00    0.0
2024/07/31 12:51:32.000   28.336880843  -16.505797250  1818.4034   2   6   0.0109   0.0329   0.0697  -0.0042  -0.0229  -0.0148   2.00    0.0
2024/07/31 12:51:33.000   28.336880843  -16.505797254  1818.4034   2   6   0.0109   0.0329   0.0698  -0.0042  -0.0230  -0.0148   3.00    0.0
2024/07/31 12:51:34.000   28.336880842  -16.505797255  1818.4037   2   6   0.0110   0.0329   0.0699  -0.0042  -0.0230  -0.0148   4.00    0.0
2024/07/31 12:51:35.000   28.336880841  -16.505797254  1818.4036   2   6   0.0110   0.0329   0.0699  -0.0042  -0.0230  -0.0148   5.00    0.0
2024/07/31 12:51:36.000   28.336880840  -16.505797257  1818.4035   2   6   0.0110   0.0329   0.0700  -0.0042  -0.0230  -0.0148   6.00    0.0
2024/07/31 12:51:37.000   28.336880839  -16.505797259  1818.4038   2   6   0.0110   0.0329   0.0700  -0.0042  -0.0230  -0.0148   7.00    0.0
2024/07/31 12:51:38.000   28.336880839  -16.505797261  1818.4044   2   6   0.0110   0.0329   0.0700  -0.0042  -0.0230  -0.0148   8.00    0.0
2024/07/31 12:51:39.000   28.336880840  -16.505797262  1818.4050   2   6   0.0110   0.0329   0.0700  -0.0042  -0.0230  -0.0148   9.00    0.0
2024/07/31 12:51:40.000   28.336880841  -16.505797262  1818.4057   2   6   0.0110   0.0329   0.0701  -0.0042  -0.0230  -0.0149  10.00    0.0
2024/07/31 12:51:41.000   28.336880841  -16.505797263  1818.4064   2   6   0.0110   0.0329   0.0701  -0.0042  -0.0230  -0.0149  11.00    0.0
2024/07/31 12:51:42.000   28.336880842  -16.505797264  1818.4071   2   6   0.0110   0.0329   0.0701  -0.0042  -0.0230  -0.0149  12.00    0.0
2024/07/31 12:51:43.000   28.336880843  -16.505797265  1818.4078   2   6   0.0110   0.0329   0.0701  -0.0042  -0.0230  -0.0149  13.00    0.0
2024/07/31 12:51:44.000   28.336880843  -16.505797266  1818.4084   2   6   0.0110   0.0329   0.0701  -0.0042  -0.0230  -0.0149  14.00    0.0
2024/07/31 12:51:45.000   28.336880844  -16.505797266  1818.4090   2   6   0.0110   0.0329   0.0701  -0.0042  -0.0230  -0.0149 -15.00    0.0
2024/07/31 12:51:46.000   28.336880844  -16.505797267  1818.4094   2   6   0.0110   0.0329   0.0701  -0.0042  -0.0230  -0.0149 -14.00    0.0
2024/07/31 12:51:47.000   28.336880845  -16.505797268  1818.4101   2   6   0.0110   0.0329   0.0701  -0.0042  -0.0230  -0.0149 -13.00    0.0
2024/07/31 12:51:48.000   28.336880846  -16.505797269  1818.4107   2   6   0.0110   0.0329   0.0701  -0.0042  -0.0230  -0.0149 -12.00    0.0
2024/07/31 12:51:49.000   28.336880847  -16.505797269  1818.4112   2   6   0.0110   0.0329   0.0702  -0.0042  -0.0230  -0.0149 -11.00    0.0
2024/07/31 12:51:50.000   28.336880848  -16.505797268  1818.4119   2   6   0.0110   0.0329   0.0702  -0.0042  -0.0230  -0.0149 -10.00    0.0
2024/07/31 12:51:51.000   28.336880849  -16.505797269  1818.4128   2   6   0.0110   0.0329   0.0702  -0.0042  -0.0230  -0.0149  -9.00    0.0
2024/07/31 12:51:52.000   28.336880850  -16.505797271  1818.4137   2   6   0.0110   0.0329   0.0702  -0.0042  -0.0230  -0.0149  -8.00    0.0
2024/07/31 12:51:53.000   28.336880852  -16.505797273  1818.4145   2   6   0.0110   0.0329   0.0702  -0.0042  -0.0230  -0.0149  -7.00    0.0
2024/07/31 12:51:54.000   28.336880855  -16.505797273  1818.4153   2   6   0.0110   0.0329   0.0702  -0.0042  -0.0230  -0.0149  -6.00    0.0
2024/07/31 12:51:55.000   28.336880857  -16.505797274  1818.4160   2   6   0.0110   0.0329   0.0703  -0.0042  -0.0230  -0.0149  -5.00    0.0
2024/07/31 12:51:56.000   28.336880859  -16.505797276  1818.4173   2   6   0.0110   0.0329   0.0703  -0.0042  -0.0230  -0.0149  -4.00    0.0
2024/07/31 12:51:57.000   28.336880862  -16.505797278  1818.4186   2   6   0.0110   0.0329   0.0703  -0.0043  -0.0230  -0.0149  -3.00    0.0
2024/07/31 12:51:58.000   28.336880866  -16.505797279  1818.4198   2   6   0.0110   0.0329   0.0704  -0.0043  -0.0230  -0.0149  -2.00    0.0
2024/07/31 12:51:59.000   28.336880870  -16.505797282  1818.4199   2   6   0.0110   0.0329   0.0704  -0.0043  -0.0230  -0.0149  -1.00    0.0
2024/07/31 12:52:00.000   28.336880873  -16.505797284  1818.4191   2   6   0.0111   0.0329   0.0705  -0.0043  -0.0231  -0.0150   0.00    0.0
2024/07/31 12:52:01.000   28.336880876  -16.505797287  1818.4187   2   6   0.0111   0.0330   0.0706  -0.0043  -0.0231  -0.0150   1.00    1.5
2024/07/31 12:52:02.000   28.336880880  -16.505797289  1818.4176   2   6   0.0111   0.0330   0.0706  -0.0043  -0.0231  -0.0150   2.00    1.3
2024/07/31 12:52:03.000   28.336880882  -16.505797293  1818.4170   2   6   0.0111   0.0330   0.0707  -0.0043  -0.0231  -0.0150   3.00    1.5
2024/07/31 12:52:04.000   28.336880884  -16.505797298  1818.4166   2   6   0.0111   0.0330   0.0708  -0.0043  -0.0231  -0.0150   4.00    1.5
2024/07/31 12:52:05.000   28.336880886  -16.505797298  1818.4158   2   6   0.0111   0.0330   0.0708  -0.0043  -0.0231  -0.0150   5.00    1.5
2024/07/31 12:52:06.000   28.336880887  -16.505797302  1818.4163   2   6   0.0111   0.0330   0.0708  -0.0043  -0.0231  -0.0150   6.00    1.2
2024/07/31 12:52:07.000   28.336880887  -16.505797304  1818.4168   2   6   0.0111   0.0330   0.0709  -0.0043  -0.0231  -0.0150   7.00    1.5
2024/07/31 12:52:08.000   28.336880888  -16.505797306  1818.4171   2   6   0.0111   0.0330   0.0709  -0.0043  -0.0231  -0.0150   8.00    1.0
2024/07/31 12:52:09.000   28.336880889  -16.505797308  1818.4172   2   6   0.0111   0.0330   0.0709  -0.0043  -0.0231  -0.0150   9.00    1.5
2024/07/31 12:52:10.000   28.336880890  -16.505797309  1818.4173   2   6   0.0111   0.0330   0.0709  -0.0043  -0.0231  -0.0150  10.00    1.3
2024/07/31 12:52:11.000   28.336880891  -16.505797310  1818.4175   2   6   0.0111   0.0330   0.0709  -0.0043  -0.0231  -0.0150  11.00    1.5
2024/07/31 12:52:12.000   28.336880892  -16.505797311  1818.4173   2   6   0.0111   0.0330   0.0710  -0.0043  -0.0231  -0.0151  12.00    1.3
2024/07/31 12:52:13.000   28.336880893  -16.505797311  1818.4171   2   6   0.0111   0.0330   0.0710  -0.0043  -0.0231  -0.0151  13.00    1.5
2024/07/31 12:52:14.000   28.336880894  -16.505797312  1818.4170   2   6   0.0111   0.0330   0.0710  -0.0043  -0.0231  -0.0151  14.00    1.3
2024/07/31 12:52:15.000   28.336880894  -16.505797313  1818.4169   2   6   0.0111   0.0330   0.0710  -0.0043  -0.0231  -0.0151 -15.00    1.5
2024/07/31 12:52:16.000   28.336880895  -16.505797315  1818.4169   2   6   0.0111   0.0330   0.0710  -0.0043  -0.0231  -0.0151 -14.00    1.5
2024/07/31 12:52:17.000   28.336880895  -16.505797315  1818.4168   2   6   0.0111   0.0330   0.0710  -0.0043  -0.0231  -0.0151 -13.00    1.5
2024/07/31 12:52:18.000   28.336880895  -16.505797315  1818.4169   2   6   0.0111   0.0330   0.0710  -0.0043  -0.0231  -0.0151 -12.00    1.2
2024/07/31 12:52:19.000   28.336880896  -16.505797316  1818.4170   2   6   0.0111   0.0330   0.0710  -0.0043  -0.0231  -0.0151 -11.00    1.5
2024/07/31 12:52:20.000   28.336880896  -16.505797317  1818.4171   2   6   0.0111   0.0330   0.0710  -0.0043  -0.0231  -0.0151 -10.00    1.1
2024/07/31 12:52:21.000   28.336880896  -16.505797319  1818.4175   2   6   0.0111   0.0330   0.0710  -0.0043  -0.0231  -0.0151  -9.00    1.5
2024/07/31 12:52:22.000   28.336880896  -16.505797321  1818.4178   2   6   0.0111   0.0330   0.0710  -0.0043  -0.0231  -0.0151  -8.00    1.5
2024/07/31 12:52:23.000   28.336880896  -16.505797322  1818.4181   2   6   0.0111   0.0330   0.0711  -0.0043  -0.0231  -0.0151  -7.00    1.6
2024/07/31 12:52:24.000   28.336880895  -16.505797323  1818.4186   2   6   0.0111   0.0330   0.0711  -0.0043  -0.0231  -0.0151  -6.00    1.3
2024/07/31 12:52:25.000   28.336880895  -16.505797325  1818.4191   2   6   0.0112   0.0330   0.0711  -0.0043  -0.0231  -0.0151  -5.00    1.6
2024/07/31 12:52:26.000   28.336880896  -16.505797328  1818.4198   2   6   0.0112   0.0330   0.0711  -0.0043  -0.0231  -0.0151  -4.00    1.4
2024/07/31 12:52:27.000   28.336880897  -16.505797330  1818.4205   2   6   0.0112   0.0330   0.0712  -0.0043  -0.0231  -0.0151  -3.00    1.6
2024/07/31 12:52:28.000   28.336880897  -16.505797332  1818.4216   2   6   0.0112   0.0330   0.0712  -0.0043  -0.0232  -0.0151  -2.00    1.6
2024/07/31 12:52:29.000   28.336880898  -16.505797334  1818.4235   2   6   0.0112   0.0330   0.0712  -0.0043  -0.0232  -0.0151  -1.00    1.7
2024/07/31 12:52:30.000   28.336880899  -16.505797336  1818.4250   2   6   0.0112   0.0330   0.0713  -0.0043  -0.0232  -0.0151   0.00    1.2
2024/07/31 12:52:31.000   28.336880900  -16.505797341  1818.4268   2   6   0.0112   0.0330   0.0714  -0.0043  -0.0232  -0.0151   1.00    1.7
2024/07/31 12:52:32.000   28.336880901  -16.505797346  1818.4281   2   6   0.0112   0.0330   0.0714  -0.0043  -0.0232  -0.0152   2.00    1.2
2024/07/31 12:52:33.000   28.336880903  -16.505797348  1818.4279   2   6   0.0112   0.0330   0.0715  -0.0043  -0.0232  -0.0152   3.00    1.7
2024/07/31 12:52:34.000   28.336880905  -16.505797353  1818.4278   2   6   0.0112   0.0331   0.0715  -0.0043  -0.0232  -0.0152   4.00    1.7
2024/07/31 12:52:35.000   28.336880907  -16.505797357  1818.4278   2   6   0.0112   0.0331   0.0716  -0.0043  -0.0232  -0.0152   5.00    1.8
2024/07/31 12:52:36.000   28.336880910  -16.505797359  1818.4275   2   6   0.0112   0.0331   0.0716  -0.0043  -0.0232  -0.0152   6.00    1.4
2024/07/31 12:52:37.000   28.336880913  -16.505797360  1818.4260   2   6   0.0113   0.0331   0.0716  -0.0044  -0.0232  -0.0152   7.00    1.8
2024/07/31 12:52:38.000   28.336880915  -16.505797362  1818.4251   2   6   0.0113   0.0331   0.0717  -0.0044  -0.0232  -0.0152   8.00    1.4
2024/07/31 12:52:39.000   28.336880916  -16.505797364  1818.4246   2   6   0.0113   0.0331   0.0717  -0.0044  -0.0233  -0.0152   9.00    1.8
2024/07/31 12:52:40.000   28.336880917  -16.505797365  1818.4240   2   6   0.0113   0.0331   0.0717  -0.0044  -0.0233  -0.0152  10.00    1.8
2024/07/31 12:52:41.000   28.336880918  -16.505797367  1818.4238   2   6   0.0113   0.0331   0.0717  -0.0044  -0.0233  -0.0152  11.00    1.8
2024/07/31 12:52:42.000   28.336880918  -16.505797368  1818.4234   2   6   0.0113   0.0331   0.0717  -0.0044  -0.0233  -0.0152  12.00    1.3
2024/07/31 12:52:43.000   28.336880919  -16.505797368  1818.4232   2   6   0.0113   0.0331   0.0717  -0.0044  -0.0233  -0.0152  13.00    1.8
2024/07/31 12:52:44.000   28.336880920  -16.505797370  1818.4227   2   6   0.0113   0.0331   0.0717  -0.0044  -0.0233  -0.0152  14.00    1.3
2024/07/31 12:52:45.000   28.336880921  -16.505797372  1818.4221   2   6   0.0113   0.0331   0.0718  -0.0044  -0.0233  -0.0152 -15.00    1.8
2024/07/31 12:52:46.000   28.336880921  -16.505797373  1818.4215   2   6   0.0113   0.0331   0.0718  -0.0044  -0.0233  -0.0152 -14.00    1.7
2024/07/31 12:52:47.000   28.336880922  -16.505797373  1818.4210   2   6   0.0113   0.0331   0.0718  -0.0044  -0.0233  -0.0152 -13.00    1.8
2024/07/31 12:52:48.000   28.336880923  -16.505797375  1818.4208   2   6   0.0113   0.0331   0.0718  -0.0044  -0.0233  -0.0152 -12.00    1.4
2024/07/31 12:52:49.000   28.336880924  -16.505797375  1818.4204   2   6   0.0113   0.0331   0.0718  -0.0044  -0.0233  -0.0152 -11.00    1.8
2024/07/31 12:52:50.000   28.336880925  -16.505797377  1818.4198   2   6   0.0113   0.0331   0.0718  -0.0044  -0.0233  -0.0152 -10.00    1.4
2024/07/31 12:52:51.000   28.336880926  -16.505797378  1818.4191   2   6   0.0113   0.0331   0.0718  -0.0044  -0.0233  -0.0152  -9.00    1.8
2024/07/31 12:52:52.000   28.336880928  -16.505797380  1818.4181   2   6   0.0113   0.0331   0.0718  -0.0044  -0.0233  -0.0152  -8.00    1.8
2024/07/31 12:52:53.000   28.336880930  -16.505797382  1818.4166   2   6   0.0113   0.0331   0.0718  -0.0044  -0.0233  -0.0152  -7.00    1.8
2024/07/31 12:52:54.000   28.336880932  -16.505797383  1818.4146   2   6   0.0113   0.0331   0.0718  -0.0044  -0.0233  -0.0152  -6.00    1.3
2024/07/31 12:52:55.000   28.336880934  -16.505797381  1818.4125   2   6   0.0113   0.0331   0.0718  -0.0044  -0.0233  -0.0152  -5.00    1.8
2024/07/31 12:52:56.000   28.336880936  -16.505797381  1818.4109   2   6   0.0113   0.0331   0.0719  -0.0044  -0.0233  -0.0153  -4.00    1.3
2024/07/31 12:52:57.000   28.336880938  -16.505797380  1818.4093   2   6   0.0113   0.0331   0.0719  -0.0044  -0.0233  -0.0153  -3.00    1.8
2024/07/31 12:52:58.000   28.336880941  -16.505797384  1818.4066   2   6   0.0113   0.0331   0.0719  -0.0044  -0.0233  -0.0153  -2.00    1.6
2024/07/31 12:52:59.000   28.336880942  -16.505797388  1818.4043   2   6   0.0113   0.0331   0.0720  -0.0044  -0.0233  -0.0153  -1.00    1.8
2024/07/31 12:53:00.000   28.336880945  -16.505797391  1818.4017   2   6   0.0113   0.0331   0.0720  -0.0044  -0.0233  -0.0153   0.00    1.4
2024/07/31 12:53:01.000   28.336880948  -16.505797397  1818.3987   2   6   0.0113   0.0331   0.0721  -0.0044  -0.0233  -0.0153   1.00    1.8
2024/07/31 12:53:02.000   28.336880950  -16.505797403  1818.3963   2   6   0.0113   0.0331   0.0721  -0.0044  -0.0233  -0.0153   2.00    1.3
2024/07/31 12:53:03.000   28.336880951  -16.505797411  1818.3955   2   6   0.0113   0.0331   0.0722  -0.0044  -0.0233  -0.0153   3.00    1.8
2024/07/31 12:53:04.000   28.336880952  -16.505797417  1818.3948   2   6   0.0114   0.0331   0.0722  -0.0044  -0.0233  -0.0153   4.00    2.0
2024/07/31 12:53:05.000   28.336880953  -16.505797426  1818.3943   2   6   0.0114   0.0331   0.0723  -0.0044  -0.0233  -0.0153   5.00    1.7
2024/07/31 12:53:06.000   28.336880954  -16.505797428  1818.3944   2   6   0.0114   0.0331   0.0723  -0.0044  -0.0234  -0.0153   6.00    1.3
2024/07/31 12:53:07.000   28.336880954  -16.505797431  1818.3940   2   6   0.0114   0.0331   0.0723  -0.0044  -0.0234  -0.0153   7.00    1.7
2024/07/31 12:53:08.000   28.336880953  -16.505797436  1818.3935   2   6   0.0114   0.0331   0.0723  -0.0044  -0.0234  -0.0154   8.00    1.3
2024/07/31 12:53:09.000   28.336880954  -16.505797439  1818.3932   2   6   0.0114   0.0331   0.0724  -0.0044  -0.0234  -0.0154   9.00    1.7
2024/07/31 12:53:10.000   28.336880954  -16.505797442  1818.3930   2   6   0.0114   0.0331   0.0724  -0.0044  -0.0234  -0.0154  10.00    1.5
2024/07/31 12:53:11.000   28.336880954  -16.505797446  1818.3927   2   6   0.0114   0.0331   0.0724  -0.0044  -0.0234  -0.0154  11.00    1.7
2024/07/31 12:53:12.000   28.336880954  -16.505797448  1818.3924   2   6   0.0114   0.0331   0.0724  -0.0044  -0.0234  -0.0154  12.00    1.3
2024/07/31 12:53:13.000   28.336880954  -16.505797449  1818.3922   2   6   0.0114   0.0331   0.0724  -0.0044  -0.0234  -0.0154  13.00    1.7
2024/07/31 12:53:14.000   28.336880954  -16.505797450  1818.3919   2   6   0.0114   0.0331   0.0724  -0.0044  -0.0234  -0.0154  14.00    1.3
2024/07/31 12:53:15.000   28.336880954  -16.505797453  1818.3916   2   6   0.0114   0.0331   0.0724  -0.0044  -0.0234  -0.0154 -15.00    1.7
2024/07/31 12:53:16.000   28.336880954  -16.505797454  1818.3912   2   6   0.0114   0.0331   0.0724  -0.0044  -0.0234  -0.0154 -14.00    2.0
2024/07/31 12:53:17.000   28.336880954  -16.505797456  1818.3909   2   6   0.0114   0.0331   0.0724  -0.0044  -0.0234  -0.0154 -13.00    1.7
2024/07/31 12:53:18.000   28.336880954  -16.505797458  1818.3906   2   6   0.0114   0.0331   0.0724  -0.0044  -0.0234  -0.0154 -12.00    1.3
2024/07/31 12:53:19.000   28.336880954  -16.505797461  1818.3903   2   6   0.0114   0.0331   0.0724  -0.0044  -0.0234  -0.0154 -11.00    1.7
2024/07/31 12:53:20.000   28.336880954  -16.505797464  1818.3894   2   6   0.0114   0.0331   0.0724  -0.0044  -0.0234  -0.0154 -10.00    1.3
2024/07/31 12:53:21.000   28.336880954  -16.505797468  1818.3887   2   6   0.0114   0.0331   0.0724  -0.0044  -0.0234  -0.0154  -9.00    1.7
2024/07/31 12:53:22.000   28.336880955  -16.505797471  1818.3881   2   6   0.0114   0.0331   0.0724  -0.0044  -0.0234  -0.0154  -8.00    1.4
2024/07/31 12:53:23.000   28.336880955  -16.505797475  1818.3868   2   6   0.0114   0.0331   0.0724  -0.0044  -0.0234  -0.0154  -7.00    1.6
2024/07/31 12:53:24.000   28.336880955  -16.505797479  1818.3854   2   6   0.0114   0.0331   0.0725  -0.0044  -0.0234  -0.0154  -6.00    1.3
2024/07/31 12:53:25.000   28.336880955  -16.505797485  1818.3843   2   6   0.0114   0.0331   0.0725  -0.0044  -0.0234  -0.0154  -5.00    1.6
2024/07/31 12:53:26.000   28.336880955  -16.505797491  1818.3830   2   6   0.0114   0.0331   0.0725  -0.0044  -0.0234  -0.0154  -4.00    1.2
2024/07/31 12:53:27.000   28.336880955  -16.505797498  1818.3829   2   6   0.0114   0.0331   0.0725  -0.0044  -0.0234  -0.0154  -3.00    1.6
2024/07/31 12:53:28.000   28.336880955  -16.505797502  1818.3821   2   6   0.0114   0.0331   0.0725  -0.0044  -0.0234  -0.0154  -2.00    2.1
2024/07/31 12:53:29.000   28.336880956  -16.505797509  1818.3794   2   6   0.0114   0.0331   0.0726  -0.0044  -0.0234  -0.0154  -1.00    1.6
2024/07/31 12:53:30.000   28.336880958  -16.505797518  1818.3781   2   6   0.0114   0.0331   0.0726  -0.0045  -0.0234  -0.0154   0.00    1.2
2024/07/31 12:53:31.000   28.336880962  -16.505797523  1818.3777   2   6   0.0114   0.0331   0.0726  -0.0045  -0.0234  -0.0154   1.00    1.6
2024/07/31 12:53:32.000   28.336880963  -16.505797529  1818.3757   2   6   0.0114   0.0332   0.0727  -0.0045  -0.0234  -0.0154   2.00    1.2
2024/07/31 12:53:33.000   28.336880961  -16.505797531  1818.3718   2   6   0.0115   0.0332   0.0727  -0.0045  -0.0234  -0.0154   3.00    1.5
2024/07/31 12:53:34.000   28.336880959  -16.505797534  1818.3683   2   6   0.0115   0.0332   0.0728  -0.0045  -0.0234  -0.0154   4.00    1.4
2024/07/31 12:53:35.000   28.336880958  -16.505797538  1818.3649   2   6   0.0115   0.0332   0.0728  -0.0045  -0.0234  -0.0154   5.00    1.5
2024/07/31 12:53:36.000   28.336880958  -16.505797539  1818.3619   2   6   0.0115   0.0332   0.0728  -0.0045  -0.0234  -0.0155   6.00    1.2
2024/07/31 12:53:37.000   28.336880958  -16.505797542  1818.3596   2   6   0.0115   0.0332   0.0728  -0.0045  -0.0234  -0.0155   7.00    1.5
2024/07/31 12:53:38.000   28.336880958  -16.505797543  1818.3579   2   6   0.0115   0.0332   0.0729  -0.0045  -0.0234  -0.0155   8.00    1.1
2024/07/31 12:53:39.000   28.336880958  -16.505797543  1818.3565   2   6   0.0115   0.0332   0.0729  -0.0045  -0.0234  -0.0155   9.00    1.5
2024/07/31 12:53:40.000   28.336880959  -16.505797544  1818.3557   2   6   0.0115   0.0332   0.0729  -0.0045  -0.0234  -0.0155  10.00    2.0
2024/07/31 12:53:41.000   28.336880958  -16.505797546  1818.3553   2   6   0.0115   0.0332   0.0729  -0.0045  -0.0234  -0.0155  11.00    1.5
2024/07/31 12:53:42.000   28.336880959  -16.505797546  1818.3551   2   6   0.0115   0.0332   0.0729  -0.0045  -0.0234  -0.0155  12.00    1.2
2024/07/31 12:53:43.000   28.336880959  -16.505797547  1818.3550   2   6   0.0115   0.0332   0.0729  -0.0045  -0.0234  -0.0155  13.00    1.4
2024/07/31 12:53:44.000   28.336880960  -16.505797547  1818.3550   2   6   0.0115   0.0332   0.0729  -0.0045  -0.0234  -0.0155  14.00    1.2
2024/07/31 12:53:45.000   28.336880960  -16.505797549  1818.3552   2   6   0.0115   0.0332   0.0729  -0.0045  -0.0234  -0.0155 -15.00    1.4
2024/07/31 12:53:46.000   28.336880961  -16.505797549  1818.3553   2   6   0.0115   0.0332   0.0729  -0.0045  -0.0234  -0.0155 -14.00    1.3
2024/07/31 12:53:47.000   28.336880961  -16.505797551  1818.3553   2   6   0.0115   0.0332   0.0729  -0.0045  -0.0234  -0.0155 -13.00    1.4
2024/07/31 12:53:48.000   28.336880962  -16.505797552  1818.3554   2   6   0.0115   0.0332   0.0729  -0.0045  -0.0234  -0.0155 -12.00    1.2
2024/07/31 12:53:49.000   28.336880962  -16.505797553  1818.3557   2   6   0.0115   0.0332   0.0729  -0.0045  -0.0234  -0.0155 -11.00    1.4
2024/07/31 12:53:50.000   28.336880963  -16.505797554  1818.3561   2   6   0.0115   0.0332   0.0729  -0.0045  -0.0234  -0.0155 -10.00    1.0
2024/07/31 12:53:51.000   28.336880963  -16.505797557  1818.3566   2   6   0.0115   0.0332   0.0729  -0.0045  -0.0234  -0.0155  -9.00    1.4
2024/07/31 12:53:52.000   28.336880964  -16.505797560  1818.3571   2   6   0.0115   0.0332   0.0729  -0.0045  -0.0234  -0.0155  -8.00    1.9
2024/07/31 12:53:53.000   28.336880964  -16.505797563  1818.3575   2   6   0.0115   0.0332   0.0729  -0.0045  -0.0234  -0.0155  -7.00    1.4
2024/07/31 12:53:54.000   28.336880965  -16.505797566  1818.3578   2   6   0.0115   0.0332   0.0729  -0.0045  -0.0234  -0.0155  -6.00    1.2
2024/07/31 12:53:55.000   28.336880966  -16.505797571  1818.3586   2   6   0.0115   0.0332   0.0730  -0.0045  -0.0234  -0.0155  -5.00    1.5
2024/07/31 12:53:56.000   28.336880966  -16.505797574  1818.3600   2   6   0.0115   0.0332   0.0730  -0.0045  -0.0234  -0.0155  -4.00    1.1
2024/07/31 12:53:57.000   28.336880967  -16.505797576  1818.3612   2   6   0.0115   0.0332   0.0730  -0.0045  -0.0235  -0.0155  -3.00    1.5
2024/07/31 12:53:58.000   28.336880969  -16.505797581  1818.3623   2   6   0.0115   0.0332   0.0730  -0.0045  -0.0235  -0.0155  -2.00    1.3
2024/07/31 12:53:59.000   28.336880972  -16.505797583  1818.3640   2   6   0.0115   0.0332   0.0730  -0.0045  -0.0235  -0.0155  -1.00    1.5
2024/07/31 12:54:00.000   28.336880975  -16.505797585  1818.3657   2   6   0.0115   0.0332   0.0730  -0.0045  -0.0235  -0.0155   0.00    1.2
2024/07/31 12:54:01.000   28.336880976  -16.505797582  1818.3665   2   6   0.0115   0.0332   0.0731  -0.0045  -0.0235  -0.0155   1.00    1.5
2024/07/31 12:54:02.000   28.336880977  -16.505797582  1818.3668   2   6   0.0115   0.0332   0.0731  -0.0045  -0.0235  -0.0155   2.00    1.1
2024/07/31 12:54:03.000   28.336880978  -16.505797584  1818.3661   2   6   0.0116   0.0332   0.0732  -0.0045  -0.0235  -0.0155   3.00    1.5
2024/07/31 12:54:04.000   28.336880978  -16.505797588  1818.3654   2   6   0.0116   0.0332   0.0732  -0.0046  -0.0235  -0.0155   4.00    1.9
2024/07/31 12:54:05.000   28.336880977  -16.505797589  1818.3649   2   6   0.0116   0.0332   0.0732  -0.0046  -0.0235  -0.0155   5.00    1.5
2024/07/31 12:54:06.000   28.336880978  -16.505797593  1818.3646   2   6   0.0116   0.0332   0.0732  -0.0046  -0.0235  -0.0155   6.00    1.1
2024/07/31 12:54:07.000   28.336880979  -16.505797594  1818.3644   2   6   0.0116   0.0332   0.0732  -0.0046  -0.0235  -0.0155   7.00    1.5
2024/07/31 12:54:08.000   28.336880979  -16.505797594  1818.3642   2   6   0.0116   0.0332   0.0733  -0.0046  -0.0235  -0.0155   8.00    1.2
2024/07/31 12:54:09.000   28.336880979  -16.505797595  1818.3645   2   6   0.0116   0.0332   0.0733  -0.0046  -0.0235  -0.0155   9.00    1.5
2024/07/31 12:54:10.000   28.336880979  -16.505797595  1818.3651   2   6   0.0116   0.0332   0.0733  -0.0046  -0.0235  -0.0155  10.00    1.4
2024/07/31 12:54:11.000   28.336880980  -16.505797595  1818.3654   2   6   0.0116   0.0332   0.0733  -0.0046  -0.0235  -0.0155  11.00    1.5
2024/07/31 12:54:12.000   28.336880980  -16.505797596  1818.3658   2   6   0.0116   0.0332   0.0733  -0.0046  -0.0235  -0.0155  12.00    1.2
2024/07/31 12:54:13.000   28.336880980  -16.505797597  1818.3662   2   6   0.0116   0.0332   0.0733  -0.0046  -0.0235  -0.0155  13.00    1.5
2024/07/31 12:54:14.000   28.336880980  -16.505797599  1818.3669   2   6   0.0116   0.0332   0.0733  -0.0046  -0.0235  -0.0155  14.00    1.1
2024/07/31 12:54:15.000   28.336880980  -16.505797599  1818.3673   2   6   0.0116   0.0332   0.0733  -0.0046  -0.0235  -0.0155 -15.00    1.5
2024/07/31 12:54:16.000   28.336880980  -16.505797600  1818.3678   2   6   0.0116   0.0332   0.0733  -0.0046  -0.0235  -0.0155 -14.00    1.9
2024/07/31 12:54:17.000   28.336880980  -16.505797599  1818.3683   2   6   0.0116   0.0332   0.0733  -0.0046  -0.0235  -0.0155 -13.00    1.5
2024/07/31 12:54:18.000   28.336880980  -16.505797601  1818.3687   2   6   0.0116   0.0332   0.0733  -0.0046  -0.0235  -0.0155 -12.00    1.1
2024/07/31 12:54:19.000   28.336880980  -16.505797601  1818.3692   2   6   0.0116   0.0332   0.0733  -0.0046  -0.0235  -0.0155 -11.00    1.5
2024/07/31 12:54:20.000   28.336880979  -16.505797604  1818.3703   2   6   0.0116   0.0332   0.0733  -0.0046  -0.0235  -0.0155 -10.00    1.2
2024/07/31 12:54:21.000   28.336880979  -16.505797605  1818.3713   2   6   0.0116   0.0332   0.0733  -0.0046  -0.0235  -0.0155  -9.00    1.5
2024/07/31 12:54:22.000   28.336880979  -16.505797607  1818.3724   2   6   0.0116   0.0332   0.0733  -0.0046  -0.0235  -0.0155  -8.00    1.5
2024/07/31 12:54:23.000   28.336880978  -16.505797610  1818.3742   2   6   0.0116   0.0332   0.0733  -0.0046  -0.0235  -0.0155  -7.00    1.5
2024/07/31 12:54:24.000   28.336880977  -16.505797613  1818.3761   2   6   0.0116   0.0332   0.0733  -0.0046  -0.0235  -0.0155  -6.00    1.2
2024/07/31 12:54:25.000   28.336880976  -16.505797617  1818.3785   2   6   0.0116   0.0332   0.0733  -0.0046  -0.0235  -0.0155  -5.00    1.6
2024/07/31 12:54:26.000   28.336880976  -16.505797619  1818.3801   2   6   0.0116   0.0332   0.0733  -0.0046  -0.0235  -0.0155  -4.00    1.1
2024/07/31 12:54:27.000   28.336880974  -16.505797622  1818.3818   2   6   0.0116   0.0332   0.0733  -0.0046  -0.0235  -0.0155  -3.00    1.6
2024/07/31 12:54:28.000   28.336880973  -16.505797625  1818.3844   2   6   0.0116   0.0332   0.0733  -0.0046  -0.0235  -0.0155  -2.00    2.0
2024/07/31 12:54:29.000   28.336880973  -16.505797624  1818.3879   2   6   0.0116   0.0332   0.0733  -0.0046  -0.0235  -0.0155  -1.00    1.6
2024/07/31 12:54:30.000   28.336880972  -16.505797624  1818.3909   2   6   0.0116   0.0332   0.0734  -0.0046  -0.0235  -0.0155   0.00    1.2
2024/07/31 12:54:31.000   28.336880969  -16.505797625  1818.3935   2   6   0.0116   0.0332   0.0734  -0.0046  -0.0235  -0.0155   1.00    1.6
2024/07/31 12:54:32.000   28.336880966  -16.505797623  1818.3967   2   6   0.0116   0.0332   0.0734  -0.0046  -0.0235  -0.0155   2.00    1.2
2024/07/31 12:54:33.000   28.336880964  -16.505797621  1818.3995   2   6   0.0116   0.0332   0.0734  -0.0046  -0.0236  -0.0155   3.00    1.7
2024/07/31 12:54:34.000   28.336880962  -16.505797620  1818.4016   2   6   0.0116   0.0332   0.0735  -0.0046  -0.0236  -0.0156   4.00    1.7
2024/07/31 12:54:35.000   28.336880960  -16.505797621  1818.4042   2   6   0.0116   0.0332   0.0735  -0.0046  -0.0236  -0.0156   5.00    1.7
2024/07/31 12:54:36.000   28.336880958  -16.505797623  1818.4066   2   6   0.0116   0.0332   0.0735  -0.0046  -0.0236  -0.0156   6.00    1.3
2024/07/31 12:54:37.000   28.336880957  -16.505797621  1818.4079   2   6   0.0116   0.0332   0.0735  -0.0046  -0.0236  -0.0156   7.00    1.7
2024/07/31 12:54:38.000   28.336880957  -16.505797621  1818.4086   2   6   0.0117   0.0332   0.0735  -0.0046  -0.0236  -0.0156   8.00    1.3
2024/07/31 12:54:39.000   28.336880956  -16.505797622  1818.4096   2   6   0.0117   0.0332   0.0735  -0.0046  -0.0236  -0.0156   9.00    1.7
2024/07/31 12:54:40.000   28.336880956  -16.505797623  1818.4108   2   6   0.0117   0.0332   0.0735  -0.0046  -0.0236  -0.0156  10.00    2.1
2024/07/31 12:54:41.000   28.336880956  -16.505797622  1818.4118   2   6   0.0117   0.0332   0.0735  -0.0046  -0.0236  -0.0156  11.00    1.7
2024/07/31 12:54:42.000   28.336880956  -16.505797621  1818.4125   2   6   0.0117   0.0332   0.0736  -0.0046  -0.0236  -0.0156  12.00    1.2
2024/07/31 12:54:43.000   28.336880956  -16.505797620  1818.4132   2   6   0.0117   0.0332   0.0736  -0.0047  -0.0236  -0.0156  13.00    1.7
2024/07/31 12:54:44.000   28.336880955  -16.505797621  1818.4136   2   6   0.0117   0.0332   0.0736  -0.0047  -0.0236  -0.0156  14.00    1.2
2024/07/31 12:54:45.000   28.336880955  -16.505797620  1818.4140   2   6   0.0117   0.0332   0.0736  -0.0047  -0.0236  -0.0156 -15.00    1.7
2024/07/31 12:54:46.000   28.336880954  -16.505797621  1818.4144   2   6   0.0117   0.0332   0.0736  -0.0047  -0.0236  -0.0156 -14.00    1.7
2024/07/31 12:54:47.000   28.336880954  -16.505797621  1818.4148   2   6   0.0117   0.0332   0.0736  -0.0047  -0.0236  -0.0156 -13.00    1.7
2024/07/31 12:54:48.000   28.336880953  -16.505797620  1818.4151   2   6   0.0117   0.0332   0.0736  -0.0047  -0.0236  -0.0156 -12.00    1.3
2024/07/31 12:54:49.000   28.336880952  -16.505797621  1818.4156   2   6   0.0117   0.0332   0.0736  -0.0047  -0.0236  -0.0156 -11.00    1.7
2024/07/31 12:54:50.000   28.336880952  -16.505797621  1818.4161   2   6   0.0117   0.0332   0.0736  -0.0047  -0.0236  -0.0156 -10.00    1.3
2024/07/31 12:54:51.000   28.336880951  -16.505797621  1818.4170   2   6   0.0117   0.0332   0.0736  -0.0047  -0.0236  -0.0156  -9.00    1.7
2024/07/31 12:54:52.000   28.336880950  -16.505797620  1818.4180   2   6   0.0117   0.0332   0.0735  -0.0047  -0.0236  -0.0156  -8.00    2.0
2024/07/31 12:54:53.000   28.336880948  -16.505797618  1818.4190   2   6   0.0117   0.0332   0.0735  -0.0047  -0.0236  -0.0156  -7.00    1.7
2024/07/31 12:54:54.000   28.336880947  -16.505797617  1818.4197   2   6   0.0117   0.0332   0.0735  -0.0047  -0.0236  -0.0156  -6.00    1.2
2024/07/31 12:54:55.000   28.336880946  -16.505797617  1818.4205   2   6   0.0117   0.0332   0.0735  -0.0047  -0.0236  -0.0155  -5.00    1.7
2024/07/31 12:54:56.000   28.336880943  -16.505797614  1818.4217   2   6   0.0117   0.0332   0.0735  -0.0047  -0.0236  -0.0155  -4.00    1.1
2024/07/31 12:54:57.000   28.336880941  -16.505797612  1818.4230   2   6   0.0117   0.0332   0.0735  -0.0047  -0.0236  -0.0155  -3.00    1.8
2024/07/31 12:54:58.000   28.336880938  -16.505797610  1818.4253   2   6   0.0117   0.0332   0.0735  -0.0047  -0.0236  -0.0155  -2.00    1.7
2024/07/31 12:54:59.000   28.336880934  -16.505797609  1818.4284   2   6   0.0117   0.0332   0.0735  -0.0047  -0.0236  -0.0155  -1.00    1.8
2024/07/31 12:55:00.000   28.336880931  -16.505797608  1818.4315   2   6   0.0117   0.0332   0.0735  -0.0047  -0.0236  -0.0155   0.00    1.3
2024/07/31 12:55:01.000   28.336880929  -16.505797606  1818.4336   2   6   0.0117   0.0332   0.0736  -0.0047  -0.0236  -0.0155   1.00    1.8
2024/07/31 12:55:02.000   28.336880925  -16.505797608  1818.4358   2   6   0.0117   0.0332   0.0736  -0.0047  -0.0236  -0.0155   2.00    1.5
2024/07/31 12:55:03.000   28.336880921  -16.505797607  1818.4379   2   6   0.0117   0.0332   0.0736  -0.0047  -0.0236  -0.0155   3.00    1.8
2024/07/31 12:55:04.000   28.336880918  -16.505797605  1818.4393   2   6   0.0117   0.0332   0.0736  -0.0047  -0.0236  -0.0155   4.00    2.0
2024/07/31 12:55:05.000   28.336880917  -16.505797604  1818.4406   2   6   0.0117   0.0332   0.0736  -0.0047  -0.0236  -0.0155   5.00    1.8
2024/07/31 12:55:06.000   28.336880914  -16.505797604  1818.4422   2   6   0.0117   0.0332   0.0736  -0.0047  -0.0236  -0.0155   6.00    1.3
2024/07/31 12:55:07.000   28.336880913  -16.505797604  1818.4432   2   6   0.0117   0.0332   0.0736  -0.0047  -0.0236  -0.0155   7.00    1.8
2024/07/31 12:55:08.000   28.336880911  -16.505797604  1818.4442   2   6   0.0117   0.0332   0.0736  -0.0047  -0.0236  -0.0155   8.00    1.0
2024/07/31 12:55:09.000   28.336880909  -16.505797605  1818.4451   2   6   0.0117   0.0332   0.0736  -0.0047  -0.0236  -0.0155   9.00    1.8
2024/07/31 12:55:10.000   28.336880907  -16.505797605  1818.4459   2   6   0.0117   0.0332   0.0736  -0.0047  -0.0236  -0.0155  10.00    1.7
2024/07/31 12:55:11.000   28.336880905  -16.505797606  1818.4468   2   6   0.0117   0.0332   0.0736  -0.0047  -0.0236  -0.0155  11.00    1.8
2024/07/31 12:55:12.000   28.336880903  -16.505797606  1818.4476   2   6   0.0117   0.0332   0.0737  -0.0047  -0.0236  -0.0155  12.00    1.3
2024/07/31 12:55:13.000   28.336880902  -16.505797608  1818.4483   2   6   0.0117   0.0332   0.0737  -0.0047  -0.0236  -0.0155  13.00    1.8
2024/07/31 12:55:14.000   28.336880901  -16.505797608  1818.4490   2   6   0.0117   0.0332   0.0737  -0.0047  -0.0236  -0.0155  14.00    1.5
2024/07/31 12:55:15.000   28.336880900  -16.505797609  1818.4496   2   6   0.0117   0.0332   0.0737  -0.0047  -0.0236  -0.0155 -15.00    1.8
2024/07/31 12:55:16.000   28.336880899  -16.505797610  1818.4500   2   6   0.0117   0.0332   0.0737  -0.0047  -0.0236  -0.0155 -14.00    1.9
2024/07/31 12:55:17.000   28.336880898  -16.505797611  1818.4506   2   6   0.0117   0.0332   0.0736  -0.0047  -0.0236  -0.0155 -13.00    1.8
2024/07/31 12:55:18.000   28.336880897  -16.505797611  1818.4514   2   6   0.0117   0.0332   0.0736  -0.0047  -0.0236  -0.0155 -12.00    1.2
2024/07/31 12:55:19.000   28.336880896  -16.505797610  1818.4521   2   6   0.0117   0.0332   0.0736  -0.0047  -0.0236  -0.0155 -11.00    1.8
2024/07/31 12:55:20.000   28.336880895  -16.505797611  1818.4530   2   6   0.0117   0.0332   0.0736  -0.0047  -0.0236  -0.0155 -10.00    1.1
2024/07/31 12:55:21.000   28.336880894  -16.505797611  1818.4540   2   6   0.0117   0.0332   0.0736  -0.0047  -0.0236  -0.0155  -9.00    1.8
2024/07/31 12:55:22.000   28.336880893  -16.505797611  1818.4551   2   6   0.0117   0.0332   0.0736  -0.0047  -0.0236  -0.0155  -8.00    1.6
2024/07/31 12:55:23.000   28.336880892  -16.505797611  1818.4565   2   6   0.0117   0.0332   0.0736  -0.0047  -0.0236  -0.0155  -7.00    1.8
2024/07/31 12:55:24.000   28.336880891  -16.505797610  1818.4584   2   6   0.0117   0.0332   0.0736  -0.0047  -0.0236  -0.0155  -6.00    1.3
2024/07/31 12:55:25.000   28.336880889  -16.505797606  1818.4606   2   6   0.0117   0.0332   0.0736  -0.0047  -0.0236  -0.0155  -5.00    1.8
2024/07/31 12:55:26.000   28.336880887  -16.505797603  1818.4627   2   6   0.0117   0.0332   0.0736  -0.0047  -0.0236  -0.0155  -4.00    1.5
2024/07/31 12:55:27.000   28.336880887  -16.505797601  1818.4655   2   6   0.0117   0.0332   0.0736  -0.0047  -0.0236  -0.0155  -3.00    1.8
2024/07/31 12:55:28.000   28.336880886  -16.505797597  1818.4690   2   6   0.0117   0.0332   0.0736  -0.0047  -0.0236  -0.0155  -2.00    1.8
2024/07/31 12:55:29.000   28.336880883  -16.505797592  1818.4724   2   6   0.0117   0.0332   0.0736  -0.0048  -0.0236  -0.0155  -1.00    1.9
2024/07/31 12:55:30.000   28.336880880  -16.505797588  1818.4752   2   6   0.0117   0.0332   0.0736  -0.0048  -0.0236  -0.0155   0.00    1.2
2024/07/31 12:55:31.000   28.336880877  -16.505797584  1818.4783   2   6   0.0117   0.0332   0.0736  -0.0048  -0.0236  -0.0155   1.00    1.9
2024/07/31 12:55:32.000   28.336880873  -16.505797582  1818.4821   2   6   0.0117   0.0332   0.0736  -0.0048  -0.0236  -0.0155   2.00    1.1
2024/07/31 12:55:33.000   28.336880870  -16.505797580  1818.4854   2   6   0.0117   0.0332   0.0736  -0.0048  -0.0236  -0.0155   3.00    1.9
2024/07/31 12:55:34.000   28.336880869  -16.505797580  1818.4878   2   6   0.0117   0.0332   0.0736  -0.0048  -0.0236  -0.0155   4.00    1.5
2024/07/31 12:55:35.000   28.336880866  -16.505797581  1818.4902   2   6   0.0117   0.0332   0.0736  -0.0048  -0.0236  -0.0155   5.00    1.8
2024/07/31 12:55:36.000   28.336880865  -16.505797581  1818.4927   2   6   0.0117   0.0332   0.0736  -0.0048  -0.0236  -0.0155   6.00    1.3
2024/07/31 12:55:37.000   28.336880864  -16.505797580  1818.4947   2   6   0.0117   0.0332   0.0736  -0.0048  -0.0236  -0.0155   7.00    1.8
2024/07/31 12:55:38.000   28.336880862  -16.505797579  1818.4964   2   6   0.0117   0.0332   0.0736  -0.0048  -0.0236  -0.0155   8.00    1.6
2024/07/31 12:55:39.000   28.336880860  -16.505797578  1818.4977   2   6   0.0117   0.0332   0.0736  -0.0048  -0.0236  -0.0155   9.00    1.8
2024/07/31 12:55:40.000   28.336880859  -16.505797577  1818.4988   2   6   0.0117   0.0332   0.0736  -0.0048  -0.0236  -0.0155  10.00    1.7
2024/07/31 12:55:41.000   28.336880858  -16.505797576  1818.5001   2   6   0.0117   0.0332   0.0736  -0.0048  -0.0236  -0.0155  11.00    1.8
2024/07/31 12:55:42.000   28.336880856  -16.505797576  1818.5010   2   6   0.0117   0.0332   0.0736  -0.0048  -0.0236  -0.0155  12.00    1.2
2024/07/31 12:55:43.000   28.336880855  -16.505797575  1818.5019   2   6   0.0117   0.0332   0.0736  -0.0048  -0.0236  -0.0155  13.00    1.8
2024/07/31 12:55:44.000   28.336880854  -16.505797574  1818.5027   2   6   0.0117   0.0332   0.0736  -0.0048  -0.0236  -0.0155  14.00    1.1
2024/07/31 12:55:45.000   28.336880853  -16.505797573  1818.5032   2   6   0.0118   0.0332   0.0736  -0.0048  -0.0236  -0.0155 -15.00    1.8
2024/07/31 12:55:46.000   28.336880852  -16.505797573  1818.5038   2   6   0.0118   0.0332   0.0736  -0.0048  -0.0236  -0.0155 -14.00    1.5
2024/07/31 12:55:47.000   28.336880851  -16.505797573  1818.5047   2   6   0.0118   0.0332   0.0736  -0.0048  -0.0236  -0.0155 -13.00    1.8
2024/07/31 12:55:48.000   28.336880849  -16.505797572  1818.5054   2   6   0.0118   0.0332   0.0736  -0.0048  -0.0236  -0.0155 -12.00    1.3
2024/07/31 12:55:49.000   28.336880848  -16.505797571  1818.5062   2   6   0.0117   0.0332   0.0736  -0.0048  -0.0236  -0.0155 -11.00    1.8
2024/07/31 12:55:50.000   28.336880846  -16.505797570  1818.5074   2   6   0.0117   0.0332   0.0736  -0.0048  -0.0236  -0.0155 -10.00    1.5
2024/07/31 12:55:51.000   28.336880844  -16.505797569  1818.5086   2   6   0.0117   0.0332   0.0736  -0.0048  -0.0236  -0.0155  -9.00    1.8
2024/07/31 12:55:52.000   28.336880841  -16.505797568  1818.5099   2   6   0.0117   0.0332   0.0735  -0.0048  -0.0236  -0.0155  -8.00    1.7
2024/07/31 12:55:53.000   28.336880838  -16.505797566  1818.5111   2   6   0.0117   0.0332   0.0735  -0.0048  -0.0236  -0.0154  -7.00    1.8
2024/07/31 12:55:54.000   28.336880835  -16.505797563  1818.5129   2   6   0.0117   0.0332   0.0735  -0.0048  -0.0236  -0.0154  -6.00    1.1
2024/07/31 12:55:55.000   28.336880831  -16.505797561  1818.5161   2   6   0.0117   0.0332   0.0735  -0.0048  -0.0236  -0.0154  -5.00    1.8
2024/07/31 12:55:56.000   28.336880826  -16.505797559  1818.5190   2   6   0.0117   0.0332   0.0735  -0.0048  -0.0236  -0.0154  -4.00    1.1
2024/07/31 12:55:57.000   28.336880823  -16.505797556  1818.5212   2   6   0.0117   0.0332   0.0735  -0.0048  -0.0236  -0.0154  -3.00    1.7
2024/07/31 12:55:58.000   28.336880818  -16.505797550  1818.5244   2   6   0.0117   0.0332   0.0734  -0.0048  -0.0236  -0.0154  -2.00    1.4
2024/07/31 12:55:59.000   28.336880812  -16.505797545  1818.5272   2   6   0.0117   0.0332   0.0734  -0.0048  -0.0236  -0.0154  -1.00    1.7
2024/07/31 12:56:00.000   28.336880806  -16.505797540  1818.5291   2   6   0.0117   0.0332   0.0734  -0.0048  -0.0236  -0.0154   0.00    1.2
2024/07/31 12:56:01.000   28.336880800  -16.505797535  1818.5322   2   6   0.0117   0.0332   0.0734  -0.0048  -0.0236  -0.0154   1.00    1.7
2024/07/31 12:56:02.000   28.336880792  -16.505797529  1818.5358   2   6   0.0118   0.0332   0.0734  -0.0048  -0.0236  -0.0154   2.00    1.7
2024/07/31 12:56:03.000   28.336880785  -16.505797523  1818.5385   2   6   0.0118   0.0332   0.0734  -0.0049  -0.0236  -0.0154   3.00    1.7
2024/07/31 12:56:04.000   28.336880781  -16.505797518  1818.5394   2   6   0.0118   0.0332   0.0734  -0.0049  -0.0236  -0.0154   4.00    1.7
2024/07/31 12:56:05.000   28.336880779  -16.505797513  1818.5399   2   6   0.0118   0.0332   0.0734  -0.0049  -0.0236  -0.0154   5.00    1.7
2024/07/31 12:56:06.000   28.336880776  -16.505797510  1818.5409   2   6   0.0118   0.0332   0.0734  -0.0049  -0.0236  -0.0154   6.00    1.1
2024/07/31 12:56:07.000   28.336880775  -16.505797508  1818.5421   2   6   0.0118   0.0332   0.0734  -0.0049  -0.0236  -0.0154   7.00    1.7
2024/07/31 12:56:08.000   28.336880773  -16.505797505  1818.5429   2   6   0.0118   0.0332   0.0734  -0.0049  -0.0236  -0.0154   8.00    1.0
2024/07/31 12:56:09.000   28.336880772  -16.505797501  1818.5432   2   6   0.0118   0.0332   0.0734  -0.0049  -0.0236  -0.0154   9.00    1.7
2024/07/31 12:56:10.000   28.336880771  -16.505797500  1818.5434   2   6   0.0118   0.0332   0.0734  -0.0049  -0.0236  -0.0154  10.00    1.4
2024/07/31 12:56:11.000   28.336880771  -16.505797499  1818.5439   2   6   0.0118   0.0332   0.0734  -0.0049  -0.0236  -0.0154  11.00    1.7
2024/07/31 12:56:12.000   28.336880770  -16.505797499  1818.5447   2   6   0.0118   0.0332   0.0733  -0.0049  -0.0236  -0.0154  12.00    1.2
2024/07/31 12:56:13.000   28.336880769  -16.505797498  1818.5448   2   6   0.0118   0.0332   0.0733  -0.0049  -0.0236  -0.0154  13.00    1.7
2024/07/31 12:56:14.000   28.336880769  -16.505797497  1818.5449   2   6   0.0118   0.0332   0.0733  -0.0049  -0.0236  -0.0154  14.00    1.7
2024/07/31 12:56:15.000   28.336880768  -16.505797496  1818.5451   2   6   0.0118   0.0332   0.0733  -0.0049  -0.0236  -0.0154 -15.00    1.7
2024/07/31 12:56:16.000   28.336880768  -16.505797495  1818.5452   2   6   0.0118   0.0332   0.0733  -0.0049  -0.0236  -0.0154 -14.00    1.7
2024/07/31 12:56:17.000   28.336880768  -16.505797493  1818.5452   2   6   0.0118   0.0331   0.0733  -0.0049  -0.0236  -0.0153 -13.00    1.7
2024/07/31 12:56:18.000   28.336880767  -16.505797492  1818.5451   2   6   0.0118   0.0331   0.0733  -0.0049  -0.0236  -0.0153 -12.00    1.1
2024/07/31 12:56:19.000   28.336880766  -16.505797492  1818.5452   2   6   0.0118   0.0331   0.0733  -0.0049  -0.0236  -0.0153 -11.00    1.7
2024/07/31 12:56:20.000   28.336880766  -16.505797489  1818.5448   2   6   0.0118   0.0331   0.0733  -0.0049  -0.0236  -0.0153 -10.00    1.0
2024/07/31 12:56:21.000   28.336880765  -16.505797488  1818.5448   2   6   0.0118   0.0331   0.0733  -0.0049  -0.0236  -0.0153  -9.00    1.7
2024/07/31 12:56:22.000   28.336880764  -16.505797486  1818.5441   2   6   0.0118   0.0331   0.0733  -0.0049  -0.0236  -0.0153  -8.00    1.4
2024/07/31 12:56:23.000   28.336880764  -16.505797482  1818.5435   2   6   0.0118   0.0331   0.0733  -0.0049  -0.0236  -0.0153  -7.00    1.7
2024/07/31 12:56:24.000   28.336880762  -16.505797481  1818.5440   2   6   0.0118   0.0331   0.0732  -0.0049  -0.0236  -0.0153  -6.00    1.2
2024/07/31 12:56:25.000   28.336880761  -16.505797478  1818.5439   2   6   0.0118   0.0331   0.0732  -0.0049  -0.0236  -0.0153  -5.00    1.7
2024/07/31 12:56:26.000   28.336880759  -16.505797476  1818.5443   2   6   0.0118   0.0331   0.0732  -0.0049  -0.0236  -0.0153  -4.00    1.8
2024/07/31 12:56:27.000   28.336880757  -16.505797472  1818.5456   2   6   0.0118   0.0331   0.0732  -0.0049  -0.0236  -0.0153  -3.00    1.7
2024/07/31 12:56:28.001   28.336880754  -16.505797470  1818.5471   2   6   0.0118   0.0331   0.0731  -0.0049  -0.0236  -0.0153  -2.00    1.8
2024/07/31 12:56:29.000   28.336880751  -16.505797467  1818.5481   2   6   0.0118   0.0331   0.0731  -0.0049  -0.0236  -0.0153  -1.00    1.7
2024/07/31 12:56:30.000   28.336880746  -16.505797462  1818.5503   2   6   0.0118   0.0331   0.0731  -0.0049  -0.0236  -0.0153   0.00    1.1
2024/07/31 12:56:31.000   28.336880740  -16.505797459  1818.5528   2   6   0.0118   0.0331   0.0731  -0.0049  -0.0236  -0.0153   1.00    1.7
2024/07/31 12:56:32.000   28.336880734  -16.505797458  1818.5546   2   6   0.0118   0.0331   0.0730  -0.0049  -0.0236  -0.0152   2.00    1.0
2024/07/31 12:56:33.000   28.336880729  -16.505797456  1818.5555   2   6   0.0118   0.0331   0.0730  -0.0049  -0.0236  -0.0152   3.00    1.7
2024/07/31 12:56:34.000   28.336880725  -16.505797454  1818.5555   2   6   0.0118   0.0331   0.0730  -0.0049  -0.0236  -0.0152   4.00    1.4
2024/07/31 12:56:35.000   28.336880722  -16.505797452  1818.5555   2   6   0.0118   0.0331   0.0730  -0.0049  -0.0236  -0.0152   5.00    1.7
2024/07/31 12:56:36.000   28.336880719  -16.505797451  1818.5559   2   6   0.0118   0.0331   0.0730  -0.0049  -0.0236  -0.0152   6.00    1.2
2024/07/31 12:56:37.000   28.336880717  -16.505797451  1818.5558   2   6   0.0118   0.0331   0.0730  -0.0049  -0.0236  -0.0152   7.00    1.8
2024/07/31 12:56:38.000   28.336880715  -16.505797451  1818.5561   2   6   0.0118   0.0331   0.0730  -0.0049  -0.0236  -0.0152   8.00    1.8
2024/07/31 12:56:39.000   28.336880714  -16.505797452  1818.5568   2   6   0.0118   0.0331   0.0730  -0.0049  -0.0236  -0.0152   9.00    1.7
2024/07/31 12:56:40.000   28.336880713  -16.505797453  1818.5576   2   6   0.0118   0.0331   0.0730  -0.0049  -0.0236  -0.0152  10.00    1.8
2024/07/31 12:56:41.000   28.336880712  -16.505797453  1818.5585   2   6   0.0118   0.0331   0.0730  -0.0049  -0.0236  -0.0152  11.00    1.7
2024/07/31 12:56:42.000   28.336880711  -16.505797454  1818.5592   2   6   0.0118   0.0331   0.0730  -0.0049  -0.0236  -0.0152  12.00    1.1
2024/07/31 12:56:43.000   28.336880710  -16.505797456  1818.5599   2   6   0.0118   0.0331   0.0730  -0.0049  -0.0236  -0.0152  13.00    1.7
2024/07/31 12:56:44.000   28.336880709  -16.505797456  1818.5605   2   6   0.0118   0.0331   0.0730  -0.0049  -0.0236  -0.0152  14.00    1.0
2024/07/31 12:56:45.000   28.336880708  -16.505797456  1818.5609   2   6   0.0118   0.0331   0.0730  -0.0049  -0.0236  -0.0152 -15.00    1.7
2024/07/31 12:56:46.000   28.336880707  -16.505797456  1818.5612   2   6   0.0118   0.0331   0.0730  -0.0049  -0.0236  -0.0152 -14.00    1.4
2024/07/31 12:56:47.000   28.336880706  -16.505797457  1818.5616   2   6   0.0118   0.0331   0.0730  -0.0049  -0.0236  -0.0152 -13.00    1.7
2024/07/31 12:56:48.000   28.336880705  -16.505797457  1818.5621   2   6   0.0118   0.0331   0.0730  -0.0049  -0.0236  -0.0152 -12.00    1.2
2024/07/31 12:56:49.000   28.336880703  -16.505797458  1818.5627   2   6   0.0118   0.0331   0.0729  -0.0049  -0.0236  -0.0152 -11.00    1.7
2024/07/31 12:56:50.000   28.336880702  -16.505797458  1818.5629   2   6   0.0118   0.0331   0.0729  -0.0049  -0.0236  -0.0152 -10.00    1.7
2024/07/31 12:56:51.000   28.336880700  -16.505797459  1818.5631   2   6   0.0118   0.0331   0.0729  -0.0049  -0.0236  -0.0152  -9.00    1.7
2024/07/31 12:56:52.000   28.336880698  -16.505797459  1818.5635   2   6   0.0118   0.0331   0.0729  -0.0049  -0.0236  -0.0152  -8.00    1.7
2024/07/31 12:56:53.000   28.336880697  -16.505797460  1818.5638   2   6   0.0118   0.0331   0.0729  -0.0050  -0.0236  -0.0152  -7.00    1.7
2024/07/31 12:56:54.000   28.336880695  -16.505797462  1818.5640   2   6   0.0118   0.0331   0.0729  -0.0050  -0.0236  -0.0152  -6.00    1.1
2024/07/31 12:56:55.000   28.336880692  -16.505797466  1818.5646   2   6   0.0118   0.0331   0.0728  -0.0050  -0.0236  -0.0152  -5.00    1.7
2024/07/31 12:56:56.000   28.336880688  -16.505797468  1818.5652   2   6   0.0118   0.0331   0.0728  -0.0050  -0.0236  -0.0151  -4.00    1.0
2024/07/31 12:56:57.000   28.336880684  -16.505797472  1818.5656   2   6   0.0117   0.0331   0.0728  -0.0050  -0.0236  -0.0151  -3.00    1.7
2024/07/31 12:56:58.000   28.336880680  -16.505797475  1818.5667   2   6   0.0117   0.0331   0.0727  -0.0050  -0.0236  -0.0151  -2.00    1.4
2024/07/31 12:56:59.000   28.336880674  -16.505797479  1818.5680   2   6   0.0117   0.0331   0.0727  -0.0050  -0.0236  -0.0151  -1.00    1.7
2024/07/31 12:57:00.000   28.336880668  -16.505797483  1818.5696   2   6   0.0117   0.0331   0.0727  -0.0050  -0.0236  -0.0151   0.00    1.2
2024/07/31 12:57:01.000   28.336880662  -16.505797485  1818.5703   2   6   0.0117   0.0331   0.0726  -0.0050  -0.0236  -0.0151   1.00    1.6
2024/07/31 12:57:02.000   28.336880657  -16.505797487  1818.5696   2   6   0.0117   0.0331   0.0726  -0.0050  -0.0236  -0.0151   2.00    1.7
2024/07/31 12:57:03.000   28.336880654  -16.505797489  1818.5683   2   6   0.0117   0.0331   0.0726  -0.0050  -0.0236  -0.0151   3.00    1.6
2024/07/31 12:57:04.000   28.336880651  -16.505797490  1818.5672   2   6   0.0117   0.0331   0.0726  -0.0050  -0.0236  -0.0151   4.00    1.6
2024/07/31 12:57:05.000   28.336880649  -16.505797491  1818.5666   2   6   0.0117   0.0331   0.0726  -0.0050  -0.0236  -0.0150   5.00    1.6
2024/07/31 12:57:06.000   28.336880648  -16.505797492  1818.5666   2   6   0.0117   0.0331   0.0726  -0.0050  -0.0236  -0.0150   6.00    1.2
2024/07/31 12:57:07.000   28.336880647  -16.505797492  1818.5659   2   6   0.0117   0.0331   0.0725  -0.0050  -0.0236  -0.0150   7.00    1.5
2024/07/31 12:57:08.000   28.336880647  -16.505797494  1818.5653   2   6   0.0117   0.0331   0.0725  -0.0050  -0.0236  -0.0150   8.00    1.0
2024/07/31 12:57:09.000   28.336880648  -16.505797495  1818.5652   2   6   0.0117   0.0331   0.0725  -0.0050  -0.0236  -0.0150   9.00    1.5
