% program   : RTKPOST-EX 2.5.0
% inp file  : C:\Users\SallyHenry\Desktop\Sally Internship\GNSS gravi\DATA\Survey Rover Obs\CAMI6.24o
% inp file  : C:\Users\SallyHenry\Desktop\Sally Internship\GNSS gravi\DATA\BaseStations\IZAN\IZAN00ESP_R_20242130000_01D_30S_MO.rnx
% inp file  : C:\Users\SallyHenry\Desktop\Sally Internship\GNSS gravi\DATA\BaseStations\IZAN\IZAN00ESP_R_20242130000_01D_MN.rnx
% inp file  : C:\Users\SallyHenry\Desktop\Sally Internship\GNSS gravi\DATA\aux_files\Survey\IGS0OPSFIN_20242130000_01D_15M_ORB.SP3
% inp file  : C:\Users\SallyHenry\Desktop\Sally Internship\GNSS gravi\DATA\aux_files\Survey\IGS0OPSFIN_20242130000_01D_30S_CLK.CLK
% obs start : 2024/07/31 14:15:02.0 GPST (week2325 310502.0s)
% obs end   : 2024/07/31 14:30:07.0 GPST (week2325 311407.0s)
% pos mode  : Static
% freqs     : L1+L2/E5b
% solution  : Combined-No Phase Reset
% elev mask : 15.0 deg
% dynamics  : on
% tidecorr  : solid
% ionos opt : Estimate TEC
% tropo opt : Estimate ZTD+Grad
% ephemeris : Precise
% navi sys  : GPS GLONASS Galileo QZSS BDS
% amb res   : Fix and Hold
% amb glo   : Fix and Hold
% amb bds   : on
% val thres : 3.0
% antenna1  :                       ( 0.0000  0.0000  1.8000)
% antenna2  :                       ( 0.0000  0.0000  0.0000)
% ref pos   :  28.308069410  -16.499677180  2417.4044
%
% (lat/lon/height=WGS84/ellipsoidal,Q=1:fix,2:float,3:sbas,4:dgps,5:single,6:ppp,ns=# of satellites)
%  GPST                  latitude(deg) longitude(deg)  height(m)   Q  ns   sdn(m)   sde(m)   sdu(m)  sdne(m)  sdeu(m)  sdun(m) age(s)  ratio
2024/07/31 14:15:02.000   28.320616181  -16.502399584  2121.0381   1   9   0.0010   0.0013   0.0086   0.0003  -0.0011  -0.0017   2.00  126.6
2024/07/31 14:15:03.000   28.320616181  -16.502399584  2121.0380   1   9   0.0010   0.0013   0.0086   0.0003  -0.0011  -0.0017   3.00  126.6
2024/07/31 14:15:04.000   28.320616181  -16.502399584  2121.0380   1   9   0.0010   0.0013   0.0086   0.0003  -0.0011  -0.0017   4.00  126.4
2024/07/31 14:15:05.000   28.320616181  -16.502399584  2121.0380   1   9   0.0010   0.0013   0.0086   0.0003  -0.0011  -0.0017   5.00  126.5
2024/07/31 14:15:06.000   28.320616180  -16.502399584  2121.0380   1   9   0.0010   0.0013   0.0086   0.0003  -0.0011  -0.0017   6.00  122.1
2024/07/31 14:15:07.000   28.320616180  -16.502399584  2121.0380   1   9   0.0010   0.0013   0.0086   0.0003  -0.0011  -0.0017   7.00  118.6
2024/07/31 14:15:08.000   28.320616180  -16.502399584  2121.0380   1   9   0.0010   0.0013   0.0086   0.0003  -0.0011  -0.0017   8.00  114.7
2024/07/31 14:15:09.000   28.320616180  -16.502399584  2121.0380   1   9   0.0010   0.0013   0.0086   0.0003  -0.0011  -0.0017   9.00  111.3
2024/07/31 14:15:10.000   28.320616180  -16.502399584  2121.0380   1   9   0.0010   0.0013   0.0086   0.0003  -0.0011  -0.0017  10.00  108.3
2024/07/31 14:15:11.000   28.320616180  -16.502399584  2121.0380   1   9   0.0010   0.0013   0.0086   0.0003  -0.0011  -0.0017  11.00  105.9
2024/07/31 14:15:12.000   28.320616180  -16.502399584  2121.0380   1   9   0.0010   0.0013   0.0086   0.0003  -0.0011  -0.0017  12.00  103.7
2024/07/31 14:15:13.000   28.320616180  -16.502399584  2121.0381   1   9   0.0010   0.0013   0.0086   0.0003  -0.0011  -0.0017  13.00  101.9
2024/07/31 14:15:14.000   28.320616180  -16.502399584  2121.0381   1   9   0.0010   0.0013   0.0086   0.0003  -0.0011  -0.0017  14.00   99.8
2024/07/31 14:15:15.000   28.320616180  -16.502399584  2121.0381   1   9   0.0010   0.0013   0.0086   0.0003  -0.0011  -0.0017  15.00   98.1
2024/07/31 14:15:16.000   28.320616180  -16.502399584  2121.0381   1   9   0.0010   0.0013   0.0086   0.0003  -0.0011  -0.0017 -14.00   96.6
2024/07/31 14:15:17.000   28.320616180  -16.502399584  2121.0381   1   9   0.0010   0.0013   0.0086   0.0003  -0.0011  -0.0017 -13.00   94.9
2024/07/31 14:15:18.000   28.320616180  -16.502399584  2121.0381   1   9   0.0010   0.0013   0.0086   0.0003  -0.0011  -0.0017 -12.00   93.0
2024/07/31 14:15:19.000   28.320616180  -16.502399584  2121.0381   1   9   0.0010   0.0013   0.0086   0.0003  -0.0011  -0.0017 -11.00   91.0
2024/07/31 14:15:20.000   28.320616180  -16.502399584  2121.0382   1   9   0.0010   0.0013   0.0086   0.0003  -0.0011  -0.0017 -10.00   88.3
2024/07/31 14:15:21.000   28.320616180  -16.502399584  2121.0382   1   9   0.0010   0.0013   0.0086   0.0003  -0.0011  -0.0017  -9.00   85.2
2024/07/31 14:15:22.000   28.320616180  -16.502399584  2121.0382   1   9   0.0010   0.0013   0.0086   0.0003  -0.0011  -0.0017  -8.00   81.7
2024/07/31 14:15:23.000   28.320616180  -16.502399584  2121.0383   1   9   0.0010   0.0013   0.0086   0.0003  -0.0011  -0.0017  -7.00   77.4
2024/07/31 14:15:24.000   28.320616180  -16.502399584  2121.0382   1   9   0.0010   0.0013   0.0086   0.0003  -0.0011  -0.0017  -6.00   72.2
2024/07/31 14:15:25.000   28.320616180  -16.502399584  2121.0382   1   9   0.0010   0.0013   0.0086   0.0003  -0.0011  -0.0017  -5.00   66.3
2024/07/31 14:15:26.000   28.320616180  -16.502399584  2121.0382   1   9   0.0010   0.0013   0.0086   0.0003  -0.0011  -0.0017  -4.00   58.8
2024/07/31 14:15:27.000   28.320616180  -16.502399584  2121.0382   1   9   0.0010   0.0013   0.0086   0.0003  -0.0011  -0.0017  -3.00   49.2
2024/07/31 14:15:28.000   28.320616180  -16.502399584  2121.0382   1   9   0.0010   0.0013   0.0086   0.0003  -0.0011  -0.0017  -2.00   36.5
2024/07/31 14:15:29.000   28.320616180  -16.502399584  2121.0381   1   9   0.0010   0.0013   0.0086   0.0003  -0.0012  -0.0017  -1.00   20.6
2024/07/31 14:15:30.000   28.320616181  -16.502399583  2121.0381   1   9   0.0010   0.0013   0.0086   0.0003  -0.0012  -0.0017   0.00  177.7
2024/07/31 14:15:31.000   28.320616181  -16.502399583  2121.0380   1   9   0.0010   0.0013   0.0086   0.0003  -0.0012  -0.0017   1.00  177.9
2024/07/31 14:15:32.000   28.320616180  -16.502399583  2121.0378   1   9   0.0010   0.0013   0.0086   0.0003  -0.0012  -0.0017   2.00  178.7
2024/07/31 14:15:33.000   28.320616180  -16.502399583  2121.0377   1   9   0.0010   0.0013   0.0087   0.0003  -0.0012  -0.0017   3.00  178.7
2024/07/31 14:15:34.000   28.320616180  -16.502399583  2121.0376   1   9   0.0010   0.0013   0.0087   0.0003  -0.0012  -0.0017   4.00  175.0
2024/07/31 14:15:35.000   28.320616180  -16.502399582  2121.0375   1   9   0.0010   0.0013   0.0087   0.0003  -0.0012  -0.0017   5.00  168.4
2024/07/31 14:15:36.000   28.320616180  -16.502399582  2121.0374   1   9   0.0010   0.0013   0.0087   0.0003  -0.0012  -0.0017   6.00  161.9
2024/07/31 14:15:37.000   28.320616180  -16.502399582  2121.0373   1   9   0.0010   0.0013   0.0087   0.0003  -0.0012  -0.0017   7.00  156.4
2024/07/31 14:15:38.000   28.320616180  -16.502399582  2121.0372   1   9   0.0010   0.0013   0.0087   0.0003  -0.0012  -0.0017   8.00  151.7
2024/07/31 14:15:39.000   28.320616180  -16.502399582  2121.0372   1   9   0.0010   0.0013   0.0087   0.0003  -0.0012  -0.0017   9.00  147.4
2024/07/31 14:15:40.000   28.320616180  -16.502399582  2121.0372   1   9   0.0010   0.0013   0.0087   0.0003  -0.0012  -0.0017  10.00  143.5
2024/07/31 14:15:41.000   28.320616180  -16.502399582  2121.0371   1   9   0.0010   0.0013   0.0087   0.0003  -0.0012  -0.0017  11.00  140.2
2024/07/31 14:15:42.000   28.320616180  -16.502399582  2121.0371   1   9   0.0010   0.0013   0.0087   0.0003  -0.0012  -0.0017  12.00  137.3
2024/07/31 14:15:43.000   28.320616180  -16.502399582  2121.0370   1   9   0.0010   0.0013   0.0087   0.0003  -0.0012  -0.0017  13.00  134.5
2024/07/31 14:15:44.000   28.320616180  -16.502399582  2121.0370   1   9   0.0010   0.0013   0.0087   0.0003  -0.0012  -0.0017  14.00  131.9
2024/07/31 14:15:45.000   28.320616180  -16.502399581  2121.0370   1   9   0.0010   0.0013   0.0087   0.0003  -0.0012  -0.0017  15.00  129.5
2024/07/31 14:15:46.000   28.320616180  -16.502399581  2121.0370   1   9   0.0010   0.0013   0.0087   0.0003  -0.0012  -0.0017 -14.00  127.3
2024/07/31 14:15:47.000   28.320616180  -16.502399581  2121.0369   1   9   0.0010   0.0013   0.0087   0.0003  -0.0012  -0.0017 -13.00  125.1
2024/07/31 14:15:48.000   28.320616180  -16.502399581  2121.0369   1   9   0.0010   0.0013   0.0087   0.0003  -0.0012  -0.0017 -12.00  122.6
2024/07/31 14:15:49.000   28.320616180  -16.502399581  2121.0369   1   9   0.0010   0.0013   0.0087   0.0003  -0.0012  -0.0017 -11.00  119.7
2024/07/31 14:15:50.000   28.320616180  -16.502399581  2121.0369   1   9   0.0010   0.0013   0.0087   0.0003  -0.0012  -0.0017 -10.00  116.3
2024/07/31 14:15:51.000   28.320616180  -16.502399581  2121.0369   1   9   0.0010   0.0013   0.0087   0.0003  -0.0012  -0.0017  -9.00  111.8
2024/07/31 14:15:52.000   28.320616180  -16.502399581  2121.0369   1   9   0.0010   0.0013   0.0087   0.0003  -0.0012  -0.0017  -8.00  106.7
2024/07/31 14:15:53.000   28.320616180  -16.502399581  2121.0368   1   9   0.0010   0.0013   0.0087   0.0003  -0.0012  -0.0017  -7.00  100.7
2024/07/31 14:15:54.000   28.320616180  -16.502399581  2121.0368   1   9   0.0010   0.0013   0.0087   0.0003  -0.0012  -0.0017  -6.00   93.6
2024/07/31 14:15:55.000   28.320616180  -16.502399581  2121.0368   1   9   0.0010   0.0013   0.0087   0.0003  -0.0012  -0.0017  -5.00   85.1
2024/07/31 14:15:56.000   28.320616180  -16.502399581  2121.0368   1   9   0.0010   0.0013   0.0087   0.0003  -0.0012  -0.0017  -4.00   74.4
2024/07/31 14:15:57.000   28.320616180  -16.502399581  2121.0368   1   9   0.0010   0.0013   0.0087   0.0003  -0.0012  -0.0017  -3.00   61.5
2024/07/31 14:15:58.000   28.320616180  -16.502399580  2121.0367   1   9   0.0010   0.0013   0.0087   0.0003  -0.0012  -0.0017  -2.00   45.9
2024/07/31 14:15:59.000   28.320616180  -16.502399580  2121.0367   1   9   0.0010   0.0013   0.0087   0.0003  -0.0012  -0.0017  -1.00   25.8
2024/07/31 14:16:00.000   28.320616183  -16.502399589  2121.0410   1   9   0.0010   0.0013   0.0086   0.0003  -0.0010  -0.0018   0.00  159.7
2024/07/31 14:16:01.000   28.320616183  -16.502399589  2121.0409   1   9   0.0010   0.0013   0.0086   0.0003  -0.0010  -0.0018   1.00  156.9
2024/07/31 14:16:02.000   28.320616183  -16.502399589  2121.0408   1   9   0.0010   0.0013   0.0086   0.0003  -0.0010  -0.0018   2.00  153.7
2024/07/31 14:16:03.000   28.320616183  -16.502399589  2121.0407   1   9   0.0010   0.0013   0.0086   0.0003  -0.0010  -0.0018   3.00  151.6
2024/07/31 14:16:04.000   28.320616182  -16.502399589  2121.0407   1   9   0.0010   0.0013   0.0086   0.0003  -0.0010  -0.0018   4.00  150.1
2024/07/31 14:16:05.000   28.320616182  -16.502399589  2121.0407   1   9   0.0010   0.0013   0.0086   0.0003  -0.0011  -0.0018   5.00  145.5
2024/07/31 14:16:06.000   28.320616182  -16.502399589  2121.0407   1   9   0.0010   0.0013   0.0086   0.0003  -0.0011  -0.0018   6.00  140.4
2024/07/31 14:16:07.000   28.320616182  -16.502399589  2121.0407   1   9   0.0010   0.0013   0.0086   0.0003  -0.0011  -0.0018   7.00  136.1
2024/07/31 14:16:08.000   28.320616182  -16.502399589  2121.0408   1   9   0.0010   0.0013   0.0086   0.0003  -0.0011  -0.0018   8.00  130.5
2024/07/31 14:16:09.000   28.320616182  -16.502399588  2121.0408   1   9   0.0010   0.0013   0.0086   0.0003  -0.0011  -0.0018   9.00  126.1
2024/07/31 14:16:10.000   28.320616182  -16.502399588  2121.0408   1   9   0.0010   0.0013   0.0086   0.0003  -0.0011  -0.0018  10.00  122.4
2024/07/31 14:16:11.000   28.320616182  -16.502399588  2121.0408   1   9   0.0010   0.0013   0.0086   0.0003  -0.0011  -0.0018  11.00  119.1
2024/07/31 14:16:12.000   28.320616182  -16.502399588  2121.0408   1   9   0.0010   0.0013   0.0086   0.0003  -0.0011  -0.0018  12.00  116.3
2024/07/31 14:16:13.000   28.320616182  -16.502399588  2121.0408   1   9   0.0010   0.0013   0.0086   0.0003  -0.0011  -0.0018  13.00  113.7
2024/07/31 14:16:14.000   28.320616182  -16.502399588  2121.0408   1   9   0.0010   0.0013   0.0086   0.0003  -0.0011  -0.0018  14.00  111.3
2024/07/31 14:16:15.000   28.320616182  -16.502399588  2121.0408   1   9   0.0010   0.0013   0.0086   0.0003  -0.0011  -0.0018  15.00  109.2
2024/07/31 14:16:16.000   28.320616182  -16.502399588  2121.0409   1   9   0.0010   0.0013   0.0086   0.0003  -0.0011  -0.0018 -14.00  107.2
2024/07/31 14:16:17.000   28.320616182  -16.502399588  2121.0409   1   9   0.0010   0.0013   0.0086   0.0003  -0.0011  -0.0018 -13.00  105.0
2024/07/31 14:16:18.000   28.320616182  -16.502399588  2121.0409   1   9   0.0010   0.0013   0.0086   0.0003  -0.0011  -0.0018 -12.00  102.6
2024/07/31 14:16:19.000   28.320616182  -16.502399588  2121.0409   1   9   0.0010   0.0013   0.0086   0.0003  -0.0011  -0.0018 -11.00   99.8
2024/07/31 14:16:20.000   28.320616182  -16.502399588  2121.0409   1   9   0.0010   0.0013   0.0086   0.0003  -0.0011  -0.0018 -10.00   96.6
2024/07/31 14:16:21.000   28.320616182  -16.502399588  2121.0409   1   9   0.0010   0.0013   0.0086   0.0003  -0.0011  -0.0018  -9.00   92.8
2024/07/31 14:16:22.000   28.320616182  -16.502399588  2121.0409   1   9   0.0010   0.0013   0.0086   0.0003  -0.0011  -0.0018  -8.00   88.5
2024/07/31 14:16:23.000   28.320616182  -16.502399588  2121.0409   1   9   0.0010   0.0013   0.0086   0.0003  -0.0011  -0.0018  -7.00   83.5
2024/07/31 14:16:24.000   28.320616182  -16.502399588  2121.0409   1   9   0.0010   0.0013   0.0086   0.0003  -0.0011  -0.0018  -6.00   77.7
2024/07/31 14:16:25.000   28.320616182  -16.502399588  2121.0409   1   9   0.0010   0.0013   0.0086   0.0003  -0.0011  -0.0018  -5.00   70.4
2024/07/31 14:16:26.000   28.320616182  -16.502399587  2121.0409   1   9   0.0010   0.0013   0.0086   0.0003  -0.0011  -0.0018  -4.00   61.7
2024/07/31 14:16:27.000   28.320616182  -16.502399587  2121.0408   1   9   0.0010   0.0013   0.0086   0.0003  -0.0011  -0.0018  -3.00   50.1
2024/07/31 14:16:28.000   28.320616182  -16.502399587  2121.0407   1   9   0.0010   0.0013   0.0086   0.0003  -0.0011  -0.0018  -2.00   37.3
2024/07/31 14:16:29.000   28.320616182  -16.502399587  2121.0406   1   9   0.0010   0.0013   0.0086   0.0003  -0.0011  -0.0018  -1.00   21.0
2024/07/31 14:16:30.000   28.320616183  -16.502399586  2121.0406   1   9   0.0010   0.0013   0.0086   0.0003  -0.0011  -0.0018   0.00  172.1
2024/07/31 14:16:31.000   28.320616182  -16.502399586  2121.0406   1   9   0.0010   0.0013   0.0086   0.0003  -0.0011  -0.0018   1.00  168.8
2024/07/31 14:16:32.000   28.320616182  -16.502399586  2121.0406   1   9   0.0010   0.0013   0.0086   0.0003  -0.0011  -0.0018   2.00  164.9
2024/07/31 14:16:33.000   28.320616182  -16.502399586  2121.0406   1   9   0.0010   0.0013   0.0087   0.0003  -0.0011  -0.0018   3.00  160.5
2024/07/31 14:16:34.000   28.320616182  -16.502399585  2121.0406   1   9   0.0010   0.0013   0.0087   0.0003  -0.0011  -0.0018   4.00  155.6
2024/07/31 14:16:35.000   28.320616182  -16.502399585  2121.0406   1   9   0.0010   0.0013   0.0087   0.0003  -0.0011  -0.0018   5.00  150.3
2024/07/31 14:16:36.000   28.320616182  -16.502399585  2121.0407   1   9   0.0010   0.0013   0.0087   0.0003  -0.0011  -0.0018   6.00  144.3
2024/07/31 14:16:37.000   28.320616182  -16.502399585  2121.0407   1   9   0.0010   0.0013   0.0087   0.0003  -0.0011  -0.0018   7.00  138.1
2024/07/31 14:16:38.000   28.320616182  -16.502399585  2121.0407   1   9   0.0010   0.0013   0.0087   0.0003  -0.0011  -0.0018   8.00  131.9
2024/07/31 14:16:39.000   28.320616182  -16.502399585  2121.0407   1   9   0.0010   0.0013   0.0087   0.0003  -0.0011  -0.0018   9.00  126.6
2024/07/31 14:16:40.000   28.320616182  -16.502399585  2121.0407   1   9   0.0010   0.0013   0.0087   0.0003  -0.0011  -0.0018  10.00  122.4
2024/07/31 14:16:41.000   28.320616182  -16.502399585  2121.0407   1   9   0.0010   0.0013   0.0087   0.0003  -0.0011  -0.0018  11.00  118.7
2024/07/31 14:16:42.000   28.320616182  -16.502399585  2121.0407   1   9   0.0010   0.0013   0.0087   0.0003  -0.0011  -0.0018  12.00  115.7
2024/07/31 14:16:43.000   28.320616182  -16.502399585  2121.0407   1   9   0.0010   0.0013   0.0087   0.0003  -0.0011  -0.0018  13.00  113.0
2024/07/31 14:16:44.000   28.320616182  -16.502399585  2121.0407   1   9   0.0010   0.0013   0.0087   0.0003  -0.0011  -0.0018  14.00  110.4
2024/07/31 14:16:45.000   28.320616182  -16.502399585  2121.0407   1   9   0.0010   0.0013   0.0087   0.0003  -0.0011  -0.0018  15.00  108.2
2024/07/31 14:16:46.000   28.320616182  -16.502399585  2121.0407   1   9   0.0010   0.0013   0.0087   0.0003  -0.0011  -0.0018 -14.00  106.2
2024/07/31 14:16:47.000   28.320616182  -16.502399585  2121.0408   1   9   0.0010   0.0013   0.0087   0.0003  -0.0011  -0.0018 -13.00  103.9
2024/07/31 14:16:48.000   28.320616182  -16.502399585  2121.0408   1   9   0.0010   0.0013   0.0087   0.0003  -0.0011  -0.0018 -12.00  101.5
2024/07/31 14:16:49.000   28.320616182  -16.502399585  2121.0408   1   9   0.0010   0.0013   0.0087   0.0003  -0.0011  -0.0018 -11.00   98.7
2024/07/31 14:16:50.000   28.320616182  -16.502399585  2121.0409   1   9   0.0010   0.0013   0.0087   0.0003  -0.0011  -0.0018 -10.00   95.8
2024/07/31 14:16:51.000   28.320616182  -16.502399585  2121.0409   1   9   0.0010   0.0013   0.0087   0.0003  -0.0011  -0.0018  -9.00   92.6
2024/07/31 14:16:52.000   28.320616182  -16.502399585  2121.0410   1   9   0.0010   0.0013   0.0086   0.0003  -0.0011  -0.0018  -8.00   88.8
2024/07/31 14:16:53.000   28.320616182  -16.502399585  2121.0410   1   9   0.0010   0.0013   0.0086   0.0003  -0.0011  -0.0018  -7.00   84.1
2024/07/31 14:16:54.000   28.320616182  -16.502399585  2121.0411   1   9   0.0010   0.0013   0.0087   0.0003  -0.0012  -0.0018  -6.00   78.4
2024/07/31 14:16:55.000   28.320616182  -16.502399585  2121.0412   1   9   0.0010   0.0013   0.0087   0.0003  -0.0012  -0.0018  -5.00   71.8
2024/07/31 14:16:56.000   28.320616182  -16.502399585  2121.0412   1   9   0.0010   0.0013   0.0087   0.0003  -0.0012  -0.0018  -4.00   62.9
2024/07/31 14:16:57.000   28.320616182  -16.502399585  2121.0412   1   9   0.0010   0.0013   0.0087   0.0003  -0.0012  -0.0018  -3.00   51.6
2024/07/31 14:16:58.000   28.320616182  -16.502399585  2121.0412   1   9   0.0010   0.0013   0.0087   0.0003  -0.0012  -0.0018  -2.00   38.3
2024/07/31 14:16:59.000   28.320616182  -16.502399584  2121.0411   1   9   0.0010   0.0013   0.0087   0.0003  -0.0012  -0.0018  -1.00   21.4
2024/07/31 14:17:00.000   28.320616185  -16.502399595  2121.0396   1   9   0.0010   0.0012   0.0080   0.0003  -0.0010  -0.0017   0.00    3.0
2024/07/31 14:17:01.000   28.320616182  -16.502399584  2121.0410   1   9   0.0010   0.0013   0.0087   0.0003  -0.0012  -0.0018   1.00  179.9
2024/07/31 14:17:02.000   28.320616182  -16.502399583  2121.0410   1   9   0.0010   0.0013   0.0087   0.0003  -0.0012  -0.0018   2.00  177.6
2024/07/31 14:17:03.000   28.320616182  -16.502399583  2121.0410   1   9   0.0010   0.0013   0.0087   0.0003  -0.0012  -0.0018   3.00  174.1
2024/07/31 14:17:04.000   28.320616182  -16.502399583  2121.0410   1   9   0.0010   0.0013   0.0087   0.0003  -0.0012  -0.0018   4.00  170.4
2024/07/31 14:17:05.000   28.320616182  -16.502399583  2121.0410   1   9   0.0010   0.0013   0.0087   0.0003  -0.0012  -0.0018   5.00  162.9
2024/07/31 14:17:06.000   28.320616182  -16.502399583  2121.0410   1   9   0.0010   0.0013   0.0087   0.0003  -0.0012  -0.0018   6.00  156.9
2024/07/31 14:17:07.000   28.320616182  -16.502399583  2121.0409   1   9   0.0010   0.0013   0.0087   0.0003  -0.0012  -0.0018   7.00  151.7
2024/07/31 14:17:08.000   28.320616182  -16.502399583  2121.0409   1   9   0.0010   0.0013   0.0087   0.0003  -0.0012  -0.0018   8.00  147.3
2024/07/31 14:17:09.000   28.320616182  -16.502399583  2121.0409   1   9   0.0010   0.0013   0.0087   0.0003  -0.0012  -0.0018   9.00  143.1
2024/07/31 14:17:10.000   28.320616182  -16.502399583  2121.0409   1   9   0.0010   0.0013   0.0087   0.0003  -0.0012  -0.0018  10.00  138.7
2024/07/31 14:17:11.000   28.320616182  -16.502399582  2121.0409   1   9   0.0010   0.0013   0.0087   0.0003  -0.0012  -0.0018  11.00  134.7
2024/07/31 14:17:12.000   28.320616182  -16.502399582  2121.0409   1   9   0.0010   0.0013   0.0087   0.0003  -0.0012  -0.0018  12.00  131.1
2024/07/31 14:17:13.000   28.320616182  -16.502399582  2121.0409   1   9   0.0010   0.0013   0.0087   0.0003  -0.0012  -0.0018  13.00  127.8
2024/07/31 14:17:14.000   28.320616182  -16.502399582  2121.0409   1   9   0.0010   0.0013   0.0087   0.0003  -0.0012  -0.0018  14.00  124.9
2024/07/31 14:17:15.000   28.320616182  -16.502399582  2121.0409   1   9   0.0010   0.0013   0.0087   0.0003  -0.0012  -0.0018  15.00  122.3
2024/07/31 14:17:16.000   28.320616182  -16.502399582  2121.0409   1   9   0.0010   0.0013   0.0087   0.0003  -0.0012  -0.0018 -14.00  120.0
2024/07/31 14:17:17.000   28.320616181  -16.502399582  2121.0409   1   9   0.0010   0.0013   0.0087   0.0003  -0.0012  -0.0018 -13.00  117.5
2024/07/31 14:17:18.000   28.320616181  -16.502399582  2121.0409   1   9   0.0010   0.0013   0.0087   0.0003  -0.0012  -0.0018 -12.00  114.8
2024/07/31 14:17:19.000   28.320616181  -16.502399582  2121.0409   1   9   0.0010   0.0013   0.0087   0.0003  -0.0012  -0.0018 -11.00  111.6
2024/07/31 14:17:20.000   28.320616181  -16.502399582  2121.0409   1   9   0.0010   0.0013   0.0087   0.0003  -0.0012  -0.0018 -10.00  108.0
2024/07/31 14:17:21.000   28.320616181  -16.502399582  2121.0409   1   9   0.0010   0.0013   0.0087   0.0003  -0.0012  -0.0018  -9.00  103.8
2024/07/31 14:17:22.000   28.320616181  -16.502399582  2121.0409   1   9   0.0010   0.0013   0.0087   0.0003  -0.0012  -0.0018  -8.00   98.9
2024/07/31 14:17:23.000   28.320616181  -16.502399582  2121.0408   1   9   0.0010   0.0013   0.0087   0.0003  -0.0012  -0.0018  -7.00   93.2
2024/07/31 14:17:24.000   28.320616181  -16.502399582  2121.0408   1   9   0.0010   0.0013   0.0087   0.0003  -0.0012  -0.0018  -6.00   86.4
2024/07/31 14:17:25.000   28.320616181  -16.502399582  2121.0408   1   9   0.0010   0.0013   0.0087   0.0003  -0.0012  -0.0018  -5.00   78.2
2024/07/31 14:17:26.000   28.320616181  -16.502399581  2121.0407   1   9   0.0010   0.0013   0.0087   0.0003  -0.0012  -0.0018  -4.00   68.3
2024/07/31 14:17:27.000   28.320616181  -16.502399581  2121.0406   1   9   0.0010   0.0013   0.0087   0.0003  -0.0012  -0.0018  -3.00   55.8
2024/07/31 14:17:28.000   28.320616181  -16.502399581  2121.0405   1   9   0.0010   0.0013   0.0087   0.0003  -0.0012  -0.0018  -2.00   40.6
2024/07/31 14:17:29.000   28.320616181  -16.502399580  2121.0404   1   9   0.0010   0.0013   0.0087   0.0003  -0.0012  -0.0018  -1.00   22.1
2024/07/31 14:17:30.000   28.320616181  -16.502399579  2121.0403   1   9   0.0010   0.0013   0.0087   0.0003  -0.0013  -0.0018   0.00  174.3
2024/07/31 14:17:31.000   28.320616181  -16.502399579  2121.0402   1   9   0.0010   0.0013   0.0088   0.0003  -0.0013  -0.0018   1.00  170.3
2024/07/31 14:17:32.000   28.320616181  -16.502399579  2121.0401   1   9   0.0010   0.0013   0.0088   0.0003  -0.0013  -0.0018   2.00  164.9
2024/07/31 14:17:33.000   28.320616181  -16.502399579  2121.0400   1   9   0.0010   0.0013   0.0088   0.0003  -0.0013  -0.0018   3.00  160.1
2024/07/31 14:17:34.000   28.320616181  -16.502399579  2121.0399   1   9   0.0010   0.0013   0.0088   0.0003  -0.0013  -0.0018   4.00  155.9
2024/07/31 14:17:35.000   28.320616181  -16.502399579  2121.0398   1   9   0.0010   0.0013   0.0088   0.0003  -0.0013  -0.0018   5.00  152.3
2024/07/31 14:17:36.000   28.320616181  -16.502399579  2121.0398   1   9   0.0010   0.0013   0.0088   0.0003  -0.0013  -0.0018   6.00  145.5
2024/07/31 14:17:37.000   28.320616181  -16.502399578  2121.0398   1   9   0.0010   0.0013   0.0088   0.0003  -0.0013  -0.0018   7.00  138.4
2024/07/31 14:17:38.000   28.320616181  -16.502399578  2121.0397   1   9   0.0010   0.0013   0.0088   0.0003  -0.0013  -0.0018   8.00  132.6
2024/07/31 14:17:39.000   28.320616181  -16.502399578  2121.0397   1   9   0.0010   0.0013   0.0088   0.0003  -0.0013  -0.0018   9.00  127.9
2024/07/31 14:17:40.000   28.320616181  -16.502399578  2121.0396   1   9   0.0010   0.0013   0.0088   0.0003  -0.0013  -0.0018  10.00  123.7
2024/07/31 14:17:41.000   28.320616181  -16.502399578  2121.0396   1   9   0.0010   0.0013   0.0088   0.0003  -0.0013  -0.0018  11.00  119.8
2024/07/31 14:17:42.000   28.320616181  -16.502399578  2121.0396   1   9   0.0010   0.0013   0.0088   0.0003  -0.0013  -0.0018  12.00  116.3
2024/07/31 14:17:43.000   28.320616181  -16.502399578  2121.0396   1   9   0.0010   0.0013   0.0088   0.0003  -0.0013  -0.0018  13.00  113.5
2024/07/31 14:17:44.000   28.320616181  -16.502399578  2121.0396   1   9   0.0010   0.0013   0.0088   0.0003  -0.0013  -0.0018  14.00  110.9
2024/07/31 14:17:45.000   28.320616181  -16.502399578  2121.0396   1   9   0.0010   0.0013   0.0088   0.0003  -0.0013  -0.0018  15.00  108.9
2024/07/31 14:17:46.000   28.320616181  -16.502399578  2121.0396   1   9   0.0010   0.0013   0.0088   0.0003  -0.0013  -0.0018 -14.00  107.0
2024/07/31 14:17:47.000   28.320616181  -16.502399578  2121.0396   1   9   0.0010   0.0013   0.0088   0.0003  -0.0013  -0.0018 -13.00  104.8
2024/07/31 14:17:48.000   28.320616181  -16.502399578  2121.0395   1   9   0.0010   0.0013   0.0088   0.0003  -0.0013  -0.0018 -12.00  102.2
2024/07/31 14:17:49.000   28.320616181  -16.502399578  2121.0395   1   9   0.0010   0.0013   0.0088   0.0003  -0.0013  -0.0018 -11.00   99.6
2024/07/31 14:17:50.000   28.320616181  -16.502399577  2121.0395   1   9   0.0010   0.0013   0.0088   0.0003  -0.0013  -0.0018 -10.00   96.4
2024/07/31 14:17:51.000   28.320616181  -16.502399577  2121.0395   1   9   0.0010   0.0013   0.0088   0.0003  -0.0013  -0.0018  -9.00   92.8
2024/07/31 14:17:52.000   28.320616181  -16.502399577  2121.0395   1   9   0.0010   0.0013   0.0088   0.0003  -0.0013  -0.0018  -8.00   88.9
2024/07/31 14:17:53.000   28.320616181  -16.502399577  2121.0395   1   9   0.0010   0.0013   0.0088   0.0003  -0.0013  -0.0018  -7.00   83.9
2024/07/31 14:17:54.000   28.320616181  -16.502399577  2121.0394   1   9   0.0010   0.0013   0.0088   0.0003  -0.0013  -0.0018  -6.00   78.4
2024/07/31 14:17:55.000   28.320616181  -16.502399577  2121.0394   1   9   0.0010   0.0013   0.0088   0.0003  -0.0013  -0.0018  -5.00   71.2
2024/07/31 14:17:56.000   28.320616181  -16.502399577  2121.0393   1   9   0.0010   0.0013   0.0088   0.0003  -0.0013  -0.0018  -4.00   62.7
2024/07/31 14:17:57.000   28.320616181  -16.502399577  2121.0393   1   9   0.0010   0.0013   0.0088   0.0003  -0.0013  -0.0018  -3.00   51.9
2024/07/31 14:17:58.000   28.320616181  -16.502399577  2121.0391   1   9   0.0010   0.0013   0.0088   0.0003  -0.0013  -0.0018  -2.00   38.1
2024/07/31 14:17:59.000   28.320616181  -16.502399577  2121.0390   1   9   0.0010   0.0013   0.0088   0.0004  -0.0013  -0.0018  -1.00   21.4
2024/07/31 14:18:00.000   28.320616181  -16.502399575  2121.0390   1   9   0.0010   0.0013   0.0088   0.0003  -0.0013  -0.0018   0.00  163.0
2024/07/31 14:18:01.000   28.320616181  -16.502399575  2121.0388   1   9   0.0010   0.0013   0.0088   0.0003  -0.0013  -0.0018   1.00  158.3
2024/07/31 14:18:02.000   28.320616181  -16.502399575  2121.0385   1   9   0.0010   0.0013   0.0088   0.0003  -0.0013  -0.0018   2.00  155.2
2024/07/31 14:18:03.000   28.320616181  -16.502399575  2121.0383   1   9   0.0010   0.0014   0.0088   0.0003  -0.0014  -0.0018   3.00  151.4
2024/07/31 14:18:04.000   28.320616181  -16.502399575  2121.0381   1   9   0.0010   0.0014   0.0088   0.0003  -0.0014  -0.0018   4.00  148.7
2024/07/31 14:18:05.000   28.320616181  -16.502399575  2121.0380   1   9   0.0010   0.0014   0.0088   0.0003  -0.0014  -0.0018   5.00  144.8
2024/07/31 14:18:06.000   28.320616181  -16.502399575  2121.0379   1   9   0.0010   0.0014   0.0088   0.0003  -0.0014  -0.0018   6.00  137.6
2024/07/31 14:18:07.000   28.320616181  -16.502399575  2121.0378   1   9   0.0010   0.0014   0.0089   0.0003  -0.0014  -0.0018   7.00  130.5
2024/07/31 14:18:08.000   28.320616181  -16.502399575  2121.0377   1   9   0.0010   0.0014   0.0089   0.0003  -0.0014  -0.0018   8.00  124.0
2024/07/31 14:18:09.000   28.320616181  -16.502399575  2121.0377   1   9   0.0010   0.0014   0.0089   0.0003  -0.0014  -0.0018   9.00  119.5
2024/07/31 14:18:10.000   28.320616181  -16.502399574  2121.0376   1   9   0.0010   0.0014   0.0089   0.0003  -0.0014  -0.0018  10.00  114.9
2024/07/31 14:18:11.000   28.320616181  -16.502399574  2121.0376   1   9   0.0010   0.0014   0.0089   0.0003  -0.0014  -0.0018  11.00  111.3
2024/07/31 14:18:12.000   28.320616181  -16.502399574  2121.0376   1   9   0.0010   0.0014   0.0088   0.0003  -0.0014  -0.0018  12.00  108.2
2024/07/31 14:18:13.000   28.320616180  -16.502399574  2121.0375   1   9   0.0010   0.0014   0.0088   0.0003  -0.0014  -0.0018  13.00  105.7
2024/07/31 14:18:14.000   28.320616180  -16.502399574  2121.0375   1   9   0.0010   0.0014   0.0088   0.0003  -0.0014  -0.0018  14.00  103.3
2024/07/31 14:18:15.000   28.320616180  -16.502399574  2121.0375   1   9   0.0010   0.0014   0.0088   0.0003  -0.0014  -0.0018  15.00  101.4
2024/07/31 14:18:16.000   28.320616180  -16.502399574  2121.0374   1   9   0.0010   0.0014   0.0088   0.0003  -0.0014  -0.0018 -14.00   99.6
2024/07/31 14:18:17.000   28.320616180  -16.502399574  2121.0374   1   9   0.0010   0.0014   0.0088   0.0003  -0.0014  -0.0018 -13.00   97.7
2024/07/31 14:18:18.000   28.320616180  -16.502399574  2121.0373   1   9   0.0010   0.0014   0.0088   0.0003  -0.0014  -0.0018 -12.00   95.5
2024/07/31 14:18:19.000   28.320616180  -16.502399574  2121.0373   1   9   0.0010   0.0014   0.0088   0.0003  -0.0014  -0.0018 -11.00   93.0
2024/07/31 14:18:20.000   28.320616180  -16.502399574  2121.0372   1   9   0.0010   0.0014   0.0088   0.0003  -0.0014  -0.0018 -10.00   90.0
2024/07/31 14:18:21.000   28.320616180  -16.502399574  2121.0372   1   9   0.0010   0.0014   0.0088   0.0003  -0.0014  -0.0018  -9.00   86.9
2024/07/31 14:18:22.000   28.320616180  -16.502399574  2121.0371   1   9   0.0010   0.0014   0.0088   0.0003  -0.0014  -0.0018  -8.00   83.2
2024/07/31 14:18:23.000   28.320616180  -16.502399574  2121.0370   1   9   0.0010   0.0014   0.0088   0.0003  -0.0014  -0.0018  -7.00   78.6
2024/07/31 14:18:24.000   28.320616180  -16.502399574  2121.0369   1   9   0.0010   0.0014   0.0088   0.0003  -0.0014  -0.0018  -6.00   73.4
2024/07/31 14:18:25.000   28.320616180  -16.502399574  2121.0368   1   9   0.0010   0.0014   0.0088   0.0003  -0.0014  -0.0018  -5.00   66.7
2024/07/31 14:18:26.000   28.320616179  -16.502399574  2121.0367   1   9   0.0010   0.0014   0.0088   0.0003  -0.0014  -0.0018  -4.00   58.3
2024/07/31 14:18:27.000   28.320616179  -16.502399573  2121.0365   1   9   0.0010   0.0014   0.0088   0.0003  -0.0014  -0.0018  -3.00   48.2
2024/07/31 14:18:28.000   28.320616179  -16.502399573  2121.0364   1   9   0.0010   0.0014   0.0088   0.0003  -0.0014  -0.0018  -2.00   35.9
2024/07/31 14:18:29.000   28.320616179  -16.502399573  2121.0362   1   9   0.0010   0.0014   0.0089   0.0004  -0.0014  -0.0018  -1.00   20.5
2024/07/31 14:18:30.000   28.320616180  -16.502399573  2121.0366   1   9   0.0010   0.0013   0.0088   0.0003  -0.0014  -0.0018   0.00  152.9
2024/07/31 14:18:31.000   28.320616179  -16.502399573  2121.0364   1   9   0.0010   0.0014   0.0088   0.0003  -0.0014  -0.0018   1.00  149.4
2024/07/31 14:18:32.000   28.320616179  -16.502399573  2121.0361   1   9   0.0010   0.0014   0.0088   0.0003  -0.0014  -0.0018   2.00  143.9
2024/07/31 14:18:33.000   28.320616179  -16.502399572  2121.0358   1   9   0.0010   0.0014   0.0089   0.0004  -0.0014  -0.0018   3.00  139.6
2024/07/31 14:18:34.000   28.320616179  -16.502399572  2121.0356   1   9   0.0010   0.0014   0.0089   0.0004  -0.0014  -0.0018   4.00  136.2
2024/07/31 14:18:35.000   28.320616179  -16.502399572  2121.0355   1   9   0.0010   0.0014   0.0089   0.0004  -0.0014  -0.0018   5.00  131.4
2024/07/31 14:18:36.000   28.320616178  -16.502399572  2121.0353   1   9   0.0010   0.0014   0.0089   0.0004  -0.0014  -0.0018   6.00  124.6
2024/07/31 14:18:37.000   28.320616178  -16.502399572  2121.0351   1   9   0.0010   0.0014   0.0089   0.0004  -0.0014  -0.0018   7.00  119.5
2024/07/31 14:18:38.000   28.320616178  -16.502399572  2121.0350   1   9   0.0010   0.0014   0.0089   0.0004  -0.0014  -0.0018   8.00  114.0
2024/07/31 14:18:39.000   28.320616178  -16.502399572  2121.0349   1   9   0.0010   0.0014   0.0089   0.0004  -0.0014  -0.0018   9.00  109.7
2024/07/31 14:18:40.000   28.320616178  -16.502399572  2121.0348   1   9   0.0010   0.0014   0.0089   0.0004  -0.0014  -0.0018  10.00  105.5
2024/07/31 14:18:41.000   28.320616178  -16.502399572  2121.0347   1   9   0.0010   0.0014   0.0089   0.0004  -0.0014  -0.0018  11.00  101.9
2024/07/31 14:18:42.000   28.320616178  -16.502399580  2121.0384   1   9   0.0009   0.0013   0.0084   0.0003  -0.0015  -0.0015  12.00    3.3
2024/07/31 14:18:43.000   28.320616178  -16.502399580  2121.0383   1   9   0.0009   0.0013   0.0084   0.0003  -0.0015  -0.0015  13.00    3.3
2024/07/31 14:18:44.000   28.320616178  -16.502399579  2121.0382   1   9   0.0009   0.0013   0.0083   0.0003  -0.0015  -0.0015  14.00    3.3
2024/07/31 14:18:45.000   28.320616178  -16.502399579  2121.0382   1   9   0.0009   0.0013   0.0083   0.0003  -0.0015  -0.0015 -15.00    3.3
2024/07/31 14:18:46.000   28.320616178  -16.502399579  2121.0381   1   9   0.0009   0.0013   0.0083   0.0003  -0.0015  -0.0015 -14.00    3.3
2024/07/31 14:18:47.000   28.320616178  -16.502399579  2121.0380   1   9   0.0009   0.0013   0.0083   0.0003  -0.0015  -0.0015 -13.00    3.3
2024/07/31 14:18:48.000   28.320616178  -16.502399579  2121.0380   1   9   0.0009   0.0013   0.0083   0.0003  -0.0015  -0.0015 -12.00    3.4
2024/07/31 14:18:49.000   28.320616178  -16.502399579  2121.0379   1   9   0.0009   0.0013   0.0083   0.0003  -0.0015  -0.0015 -11.00    3.4
2024/07/31 14:18:50.000   28.320616178  -16.502399579  2121.0378   1   9   0.0009   0.0013   0.0083   0.0003  -0.0015  -0.0015 -10.00    3.4
2024/07/31 14:18:51.000   28.320616178  -16.502399579  2121.0377   1   9   0.0009   0.0013   0.0083   0.0003  -0.0015  -0.0015  -9.00    3.4
2024/07/31 14:18:52.000   28.320616178  -16.502399579  2121.0375   1   9   0.0009   0.0013   0.0083   0.0003  -0.0015  -0.0015  -8.00    3.5
2024/07/31 14:18:53.000   28.320616178  -16.502399579  2121.0374   1   9   0.0009   0.0013   0.0083   0.0003  -0.0015  -0.0015  -7.00    3.5
2024/07/31 14:18:54.000   28.320616178  -16.502399578  2121.0373   1   9   0.0009   0.0013   0.0083   0.0003  -0.0015  -0.0015  -6.00    3.5
2024/07/31 14:18:55.000   28.320616177  -16.502399578  2121.0372   1   9   0.0009   0.0013   0.0083   0.0003  -0.0015  -0.0015  -5.00    3.6
2024/07/31 14:18:56.000   28.320616178  -16.502399580  2121.0393   1   9   0.0009   0.0012   0.0077   0.0003  -0.0011  -0.0015  -4.00    3.1
2024/07/31 14:18:57.000   28.320616178  -16.502399580  2121.0393   1   9   0.0009   0.0012   0.0077   0.0003  -0.0011  -0.0015  -3.00    3.1
2024/07/31 14:18:58.000   28.320616177  -16.502399580  2121.0394   1   9   0.0009   0.0012   0.0077   0.0003  -0.0011  -0.0015  -2.00    3.1
2024/07/31 14:18:59.000   28.320616177  -16.502399580  2121.0395   1   9   0.0009   0.0012   0.0077   0.0003  -0.0011  -0.0015  -1.00    3.1
2024/07/31 14:19:00.000   28.320616183  -16.502399602  2121.0482   1   9   0.0009   0.0011   0.0075   0.0004  -0.0006  -0.0016   0.00    3.2
2024/07/31 14:19:01.000   28.320616182  -16.502399603  2121.0482   1   9   0.0009   0.0011   0.0075   0.0004  -0.0005  -0.0016   1.00    3.2
2024/07/31 14:19:02.000   28.320616182  -16.502399603  2121.0482   1   9   0.0009   0.0011   0.0075   0.0004  -0.0006  -0.0016   2.00    4.1
2024/07/31 14:19:03.000   28.320616182  -16.502399603  2121.0482   1   9   0.0009   0.0011   0.0075   0.0004  -0.0006  -0.0016   3.00    4.6
2024/07/31 14:19:04.000   28.320616182  -16.502399602  2121.0483   1   9   0.0009   0.0011   0.0075   0.0004  -0.0006  -0.0016   4.00    5.1
2024/07/31 14:19:05.000   28.320616182  -16.502399602  2121.0483   1   9   0.0009   0.0011   0.0075   0.0004  -0.0006  -0.0016   5.00    5.5
2024/07/31 14:19:06.000   28.320616182  -16.502399602  2121.0484   1   9   0.0009   0.0011   0.0075   0.0004  -0.0006  -0.0016   6.00    6.0
2024/07/31 14:19:07.000   28.320616182  -16.502399602  2121.0484   1   9   0.0009   0.0011   0.0075   0.0004  -0.0006  -0.0016   7.00    6.4
2024/07/31 14:19:08.000   28.320616182  -16.502399602  2121.0484   1   9   0.0009   0.0011   0.0075   0.0004  -0.0006  -0.0016   8.00    6.9
2024/07/31 14:19:09.000   28.320616182  -16.502399602  2121.0484   1   9   0.0009   0.0011   0.0075   0.0004  -0.0006  -0.0016   9.00    7.3
2024/07/31 14:19:10.000   28.320616182  -16.502399602  2121.0485   1   9   0.0009   0.0011   0.0074   0.0004  -0.0006  -0.0016  10.00    7.8
2024/07/31 14:19:11.000   28.320616182  -16.502399602  2121.0484   1   9   0.0009   0.0011   0.0074   0.0004  -0.0006  -0.0016  11.00    8.3
2024/07/31 14:19:12.000   28.320616182  -16.502399602  2121.0485   1   9   0.0009   0.0011   0.0074   0.0004  -0.0006  -0.0016  12.00    8.7
2024/07/31 14:19:13.000   28.320616182  -16.502399602  2121.0485   1   9   0.0009   0.0011   0.0074   0.0004  -0.0005  -0.0016  13.00    9.2
2024/07/31 14:19:14.000   28.320616182  -16.502399602  2121.0485   1   9   0.0009   0.0011   0.0074   0.0004  -0.0005  -0.0016  14.00    9.7
2024/07/31 14:19:15.000   28.320616182  -16.502399602  2121.0485   1   9   0.0009   0.0011   0.0074   0.0004  -0.0005  -0.0016 -15.00   10.2
2024/07/31 14:19:16.000   28.320616182  -16.502399602  2121.0485   1   9   0.0009   0.0011   0.0074   0.0004  -0.0005  -0.0016 -14.00   10.6
2024/07/31 14:19:17.000   28.320616182  -16.502399602  2121.0485   1   9   0.0009   0.0011   0.0074   0.0004  -0.0005  -0.0016 -13.00   11.1
2024/07/31 14:19:18.000   28.320616182  -16.502399602  2121.0485   1   9   0.0009   0.0011   0.0074   0.0004  -0.0005  -0.0016 -12.00   11.5
2024/07/31 14:19:19.000   28.320616182  -16.502399602  2121.0485   1   9   0.0009   0.0011   0.0074   0.0004  -0.0005  -0.0016 -11.00   12.0
2024/07/31 14:19:20.000   28.320616182  -16.502399602  2121.0486   1   9   0.0009   0.0011   0.0074   0.0004  -0.0005  -0.0016 -10.00   12.4
2024/07/31 14:19:21.000   28.320616181  -16.502399602  2121.0486   1   9   0.0009   0.0011   0.0074   0.0004  -0.0005  -0.0016  -9.00   12.9
2024/07/31 14:19:22.000   28.320616181  -16.502399602  2121.0486   1   9   0.0009   0.0011   0.0074   0.0004  -0.0005  -0.0016  -8.00   13.4
2024/07/31 14:19:23.000   28.320616181  -16.502399602  2121.0487   1   9   0.0009   0.0011   0.0074   0.0004  -0.0005  -0.0016  -7.00   13.9
2024/07/31 14:19:24.000   28.320616181  -16.502399602  2121.0487   1   9   0.0009   0.0011   0.0074   0.0004  -0.0005  -0.0016  -6.00   14.3
2024/07/31 14:19:25.000   28.320616181  -16.502399602  2121.0488   1   9   0.0009   0.0011   0.0074   0.0004  -0.0005  -0.0016  -5.00   14.8
2024/07/31 14:19:26.000   28.320616181  -16.502399602  2121.0488   1   9   0.0009   0.0011   0.0074   0.0004  -0.0005  -0.0016  -4.00   15.3
2024/07/31 14:19:27.000   28.320616181  -16.502399602  2121.0489   1   9   0.0009   0.0011   0.0074   0.0004  -0.0005  -0.0016  -3.00   15.8
2024/07/31 14:19:28.000   28.320616181  -16.502399602  2121.0490   1   9   0.0009   0.0011   0.0074   0.0004  -0.0005  -0.0016  -2.00   16.3
2024/07/31 14:19:29.000   28.320616181  -16.502399603  2121.0491   1   9   0.0009   0.0011   0.0074   0.0004  -0.0005  -0.0016  -1.00   16.8
2024/07/31 14:19:30.000   28.320616181  -16.502399602  2121.0492   1   9   0.0009   0.0011   0.0074   0.0004  -0.0006  -0.0016   0.00   17.4
2024/07/31 14:19:31.000   28.320616180  -16.502399603  2121.0490   1   9   0.0009   0.0011   0.0074   0.0004  -0.0005  -0.0016   1.00   10.1
2024/07/31 14:19:32.000   28.320616180  -16.502399603  2121.0491   1   9   0.0009   0.0011   0.0074   0.0004  -0.0005  -0.0016   2.00   17.4
2024/07/31 14:19:33.000   28.320616180  -16.502399603  2121.0491   1   9   0.0009   0.0011   0.0074   0.0004  -0.0005  -0.0016   3.00   19.1
2024/07/31 14:19:34.000   28.320616180  -16.502399603  2121.0491   1   9   0.0009   0.0011   0.0074   0.0004  -0.0005  -0.0016   4.00   19.6
2024/07/31 14:19:35.000   28.320616180  -16.502399603  2121.0491   1   9   0.0009   0.0011   0.0074   0.0004  -0.0005  -0.0016   5.00   20.1
2024/07/31 14:19:36.000   28.320616180  -16.502399604  2121.0491   1   9   0.0009   0.0011   0.0074   0.0004  -0.0005  -0.0016   6.00   20.6
2024/07/31 14:19:37.000   28.320616180  -16.502399604  2121.0491   1   9   0.0009   0.0011   0.0074   0.0004  -0.0005  -0.0016   7.00   21.1
2024/07/31 14:19:38.000   28.320616180  -16.502399604  2121.0491   1   9   0.0009   0.0011   0.0074   0.0004  -0.0005  -0.0016   8.00   21.7
2024/07/31 14:19:39.000   28.320616180  -16.502399604  2121.0490   1   9   0.0009   0.0011   0.0074   0.0004  -0.0005  -0.0016   9.00   22.2
2024/07/31 14:19:40.000   28.320616180  -16.502399604  2121.0490   1   9   0.0009   0.0011   0.0074   0.0004  -0.0005  -0.0016  10.00   22.7
2024/07/31 14:19:41.000   28.320616180  -16.502399604  2121.0490   1   9   0.0009   0.0011   0.0074   0.0004  -0.0005  -0.0016  11.00   23.2
2024/07/31 14:19:42.000   28.320616180  -16.502399604  2121.0490   1   9   0.0009   0.0011   0.0074   0.0004  -0.0005  -0.0016  12.00   23.8
2024/07/31 14:19:43.000   28.320616180  -16.502399604  2121.0489   1   9   0.0009   0.0011   0.0074   0.0004  -0.0005  -0.0016  13.00   24.4
2024/07/31 14:19:44.000   28.320616180  -16.502399604  2121.0489   1   9   0.0009   0.0011   0.0073   0.0004  -0.0005  -0.0016  14.00   24.9
2024/07/31 14:19:45.000   28.320616180  -16.502399604  2121.0489   1   9   0.0009   0.0011   0.0073   0.0004  -0.0005  -0.0016 -15.00   25.5
2024/07/31 14:19:46.000   28.320616180  -16.502399604  2121.0489   1   9   0.0009   0.0011   0.0073   0.0004  -0.0005  -0.0016 -14.00   26.0
2024/07/31 14:19:47.000   28.320616180  -16.502399604  2121.0488   1   9   0.0009   0.0011   0.0073   0.0004  -0.0005  -0.0016 -13.00   26.6
2024/07/31 14:19:48.000   28.320616180  -16.502399604  2121.0488   1   9   0.0009   0.0011   0.0073   0.0004  -0.0005  -0.0016 -12.00   27.2
2024/07/31 14:19:49.000   28.320616180  -16.502399604  2121.0488   1   9   0.0009   0.0011   0.0073   0.0004  -0.0005  -0.0016 -11.00   27.8
2024/07/31 14:19:50.000   28.320616180  -16.502399604  2121.0488   1   9   0.0009   0.0011   0.0073   0.0004  -0.0005  -0.0016 -10.00   28.4
2024/07/31 14:19:51.000   28.320616180  -16.502399604  2121.0488   1   9   0.0009   0.0011   0.0073   0.0004  -0.0005  -0.0016  -9.00   29.1
2024/07/31 14:19:52.000   28.320616180  -16.502399604  2121.0488   1   9   0.0009   0.0011   0.0073   0.0004  -0.0005  -0.0016  -8.00   29.8
2024/07/31 14:19:53.000   28.320616180  -16.502399604  2121.0488   1   9   0.0009   0.0011   0.0073   0.0004  -0.0005  -0.0016  -7.00   30.6
2024/07/31 14:19:54.000   28.320616180  -16.502399604  2121.0487   1   9   0.0009   0.0011   0.0073   0.0004  -0.0005  -0.0016  -6.00   31.3
2024/07/31 14:19:55.000   28.320616180  -16.502399604  2121.0487   1   9   0.0009   0.0011   0.0073   0.0004  -0.0005  -0.0016  -5.00   32.2
2024/07/31 14:19:56.000   28.320616180  -16.502399604  2121.0487   1   9   0.0009   0.0011   0.0073   0.0004  -0.0005  -0.0016  -4.00   33.0
2024/07/31 14:19:57.000   28.320616180  -16.502399604  2121.0487   1   9   0.0009   0.0011   0.0073   0.0004  -0.0005  -0.0016  -3.00   33.7
2024/07/31 14:19:58.000   28.320616180  -16.502399604  2121.0487   1   9   0.0009   0.0011   0.0073   0.0004  -0.0005  -0.0016  -2.00   34.6
2024/07/31 14:19:59.000   28.320616180  -16.502399604  2121.0488   1   9   0.0009   0.0011   0.0073   0.0004  -0.0005  -0.0016  -1.00   35.5
2024/07/31 14:20:00.000   28.320616180  -16.502399604  2121.0490   1   9   0.0009   0.0011   0.0073   0.0004  -0.0006  -0.0016   0.00   36.4
2024/07/31 14:20:01.000   28.320616180  -16.502399604  2121.0490   1   9   0.0009   0.0011   0.0073   0.0004  -0.0005  -0.0016   1.00   12.1
2024/07/31 14:20:02.000   28.320616180  -16.502399604  2121.0491   1   9   0.0009   0.0011   0.0073   0.0004  -0.0005  -0.0016   2.00   21.3
2024/07/31 14:20:03.000   28.320616180  -16.502399604  2121.0491   1   9   0.0009   0.0011   0.0073   0.0004  -0.0005  -0.0016   3.00   29.0
2024/07/31 14:20:04.000   28.320616180  -16.502399604  2121.0491   1   9   0.0009   0.0011   0.0073   0.0004  -0.0005  -0.0016   4.00   32.3
2024/07/31 14:20:05.000   28.320616180  -16.502399604  2121.0491   1   9   0.0009   0.0011   0.0073   0.0004  -0.0005  -0.0016   5.00   34.1
2024/07/31 14:20:06.000   28.320616180  -16.502399604  2121.0491   1   9   0.0009   0.0011   0.0073   0.0004  -0.0005  -0.0016   6.00   35.6
2024/07/31 14:20:07.000   28.320616180  -16.502399604  2121.0492   1   9   0.0009   0.0011   0.0073   0.0004  -0.0005  -0.0016   7.00   36.9
2024/07/31 14:20:08.000   28.320616180  -16.502399604  2121.0492   1   9   0.0009   0.0011   0.0073   0.0004  -0.0005  -0.0016   8.00   38.1
2024/07/31 14:20:09.000   28.320616180  -16.502399604  2121.0492   1   9   0.0009   0.0011   0.0073   0.0004  -0.0005  -0.0016   9.00   39.2
2024/07/31 14:20:10.000   28.320616180  -16.502399604  2121.0492   1   9   0.0009   0.0011   0.0073   0.0004  -0.0005  -0.0016  10.00   40.2
2024/07/31 14:20:11.000   28.320616180  -16.502399604  2121.0492   1   9   0.0009   0.0011   0.0073   0.0004  -0.0005  -0.0015  11.00   41.1
2024/07/31 14:20:12.000   28.320616180  -16.502399604  2121.0492   1   9   0.0009   0.0011   0.0073   0.0004  -0.0005  -0.0015  12.00   42.0
2024/07/31 14:20:13.000   28.320616180  -16.502399604  2121.0492   1   9   0.0009   0.0011   0.0073   0.0004  -0.0005  -0.0015  13.00   42.8
2024/07/31 14:20:14.000   28.320616180  -16.502399604  2121.0492   1   9   0.0009   0.0011   0.0073   0.0004  -0.0005  -0.0015  14.00   43.7
2024/07/31 14:20:15.000   28.320616180  -16.502399604  2121.0492   1   9   0.0009   0.0011   0.0073   0.0004  -0.0005  -0.0015 -15.00   44.5
2024/07/31 14:20:16.000   28.320616180  -16.502399604  2121.0492   1   9   0.0009   0.0011   0.0073   0.0004  -0.0005  -0.0015 -14.00   45.4
2024/07/31 14:20:17.000   28.320616180  -16.502399604  2121.0492   1   9   0.0009   0.0011   0.0073   0.0004  -0.0005  -0.0015 -13.00   46.3
2024/07/31 14:20:18.000   28.320616180  -16.502399604  2121.0492   1   9   0.0009   0.0011   0.0073   0.0004  -0.0005  -0.0015 -12.00   47.2
2024/07/31 14:20:19.000   28.320616180  -16.502399604  2121.0492   1   9   0.0009   0.0011   0.0073   0.0004  -0.0005  -0.0015 -11.00   48.1
2024/07/31 14:20:20.000   28.320616180  -16.502399604  2121.0492   1   9   0.0009   0.0011   0.0072   0.0004  -0.0005  -0.0015 -10.00   49.2
2024/07/31 14:20:21.000   28.320616180  -16.502399604  2121.0492   1   9   0.0009   0.0011   0.0072   0.0004  -0.0005  -0.0015  -9.00   50.2
2024/07/31 14:20:22.000   28.320616180  -16.502399604  2121.0492   1   9   0.0009   0.0011   0.0072   0.0004  -0.0005  -0.0015  -8.00   51.4
2024/07/31 14:20:23.000   28.320616180  -16.502399604  2121.0492   1   9   0.0009   0.0011   0.0072   0.0004  -0.0005  -0.0015  -7.00   52.6
2024/07/31 14:20:24.000   28.320616180  -16.502399604  2121.0492   1   9   0.0009   0.0011   0.0072   0.0004  -0.0005  -0.0015  -6.00   53.9
2024/07/31 14:20:25.000   28.320616180  -16.502399604  2121.0493   1   9   0.0009   0.0011   0.0072   0.0004  -0.0005  -0.0015  -5.00   55.2
2024/07/31 14:20:26.000   28.320616180  -16.502399604  2121.0493   1   9   0.0009   0.0011   0.0072   0.0004  -0.0005  -0.0015  -4.00   56.2
2024/07/31 14:20:27.000   28.320616180  -16.502399604  2121.0493   1   9   0.0009   0.0011   0.0072   0.0004  -0.0005  -0.0015  -3.00   57.3
2024/07/31 14:20:28.000   28.320616180  -16.502399604  2121.0494   1   9   0.0009   0.0011   0.0072   0.0004  -0.0005  -0.0015  -2.00   58.5
2024/07/31 14:20:29.000   28.320616180  -16.502399604  2121.0494   1   9   0.0009   0.0011   0.0072   0.0004  -0.0005  -0.0015  -1.00   59.8
2024/07/31 14:20:30.000   28.320616180  -16.502399603  2121.0497   1   9   0.0009   0.0011   0.0072   0.0004  -0.0005  -0.0015   0.00   61.2
2024/07/31 14:20:31.000   28.320616180  -16.502399604  2121.0496   1   9   0.0009   0.0011   0.0072   0.0004  -0.0005  -0.0015   1.00   14.2
2024/07/31 14:20:32.000   28.320616180  -16.502399604  2121.0497   1   9   0.0009   0.0011   0.0072   0.0004  -0.0005  -0.0015   2.00   25.1
2024/07/31 14:20:33.000   28.320616180  -16.502399604  2121.0497   1   9   0.0009   0.0011   0.0072   0.0004  -0.0005  -0.0015   3.00   34.1
2024/07/31 14:20:34.000   28.320616180  -16.502399604  2121.0498   1   9   0.0009   0.0011   0.0072   0.0004  -0.0005  -0.0015   4.00   41.6
2024/07/31 14:20:35.000   28.320616180  -16.502399604  2121.0498   1   9   0.0009   0.0011   0.0072   0.0004  -0.0005  -0.0015   5.00   47.3
2024/07/31 14:20:36.000   28.320616180  -16.502399604  2121.0497   1   9   0.0009   0.0011   0.0072   0.0004  -0.0005  -0.0015   6.00   49.4
2024/07/31 14:20:37.000   28.320616180  -16.502399604  2121.0497   1   9   0.0009   0.0011   0.0072   0.0004  -0.0005  -0.0015   7.00   51.3
2024/07/31 14:20:38.000   28.320616180  -16.502399604  2121.0497   1   9   0.0009   0.0011   0.0072   0.0004  -0.0005  -0.0015   8.00   53.0
2024/07/31 14:20:39.000   28.320616180  -16.502399604  2121.0497   1   9   0.0009   0.0011   0.0072   0.0004  -0.0005  -0.0015   9.00   54.5
2024/07/31 14:20:40.000   28.320616180  -16.502399604  2121.0497   1   9   0.0009   0.0011   0.0072   0.0004  -0.0005  -0.0015  10.00   55.8
2024/07/31 14:20:41.000   28.320616180  -16.502399604  2121.0497   1   9   0.0009   0.0011   0.0072   0.0004  -0.0005  -0.0015  11.00   57.0
2024/07/31 14:20:42.000   28.320616180  -16.502399604  2121.0496   1   9   0.0009   0.0011   0.0072   0.0004  -0.0005  -0.0015  12.00   58.2
2024/07/31 14:20:43.000   28.320616180  -16.502399604  2121.0496   1   9   0.0009   0.0011   0.0072   0.0004  -0.0005  -0.0015  13.00   59.3
2024/07/31 14:20:44.000   28.320616180  -16.502399604  2121.0496   1   9   0.0009   0.0011   0.0072   0.0004  -0.0005  -0.0015  14.00   60.3
2024/07/31 14:20:45.000   28.320616180  -16.502399604  2121.0496   1   9   0.0009   0.0011   0.0072   0.0004  -0.0005  -0.0015 -15.00   61.4
2024/07/31 14:20:46.000   28.320616180  -16.502399604  2121.0496   1   9   0.0009   0.0011   0.0072   0.0004  -0.0005  -0.0015 -14.00   62.4
2024/07/31 14:20:47.000   28.320616180  -16.502399604  2121.0496   1   9   0.0009   0.0011   0.0072   0.0004  -0.0005  -0.0015 -13.00   63.5
2024/07/31 14:20:48.000   28.320616180  -16.502399604  2121.0496   1   9   0.0009   0.0011   0.0072   0.0004  -0.0005  -0.0015 -12.00   64.7
2024/07/31 14:20:49.000   28.320616180  -16.502399604  2121.0496   1   9   0.0009   0.0011   0.0072   0.0004  -0.0005  -0.0015 -11.00   65.9
2024/07/31 14:20:50.000   28.320616180  -16.502399604  2121.0496   1   9   0.0009   0.0011   0.0072   0.0004  -0.0005  -0.0015 -10.00   67.1
2024/07/31 14:20:51.000   28.320616180  -16.502399604  2121.0496   1   9   0.0009   0.0011   0.0072   0.0004  -0.0005  -0.0015  -9.00   68.2
2024/07/31 14:20:52.000   28.320616180  -16.502399604  2121.0496   1   9   0.0009   0.0011   0.0072   0.0004  -0.0005  -0.0015  -8.00   69.5
2024/07/31 14:20:53.000   28.320616180  -16.502399604  2121.0496   1   9   0.0009   0.0011   0.0072   0.0004  -0.0005  -0.0015  -7.00   71.0
2024/07/31 14:20:54.000   28.320616180  -16.502399604  2121.0496   1   9   0.0009   0.0011   0.0072   0.0004  -0.0005  -0.0015  -6.00   72.5
2024/07/31 14:20:55.000   28.320616180  -16.502399604  2121.0496   1   9   0.0009   0.0011   0.0072   0.0004  -0.0005  -0.0015  -5.00   74.3
2024/07/31 14:20:56.000   28.320616180  -16.502399604  2121.0496   1   9   0.0009   0.0011   0.0072   0.0004  -0.0005  -0.0015  -4.00   76.0
2024/07/31 14:20:57.000   28.320616180  -16.502399604  2121.0497   1   9   0.0009   0.0011   0.0071   0.0004  -0.0005  -0.0015  -3.00   77.7
2024/07/31 14:20:58.000   28.320616180  -16.502399604  2121.0497   1   9   0.0009   0.0011   0.0071   0.0004  -0.0005  -0.0015  -2.00   79.3
2024/07/31 14:20:59.000   28.320616180  -16.502399604  2121.0497   1   9   0.0009   0.0011   0.0071   0.0004  -0.0005  -0.0015  -1.00   80.8
2024/07/31 14:21:00.000   28.320616181  -16.502399603  2121.0499   1   9   0.0009   0.0011   0.0071   0.0004  -0.0005  -0.0015   0.00   82.5
2024/07/31 14:21:01.000   28.320616181  -16.502399604  2121.0497   1   9   0.0009   0.0011   0.0071   0.0004  -0.0005  -0.0015   1.00   15.8
2024/07/31 14:21:02.000   28.320616181  -16.502399604  2121.0497   1   9   0.0009   0.0011   0.0071   0.0004  -0.0005  -0.0015   2.00   28.0
2024/07/31 14:21:03.000   28.320616181  -16.502399604  2121.0497   1   9   0.0009   0.0011   0.0071   0.0004  -0.0005  -0.0015   3.00   38.2
2024/07/31 14:21:04.000   28.320616181  -16.502399604  2121.0498   1   9   0.0009   0.0011   0.0071   0.0004  -0.0005  -0.0015   4.00   46.2
2024/07/31 14:21:05.000   28.320616181  -16.502399604  2121.0498   1   9   0.0009   0.0011   0.0071   0.0004  -0.0005  -0.0015   5.00   52.8
2024/07/31 14:21:06.000   28.320616181  -16.502399604  2121.0498   1   9   0.0009   0.0011   0.0071   0.0004  -0.0005  -0.0015   6.00   58.3
2024/07/31 14:21:07.000   28.320616181  -16.502399604  2121.0498   1   9   0.0009   0.0011   0.0071   0.0004  -0.0005  -0.0015   7.00   61.9
2024/07/31 14:21:08.000   28.320616181  -16.502399604  2121.0497   1   9   0.0009   0.0011   0.0071   0.0004  -0.0005  -0.0015   8.00   63.4
2024/07/31 14:21:09.000   28.320616181  -16.502399604  2121.0497   1   9   0.0009   0.0011   0.0071   0.0004  -0.0005  -0.0015   9.00   64.6
2024/07/31 14:21:10.000   28.320616181  -16.502399604  2121.0497   1   9   0.0009   0.0011   0.0071   0.0004  -0.0005  -0.0015  10.00   65.7
2024/07/31 14:21:11.000   28.320616181  -16.502399604  2121.0497   1   9   0.0009   0.0011   0.0071   0.0004  -0.0005  -0.0015  11.00   66.7
2024/07/31 14:21:12.000   28.320616181  -16.502399604  2121.0497   1   9   0.0009   0.0011   0.0071   0.0004  -0.0005  -0.0015  12.00   67.7
2024/07/31 14:21:13.000   28.320616181  -16.502399604  2121.0497   1   9   0.0009   0.0011   0.0071   0.0004  -0.0005  -0.0015  13.00   68.8
2024/07/31 14:21:14.000   28.320616181  -16.502399604  2121.0497   1   9   0.0009   0.0011   0.0071   0.0004  -0.0005  -0.0015  14.00   69.8
2024/07/31 14:21:15.000   28.320616181  -16.502399604  2121.0497   1   9   0.0009   0.0011   0.0071   0.0004  -0.0005  -0.0015 -15.00   70.7
2024/07/31 14:21:16.000   28.320616181  -16.502399604  2121.0496   1   9   0.0009   0.0011   0.0071   0.0004  -0.0005  -0.0015 -14.00   71.6
2024/07/31 14:21:17.000   28.320616181  -16.502399604  2121.0496   1   9   0.0009   0.0011   0.0071   0.0004  -0.0005  -0.0015 -13.00   72.6
2024/07/31 14:21:18.000   28.320616181  -16.502399604  2121.0496   1   9   0.0009   0.0011   0.0071   0.0004  -0.0005  -0.0015 -12.00   73.4
2024/07/31 14:21:19.000   28.320616181  -16.502399604  2121.0496   1   9   0.0009   0.0011   0.0071   0.0004  -0.0005  -0.0015 -11.00   74.4
2024/07/31 14:21:20.000   28.320616181  -16.502399604  2121.0496   1   9   0.0009   0.0011   0.0071   0.0004  -0.0005  -0.0015 -10.00   75.3
2024/07/31 14:21:21.000   28.320616181  -16.502399604  2121.0496   1   9   0.0009   0.0011   0.0071   0.0004  -0.0005  -0.0015  -9.00   76.2
2024/07/31 14:21:22.000   28.320616181  -16.502399604  2121.0496   1   9   0.0009   0.0011   0.0071   0.0004  -0.0005  -0.0015  -8.00   77.3
2024/07/31 14:21:23.000   28.320616181  -16.502399604  2121.0496   1   9   0.0009   0.0011   0.0071   0.0004  -0.0005  -0.0015  -7.00   78.4
2024/07/31 14:21:24.000   28.320616181  -16.502399604  2121.0495   1   9   0.0009   0.0011   0.0071   0.0004  -0.0005  -0.0015  -6.00   79.4
2024/07/31 14:21:25.000   28.320616181  -16.502399604  2121.0496   1   9   0.0009   0.0011   0.0071   0.0004  -0.0005  -0.0015  -5.00   80.9
2024/07/31 14:21:26.000   28.320616181  -16.502399604  2121.0496   1   9   0.0009   0.0011   0.0071   0.0004  -0.0005  -0.0015  -4.00   82.1
2024/07/31 14:21:27.000   28.320616181  -16.502399604  2121.0496   1   9   0.0009   0.0011   0.0071   0.0004  -0.0005  -0.0015  -3.00   83.8
2024/07/31 14:21:28.000   28.320616181  -16.502399604  2121.0496   1   9   0.0009   0.0011   0.0071   0.0004  -0.0005  -0.0015  -2.00   85.9
2024/07/31 14:21:29.000   28.320616181  -16.502399604  2121.0496   1   9   0.0009   0.0011   0.0071   0.0004  -0.0005  -0.0015  -1.00   88.3
2024/07/31 14:21:30.000   28.320616181  -16.502399605  2121.0496   1   9   0.0009   0.0010   0.0071   0.0004  -0.0005  -0.0015   0.00   90.8
2024/07/31 14:21:31.000   28.320616180  -16.502399606  2121.0494   1   9   0.0009   0.0011   0.0071   0.0004  -0.0005  -0.0015   1.00   16.5
2024/07/31 14:21:32.000   28.320616180  -16.502399606  2121.0494   1   9   0.0009   0.0010   0.0071   0.0004  -0.0005  -0.0015   2.00   28.1
2024/07/31 14:21:33.000   28.320616180  -16.502399606  2121.0495   1   9   0.0009   0.0010   0.0071   0.0004  -0.0005  -0.0015   3.00   37.9
2024/07/31 14:21:34.000   28.320616180  -16.502399606  2121.0496   1   9   0.0009   0.0010   0.0071   0.0004  -0.0005  -0.0015   4.00   45.9
2024/07/31 14:21:35.000   28.320616180  -16.502399606  2121.0496   1   9   0.0009   0.0010   0.0071   0.0004  -0.0005  -0.0015   5.00   52.4
2024/07/31 14:21:36.000   28.320616180  -16.502399606  2121.0496   1   9   0.0009   0.0010   0.0071   0.0004  -0.0005  -0.0015   6.00   57.8
2024/07/31 14:21:37.000   28.320616180  -16.502399606  2121.0496   1   9   0.0009   0.0010   0.0071   0.0004  -0.0005  -0.0015   7.00   62.1
2024/07/31 14:21:38.000   28.320616180  -16.502399606  2121.0496   1   9   0.0009   0.0010   0.0071   0.0004  -0.0005  -0.0015   8.00   65.7
2024/07/31 14:21:39.000   28.320616180  -16.502399607  2121.0496   1   9   0.0009   0.0010   0.0071   0.0004  -0.0005  -0.0015   9.00   67.9
2024/07/31 14:21:40.000   28.320616180  -16.502399607  2121.0496   1   9   0.0009   0.0010   0.0071   0.0004  -0.0005  -0.0015  10.00   68.9
2024/07/31 14:21:41.000   28.320616180  -16.502399607  2121.0496   1   9   0.0009   0.0010   0.0071   0.0004  -0.0005  -0.0015  11.00   70.0
2024/07/31 14:21:42.000   28.320616180  -16.502399607  2121.0496   1   9   0.0009   0.0010   0.0071   0.0004  -0.0005  -0.0015  12.00   71.0
2024/07/31 14:21:43.000   28.320616180  -16.502399607  2121.0496   1   9   0.0009   0.0010   0.0071   0.0004  -0.0005  -0.0015  13.00   71.9
2024/07/31 14:21:44.000   28.320616180  -16.502399607  2121.0496   1   9   0.0009   0.0010   0.0070   0.0004  -0.0005  -0.0015  14.00   72.7
2024/07/31 14:21:45.000   28.320616180  -16.502399607  2121.0496   1   9   0.0009   0.0010   0.0070   0.0004  -0.0005  -0.0015 -15.00   73.4
2024/07/31 14:21:46.000   28.320616180  -16.502399607  2121.0496   1   9   0.0009   0.0010   0.0070   0.0004  -0.0005  -0.0015 -14.00   74.3
2024/07/31 14:21:47.000   28.320616180  -16.502399607  2121.0496   1   9   0.0009   0.0010   0.0070   0.0004  -0.0005  -0.0015 -13.00   75.1
2024/07/31 14:21:48.000   28.320616180  -16.502399607  2121.0496   1   9   0.0009   0.0010   0.0070   0.0004  -0.0005  -0.0015 -12.00   76.0
2024/07/31 14:21:49.000   28.320616180  -16.502399607  2121.0496   1   9   0.0009   0.0010   0.0070   0.0004  -0.0005  -0.0015 -11.00   76.8
2024/07/31 14:21:50.000   28.320616180  -16.502399607  2121.0496   1   9   0.0009   0.0010   0.0070   0.0004  -0.0005  -0.0015 -10.00   77.6
2024/07/31 14:21:51.000   28.320616180  -16.502399607  2121.0495   1   9   0.0009   0.0010   0.0070   0.0004  -0.0005  -0.0015  -9.00   78.7
2024/07/31 14:21:52.000   28.320616180  -16.502399607  2121.0495   1   9   0.0009   0.0010   0.0070   0.0004  -0.0005  -0.0015  -8.00   79.7
