% program   : RTKPOST-EX 2.5.0
% inp file  : C:\Users\SallyHenry\Desktop\Sally Internship\GNSS gravi\DATA\Survey Rover Obs\CAMI5.24o
% inp file  : C:\Users\SallyHenry\Desktop\Sally Internship\GNSS gravi\DATA\BaseStations\IZAN\IZAN00ESP_R_20242130000_01D_30S_MO.rnx
% inp file  : C:\Users\SallyHenry\Desktop\Sally Internship\GNSS gravi\DATA\BaseStations\IZAN\IZAN00ESP_R_20242130000_01D_MN.rnx
% inp file  : C:\Users\SallyHenry\Desktop\Sally Internship\GNSS gravi\DATA\aux_files\Survey\IGS0OPSFIN_20242130000_01D_15M_ORB.SP3
% inp file  : C:\Users\SallyHenry\Desktop\Sally Internship\GNSS gravi\DATA\aux_files\Survey\IGS0OPSFIN_20242130000_01D_30S_CLK.CLK
% obs start : 2024/07/31 13:47:19.0 GPST (week2325 308839.0s)
% obs end   : 2024/07/31 14:02:22.0 GPST (week2325 309742.0s)
% pos mode  : Static
% freqs     : L1+L2/E5b
% solution  : Combined-No Phase Reset
% elev mask : 15.0 deg
% dynamics  : on
% tidecorr  : solid
% ionos opt : Estimate TEC
% tropo opt : Estimate ZTD+Grad
% ephemeris : Precise
% navi sys  : GPS GLONASS Galileo QZSS BDS
% amb res   : Fix and Hold
% amb glo   : Fix and Hold
% amb bds   : on
% val thres : 3.0
% antenna1  :                       ( 0.0000  0.0000  1.8000)
% antenna2  :                       ( 0.0000  0.0000  0.0000)
% ref pos   :  28.308069410  -16.499677180  2417.4044
%
% (lat/lon/height=WGS84/ellipsoidal,Q=1:fix,2:float,3:sbas,4:dgps,5:single,6:ppp,ns=# of satellites)
%  GPST                  latitude(deg) longitude(deg)  height(m)   Q  ns   sdn(m)   sde(m)   sdu(m)  sdne(m)  sdeu(m)  sdun(m) age(s)  ratio
2024/07/31 13:47:19.000   28.319701126  -16.513813754  2011.2646   1   7   0.0014   0.0015   0.0146  -0.0007   0.0031  -0.0030 -11.00    9.5
2024/07/31 13:47:20.000   28.319701126  -16.513813754  2011.2646   1   7   0.0014   0.0015   0.0146  -0.0007   0.0031  -0.0030 -10.00    9.3
2024/07/31 13:47:21.000   28.319701125  -16.513813754  2011.2646   1   7   0.0014   0.0015   0.0146  -0.0007   0.0031  -0.0030  -9.00    9.0
2024/07/31 13:47:22.000   28.319701125  -16.513813754  2011.2646   1   7   0.0014   0.0015   0.0146  -0.0007   0.0031  -0.0030  -8.00    8.6
2024/07/31 13:47:23.000   28.319701125  -16.513813755  2011.2645   1   7   0.0014   0.0015   0.0146  -0.0007   0.0031  -0.0030  -7.00    8.2
2024/07/31 13:47:24.000   28.319701125  -16.513813755  2011.2644   1   7   0.0014   0.0015   0.0146  -0.0007   0.0031  -0.0030  -6.00    7.6
2024/07/31 13:47:25.000   28.319701125  -16.513813755  2011.2643   1   7   0.0014   0.0015   0.0146  -0.0007   0.0031  -0.0030  -5.00    7.0
2024/07/31 13:47:26.000   28.319701126  -16.513813755  2011.2645   1   7   0.0014   0.0015   0.0147  -0.0007   0.0031  -0.0030  -4.00    5.4
2024/07/31 13:47:27.000   28.319701126  -16.513813755  2011.2642   1   7   0.0014   0.0015   0.0147  -0.0007   0.0031  -0.0030  -3.00    4.8
2024/07/31 13:47:28.000   28.319701126  -16.513813756  2011.2636   1   7   0.0014   0.0015   0.0147  -0.0007   0.0031  -0.0030  -2.00   48.0
2024/07/31 13:47:29.000   28.319701126  -16.513813756  2011.2635   1   7   0.0014   0.0015   0.0147  -0.0007   0.0031  -0.0030  -1.00   48.0
2024/07/31 13:47:30.000   28.319701126  -16.513813756  2011.2640   1   7   0.0014   0.0015   0.0147  -0.0008   0.0031  -0.0030   0.00   12.6
2024/07/31 13:47:31.000   28.319701126  -16.513813756  2011.2638   1   7   0.0014   0.0015   0.0147  -0.0008   0.0031  -0.0030   1.00   12.4
2024/07/31 13:47:32.000   28.319701126  -16.513813757  2011.2637   1   7   0.0014   0.0015   0.0148  -0.0008   0.0031  -0.0030   2.00   12.1
2024/07/31 13:47:33.000   28.319701126  -16.513813757  2011.2636   1   7   0.0014   0.0015   0.0148  -0.0008   0.0031  -0.0030   3.00   11.9
2024/07/31 13:47:34.000   28.319701126  -16.513813757  2011.2635   1   7   0.0014   0.0015   0.0148  -0.0008   0.0031  -0.0030   4.00   11.7
2024/07/31 13:47:35.000   28.319701126  -16.513813757  2011.2636   1   7   0.0014   0.0015   0.0148  -0.0008   0.0031  -0.0030   5.00   11.4
2024/07/31 13:47:36.000   28.319701126  -16.513813757  2011.2636   1   7   0.0014   0.0015   0.0148  -0.0008   0.0031  -0.0030   6.00   11.2
2024/07/31 13:47:37.000   28.319701126  -16.513813757  2011.2637   1   7   0.0014   0.0015   0.0149  -0.0008   0.0032  -0.0030   7.00   11.0
2024/07/31 13:47:38.000   28.319701126  -16.513813757  2011.2639   1   7   0.0014   0.0015   0.0149  -0.0008   0.0032  -0.0030   8.00   10.9
2024/07/31 13:47:39.000   28.319701125  -16.513813757  2011.2641   1   7   0.0014   0.0015   0.0149  -0.0008   0.0032  -0.0030   9.00   10.7
2024/07/31 13:47:40.000   28.319701125  -16.513813757  2011.2642   1   7   0.0014   0.0015   0.0149  -0.0008   0.0032  -0.0030  10.00   10.6
2024/07/31 13:47:41.000   28.319701125  -16.513813757  2011.2643   1   7   0.0014   0.0015   0.0149  -0.0008   0.0032  -0.0030  11.00   10.4
2024/07/31 13:47:42.000   28.319701125  -16.513813757  2011.2645   1   7   0.0014   0.0015   0.0149  -0.0008   0.0032  -0.0030  12.00   10.3
2024/07/31 13:47:43.000   28.319701125  -16.513813757  2011.2646   1   7   0.0014   0.0015   0.0149  -0.0008   0.0032  -0.0030  13.00   10.2
2024/07/31 13:47:44.000   28.319701125  -16.513813757  2011.2648   1   7   0.0014   0.0015   0.0149  -0.0008   0.0032  -0.0030  14.00   10.0
2024/07/31 13:47:45.000   28.319701125  -16.513813757  2011.2649   1   7   0.0014   0.0015   0.0149  -0.0008   0.0032  -0.0030  15.00    9.9
2024/07/31 13:47:46.000   28.319701125  -16.513813757  2011.2651   1   7   0.0014   0.0015   0.0149  -0.0008   0.0032  -0.0030 -14.00    9.7
2024/07/31 13:47:47.000   28.319701125  -16.513813757  2011.2653   1   7   0.0014   0.0015   0.0149  -0.0008   0.0031  -0.0030 -13.00    9.6
2024/07/31 13:47:48.000   28.319701125  -16.513813757  2011.2655   1   7   0.0014   0.0015   0.0149  -0.0008   0.0031  -0.0030 -12.00    9.4
2024/07/31 13:47:49.000   28.319701125  -16.513813756  2011.2656   1   7   0.0014   0.0015   0.0149  -0.0008   0.0031  -0.0030 -11.00    9.2
2024/07/31 13:47:50.000   28.319701125  -16.513813756  2011.2658   1   7   0.0014   0.0015   0.0149  -0.0008   0.0031  -0.0030 -10.00    9.0
2024/07/31 13:47:51.000   28.319701125  -16.513813756  2011.2660   1   7   0.0014   0.0015   0.0149  -0.0008   0.0031  -0.0030  -9.00    8.7
2024/07/31 13:47:52.000   28.319701125  -16.513813756  2011.2662   1   7   0.0014   0.0015   0.0149  -0.0008   0.0031  -0.0030  -8.00    8.4
2024/07/31 13:47:53.000   28.319701125  -16.513813756  2011.2663   1   7   0.0014   0.0015   0.0149  -0.0008   0.0031  -0.0030  -7.00    8.0
2024/07/31 13:47:54.000   28.319701125  -16.513813756  2011.2664   1   7   0.0014   0.0015   0.0149  -0.0008   0.0032  -0.0030  -6.00    7.5
2024/07/31 13:47:55.000   28.319701125  -16.513813756  2011.2666   1   7   0.0014   0.0015   0.0149  -0.0008   0.0032  -0.0030  -5.00    6.8
2024/07/31 13:47:56.000   28.319701126  -16.513813756  2011.2672   1   7   0.0014   0.0015   0.0149  -0.0008   0.0032  -0.0030  -4.00    5.3
2024/07/31 13:47:57.000   28.319701126  -16.513813756  2011.2673   1   7   0.0015   0.0015   0.0149  -0.0008   0.0032  -0.0030  -3.00    4.6
2024/07/31 13:47:58.000   28.319701126  -16.513813757  2011.2669   1   7   0.0015   0.0015   0.0150  -0.0008   0.0032  -0.0030  -2.00   45.0
2024/07/31 13:47:59.000   28.319701126  -16.513813757  2011.2669   1   7   0.0015   0.0015   0.0150  -0.0008   0.0032  -0.0031  -1.00   45.0
2024/07/31 13:48:00.000   28.319701125  -16.513813758  2011.2668   1   7   0.0015   0.0015   0.0150  -0.0008   0.0032  -0.0031   0.00   12.6
2024/07/31 13:48:01.000   28.319701125  -16.513813759  2011.2670   1   7   0.0015   0.0015   0.0150  -0.0008   0.0032  -0.0031   1.00   12.4
2024/07/31 13:48:02.000   28.319701125  -16.513813759  2011.2668   1   7   0.0015   0.0015   0.0150  -0.0008   0.0032  -0.0031   2.00   12.2
2024/07/31 13:48:03.000   28.319701125  -16.513813760  2011.2666   1   7   0.0015   0.0015   0.0151  -0.0008   0.0032  -0.0031   3.00   11.9
2024/07/31 13:48:04.000   28.319701125  -16.513813760  2011.2666   1   7   0.0015   0.0015   0.0151  -0.0008   0.0032  -0.0031   4.00   11.7
2024/07/31 13:48:05.000   28.319701125  -16.513813761  2011.2667   1   7   0.0015   0.0015   0.0151  -0.0008   0.0032  -0.0031   5.00   11.5
2024/07/31 13:48:06.000   28.319701125  -16.513813761  2011.2667   1   7   0.0015   0.0015   0.0151  -0.0008   0.0032  -0.0031   6.00   11.3
2024/07/31 13:48:07.000   28.319701125  -16.513813761  2011.2669   1   7   0.0015   0.0015   0.0151  -0.0008   0.0032  -0.0031   7.00   11.1
2024/07/31 13:48:08.000   28.319701125  -16.513813761  2011.2671   1   7   0.0015   0.0015   0.0151  -0.0008   0.0032  -0.0031   8.00   10.9
2024/07/31 13:48:09.000   28.319701125  -16.513813761  2011.2673   1   7   0.0015   0.0015   0.0152  -0.0008   0.0032  -0.0031   9.00   10.8
2024/07/31 13:48:10.000   28.319701125  -16.513813761  2011.2675   1   7   0.0015   0.0015   0.0152  -0.0008   0.0032  -0.0031  10.00   10.6
2024/07/31 13:48:11.000   28.319701125  -16.513813761  2011.2677   1   7   0.0015   0.0015   0.0152  -0.0008   0.0032  -0.0031  11.00   10.4
2024/07/31 13:48:12.000   28.319701125  -16.513813761  2011.2679   1   7   0.0015   0.0015   0.0152  -0.0008   0.0032  -0.0031  12.00   10.2
2024/07/31 13:48:13.000   28.319701125  -16.513813761  2011.2682   1   7   0.0015   0.0015   0.0152  -0.0008   0.0032  -0.0031  13.00   10.0
2024/07/31 13:48:14.000   28.319701125  -16.513813761  2011.2684   1   7   0.0015   0.0015   0.0152  -0.0008   0.0032  -0.0031  14.00    9.9
2024/07/31 13:48:15.000   28.319701125  -16.513813761  2011.2686   1   7   0.0015   0.0015   0.0152  -0.0008   0.0032  -0.0031  15.00    9.7
2024/07/31 13:48:16.000   28.319701125  -16.513813761  2011.2688   1   7   0.0015   0.0015   0.0152  -0.0008   0.0032  -0.0031 -14.00    9.6
2024/07/31 13:48:17.000   28.319701125  -16.513813761  2011.2691   1   7   0.0015   0.0015   0.0152  -0.0008   0.0032  -0.0031 -13.00    9.4
2024/07/31 13:48:18.000   28.319701125  -16.513813761  2011.2693   1   7   0.0015   0.0015   0.0152  -0.0008   0.0032  -0.0031 -12.00    9.2
2024/07/31 13:48:19.000   28.319701125  -16.513813761  2011.2696   1   7   0.0015   0.0015   0.0152  -0.0008   0.0032  -0.0031 -11.00    9.0
2024/07/31 13:48:20.000   28.319701125  -16.513813761  2011.2698   1   7   0.0015   0.0015   0.0152  -0.0008   0.0032  -0.0031 -10.00    8.8
2024/07/31 13:48:21.000   28.319701125  -16.513813761  2011.2701   1   7   0.0015   0.0015   0.0152  -0.0008   0.0032  -0.0031  -9.00    8.6
2024/07/31 13:48:22.000   28.319701125  -16.513813761  2011.2703   1   7   0.0015   0.0015   0.0152  -0.0008   0.0032  -0.0031  -8.00    8.3
2024/07/31 13:48:23.000   28.319701125  -16.513813761  2011.2706   1   7   0.0015   0.0015   0.0152  -0.0008   0.0032  -0.0031  -7.00    7.9
2024/07/31 13:48:24.000   28.319701125  -16.513813761  2011.2708   1   7   0.0015   0.0015   0.0152  -0.0008   0.0032  -0.0031  -6.00    7.5
2024/07/31 13:48:25.000   28.319701125  -16.513813761  2011.2711   1   7   0.0015   0.0015   0.0152  -0.0008   0.0032  -0.0031  -5.00    6.9
2024/07/31 13:48:26.000   28.319701126  -16.513813761  2011.2719   1   7   0.0015   0.0015   0.0152  -0.0008   0.0032  -0.0031  -4.00    5.4
2024/07/31 13:48:27.000   28.319701126  -16.513813761  2011.2722   1   7   0.0015   0.0015   0.0152  -0.0008   0.0032  -0.0031  -3.00    4.7
2024/07/31 13:48:28.000   28.319701125  -16.513813761  2011.2721   1   7   0.0015   0.0015   0.0153  -0.0008   0.0032  -0.0031  -2.00   42.7
2024/07/31 13:48:29.000   28.319701125  -16.513813762  2011.2725   1   7   0.0015   0.0015   0.0153  -0.0008   0.0032  -0.0031  -1.00   42.7
2024/07/31 13:48:30.000   28.319701123  -16.513813764  2011.2708   1   7   0.0015   0.0015   0.0152  -0.0008   0.0032  -0.0032   0.00   13.0
2024/07/31 13:48:31.000   28.319701124  -16.513813765  2011.2708   1   7   0.0015   0.0015   0.0153  -0.0008   0.0032  -0.0032   1.00   12.8
2024/07/31 13:48:32.000   28.319701124  -16.513813765  2011.2709   1   7   0.0015   0.0016   0.0153  -0.0008   0.0032  -0.0032   2.00   12.6
2024/07/31 13:48:33.000   28.319701124  -16.513813766  2011.2712   1   7   0.0015   0.0016   0.0154  -0.0008   0.0032  -0.0032   3.00   12.4
2024/07/31 13:48:34.000   28.319701124  -16.513813766  2011.2712   1   7   0.0015   0.0016   0.0154  -0.0008   0.0032  -0.0032   4.00   12.2
2024/07/31 13:48:35.000   28.319701124  -16.513813767  2011.2714   1   7   0.0015   0.0016   0.0154  -0.0008   0.0032  -0.0032   5.00   12.0
2024/07/31 13:48:36.000   28.319701124  -16.513813767  2011.2715   1   7   0.0015   0.0016   0.0154  -0.0008   0.0032  -0.0032   6.00   11.8
2024/07/31 13:48:37.000   28.319701124  -16.513813767  2011.2716   1   7   0.0015   0.0016   0.0154  -0.0008   0.0032  -0.0032   7.00   11.6
2024/07/31 13:48:38.000   28.319701124  -16.513813767  2011.2719   1   7   0.0015   0.0016   0.0154  -0.0008   0.0032  -0.0032   8.00   11.3
2024/07/31 13:48:39.000   28.319701124  -16.513813767  2011.2722   1   7   0.0015   0.0016   0.0154  -0.0008   0.0032  -0.0032   9.00   11.0
2024/07/31 13:48:40.000   28.319701124  -16.513813767  2011.2724   1   7   0.0015   0.0016   0.0154  -0.0008   0.0032  -0.0032  10.00   10.7
2024/07/31 13:48:41.000   28.319701124  -16.513813767  2011.2726   1   7   0.0015   0.0016   0.0155  -0.0008   0.0032  -0.0032  11.00   10.5
2024/07/31 13:48:42.000   28.319701115  -16.513813748  2011.2914   1   7   0.0014   0.0015   0.0150  -0.0008   0.0030  -0.0031  12.00   28.8
2024/07/31 13:48:43.000   28.319701115  -16.513813748  2011.2917   1   7   0.0014   0.0015   0.0150  -0.0008   0.0030  -0.0031  13.00   29.6
2024/07/31 13:48:44.000   28.319701115  -16.513813748  2011.2920   1   7   0.0014   0.0015   0.0150  -0.0008   0.0030  -0.0031  14.00   30.4
2024/07/31 13:48:45.000   28.319701115  -16.513813748  2011.2922   1   7   0.0014   0.0015   0.0150  -0.0008   0.0030  -0.0031 -15.00   31.0
2024/07/31 13:48:46.000   28.319701115  -16.513813748  2011.2926   1   7   0.0014   0.0015   0.0150  -0.0008   0.0030  -0.0031 -14.00   31.6
2024/07/31 13:48:47.000   28.319701115  -16.513813748  2011.2929   1   7   0.0014   0.0015   0.0150  -0.0008   0.0030  -0.0031 -13.00   32.3
2024/07/31 13:48:48.000   28.319701114  -16.513813747  2011.2933   1   7   0.0014   0.0015   0.0150  -0.0008   0.0030  -0.0031 -12.00   32.8
2024/07/31 13:48:49.000   28.319701114  -16.513813747  2011.2936   1   7   0.0014   0.0015   0.0150  -0.0008   0.0030  -0.0031 -11.00   33.3
2024/07/31 13:48:50.000   28.319701114  -16.513813747  2011.2940   1   7   0.0014   0.0015   0.0150  -0.0008   0.0030  -0.0031 -10.00   33.9
2024/07/31 13:48:51.000   28.319701114  -16.513813747  2011.2944   1   7   0.0014   0.0015   0.0150  -0.0008   0.0030  -0.0031  -9.00   34.3
2024/07/31 13:48:52.000   28.319701113  -16.513813747  2011.2948   1   7   0.0014   0.0015   0.0150  -0.0008   0.0030  -0.0031  -8.00   34.6
2024/07/31 13:48:53.000   28.319701113  -16.513813746  2011.2953   1   7   0.0014   0.0015   0.0150  -0.0008   0.0030  -0.0031  -7.00   34.7
2024/07/31 13:48:54.000   28.319701107  -16.513813742  2011.3031   1   7   0.0014   0.0015   0.0148  -0.0008   0.0029  -0.0030  -6.00   17.7
2024/07/31 13:48:55.000   28.319701106  -16.513813741  2011.3037   1   7   0.0014   0.0015   0.0148  -0.0008   0.0029  -0.0030  -5.00   17.4
2024/07/31 13:48:56.000   28.319701107  -16.513813741  2011.3050   1   7   0.0014   0.0015   0.0148  -0.0008   0.0029  -0.0030  -4.00   17.8
2024/07/31 13:48:57.000   28.319701106  -16.513813741  2011.3057   1   7   0.0014   0.0015   0.0148  -0.0008   0.0029  -0.0030  -3.00   18.5
2024/07/31 13:48:58.000   28.319701106  -16.513813740  2011.3064   1   7   0.0014   0.0015   0.0149  -0.0008   0.0029  -0.0030  -2.00   19.6
2024/07/31 13:48:59.000   28.319701106  -16.513813740  2011.3069   1   7   0.0014   0.0015   0.0149  -0.0008   0.0029  -0.0031  -1.00   21.0
2024/07/31 13:49:00.000   28.319701104  -16.513813740  2011.3072   1   7   0.0014   0.0015   0.0148  -0.0008   0.0029  -0.0031   0.00   22.8
2024/07/31 13:49:01.000   28.319701102  -16.513813743  2011.3247   1   7   0.0014   0.0015   0.0145  -0.0008   0.0029  -0.0030   1.00    3.1
2024/07/31 13:49:02.000   28.319701102  -16.513813743  2011.3256   1   7   0.0014   0.0015   0.0145  -0.0008   0.0029  -0.0030   2.00    6.9
2024/07/31 13:49:03.000   28.319701102  -16.513813742  2011.3263   1   7   0.0014   0.0015   0.0145  -0.0008   0.0029  -0.0031   3.00   10.6
2024/07/31 13:49:04.000   28.319701102  -16.513813742  2011.3269   1   7   0.0014   0.0015   0.0145  -0.0008   0.0029  -0.0031   4.00   14.5
2024/07/31 13:49:05.000   28.319701102  -16.513813742  2011.3275   1   7   0.0014   0.0015   0.0145  -0.0008   0.0029  -0.0031   5.00   18.6
2024/07/31 13:49:06.000   28.319701102  -16.513813742  2011.3280   1   7   0.0014   0.0015   0.0145  -0.0008   0.0029  -0.0031   6.00   22.7
2024/07/31 13:49:07.000   28.319701102  -16.513813742  2011.3285   1   7   0.0014   0.0015   0.0145  -0.0008   0.0029  -0.0031   7.00   26.9
2024/07/31 13:49:08.000   28.319701102  -16.513813742  2011.3289   1   7   0.0014   0.0015   0.0145  -0.0008   0.0029  -0.0031   8.00   31.0
2024/07/31 13:49:09.000   28.319701102  -16.513813742  2011.3293   1   7   0.0014   0.0015   0.0146  -0.0008   0.0029  -0.0031   9.00   35.2
2024/07/31 13:49:10.000   28.319701102  -16.513813742  2011.3296   1   7   0.0014   0.0015   0.0146  -0.0008   0.0029  -0.0031  10.00   39.0
2024/07/31 13:49:11.000   28.319701102  -16.513813742  2011.3299   1   7   0.0014   0.0015   0.0146  -0.0008   0.0029  -0.0031  11.00   42.9
2024/07/31 13:49:12.000   28.319701102  -16.513813742  2011.3301   1   7   0.0014   0.0015   0.0146  -0.0008   0.0029  -0.0031  12.00   46.8
2024/07/31 13:49:13.000   28.319701102  -16.513813742  2011.3303   1   7   0.0014   0.0015   0.0146  -0.0008   0.0029  -0.0031  13.00   50.5
2024/07/31 13:49:14.000   28.319701124  -16.513813758  2011.3138   1   7   0.0014   0.0014   0.0142  -0.0008   0.0028  -0.0028  14.00    3.3
2024/07/31 13:49:15.000   28.319701124  -16.513813758  2011.3140   1   7   0.0014   0.0014   0.0142  -0.0008   0.0028  -0.0028 -15.00    3.5
2024/07/31 13:49:16.000   28.319701124  -16.513813758  2011.3143   1   7   0.0014   0.0014   0.0142  -0.0008   0.0028  -0.0028 -14.00    3.7
2024/07/31 13:49:17.000   28.319701124  -16.513813758  2011.3145   1   7   0.0014   0.0014   0.0142  -0.0008   0.0028  -0.0028 -13.00    3.9
2024/07/31 13:49:18.000   28.319701124  -16.513813758  2011.3147   1   7   0.0014   0.0014   0.0142  -0.0008   0.0028  -0.0028 -12.00    4.1
2024/07/31 13:49:19.000   28.319701124  -16.513813758  2011.3150   1   7   0.0014   0.0014   0.0142  -0.0008   0.0028  -0.0028 -11.00    4.3
2024/07/31 13:49:20.000   28.319701124  -16.513813758  2011.3153   1   7   0.0014   0.0014   0.0142  -0.0008   0.0028  -0.0028 -10.00    4.5
2024/07/31 13:49:21.000   28.319701124  -16.513813758  2011.3156   1   7   0.0014   0.0014   0.0142  -0.0008   0.0028  -0.0028  -9.00    4.7
2024/07/31 13:49:22.000   28.319701124  -16.513813758  2011.3159   1   7   0.0014   0.0014   0.0142  -0.0008   0.0028  -0.0028  -8.00    4.9
2024/07/31 13:49:23.000   28.319701124  -16.513813758  2011.3163   1   7   0.0014   0.0014   0.0142  -0.0008   0.0028  -0.0028  -7.00    5.1
2024/07/31 13:49:24.000   28.319701124  -16.513813758  2011.3166   1   7   0.0014   0.0014   0.0142  -0.0008   0.0028  -0.0028  -6.00    5.3
2024/07/31 13:49:25.000   28.319701124  -16.513813758  2011.3169   1   7   0.0014   0.0014   0.0142  -0.0008   0.0028  -0.0028  -5.00    5.5
2024/07/31 13:49:26.000   28.319701124  -16.513813757  2011.3179   1   7   0.0014   0.0014   0.0142  -0.0008   0.0028  -0.0028  -4.00    5.6
2024/07/31 13:49:27.000   28.319701124  -16.513813758  2011.3184   1   7   0.0014   0.0014   0.0142  -0.0008   0.0028  -0.0028  -3.00    5.8
2024/07/31 13:49:28.000   28.319701124  -16.513813758  2011.3186   1   7   0.0014   0.0014   0.0142  -0.0008   0.0028  -0.0028  -2.00    5.9
2024/07/31 13:49:29.000   28.319701124  -16.513813758  2011.3192   1   7   0.0014   0.0014   0.0142  -0.0008   0.0028  -0.0028  -1.00    6.1
2024/07/31 13:49:30.000   28.319701121  -16.513813760  2011.3173   1   7   0.0014   0.0014   0.0142  -0.0008   0.0027  -0.0028   0.00    6.2
2024/07/31 13:49:31.000   28.319701121  -16.513813760  2011.3176   1   7   0.0014   0.0014   0.0142  -0.0008   0.0028  -0.0028   1.00    6.7
2024/07/31 13:49:32.000   28.319701122  -16.513813760  2011.3182   1   7   0.0014   0.0014   0.0142  -0.0008   0.0028  -0.0028   2.00    6.9
2024/07/31 13:49:33.000   28.319701122  -16.513813761  2011.3186   1   7   0.0014   0.0014   0.0142  -0.0008   0.0028  -0.0028   3.00    7.0
2024/07/31 13:49:34.000   28.319701122  -16.513813761  2011.3191   1   7   0.0014   0.0014   0.0142  -0.0008   0.0028  -0.0028   4.00    7.2
2024/07/31 13:49:35.000   28.319701122  -16.513813761  2011.3196   1   7   0.0014   0.0014   0.0142  -0.0008   0.0028  -0.0028   5.00    7.4
2024/07/31 13:49:36.000   28.319701122  -16.513813761  2011.3201   1   7   0.0014   0.0014   0.0142  -0.0008   0.0028  -0.0028   6.00    7.6
2024/07/31 13:49:37.000   28.319701123  -16.513813761  2011.3205   1   7   0.0014   0.0014   0.0143  -0.0008   0.0027  -0.0028   7.00    7.8
2024/07/31 13:49:38.000   28.319701123  -16.513813761  2011.3209   1   7   0.0014   0.0014   0.0143  -0.0008   0.0027  -0.0028   8.00    8.0
2024/07/31 13:49:39.000   28.319701123  -16.513813761  2011.3212   1   7   0.0014   0.0014   0.0143  -0.0008   0.0027  -0.0028   9.00    8.2
2024/07/31 13:49:40.000   28.319701123  -16.513813761  2011.3216   1   7   0.0014   0.0014   0.0143  -0.0008   0.0027  -0.0028  10.00    8.4
2024/07/31 13:49:41.000   28.319701123  -16.513813761  2011.3219   1   7   0.0014   0.0014   0.0143  -0.0008   0.0027  -0.0028  11.00    8.6
2024/07/31 13:49:42.000   28.319701123  -16.513813761  2011.3222   1   7   0.0014   0.0014   0.0143  -0.0008   0.0027  -0.0028  12.00    8.8
2024/07/31 13:49:43.000   28.319701111  -16.513813741  2011.2945   1   7   0.0014   0.0014   0.0138  -0.0007   0.0029  -0.0029  13.00    3.4
2024/07/31 13:49:44.000   28.319701111  -16.513813740  2011.2947   1   7   0.0014   0.0014   0.0138  -0.0007   0.0029  -0.0029  14.00    3.5
2024/07/31 13:49:45.000   28.319701111  -16.513813741  2011.2946   1   7   0.0014   0.0014   0.0138  -0.0007   0.0029  -0.0029 -15.00    3.6
2024/07/31 13:49:46.000   28.319701111  -16.513813741  2011.2948   1   7   0.0014   0.0014   0.0138  -0.0007   0.0029  -0.0029 -14.00    3.7
2024/07/31 13:49:47.000   28.319701111  -16.513813741  2011.2949   1   7   0.0014   0.0014   0.0138  -0.0007   0.0029  -0.0029 -13.00    3.8
2024/07/31 13:49:48.000   28.319701111  -16.513813740  2011.2951   1   7   0.0014   0.0014   0.0138  -0.0007   0.0029  -0.0029 -12.00    3.9
2024/07/31 13:49:49.000   28.319701111  -16.513813740  2011.2952   1   7   0.0014   0.0014   0.0138  -0.0007   0.0029  -0.0029 -11.00    4.0
2024/07/31 13:49:50.000   28.319701111  -16.513813740  2011.2954   1   7   0.0014   0.0014   0.0138  -0.0007   0.0029  -0.0029 -10.00    4.1
2024/07/31 13:49:51.000   28.319701111  -16.513813740  2011.2955   1   7   0.0014   0.0014   0.0138  -0.0007   0.0029  -0.0029  -9.00    4.2
2024/07/31 13:49:52.000   28.319701111  -16.513813740  2011.2957   1   7   0.0014   0.0014   0.0138  -0.0007   0.0029  -0.0029  -8.00    4.3
2024/07/31 13:49:53.000   28.319701111  -16.513813740  2011.2959   1   7   0.0014   0.0014   0.0138  -0.0007   0.0029  -0.0029  -7.00    4.4
2024/07/31 13:49:54.000   28.319701111  -16.513813740  2011.2961   1   7   0.0014   0.0014   0.0138  -0.0007   0.0029  -0.0029  -6.00    4.5
2024/07/31 13:49:55.000   28.319701111  -16.513813740  2011.2962   1   7   0.0014   0.0014   0.0138  -0.0007   0.0029  -0.0029  -5.00    4.6
2024/07/31 13:49:56.000   28.319701111  -16.513813740  2011.2967   1   7   0.0014   0.0014   0.0138  -0.0007   0.0029  -0.0029  -4.00    4.7
2024/07/31 13:49:57.000   28.319701111  -16.513813740  2011.2968   1   7   0.0014   0.0014   0.0138  -0.0007   0.0029  -0.0029  -3.00    4.8
2024/07/31 13:49:58.000   28.319701111  -16.513813740  2011.2969   1   7   0.0014   0.0014   0.0138  -0.0007   0.0029  -0.0029  -2.00    4.9
2024/07/31 13:49:59.000   28.319701111  -16.513813740  2011.2969   1   7   0.0014   0.0014   0.0137  -0.0007   0.0029  -0.0029  -1.00    5.0
2024/07/31 13:50:00.000   28.319701109  -16.513813741  2011.2956   1   7   0.0014   0.0014   0.0137  -0.0007   0.0029  -0.0029   0.00    5.1
2024/07/31 13:50:01.000   28.319701111  -16.513813739  2011.2980   1   7   0.0014   0.0014   0.0137  -0.0007   0.0029  -0.0029   1.00    4.1
2024/07/31 13:50:02.000   28.319701111  -16.513813739  2011.2982   1   7   0.0014   0.0014   0.0137  -0.0007   0.0029  -0.0029   2.00    5.4
2024/07/31 13:50:03.000   28.319701111  -16.513813739  2011.2983   1   7   0.0014   0.0014   0.0137  -0.0007   0.0029  -0.0029   3.00    5.5
2024/07/31 13:50:04.000   28.319701111  -16.513813739  2011.2985   1   7   0.0014   0.0014   0.0137  -0.0007   0.0029  -0.0029   4.00    5.6
2024/07/31 13:50:05.000   28.319701111  -16.513813739  2011.2987   1   7   0.0014   0.0014   0.0137  -0.0007   0.0029  -0.0029   5.00    5.7
2024/07/31 13:50:06.000   28.319701111  -16.513813739  2011.2989   1   7   0.0014   0.0014   0.0137  -0.0007   0.0029  -0.0029   6.00    5.8
2024/07/31 13:50:07.000   28.319701110  -16.513813739  2011.2991   1   7   0.0014   0.0014   0.0137  -0.0007   0.0029  -0.0029   7.00    5.9
2024/07/31 13:50:08.000   28.319701110  -16.513813739  2011.2993   1   7   0.0014   0.0014   0.0137  -0.0007   0.0029  -0.0029   8.00    6.0
2024/07/31 13:50:09.000   28.319701110  -16.513813739  2011.2995   1   7   0.0014   0.0014   0.0137  -0.0007   0.0029  -0.0029   9.00    6.1
2024/07/31 13:50:10.000   28.319701110  -16.513813739  2011.2996   1   7   0.0014   0.0014   0.0137  -0.0007   0.0029  -0.0029  10.00    6.2
2024/07/31 13:50:11.000   28.319701110  -16.513813739  2011.2998   1   7   0.0014   0.0014   0.0137  -0.0007   0.0029  -0.0029  11.00    6.3
2024/07/31 13:50:12.000   28.319701110  -16.513813739  2011.3000   1   7   0.0014   0.0014   0.0137  -0.0007   0.0029  -0.0029  12.00    6.4
2024/07/31 13:50:13.000   28.319701110  -16.513813739  2011.3001   1   7   0.0014   0.0014   0.0137  -0.0007   0.0029  -0.0029  13.00    6.5
2024/07/31 13:50:14.000   28.319701110  -16.513813739  2011.3003   1   7   0.0014   0.0014   0.0137  -0.0007   0.0029  -0.0029  14.00    6.6
2024/07/31 13:50:15.000   28.319701110  -16.513813739  2011.3004   1   7   0.0014   0.0014   0.0137  -0.0007   0.0029  -0.0029 -15.00    6.7
2024/07/31 13:50:16.000   28.319701110  -16.513813739  2011.3006   1   7   0.0014   0.0014   0.0137  -0.0007   0.0029  -0.0029 -14.00    6.8
2024/07/31 13:50:17.000   28.319701110  -16.513813739  2011.3007   1   7   0.0014   0.0014   0.0137  -0.0007   0.0029  -0.0029 -13.00    6.9
2024/07/31 13:50:18.000   28.319701110  -16.513813739  2011.3008   1   7   0.0014   0.0014   0.0137  -0.0007   0.0029  -0.0029 -12.00    7.0
2024/07/31 13:50:19.000   28.319701110  -16.513813739  2011.3010   1   7   0.0014   0.0014   0.0137  -0.0007   0.0029  -0.0029 -11.00    7.1
2024/07/31 13:50:20.000   28.319701110  -16.513813739  2011.3011   1   7   0.0014   0.0014   0.0137  -0.0007   0.0029  -0.0029 -10.00    7.2
2024/07/31 13:50:21.000   28.319701110  -16.513813739  2011.3012   1   7   0.0014   0.0014   0.0137  -0.0007   0.0029  -0.0029  -9.00    7.3
2024/07/31 13:50:22.000   28.319701110  -16.513813739  2011.3014   1   7   0.0014   0.0014   0.0137  -0.0007   0.0029  -0.0029  -8.00    7.4
2024/07/31 13:50:23.000   28.319701109  -16.513813739  2011.3016   1   7   0.0014   0.0014   0.0137  -0.0007   0.0029  -0.0029  -7.00    7.5
2024/07/31 13:50:24.000   28.319701109  -16.513813739  2011.3018   1   7   0.0014   0.0014   0.0137  -0.0007   0.0029  -0.0029  -6.00    7.6
2024/07/31 13:50:25.000   28.319701109  -16.513813739  2011.3020   1   7   0.0014   0.0014   0.0137  -0.0007   0.0029  -0.0029  -5.00    7.7
2024/07/31 13:50:26.000   28.319701110  -16.513813739  2011.3023   1   7   0.0014   0.0014   0.0137  -0.0007   0.0029  -0.0029  -4.00    7.8
2024/07/31 13:50:27.000   28.319701109  -16.513813739  2011.3024   1   7   0.0014   0.0014   0.0137  -0.0007   0.0029  -0.0029  -3.00    7.9
2024/07/31 13:50:28.000   28.319701109  -16.513813739  2011.3023   1   7   0.0014   0.0014   0.0137  -0.0007   0.0029  -0.0029  -2.00    8.0
2024/07/31 13:50:29.000   28.319701109  -16.513813738  2011.3026   1   7   0.0014   0.0014   0.0137  -0.0007   0.0029  -0.0029  -1.00    8.1
2024/07/31 13:50:30.000   28.319701108  -16.513813740  2011.3012   1   7   0.0014   0.0014   0.0136  -0.0007   0.0028  -0.0029   0.00    8.3
2024/07/31 13:50:31.000   28.319701109  -16.513813739  2011.3025   1   7   0.0014   0.0014   0.0137  -0.0007   0.0029  -0.0029   1.00    4.5
2024/07/31 13:50:32.000   28.319701109  -16.513813739  2011.3026   1   7   0.0014   0.0014   0.0137  -0.0007   0.0029  -0.0029   2.00    7.3
2024/07/31 13:50:33.000   28.319701109  -16.513813739  2011.3026   1   7   0.0014   0.0014   0.0137  -0.0007   0.0029  -0.0029   3.00    8.7
2024/07/31 13:50:34.000   28.319701109  -16.513813739  2011.3028   1   7   0.0014   0.0014   0.0137  -0.0007   0.0029  -0.0029   4.00    8.7
2024/07/31 13:50:35.000   28.319701109  -16.513813739  2011.3029   1   7   0.0014   0.0014   0.0137  -0.0007   0.0029  -0.0029   5.00    8.8
2024/07/31 13:50:36.000   28.319701109  -16.513813739  2011.3031   1   7   0.0014   0.0014   0.0137  -0.0007   0.0029  -0.0029   6.00    9.0
2024/07/31 13:50:37.000   28.319701109  -16.513813739  2011.3032   1   7   0.0014   0.0014   0.0137  -0.0007   0.0029  -0.0029   7.00    9.1
2024/07/31 13:50:38.000   28.319701108  -16.513813739  2011.3034   1   7   0.0014   0.0014   0.0137  -0.0007   0.0029  -0.0029   8.00    9.2
2024/07/31 13:50:39.000   28.319701108  -16.513813739  2011.3036   1   7   0.0014   0.0014   0.0137  -0.0007   0.0029  -0.0029   9.00    9.3
2024/07/31 13:50:40.000   28.319701108  -16.513813739  2011.3038   1   7   0.0014   0.0014   0.0137  -0.0007   0.0029  -0.0029  10.00    9.4
2024/07/31 13:50:41.000   28.319701108  -16.513813739  2011.3039   1   7   0.0014   0.0014   0.0137  -0.0007   0.0029  -0.0029  11.00    9.5
2024/07/31 13:50:42.000   28.319701108  -16.513813739  2011.3041   1   7   0.0014   0.0014   0.0137  -0.0007   0.0029  -0.0029  12.00    9.6
2024/07/31 13:50:43.000   28.319701108  -16.513813739  2011.3043   1   7   0.0014   0.0014   0.0137  -0.0007   0.0029  -0.0029  13.00    9.7
2024/07/31 13:50:44.000   28.319701108  -16.513813739  2011.3044   1   7   0.0014   0.0014   0.0137  -0.0007   0.0029  -0.0029  14.00    9.8
2024/07/31 13:50:45.000   28.319701108  -16.513813739  2011.3046   1   7   0.0014   0.0014   0.0137  -0.0007   0.0029  -0.0029 -15.00    9.9
2024/07/31 13:50:46.000   28.319701108  -16.513813739  2011.3047   1   7   0.0014   0.0014   0.0137  -0.0007   0.0029  -0.0029 -14.00   10.0
2024/07/31 13:50:47.000   28.319701108  -16.513813739  2011.3049   1   7   0.0014   0.0014   0.0137  -0.0007   0.0029  -0.0029 -13.00   10.1
2024/07/31 13:50:48.000   28.319701108  -16.513813739  2011.3050   1   7   0.0014   0.0014   0.0137  -0.0007   0.0029  -0.0029 -12.00   10.3
2024/07/31 13:50:49.000   28.319701108  -16.513813739  2011.3051   1   7   0.0014   0.0014   0.0137  -0.0007   0.0029  -0.0029 -11.00   10.4
2024/07/31 13:50:50.000   28.319701108  -16.513813739  2011.3053   1   7   0.0014   0.0014   0.0137  -0.0007   0.0029  -0.0029 -10.00   10.5
2024/07/31 13:50:51.000   28.319701108  -16.513813739  2011.3055   1   7   0.0014   0.0014   0.0137  -0.0007   0.0029  -0.0029  -9.00   10.6
2024/07/31 13:50:52.000   28.319701108  -16.513813739  2011.3056   1   7   0.0014   0.0014   0.0137  -0.0007   0.0029  -0.0029  -8.00   10.7
2024/07/31 13:50:53.000   28.319701108  -16.513813739  2011.3058   1   7   0.0014   0.0014   0.0137  -0.0007   0.0029  -0.0029  -7.00   10.8
2024/07/31 13:50:54.000   28.319701108  -16.513813739  2011.3059   1   7   0.0014   0.0014   0.0137  -0.0007   0.0029  -0.0029  -6.00   10.9
2024/07/31 13:50:55.000   28.319701108  -16.513813739  2011.3062   1   7   0.0014   0.0014   0.0136  -0.0007   0.0029  -0.0029  -5.00   11.1
2024/07/31 13:50:56.000   28.319701108  -16.513813738  2011.3065   1   7   0.0014   0.0014   0.0136  -0.0007   0.0029  -0.0029  -4.00   11.1
2024/07/31 13:50:57.000   28.319701108  -16.513813738  2011.3068   1   7   0.0014   0.0014   0.0136  -0.0007   0.0029  -0.0029  -3.00   11.3
2024/07/31 13:50:58.000   28.319701108  -16.513813738  2011.3069   1   7   0.0014   0.0014   0.0136  -0.0007   0.0029  -0.0029  -2.00   11.3
2024/07/31 13:50:59.000   28.319701107  -16.513813738  2011.3071   1   7   0.0014   0.0014   0.0136  -0.0007   0.0029  -0.0029  -1.00   11.4
2024/07/31 13:51:00.000   28.319701107  -16.513813738  2011.3078   1   7   0.0014   0.0014   0.0136  -0.0008   0.0028  -0.0029   0.00   11.5
2024/07/31 13:51:01.000   28.319701108  -16.513813736  2011.3093   1   7   0.0014   0.0014   0.0136  -0.0007   0.0029  -0.0029   1.00    4.7
2024/07/31 13:51:02.000   28.319701108  -16.513813736  2011.3094   1   7   0.0014   0.0014   0.0136  -0.0007   0.0029  -0.0029   2.00    7.7
2024/07/31 13:51:03.000   28.319701108  -16.513813736  2011.3096   1   7   0.0014   0.0014   0.0136  -0.0007   0.0029  -0.0029   3.00   10.2
2024/07/31 13:51:04.000   28.319701108  -16.513813737  2011.3098   1   7   0.0014   0.0014   0.0136  -0.0007   0.0029  -0.0029   4.00   12.2
2024/07/31 13:51:05.000   28.319701108  -16.513813737  2011.3101   1   7   0.0014   0.0014   0.0136  -0.0007   0.0029  -0.0029   5.00   12.3
2024/07/31 13:51:06.000   28.319701108  -16.513813737  2011.3103   1   7   0.0014   0.0014   0.0136  -0.0007   0.0029  -0.0029   6.00   12.4
2024/07/31 13:51:07.000   28.319701107  -16.513813737  2011.3105   1   7   0.0014   0.0014   0.0136  -0.0007   0.0029  -0.0029   7.00   12.5
2024/07/31 13:51:08.000   28.319701107  -16.513813737  2011.3108   1   7   0.0014   0.0014   0.0136  -0.0007   0.0029  -0.0029   8.00   12.6
2024/07/31 13:51:09.000   28.319701107  -16.513813736  2011.3110   1   7   0.0014   0.0014   0.0136  -0.0007   0.0029  -0.0029   9.00   12.7
2024/07/31 13:51:10.000   28.319701107  -16.513813736  2011.3112   1   7   0.0014   0.0014   0.0136  -0.0007   0.0029  -0.0029  10.00   12.8
2024/07/31 13:51:11.000   28.319701107  -16.513813736  2011.3114   1   7   0.0014   0.0014   0.0136  -0.0007   0.0029  -0.0029  11.00   12.9
2024/07/31 13:51:12.000   28.319701107  -16.513813736  2011.3115   1   7   0.0014   0.0014   0.0136  -0.0007   0.0029  -0.0029  12.00   13.0
2024/07/31 13:51:13.000   28.319701107  -16.513813736  2011.3117   1   7   0.0014   0.0014   0.0136  -0.0007   0.0029  -0.0029  13.00   13.2
2024/07/31 13:51:14.000   28.319701107  -16.513813736  2011.3118   1   7   0.0014   0.0014   0.0136  -0.0007   0.0029  -0.0029  14.00   13.3
2024/07/31 13:51:15.000   28.319701107  -16.513813736  2011.3120   1   7   0.0014   0.0014   0.0136  -0.0007   0.0029  -0.0029 -15.00   13.4
2024/07/31 13:51:16.000   28.319701107  -16.513813736  2011.3122   1   7   0.0014   0.0014   0.0136  -0.0007   0.0029  -0.0029 -14.00   13.5
2024/07/31 13:51:17.000   28.319701107  -16.513813736  2011.3123   1   7   0.0014   0.0014   0.0136  -0.0007   0.0029  -0.0029 -13.00   13.7
2024/07/31 13:51:18.000   28.319701107  -16.513813736  2011.3124   1   7   0.0014   0.0014   0.0136  -0.0007   0.0029  -0.0029 -12.00   13.8
2024/07/31 13:51:19.000   28.319701107  -16.513813736  2011.3126   1   7   0.0014   0.0014   0.0136  -0.0007   0.0029  -0.0029 -11.00   13.9
2024/07/31 13:51:20.000   28.319701106  -16.513813736  2011.3127   1   7   0.0014   0.0014   0.0136  -0.0007   0.0029  -0.0029 -10.00   14.0
2024/07/31 13:51:21.000   28.319701106  -16.513813736  2011.3129   1   7   0.0014   0.0014   0.0136  -0.0007   0.0029  -0.0029  -9.00   14.2
2024/07/31 13:51:22.000   28.319701106  -16.513813736  2011.3131   1   7   0.0014   0.0014   0.0136  -0.0007   0.0029  -0.0029  -8.00   14.3
2024/07/31 13:51:23.000   28.319701106  -16.513813736  2011.3132   1   7   0.0014   0.0014   0.0136  -0.0007   0.0028  -0.0029  -7.00   14.5
2024/07/31 13:51:24.000   28.319701106  -16.513813736  2011.3134   1   7   0.0014   0.0014   0.0136  -0.0007   0.0028  -0.0029  -6.00   14.6
2024/07/31 13:51:25.000   28.319701106  -16.513813736  2011.3136   1   7   0.0014   0.0014   0.0136  -0.0007   0.0028  -0.0029  -5.00   14.8
2024/07/31 13:51:26.000   28.319701106  -16.513813736  2011.3137   1   7   0.0014   0.0014   0.0136  -0.0007   0.0028  -0.0029  -4.00   15.0
2024/07/31 13:51:27.000   28.319701106  -16.513813736  2011.3139   1   7   0.0014   0.0014   0.0136  -0.0007   0.0028  -0.0029  -3.00   15.1
2024/07/31 13:51:28.000   28.319701106  -16.513813736  2011.3139   1   7   0.0014   0.0014   0.0136  -0.0007   0.0028  -0.0029  -2.00   15.3
2024/07/31 13:51:29.000   28.319701106  -16.513813736  2011.3140   1   7   0.0014   0.0014   0.0136  -0.0007   0.0028  -0.0029  -1.00   15.5
2024/07/31 13:51:30.000   28.319701107  -16.513813735  2011.3149   1   7   0.0014   0.0014   0.0136  -0.0008   0.0028  -0.0029   0.00   15.6
2024/07/31 13:51:31.000   28.319701107  -16.513813736  2011.3145   1   7   0.0014   0.0014   0.0136  -0.0008   0.0028  -0.0029   1.00    5.0
2024/07/31 13:51:32.000   28.319701106  -16.513813736  2011.3147   1   7   0.0014   0.0014   0.0136  -0.0008   0.0028  -0.0029   2.00    8.5
2024/07/31 13:51:33.000   28.319701106  -16.513813736  2011.3147   1   7   0.0014   0.0014   0.0136  -0.0008   0.0028  -0.0029   3.00   11.1
2024/07/31 13:51:34.000   28.319701106  -16.513813736  2011.3149   1   7   0.0014   0.0014   0.0136  -0.0008   0.0028  -0.0029   4.00   13.3
2024/07/31 13:51:35.000   28.319701106  -16.513813736  2011.3151   1   7   0.0014   0.0014   0.0136  -0.0008   0.0028  -0.0029   5.00   15.2
2024/07/31 13:51:36.000   28.319701106  -16.513813736  2011.3153   1   7   0.0014   0.0014   0.0136  -0.0008   0.0028  -0.0029   6.00   16.2
2024/07/31 13:51:37.000   28.319701106  -16.513813736  2011.3155   1   7   0.0014   0.0014   0.0136  -0.0008   0.0028  -0.0029   7.00   16.3
2024/07/31 13:51:38.000   28.319701106  -16.513813736  2011.3157   1   7   0.0014   0.0014   0.0136  -0.0008   0.0028  -0.0029   8.00   16.4
2024/07/31 13:51:39.000   28.319701105  -16.513813736  2011.3158   1   7   0.0014   0.0014   0.0136  -0.0008   0.0028  -0.0029   9.00   16.6
2024/07/31 13:51:40.000   28.319701105  -16.513813736  2011.3160   1   7   0.0014   0.0014   0.0136  -0.0008   0.0028  -0.0029  10.00   16.7
2024/07/31 13:51:41.000   28.319701105  -16.513813736  2011.3161   1   7   0.0014   0.0014   0.0136  -0.0008   0.0028  -0.0029  11.00   16.8
2024/07/31 13:51:42.000   28.319701105  -16.513813736  2011.3163   1   7   0.0014   0.0014   0.0136  -0.0008   0.0028  -0.0029  12.00   17.0
2024/07/31 13:51:43.000   28.319701105  -16.513813736  2011.3164   1   7   0.0014   0.0014   0.0136  -0.0008   0.0028  -0.0029  13.00   17.1
2024/07/31 13:51:44.000   28.319701105  -16.513813736  2011.3165   1   7   0.0014   0.0014   0.0136  -0.0008   0.0028  -0.0029  14.00   17.2
2024/07/31 13:51:45.000   28.319701105  -16.513813736  2011.3167   1   7   0.0014   0.0014   0.0136  -0.0008   0.0028  -0.0029 -15.00   17.4
2024/07/31 13:51:46.000   28.319701105  -16.513813736  2011.3168   1   7   0.0014   0.0014   0.0136  -0.0008   0.0028  -0.0029 -14.00   17.5
2024/07/31 13:51:47.000   28.319701105  -16.513813736  2011.3169   1   7   0.0014   0.0014   0.0136  -0.0008   0.0028  -0.0029 -13.00   17.6
2024/07/31 13:51:48.000   28.319701105  -16.513813736  2011.3171   1   7   0.0014   0.0014   0.0136  -0.0008   0.0028  -0.0029 -12.00   17.8
2024/07/31 13:51:49.000   28.319701105  -16.513813736  2011.3172   1   7   0.0014   0.0014   0.0136  -0.0008   0.0028  -0.0029 -11.00   17.9
2024/07/31 13:51:50.000   28.319701105  -16.513813736  2011.3174   1   7   0.0014   0.0014   0.0136  -0.0008   0.0028  -0.0029 -10.00   18.1
2024/07/31 13:51:51.000   28.319701105  -16.513813736  2011.3176   1   7   0.0014   0.0014   0.0136  -0.0008   0.0028  -0.0029  -9.00   18.2
2024/07/31 13:51:52.000   28.319701105  -16.513813736  2011.3178   1   7   0.0014   0.0014   0.0136  -0.0008   0.0028  -0.0029  -8.00   18.4
2024/07/31 13:51:53.000   28.319701105  -16.513813736  2011.3180   1   7   0.0014   0.0014   0.0136  -0.0008   0.0028  -0.0029  -7.00   18.6
2024/07/31 13:51:54.000   28.319701104  -16.513813736  2011.3181   1   7   0.0014   0.0014   0.0136  -0.0008   0.0028  -0.0029  -6.00   18.8
2024/07/31 13:51:55.000   28.319701104  -16.513813736  2011.3183   1   7   0.0014   0.0014   0.0136  -0.0008   0.0028  -0.0029  -5.00   19.0
2024/07/31 13:51:56.000   28.319701104  -16.513813736  2011.3184   1   7   0.0014   0.0014   0.0136  -0.0008   0.0028  -0.0029  -4.00   19.1
2024/07/31 13:51:57.000   28.319701104  -16.513813736  2011.3187   1   7   0.0014   0.0014   0.0136  -0.0008   0.0028  -0.0029  -3.00   19.3
2024/07/31 13:51:58.000   28.319701104  -16.513813735  2011.3190   1   7   0.0014   0.0014   0.0136  -0.0008   0.0028  -0.0029  -2.00   19.5
2024/07/31 13:51:59.000   28.319701103  -16.513813735  2011.3194   1   7   0.0014   0.0014   0.0136  -0.0008   0.0028  -0.0029  -1.00   19.7
2024/07/31 13:52:00.000   28.319701105  -16.513813733  2011.3218   1   7   0.0014   0.0014   0.0135  -0.0008   0.0028  -0.0029   0.00   20.0
2024/07/31 13:52:01.000   28.319701104  -16.513813734  2011.3210   1   7   0.0014   0.0014   0.0136  -0.0008   0.0028  -0.0029   1.00    5.4
2024/07/31 13:52:02.000   28.319701104  -16.513813734  2011.3210   1   7   0.0014   0.0014   0.0136  -0.0008   0.0028  -0.0029   2.00    9.1
2024/07/31 13:52:03.000   28.319701104  -16.513813734  2011.3211   1   7   0.0014   0.0014   0.0136  -0.0008   0.0028  -0.0029   3.00   12.1
2024/07/31 13:52:04.000   28.319701104  -16.513813734  2011.3211   1   7   0.0014   0.0014   0.0136  -0.0008   0.0028  -0.0029   4.00   14.5
2024/07/31 13:52:05.000   28.319701104  -16.513813734  2011.3211   1   7   0.0014   0.0014   0.0136  -0.0008   0.0028  -0.0029   5.00   16.6
2024/07/31 13:52:06.000   28.319701104  -16.513813734  2011.3212   1   7   0.0014   0.0014   0.0136  -0.0008   0.0028  -0.0029   6.00   18.2
2024/07/31 13:52:07.000   28.319701104  -16.513813734  2011.3214   1   7   0.0014   0.0014   0.0136  -0.0008   0.0028  -0.0029   7.00   19.6
2024/07/31 13:52:08.000   28.319701104  -16.513813734  2011.3214   1   7   0.0014   0.0014   0.0136  -0.0008   0.0028  -0.0029   8.00   20.7
2024/07/31 13:52:09.000   28.319701104  -16.513813734  2011.3215   1   7   0.0014   0.0014   0.0136  -0.0008   0.0029  -0.0029   9.00   21.5
2024/07/31 13:52:10.000   28.319701104  -16.513813734  2011.3216   1   7   0.0014   0.0014   0.0136  -0.0008   0.0029  -0.0029  10.00   21.9
2024/07/31 13:52:11.000   28.319701104  -16.513813734  2011.3217   1   7   0.0014   0.0014   0.0136  -0.0008   0.0029  -0.0029  11.00   22.2
2024/07/31 13:52:12.000   28.319701104  -16.513813734  2011.3217   1   7   0.0014   0.0014   0.0136  -0.0008   0.0029  -0.0029  12.00   22.3
2024/07/31 13:52:13.000   28.319701104  -16.513813734  2011.3218   1   7   0.0014   0.0014   0.0136  -0.0008   0.0029  -0.0029  13.00   22.5
2024/07/31 13:52:14.000   28.319701104  -16.513813734  2011.3219   1   7   0.0014   0.0014   0.0136  -0.0008   0.0029  -0.0029  14.00   22.6
2024/07/31 13:52:15.000   28.319701104  -16.513813734  2011.3220   1   7   0.0014   0.0014   0.0136  -0.0008   0.0029  -0.0029 -15.00   22.8
2024/07/31 13:52:16.000   28.319701104  -16.513813734  2011.3222   1   7   0.0014   0.0014   0.0136  -0.0008   0.0029  -0.0029 -14.00   23.0
2024/07/31 13:52:17.000   28.319701104  -16.513813734  2011.3223   1   7   0.0014   0.0014   0.0136  -0.0008   0.0029  -0.0029 -13.00   23.1
2024/07/31 13:52:18.000   28.319701104  -16.513813734  2011.3224   1   7   0.0014   0.0014   0.0136  -0.0008   0.0029  -0.0029 -12.00   23.3
2024/07/31 13:52:19.000   28.319701103  -16.513813734  2011.3225   1   7   0.0014   0.0014   0.0136  -0.0008   0.0029  -0.0029 -11.00   23.5
2024/07/31 13:52:20.000   28.319701103  -16.513813734  2011.3226   1   7   0.0014   0.0014   0.0136  -0.0008   0.0029  -0.0029 -10.00   23.7
2024/07/31 13:52:21.000   28.319701103  -16.513813734  2011.3228   1   7   0.0014   0.0014   0.0136  -0.0008   0.0029  -0.0029  -9.00   23.9
2024/07/31 13:52:22.000   28.319701103  -16.513813734  2011.3229   1   7   0.0014   0.0014   0.0136  -0.0008   0.0029  -0.0029  -8.00   24.0
2024/07/31 13:52:23.000   28.319701103  -16.513813734  2011.3230   1   7   0.0014   0.0014   0.0136  -0.0008   0.0029  -0.0029  -7.00   24.2
2024/07/31 13:52:24.000   28.319701103  -16.513813734  2011.3232   1   7   0.0014   0.0014   0.0136  -0.0008   0.0029  -0.0029  -6.00   24.4
2024/07/31 13:52:25.000   28.319701103  -16.513813734  2011.3233   1   7   0.0014   0.0014   0.0136  -0.0008   0.0029  -0.0029  -5.00   24.6
2024/07/31 13:52:26.000   28.319701104  -16.513813734  2011.3234   1   7   0.0014   0.0014   0.0136  -0.0008   0.0029  -0.0029  -4.00   24.9
2024/07/31 13:52:27.000   28.319701104  -16.513813734  2011.3235   1   7   0.0014   0.0014   0.0136  -0.0008   0.0029  -0.0029  -3.00   25.1
2024/07/31 13:52:28.000   28.319701103  -16.513813735  2011.3233   1   7   0.0014   0.0014   0.0136  -0.0008   0.0029  -0.0029  -2.00   25.3
2024/07/31 13:52:29.000   28.319701103  -16.513813735  2011.3234   1   7   0.0014   0.0014   0.0136  -0.0008   0.0028  -0.0029  -1.00   25.5
2024/07/31 13:52:30.000   28.319701103  -16.513813735  2011.3233   1   7   0.0014   0.0014   0.0135  -0.0008   0.0028  -0.0030   0.00   25.7
2024/07/31 13:52:31.000   28.319701101  -16.513813736  2011.3219   1   7   0.0014   0.0014   0.0136  -0.0008   0.0028  -0.0029   1.00    5.7
2024/07/31 13:52:32.000   28.319701100  -16.513813736  2011.3221   1   7   0.0014   0.0014   0.0136  -0.0008   0.0029  -0.0029   2.00    9.7
2024/07/31 13:52:33.000   28.319701100  -16.513813736  2011.3222   1   7   0.0014   0.0014   0.0136  -0.0008   0.0029  -0.0029   3.00   13.0
2024/07/31 13:52:34.000   28.319701100  -16.513813736  2011.3224   1   7   0.0014   0.0014   0.0136  -0.0008   0.0029  -0.0029   4.00   15.7
2024/07/31 13:52:35.000   28.319701100  -16.513813736  2011.3227   1   7   0.0014   0.0014   0.0136  -0.0008   0.0029  -0.0029   5.00   18.1
2024/07/31 13:52:36.000   28.319701100  -16.513813736  2011.3229   1   7   0.0014   0.0014   0.0136  -0.0008   0.0029  -0.0029   6.00   20.1
2024/07/31 13:52:37.000   28.319701100  -16.513813736  2011.3229   1   7   0.0014   0.0014   0.0136  -0.0008   0.0029  -0.0029   7.00   21.7
2024/07/31 13:52:38.000   28.319701100  -16.513813736  2011.3231   1   7   0.0014   0.0014   0.0136  -0.0008   0.0029  -0.0029   8.00   23.1
2024/07/31 13:52:39.000   28.319701100  -16.513813736  2011.3232   1   7   0.0014   0.0014   0.0136  -0.0008   0.0029  -0.0029   9.00   24.3
2024/07/31 13:52:40.000   28.319701100  -16.513813736  2011.3233   1   7   0.0014   0.0014   0.0136  -0.0008   0.0029  -0.0029  10.00   25.1
2024/07/31 13:52:41.000   28.319701099  -16.513813736  2011.3234   1   7   0.0014   0.0014   0.0136  -0.0008   0.0029  -0.0030  11.00   25.7
2024/07/31 13:52:42.000   28.319701099  -16.513813736  2011.3235   1   7   0.0014   0.0014   0.0136  -0.0008   0.0029  -0.0030  12.00   26.2
2024/07/31 13:52:43.000   28.319701099  -16.513813736  2011.3236   1   7   0.0014   0.0014   0.0136  -0.0008   0.0029  -0.0030  13.00   26.7
2024/07/31 13:52:44.000   28.319701099  -16.513813736  2011.3237   1   7   0.0014   0.0014   0.0136  -0.0008   0.0029  -0.0030  14.00   27.1
2024/07/31 13:52:45.000   28.319701099  -16.513813736  2011.3238   1   7   0.0014   0.0014   0.0136  -0.0008   0.0029  -0.0030 -15.00   27.5
2024/07/31 13:52:46.000   28.319701099  -16.513813736  2011.3239   1   7   0.0014   0.0014   0.0136  -0.0008   0.0029  -0.0030 -14.00   28.0
2024/07/31 13:52:47.000   28.319701099  -16.513813736  2011.3240   1   7   0.0014   0.0014   0.0136  -0.0008   0.0029  -0.0030 -13.00   28.4
2024/07/31 13:52:48.000   28.319701099  -16.513813736  2011.3242   1   7   0.0014   0.0014   0.0136  -0.0008   0.0029  -0.0030 -12.00   28.8
2024/07/31 13:52:49.000   28.319701099  -16.513813736  2011.3243   1   7   0.0014   0.0014   0.0136  -0.0008   0.0029  -0.0030 -11.00   29.3
2024/07/31 13:52:50.000   28.319701099  -16.513813736  2011.3245   1   7   0.0014   0.0014   0.0136  -0.0008   0.0029  -0.0030 -10.00   29.9
2024/07/31 13:52:51.000   28.319701099  -16.513813736  2011.3246   1   7   0.0014   0.0014   0.0136  -0.0008   0.0029  -0.0030  -9.00   30.4
2024/07/31 13:52:52.000   28.319701099  -16.513813737  2011.3247   1   7   0.0014   0.0014   0.0136  -0.0008   0.0029  -0.0030  -8.00   30.9
2024/07/31 13:52:53.000   28.319701099  -16.513813736  2011.3249   1   7   0.0014   0.0014   0.0136  -0.0008   0.0029  -0.0030  -7.00   31.1
2024/07/31 13:52:54.000   28.319701099  -16.513813736  2011.3251   1   7   0.0014   0.0014   0.0136  -0.0008   0.0029  -0.0030  -6.00   31.5
2024/07/31 13:52:55.000   28.319701099  -16.513813736  2011.3253   1   7   0.0014   0.0014   0.0136  -0.0008   0.0029  -0.0030  -5.00   31.7
2024/07/31 13:52:56.000   28.319701099  -16.513813736  2011.3256   1   7   0.0014   0.0014   0.0136  -0.0008   0.0029  -0.0030  -4.00   32.0
2024/07/31 13:52:57.000   28.319701099  -16.513813736  2011.3258   1   7   0.0014   0.0014   0.0136  -0.0008   0.0029  -0.0030  -3.00   32.4
2024/07/31 13:52:58.000   28.319701099  -16.513813736  2011.3260   1   7   0.0014   0.0014   0.0136  -0.0008   0.0029  -0.0030  -2.00   32.7
2024/07/31 13:52:59.000   28.319701098  -16.513813736  2011.3261   1   7   0.0014   0.0014   0.0136  -0.0008   0.0029  -0.0030  -1.00   32.9
2024/07/31 13:53:00.000   28.319701095  -16.513813738  2011.3238   1   7   0.0014   0.0014   0.0135  -0.0008   0.0028  -0.0030   0.00   33.1
2024/07/31 13:53:01.000   28.319701095  -16.513813738  2011.3244   1   7   0.0014   0.0014   0.0136  -0.0008   0.0029  -0.0030   1.00    6.0
2024/07/31 13:53:02.000   28.319701095  -16.513813738  2011.3245   1   7   0.0014   0.0014   0.0136  -0.0008   0.0029  -0.0030   2.00   10.2
2024/07/31 13:53:03.000   28.319701095  -16.513813738  2011.3247   1   7   0.0014   0.0014   0.0136  -0.0008   0.0029  -0.0030   3.00   13.6
2024/07/31 13:53:04.000   28.319701095  -16.513813738  2011.3249   1   7   0.0014   0.0014   0.0136  -0.0008   0.0029  -0.0030   4.00   16.4
2024/07/31 13:53:05.000   28.319701095  -16.513813738  2011.3251   1   7   0.0014   0.0014   0.0136  -0.0008   0.0029  -0.0030   5.00   18.8
2024/07/31 13:53:06.000   28.319701095  -16.513813738  2011.3252   1   7   0.0014   0.0014   0.0136  -0.0008   0.0029  -0.0030   6.00   20.7
2024/07/31 13:53:07.000   28.319701095  -16.513813738  2011.3253   1   7   0.0014   0.0014   0.0136  -0.0008   0.0029  -0.0030   7.00   22.2
2024/07/31 13:53:08.000   28.319701095  -16.513813738  2011.3254   1   7   0.0014   0.0014   0.0136  -0.0008   0.0029  -0.0030   8.00   23.6
2024/07/31 13:53:09.000   28.319701094  -16.513813738  2011.3256   1   7   0.0014   0.0014   0.0136  -0.0008   0.0029  -0.0030   9.00   24.7
2024/07/31 13:53:10.000   28.319701094  -16.513813738  2011.3257   1   7   0.0014   0.0014   0.0136  -0.0008   0.0029  -0.0030  10.00   25.7
2024/07/31 13:53:11.000   28.319701094  -16.513813738  2011.3259   1   7   0.0014   0.0014   0.0136  -0.0008   0.0029  -0.0030  11.00   26.6
2024/07/31 13:53:12.000   28.319701094  -16.513813738  2011.3260   1   7   0.0014   0.0014   0.0136  -0.0008   0.0029  -0.0030  12.00   27.4
2024/07/31 13:53:13.000   28.319701094  -16.513813738  2011.3261   1   7   0.0014   0.0014   0.0136  -0.0008   0.0029  -0.0030  13.00   27.9
2024/07/31 13:53:14.000   28.319701094  -16.513813738  2011.3262   1   7   0.0014   0.0014   0.0136  -0.0008   0.0029  -0.0030  14.00   28.4
2024/07/31 13:53:15.000   28.319701094  -16.513813738  2011.3263   1   7   0.0014   0.0014   0.0136  -0.0008   0.0029  -0.0030 -15.00   28.8
2024/07/31 13:53:16.000   28.319701094  -16.513813738  2011.3264   1   7   0.0014   0.0014   0.0136  -0.0008   0.0029  -0.0030 -14.00   29.3
2024/07/31 13:53:17.000   28.319701094  -16.513813738  2011.3265   1   7   0.0014   0.0014   0.0136  -0.0008   0.0029  -0.0030 -13.00   29.7
2024/07/31 13:53:18.000   28.319701094  -16.513813738  2011.3266   1   7   0.0014   0.0014   0.0136  -0.0008   0.0029  -0.0030 -12.00   30.3
2024/07/31 13:53:19.000   28.319701094  -16.513813738  2011.3268   1   7   0.0014   0.0014   0.0136  -0.0008   0.0029  -0.0030 -11.00   30.9
2024/07/31 13:53:20.000   28.319701094  -16.513813738  2011.3269   1   7   0.0014   0.0014   0.0136  -0.0008   0.0029  -0.0030 -10.00   31.5
2024/07/31 13:53:21.000   28.319701094  -16.513813738  2011.3270   1   7   0.0014   0.0014   0.0136  -0.0008   0.0029  -0.0030  -9.00   31.8
2024/07/31 13:53:22.000   28.319701094  -16.513813738  2011.3271   1   7   0.0014   0.0014   0.0136  -0.0008   0.0029  -0.0030  -8.00   32.2
2024/07/31 13:53:23.000   28.319701094  -16.513813738  2011.3273   1   7   0.0014   0.0014   0.0136  -0.0008   0.0029  -0.0030  -7.00   32.5
2024/07/31 13:53:24.000   28.319701094  -16.513813738  2011.3274   1   7   0.0014   0.0014   0.0136  -0.0008   0.0029  -0.0030  -6.00   32.9
2024/07/31 13:53:25.000   28.319701093  -16.513813738  2011.3276   1   7   0.0014   0.0014   0.0136  -0.0008   0.0029  -0.0030  -5.00   33.2
2024/07/31 13:53:26.000   28.319701094  -16.513813737  2011.3280   1   7   0.0014   0.0014   0.0136  -0.0008   0.0029  -0.0030  -4.00   33.6
2024/07/31 13:53:27.000   28.319701094  -16.513813737  2011.3281   1   7   0.0014   0.0014   0.0136  -0.0008   0.0029  -0.0030  -3.00   33.9
2024/07/31 13:53:28.000   28.319701093  -16.513813737  2011.3283   1   7   0.0014   0.0014   0.0136  -0.0008   0.0029  -0.0030  -2.00   34.2
2024/07/31 13:53:29.000   28.319701093  -16.513813737  2011.3283   1   7   0.0014   0.0014   0.0136  -0.0008   0.0029  -0.0030  -1.00   34.5
2024/07/31 13:53:30.000   28.319701089  -16.513813740  2011.3256   1   7   0.0014   0.0014   0.0136  -0.0008   0.0029  -0.0030   0.00   34.6
2024/07/31 13:53:31.000   28.319701092  -16.513813738  2011.3281   1   7   0.0014   0.0014   0.0136  -0.0008   0.0029  -0.0030   1.00    6.2
2024/07/31 13:53:32.000   28.319701092  -16.513813738  2011.3280   1   7   0.0014   0.0014   0.0136  -0.0008   0.0029  -0.0030   2.00   10.4
2024/07/31 13:53:33.000   28.319701092  -16.513813738  2011.3280   1   7   0.0014   0.0014   0.0136  -0.0008   0.0029  -0.0030   3.00   13.9
2024/07/31 13:53:34.000   28.319701091  -16.513813738  2011.3281   1   7   0.0014   0.0014   0.0136  -0.0008   0.0029  -0.0030   4.00   16.7
2024/07/31 13:53:35.000   28.319701091  -16.513813738  2011.3282   1   7   0.0014   0.0014   0.0136  -0.0008   0.0029  -0.0030   5.00   19.0
2024/07/31 13:53:36.000   28.319701091  -16.513813738  2011.3283   1   7   0.0014   0.0014   0.0136  -0.0008   0.0029  -0.0030   6.00   20.9
2024/07/31 13:53:37.000   28.319701091  -16.513813738  2011.3284   1   7   0.0014   0.0014   0.0136  -0.0008   0.0029  -0.0030   7.00   22.4
2024/07/31 13:53:38.000   28.319701091  -16.513813738  2011.3284   1   7   0.0014   0.0014   0.0136  -0.0008   0.0029  -0.0030   8.00   23.7
2024/07/31 13:53:39.000   28.319701091  -16.513813738  2011.3285   1   7   0.0014   0.0014   0.0136  -0.0008   0.0029  -0.0030   9.00   24.9
2024/07/31 13:53:40.000   28.319701091  -16.513813738  2011.3286   1   7   0.0014   0.0014   0.0136  -0.0008   0.0029  -0.0030  10.00   25.9
2024/07/31 13:53:41.000   28.319701091  -16.513813738  2011.3286   1   7   0.0014   0.0014   0.0136  -0.0008   0.0029  -0.0030  11.00   26.7
2024/07/31 13:53:42.000   28.319701091  -16.513813738  2011.3287   1   7   0.0014   0.0014   0.0136  -0.0008   0.0029  -0.0030  12.00   27.4
2024/07/31 13:53:43.000   28.319701091  -16.513813738  2011.3288   1   7   0.0014   0.0014   0.0136  -0.0008   0.0029  -0.0030  13.00   27.9
2024/07/31 13:53:44.000   28.319701091  -16.513813738  2011.3288   1   7   0.0014   0.0014   0.0136  -0.0008   0.0029  -0.0030  14.00   28.4
2024/07/31 13:53:45.000   28.319701091  -16.513813738  2011.3289   1   7   0.0014   0.0014   0.0136  -0.0008   0.0029  -0.0030 -15.00   28.8
2024/07/31 13:53:46.000   28.319701091  -16.513813738  2011.3290   1   7   0.0014   0.0014   0.0136  -0.0008   0.0029  -0.0030 -14.00   29.3
2024/07/31 13:53:47.000   28.319701091  -16.513813738  2011.3291   1   7   0.0014   0.0014   0.0136  -0.0008   0.0029  -0.0030 -13.00   29.8
2024/07/31 13:53:48.000   28.319701091  -16.513813739  2011.3291   1   7   0.0014   0.0014   0.0136  -0.0008   0.0029  -0.0030 -12.00   30.4
2024/07/31 13:53:49.000   28.319701091  -16.513813739  2011.3292   1   7   0.0014   0.0014   0.0136  -0.0008   0.0029  -0.0030 -11.00   31.0
2024/07/31 13:53:50.000   28.319701091  -16.513813739  2011.3293   1   7   0.0014   0.0014   0.0136  -0.0008   0.0029  -0.0030 -10.00   31.7
2024/07/31 13:53:51.000   28.319701091  -16.513813739  2011.3294   1   7   0.0014   0.0014   0.0136  -0.0008   0.0029  -0.0030  -9.00   32.6
2024/07/31 13:53:52.000   28.319701091  -16.513813739  2011.3295   1   7   0.0014   0.0014   0.0136  -0.0008   0.0029  -0.0030  -8.00   33.4
2024/07/31 13:53:53.000   28.319701091  -16.513813739  2011.3296   1   7   0.0014   0.0014   0.0136  -0.0008   0.0029  -0.0030  -7.00   34.4
2024/07/31 13:53:54.000   28.319701091  -16.513813739  2011.3297   1   7   0.0014   0.0014   0.0136  -0.0008   0.0029  -0.0030  -6.00   35.6
2024/07/31 13:53:55.000   28.319701091  -16.513813739  2011.3297   1   7   0.0014   0.0014   0.0136  -0.0008   0.0029  -0.0030  -5.00   36.5
2024/07/31 13:53:56.000   28.319701092  -16.513813738  2011.3302   1   7   0.0014   0.0014   0.0136  -0.0008   0.0029  -0.0030  -4.00   36.9
2024/07/31 13:53:57.000   28.319701091  -16.513813738  2011.3301   1   7   0.0014   0.0014   0.0136  -0.0008   0.0029  -0.0030  -3.00   37.1
2024/07/31 13:53:58.000   28.319701091  -16.513813738  2011.3302   1   7   0.0014   0.0014   0.0136  -0.0008   0.0029  -0.0030  -2.00   37.2
2024/07/31 13:53:59.000   28.319701091  -16.513813739  2011.3298   1   7   0.0014   0.0014   0.0136  -0.0008   0.0029  -0.0030  -1.00   37.1
2024/07/31 13:54:00.000   28.319701086  -16.513813741  2011.3270   1   7   0.0014   0.0014   0.0136  -0.0008   0.0029  -0.0030   0.00   37.2
2024/07/31 13:54:01.000   28.319701089  -16.513813739  2011.3299   1   7   0.0014   0.0014   0.0136  -0.0008   0.0029  -0.0030   1.00    6.8
2024/07/31 13:54:02.000   28.319701089  -16.513813739  2011.3299   1   7   0.0014   0.0014   0.0136  -0.0008   0.0029  -0.0030   2.00   11.3
2024/07/31 13:54:03.000   28.319701090  -16.513813739  2011.3297   1   7   0.0014   0.0014   0.0136  -0.0008   0.0029  -0.0030   3.00   14.9
2024/07/31 13:54:04.000   28.319701090  -16.513813739  2011.3294   1   7   0.0014   0.0014   0.0136  -0.0008   0.0029  -0.0030   4.00   17.8
2024/07/31 13:54:05.000   28.319701090  -16.513813739  2011.3293   1   7   0.0014   0.0014   0.0136  -0.0008   0.0029  -0.0030   5.00   20.2
2024/07/31 13:54:06.000   28.319701090  -16.513813740  2011.3293   1   7   0.0014   0.0014   0.0136  -0.0008   0.0029  -0.0030   6.00   22.3
2024/07/31 13:54:07.000   28.319701090  -16.513813740  2011.3292   1   7   0.0014   0.0014   0.0136  -0.0008   0.0029  -0.0030   7.00   24.0
2024/07/31 13:54:08.000   28.319701090  -16.513813740  2011.3292   1   7   0.0014   0.0014   0.0136  -0.0008   0.0029  -0.0030   8.00   25.5
2024/07/31 13:54:09.000   28.319701090  -16.513813740  2011.3293   1   7   0.0014   0.0014   0.0136  -0.0008   0.0029  -0.0030   9.00   26.7
