% program   : RTKPOST-EX 2.5.0
% inp file  : C:\Users\SallyHenry\Desktop\Sally Internship\GNSS gravi\DATA\Survey Rover Obs\CARA.24o
% inp file  : C:\Users\SallyHenry\Desktop\Sally Internship\GNSS gravi\DATA\BaseStations\IZAN\IZAN00ESP_R_20242130000_01D_30S_MO.rnx
% inp file  : C:\Users\SallyHenry\Desktop\Sally Internship\GNSS gravi\DATA\BaseStations\IZAN\IZAN00ESP_R_20242130000_01D_MN.rnx
% inp file  : C:\Users\SallyHenry\Desktop\Sally Internship\GNSS gravi\DATA\aux_files\Survey\IGS0OPSFIN_20242130000_01D_15M_ORB.SP3
% inp file  : C:\Users\SallyHenry\Desktop\Sally Internship\GNSS gravi\DATA\aux_files\Survey\IGS0OPSFIN_20242130000_01D_30S_CLK.CLK
% obs start : 2024/07/31 11:15:45.0 GPST (week2325 299745.0s)
% obs end   : 2024/07/31 11:30:45.0 GPST (week2325 300645.0s)
% pos mode  : Static
% freqs     : L1+L2/E5b
% solution  : Combined-No Phase Reset
% elev mask : 15.0 deg
% dynamics  : on
% tidecorr  : solid
% ionos opt : Estimate TEC
% tropo opt : Estimate ZTD+Grad
% ephemeris : Precise
% navi sys  : GPS GLONASS Galileo QZSS BDS
% amb res   : Fix and Hold
% amb glo   : Fix and Hold
% amb bds   : on
% val thres : 3.0
% antenna1  :                       ( 0.0000  0.0000  1.8000)
% antenna2  :                       ( 0.0000  0.0000  0.0000)
% ref pos   :  28.308069410  -16.499677180  2417.4044
%
% (lat/lon/height=WGS84/ellipsoidal,Q=1:fix,2:float,3:sbas,4:dgps,5:single,6:ppp,ns=# of satellites)
%  GPST                  latitude(deg) longitude(deg)  height(m)   Q  ns   sdn(m)   sde(m)   sdu(m)  sdne(m)  sdeu(m)  sdun(m) age(s)  ratio
2024/07/31 11:15:45.000   28.306840469  -16.536205426  2263.9272   1   9   0.0011   0.0010   0.0178   0.0002   0.0027  -0.0025  15.00  747.3
2024/07/31 11:15:46.000   28.306840468  -16.536205426  2263.9271   1   9   0.0011   0.0010   0.0178   0.0002   0.0027  -0.0025 -14.00  745.3
2024/07/31 11:15:47.000   28.306840468  -16.536205426  2263.9271   1   9   0.0011   0.0010   0.0178   0.0002   0.0027  -0.0025 -13.00  743.5
2024/07/31 11:15:48.000   28.306840468  -16.536205426  2263.9271   1   9   0.0011   0.0010   0.0178   0.0002   0.0027  -0.0025 -12.00  741.6
2024/07/31 11:15:49.000   28.306840468  -16.536205426  2263.9270   1   9   0.0011   0.0010   0.0178   0.0002   0.0027  -0.0025 -11.00  739.4
2024/07/31 11:15:50.000   28.306840468  -16.536205427  2263.9270   1   9   0.0011   0.0010   0.0178   0.0002   0.0027  -0.0025 -10.00  737.5
2024/07/31 11:15:51.000   28.306840468  -16.536205427  2263.9269   1   9   0.0011   0.0010   0.0178   0.0002   0.0027  -0.0025  -9.00  735.0
2024/07/31 11:15:52.000   28.306840468  -16.536205427  2263.9269   1   9   0.0011   0.0010   0.0178   0.0002   0.0027  -0.0025  -8.00  732.8
2024/07/31 11:15:53.000   28.306840468  -16.536205427  2263.9268   1   9   0.0011   0.0010   0.0178   0.0002   0.0027  -0.0025  -7.00  730.3
2024/07/31 11:15:54.000   28.306840468  -16.536205427  2263.9268   1   9   0.0011   0.0010   0.0178   0.0002   0.0027  -0.0025  -6.00  727.6
2024/07/31 11:15:55.000   28.306840468  -16.536205427  2263.9268   1   9   0.0011   0.0010   0.0178   0.0002   0.0027  -0.0025  -5.00  725.9
2024/07/31 11:15:56.000   28.306840468  -16.536205427  2263.9268   1   9   0.0011   0.0010   0.0179   0.0002   0.0027  -0.0025  -4.00  722.9
2024/07/31 11:15:57.000   28.306840468  -16.536205427  2263.9268   1   9   0.0011   0.0010   0.0179   0.0002   0.0027  -0.0025  -3.00  721.2
2024/07/31 11:15:58.000   28.306840468  -16.536205427  2263.9270   1   9   0.0011   0.0010   0.0179   0.0002   0.0027  -0.0025  -2.00  719.9
2024/07/31 11:15:59.000   28.306840468  -16.536205427  2263.9272   1   9   0.0011   0.0010   0.0179   0.0002   0.0027  -0.0025  -1.00  720.1
2024/07/31 11:16:00.000   28.306840468  -16.536205427  2263.9274   1   9   0.0011   0.0010   0.0180   0.0002   0.0027  -0.0025   0.00  721.8
2024/07/31 11:16:01.000   28.306840468  -16.536205427  2263.9275   1   9   0.0011   0.0010   0.0180   0.0002   0.0027  -0.0025   1.00  722.6
2024/07/31 11:16:02.000   28.306840467  -16.536205427  2263.9275   1   9   0.0011   0.0010   0.0180   0.0002   0.0027  -0.0025   2.00  725.7
2024/07/31 11:16:03.000   28.306840467  -16.536205427  2263.9275   1   9   0.0011   0.0010   0.0181   0.0002   0.0027  -0.0025   3.00  726.2
2024/07/31 11:16:04.000   28.306840467  -16.536205427  2263.9275   1   9   0.0011   0.0010   0.0181   0.0002   0.0027  -0.0026   4.00  726.7
2024/07/31 11:16:05.000   28.306840467  -16.536205427  2263.9276   1   9   0.0012   0.0010   0.0181   0.0002   0.0027  -0.0026   5.00  726.7
2024/07/31 11:16:06.000   28.306840467  -16.536205427  2263.9276   1   9   0.0012   0.0010   0.0181   0.0002   0.0027  -0.0026   6.00  727.1
2024/07/31 11:16:07.000   28.306840467  -16.536205427  2263.9276   1   9   0.0012   0.0010   0.0181   0.0002   0.0027  -0.0026   7.00  728.0
2024/07/31 11:16:08.000   28.306840467  -16.536205427  2263.9277   1   9   0.0012   0.0010   0.0181   0.0002   0.0027  -0.0026   8.00  728.1
2024/07/31 11:16:09.000   28.306840467  -16.536205427  2263.9277   1   9   0.0012   0.0010   0.0182   0.0002   0.0027  -0.0026   9.00  728.1
2024/07/31 11:16:10.000   28.306840467  -16.536205427  2263.9278   1   9   0.0012   0.0010   0.0182   0.0002   0.0027  -0.0026  10.00  728.4
2024/07/31 11:16:11.000   28.306840467  -16.536205427  2263.9278   1   9   0.0011   0.0010   0.0182   0.0002   0.0027  -0.0026  11.00  728.1
2024/07/31 11:16:12.000   28.306840467  -16.536205427  2263.9278   1   9   0.0011   0.0010   0.0182   0.0002   0.0027  -0.0026  12.00  728.0
2024/07/31 11:16:13.000   28.306840467  -16.536205427  2263.9278   1   9   0.0011   0.0010   0.0182   0.0002   0.0027  -0.0026  13.00  727.5
2024/07/31 11:16:14.000   28.306840467  -16.536205427  2263.9278   1   9   0.0011   0.0010   0.0182   0.0002   0.0027  -0.0026  14.00  726.4
2024/07/31 11:16:15.000   28.306840467  -16.536205427  2263.9278   1   9   0.0011   0.0010   0.0182   0.0002   0.0027  -0.0026  15.00  725.4
2024/07/31 11:16:16.000   28.306840467  -16.536205427  2263.9278   1   9   0.0011   0.0010   0.0182   0.0002   0.0027  -0.0026 -14.00  724.6
2024/07/31 11:16:17.000   28.306840467  -16.536205427  2263.9278   1   9   0.0011   0.0010   0.0182   0.0002   0.0027  -0.0026 -13.00  723.9
2024/07/31 11:16:18.000   28.306840467  -16.536205427  2263.9279   1   9   0.0011   0.0010   0.0182   0.0002   0.0027  -0.0025 -12.00  723.1
2024/07/31 11:16:19.000   28.306840467  -16.536205427  2263.9279   1   9   0.0011   0.0010   0.0182   0.0002   0.0027  -0.0025 -11.00  722.5
2024/07/31 11:16:20.000   28.306840467  -16.536205427  2263.9280   1   9   0.0011   0.0010   0.0182   0.0002   0.0027  -0.0025 -10.00  721.9
2024/07/31 11:16:21.000   28.306840467  -16.536205427  2263.9280   1   9   0.0011   0.0010   0.0182   0.0002   0.0027  -0.0025  -9.00  721.0
2024/07/31 11:16:22.000   28.306840467  -16.536205427  2263.9281   1   9   0.0011   0.0010   0.0182   0.0002   0.0027  -0.0025  -8.00  719.5
2024/07/31 11:16:23.000   28.306840468  -16.536205427  2263.9282   1   9   0.0011   0.0010   0.0182   0.0002   0.0027  -0.0025  -7.00  718.9
2024/07/31 11:16:24.000   28.306840468  -16.536205427  2263.9282   1   9   0.0011   0.0010   0.0182   0.0002   0.0027  -0.0025  -6.00  718.1
2024/07/31 11:16:25.000   28.306840468  -16.536205427  2263.9282   1   9   0.0011   0.0010   0.0182   0.0002   0.0028  -0.0025  -5.00  717.9
2024/07/31 11:16:26.000   28.306840468  -16.536205427  2263.9283   1   9   0.0011   0.0010   0.0182   0.0002   0.0028  -0.0025  -4.00  717.8
2024/07/31 11:16:27.000   28.306840468  -16.536205427  2263.9284   1   9   0.0011   0.0010   0.0182   0.0002   0.0028  -0.0026  -3.00  717.1
2024/07/31 11:16:28.000   28.306840468  -16.536205427  2263.9286   1   9   0.0011   0.0010   0.0182   0.0002   0.0028  -0.0026  -2.00  717.4
2024/07/31 11:16:29.000   28.306840468  -16.536205426  2263.9289   1   9   0.0011   0.0010   0.0183   0.0002   0.0028  -0.0026  -1.00  718.3
2024/07/31 11:16:30.000   28.306840468  -16.536205426  2263.9291   1   9   0.0011   0.0010   0.0183   0.0002   0.0028  -0.0026   0.00  719.8
2024/07/31 11:16:31.000   28.306840467  -16.536205426  2263.9294   1   9   0.0011   0.0010   0.0183   0.0002   0.0028  -0.0026   1.00  719.4
2024/07/31 11:16:32.000   28.306840467  -16.536205426  2263.9296   1   9   0.0011   0.0010   0.0184   0.0002   0.0028  -0.0026   2.00  719.9
2024/07/31 11:16:33.000   28.306840467  -16.536205426  2263.9298   1   9   0.0012   0.0010   0.0184   0.0002   0.0028  -0.0026   3.00  718.3
2024/07/31 11:16:34.000   28.306840467  -16.536205426  2263.9301   1   9   0.0012   0.0010   0.0184   0.0002   0.0028  -0.0026   4.00  716.5
2024/07/31 11:16:35.000   28.306840467  -16.536205426  2263.9303   1   9   0.0012   0.0010   0.0185   0.0002   0.0028  -0.0026   5.00  715.6
2024/07/31 11:16:36.000   28.306840467  -16.536205426  2263.9305   1   9   0.0012   0.0010   0.0185   0.0002   0.0028  -0.0026   6.00  714.4
2024/07/31 11:16:37.000   28.306840467  -16.536205426  2263.9308   1   9   0.0012   0.0010   0.0185   0.0002   0.0028  -0.0026   7.00  712.2
2024/07/31 11:16:38.000   28.306840467  -16.536205426  2263.9309   1   9   0.0012   0.0010   0.0185   0.0002   0.0028  -0.0026   8.00  710.9
2024/07/31 11:16:39.000   28.306840467  -16.536205426  2263.9311   1   9   0.0012   0.0010   0.0185   0.0002   0.0028  -0.0026   9.00  709.1
2024/07/31 11:16:40.000   28.306840467  -16.536205426  2263.9312   1   9   0.0012   0.0010   0.0185   0.0002   0.0028  -0.0026  10.00  706.7
2024/07/31 11:16:41.000   28.306840467  -16.536205425  2263.9313   1   9   0.0012   0.0010   0.0185   0.0002   0.0028  -0.0026  11.00  704.8
2024/07/31 11:16:42.000   28.306840467  -16.536205425  2263.9314   1   9   0.0012   0.0010   0.0185   0.0002   0.0028  -0.0026  12.00  702.4
2024/07/31 11:16:43.000   28.306840467  -16.536205425  2263.9315   1   9   0.0012   0.0010   0.0185   0.0002   0.0028  -0.0026  13.00  700.5
2024/07/31 11:16:44.000   28.306840467  -16.536205425  2263.9316   1   9   0.0012   0.0010   0.0185   0.0002   0.0028  -0.0026  14.00  698.5
2024/07/31 11:16:45.000   28.306840467  -16.536205425  2263.9317   1   9   0.0011   0.0010   0.0185   0.0002   0.0028  -0.0026  15.00  696.7
2024/07/31 11:16:46.000   28.306840467  -16.536205425  2263.9318   1   9   0.0011   0.0010   0.0185   0.0002   0.0028  -0.0026 -14.00  695.0
2024/07/31 11:16:47.000   28.306840467  -16.536205425  2263.9319   1   9   0.0011   0.0010   0.0185   0.0002   0.0028  -0.0026 -13.00  693.4
2024/07/31 11:16:48.000   28.306840467  -16.536205425  2263.9320   1   9   0.0011   0.0010   0.0185   0.0002   0.0028  -0.0026 -12.00  691.9
2024/07/31 11:16:49.000   28.306840467  -16.536205425  2263.9320   1   9   0.0011   0.0010   0.0185   0.0002   0.0028  -0.0026 -11.00  690.4
2024/07/31 11:16:50.000   28.306840467  -16.536205425  2263.9321   1   9   0.0011   0.0010   0.0185   0.0002   0.0028  -0.0026 -10.00  689.1
2024/07/31 11:16:51.000   28.306840467  -16.536205425  2263.9322   1   9   0.0011   0.0010   0.0185   0.0002   0.0028  -0.0026  -9.00  687.7
2024/07/31 11:16:52.000   28.306840467  -16.536205425  2263.9323   1   9   0.0011   0.0010   0.0185   0.0002   0.0028  -0.0026  -8.00  686.1
2024/07/31 11:16:53.000   28.306840467  -16.536205425  2263.9324   1   9   0.0011   0.0010   0.0185   0.0002   0.0028  -0.0026  -7.00  685.3
2024/07/31 11:16:54.000   28.306840467  -16.536205425  2263.9326   1   9   0.0011   0.0010   0.0185   0.0002   0.0028  -0.0026  -6.00  684.8
2024/07/31 11:16:55.000   28.306840467  -16.536205425  2263.9328   1   9   0.0011   0.0010   0.0185   0.0002   0.0028  -0.0026  -5.00  685.0
2024/07/31 11:16:56.000   28.306840467  -16.536205424  2263.9330   1   9   0.0011   0.0010   0.0185   0.0002   0.0028  -0.0026  -4.00  685.6
2024/07/31 11:16:57.000   28.306840467  -16.536205424  2263.9333   1   9   0.0011   0.0010   0.0186   0.0002   0.0028  -0.0026  -3.00  685.9
2024/07/31 11:16:58.000   28.306840468  -16.536205424  2263.9337   1   9   0.0011   0.0010   0.0186   0.0002   0.0028  -0.0026  -2.00  687.1
2024/07/31 11:16:59.000   28.306840468  -16.536205424  2263.9338   1   9   0.0011   0.0010   0.0186   0.0002   0.0028  -0.0026  -1.00  689.1
2024/07/31 11:17:00.000   28.306840468  -16.536205424  2263.9341   1   9   0.0011   0.0010   0.0186   0.0002   0.0028  -0.0026   0.00  692.9
2024/07/31 11:17:01.000   28.306840468  -16.536205424  2263.9345   1   9   0.0012   0.0010   0.0187   0.0002   0.0028  -0.0026   1.00  697.0
2024/07/31 11:17:02.000   28.306840468  -16.536205423  2263.9350   1   9   0.0012   0.0011   0.0187   0.0002   0.0028  -0.0026   2.00  700.8
2024/07/31 11:17:03.000   28.306840468  -16.536205423  2263.9353   1   9   0.0012   0.0011   0.0187   0.0002   0.0029  -0.0026   3.00  704.0
2024/07/31 11:17:04.000   28.306840468  -16.536205425  2263.9315   1   9   0.0011   0.0010   0.0172   0.0002   0.0026  -0.0024   4.00    5.0
2024/07/31 11:17:05.000   28.306840468  -16.536205425  2263.9315   1   9   0.0011   0.0010   0.0172   0.0002   0.0026  -0.0024   5.00    5.0
2024/07/31 11:17:06.000   28.306840468  -16.536205424  2263.9316   1   9   0.0011   0.0010   0.0172   0.0002   0.0026  -0.0024   6.00    5.1
2024/07/31 11:17:07.000   28.306840468  -16.536205424  2263.9317   1   9   0.0011   0.0010   0.0172   0.0002   0.0026  -0.0024   7.00    5.1
2024/07/31 11:17:08.000   28.306840468  -16.536205424  2263.9318   1   9   0.0011   0.0010   0.0172   0.0002   0.0026  -0.0024   8.00    5.1
2024/07/31 11:17:09.000   28.306840468  -16.536205424  2263.9319   1   9   0.0011   0.0010   0.0172   0.0002   0.0026  -0.0024   9.00    5.2
2024/07/31 11:17:10.000   28.306840468  -16.536205424  2263.9319   1   9   0.0011   0.0010   0.0172   0.0002   0.0026  -0.0024  10.00    5.2
2024/07/31 11:17:11.000   28.306840468  -16.536205424  2263.9320   1   9   0.0011   0.0010   0.0172   0.0002   0.0026  -0.0024  11.00    5.2
2024/07/31 11:17:12.000   28.306840468  -16.536205424  2263.9320   1   9   0.0011   0.0010   0.0172   0.0002   0.0026  -0.0024  12.00    5.3
2024/07/31 11:17:13.000   28.306840468  -16.536205424  2263.9320   1   9   0.0011   0.0010   0.0172   0.0002   0.0026  -0.0024  13.00    5.3
2024/07/31 11:17:14.000   28.306840468  -16.536205424  2263.9321   1   9   0.0011   0.0010   0.0172   0.0002   0.0026  -0.0024  14.00    5.4
2024/07/31 11:17:15.000   28.306840468  -16.536205424  2263.9321   1   9   0.0011   0.0010   0.0172   0.0002   0.0026  -0.0024 -15.00    5.4
2024/07/31 11:17:16.000   28.306840468  -16.536205424  2263.9321   1   9   0.0011   0.0010   0.0172   0.0002   0.0026  -0.0024 -14.00    5.4
2024/07/31 11:17:17.000   28.306840468  -16.536205424  2263.9321   1   9   0.0011   0.0010   0.0172   0.0002   0.0026  -0.0024 -13.00    5.5
2024/07/31 11:17:18.000   28.306840468  -16.536205424  2263.9321   1   9   0.0011   0.0010   0.0172   0.0002   0.0026  -0.0024 -12.00    5.5
2024/07/31 11:17:19.000   28.306840468  -16.536205424  2263.9321   1   9   0.0011   0.0010   0.0172   0.0002   0.0026  -0.0024 -11.00    5.5
2024/07/31 11:17:20.000   28.306840468  -16.536205424  2263.9321   1   9   0.0011   0.0010   0.0172   0.0002   0.0026  -0.0024 -10.00    5.5
2024/07/31 11:17:21.000   28.306840468  -16.536205424  2263.9321   1   9   0.0011   0.0010   0.0172   0.0002   0.0026  -0.0024  -9.00    5.5
2024/07/31 11:17:22.000   28.306840468  -16.536205424  2263.9320   1   9   0.0011   0.0010   0.0171   0.0002   0.0026  -0.0024  -8.00    5.5
2024/07/31 11:17:23.000   28.306840468  -16.536205424  2263.9320   1   9   0.0011   0.0010   0.0171   0.0002   0.0026  -0.0024  -7.00    5.5
2024/07/31 11:17:24.000   28.306840468  -16.536205424  2263.9320   1   9   0.0011   0.0010   0.0171   0.0002   0.0026  -0.0024  -6.00   10.1
2024/07/31 11:17:25.000   28.306840468  -16.536205424  2263.9319   1   9   0.0011   0.0010   0.0171   0.0002   0.0026  -0.0024  -5.00   12.2
2024/07/31 11:17:26.000   28.306840468  -16.536205424  2263.9318   1   9   0.0011   0.0010   0.0171   0.0002   0.0026  -0.0024  -4.00   14.1
2024/07/31 11:17:27.000   28.306840468  -16.536205424  2263.9318   1   9   0.0011   0.0010   0.0171   0.0002   0.0026  -0.0024  -3.00   16.0
2024/07/31 11:17:28.000   28.306840468  -16.536205424  2263.9317   1   9   0.0011   0.0010   0.0171   0.0002   0.0026  -0.0024  -2.00   17.8
2024/07/31 11:17:29.000   28.306840468  -16.536205424  2263.9317   1   9   0.0011   0.0010   0.0171   0.0002   0.0026  -0.0024  -1.00   19.7
2024/07/31 11:17:30.000   28.306840468  -16.536205424  2263.9316   1   9   0.0011   0.0010   0.0171   0.0002   0.0026  -0.0024   0.00   21.4
2024/07/31 11:17:31.000   28.306840468  -16.536205424  2263.9317   1   9   0.0011   0.0010   0.0171   0.0002   0.0026  -0.0024   1.00   23.3
2024/07/31 11:17:32.000   28.306840468  -16.536205424  2263.9318   1   9   0.0011   0.0010   0.0171   0.0002   0.0026  -0.0024   2.00   24.9
2024/07/31 11:17:33.000   28.306840468  -16.536205424  2263.9319   1   9   0.0011   0.0010   0.0171   0.0002   0.0026  -0.0024   3.00   26.8
2024/07/31 11:17:34.000   28.306840468  -16.536205424  2263.9320   1   9   0.0011   0.0010   0.0171   0.0002   0.0026  -0.0024   4.00   28.5
2024/07/31 11:17:35.000   28.306840468  -16.536205424  2263.9321   1   9   0.0011   0.0010   0.0171   0.0002   0.0026  -0.0024   5.00   30.1
2024/07/31 11:17:36.000   28.306840468  -16.536205424  2263.9323   1   9   0.0011   0.0010   0.0171   0.0002   0.0026  -0.0024   6.00   31.7
2024/07/31 11:17:37.000   28.306840468  -16.536205424  2263.9324   1   9   0.0011   0.0010   0.0171   0.0002   0.0026  -0.0024   7.00   33.3
2024/07/31 11:17:38.000   28.306840468  -16.536205424  2263.9326   1   9   0.0011   0.0010   0.0171   0.0002   0.0026  -0.0024   8.00   34.9
2024/07/31 11:17:39.000   28.306840468  -16.536205424  2263.9328   1   9   0.0011   0.0010   0.0171   0.0002   0.0026  -0.0024   9.00   36.4
2024/07/31 11:17:40.000   28.306840468  -16.536205424  2263.9328   1   9   0.0011   0.0010   0.0171   0.0002   0.0026  -0.0024  10.00   38.0
2024/07/31 11:17:41.000   28.306840468  -16.536205424  2263.9329   1   9   0.0011   0.0010   0.0171   0.0002   0.0026  -0.0024  11.00   39.6
2024/07/31 11:17:42.000   28.306840468  -16.536205424  2263.9330   1   9   0.0011   0.0010   0.0170   0.0002   0.0026  -0.0024  12.00   41.3
2024/07/31 11:17:43.000   28.306840468  -16.536205424  2263.9330   1   9   0.0011   0.0010   0.0170   0.0002   0.0026  -0.0024  13.00   42.9
2024/07/31 11:17:44.000   28.306840468  -16.536205424  2263.9331   1   9   0.0011   0.0010   0.0170   0.0002   0.0026  -0.0024  14.00   44.6
2024/07/31 11:17:45.000   28.306840468  -16.536205424  2263.9332   1   9   0.0011   0.0010   0.0170   0.0002   0.0026  -0.0024 -15.00   46.3
2024/07/31 11:17:46.000   28.306840468  -16.536205424  2263.9332   1   9   0.0011   0.0010   0.0170   0.0002   0.0026  -0.0024 -14.00   48.1
2024/07/31 11:17:47.000   28.306840468  -16.536205424  2263.9333   1   9   0.0011   0.0010   0.0170   0.0002   0.0026  -0.0024 -13.00   49.7
2024/07/31 11:17:48.000   28.306840468  -16.536205423  2263.9333   1   9   0.0011   0.0010   0.0170   0.0002   0.0026  -0.0024 -12.00   51.3
2024/07/31 11:17:49.000   28.306840468  -16.536205424  2263.9334   1   9   0.0011   0.0010   0.0170   0.0002   0.0026  -0.0024 -11.00   52.9
2024/07/31 11:17:50.000   28.306840468  -16.536205423  2263.9334   1   9   0.0011   0.0010   0.0170   0.0002   0.0026  -0.0024 -10.00   54.5
2024/07/31 11:17:51.000   28.306840468  -16.536205423  2263.9334   1   9   0.0011   0.0010   0.0170   0.0002   0.0026  -0.0024  -9.00   56.0
2024/07/31 11:17:52.000   28.306840468  -16.536205423  2263.9335   1   9   0.0011   0.0010   0.0170   0.0002   0.0026  -0.0024  -8.00   57.2
2024/07/31 11:17:53.000   28.306840468  -16.536205423  2263.9335   1   9   0.0011   0.0010   0.0170   0.0002   0.0026  -0.0024  -7.00   58.6
2024/07/31 11:17:54.000   28.306840468  -16.536205423  2263.9335   1   9   0.0011   0.0010   0.0170   0.0002   0.0026  -0.0024  -6.00   59.6
2024/07/31 11:17:55.000   28.306840468  -16.536205423  2263.9336   1   9   0.0011   0.0010   0.0170   0.0002   0.0026  -0.0024  -5.00   60.1
2024/07/31 11:17:56.000   28.306840468  -16.536205423  2263.9335   1   9   0.0011   0.0010   0.0170   0.0002   0.0026  -0.0024  -4.00   60.3
2024/07/31 11:17:57.000   28.306840468  -16.536205423  2263.9336   1   9   0.0011   0.0010   0.0170   0.0002   0.0026  -0.0024  -3.00   60.2
2024/07/31 11:17:58.000   28.306840468  -16.536205423  2263.9336   1   9   0.0011   0.0010   0.0170   0.0002   0.0026  -0.0024  -2.00   60.2
2024/07/31 11:17:59.000   28.306840468  -16.536205423  2263.9338   1   9   0.0011   0.0010   0.0169   0.0002   0.0026  -0.0024  -1.00   59.6
2024/07/31 11:18:00.000   28.306840468  -16.536205423  2263.9338   1   9   0.0011   0.0010   0.0169   0.0002   0.0026  -0.0024   0.00   59.4
2024/07/31 11:18:01.000   28.306840468  -16.536205424  2263.9335   1   9   0.0011   0.0010   0.0169   0.0002   0.0026  -0.0024   1.00   58.6
2024/07/31 11:18:02.000   28.306840468  -16.536205424  2263.9335   1   9   0.0011   0.0010   0.0169   0.0002   0.0026  -0.0024   2.00   57.6
2024/07/31 11:18:03.000   28.306840468  -16.536205424  2263.9335   1   9   0.0011   0.0010   0.0169   0.0002   0.0026  -0.0024   3.00   56.9
2024/07/31 11:18:04.000   28.306840468  -16.536205424  2263.9335   1   9   0.0011   0.0010   0.0169   0.0002   0.0026  -0.0024   4.00   56.5
2024/07/31 11:18:05.000   28.306840468  -16.536205424  2263.9335   1   9   0.0011   0.0010   0.0169   0.0002   0.0026  -0.0024   5.00   56.3
2024/07/31 11:18:06.000   28.306840468  -16.536205424  2263.9335   1   9   0.0011   0.0010   0.0169   0.0002   0.0026  -0.0024   6.00   56.5
2024/07/31 11:18:07.000   28.306840468  -16.536205424  2263.9335   1   9   0.0011   0.0010   0.0169   0.0002   0.0026  -0.0024   7.00   56.7
2024/07/31 11:18:08.000   28.306840468  -16.536205424  2263.9336   1   9   0.0011   0.0010   0.0169   0.0002   0.0025  -0.0024   8.00   57.3
2024/07/31 11:18:09.000   28.306840468  -16.536205424  2263.9336   1   9   0.0011   0.0010   0.0169   0.0002   0.0025  -0.0024   9.00   57.9
2024/07/31 11:18:10.000   28.306840468  -16.536205424  2263.9337   1   9   0.0011   0.0010   0.0169   0.0002   0.0025  -0.0024  10.00   58.6
2024/07/31 11:18:11.000   28.306840468  -16.536205424  2263.9337   1   9   0.0010   0.0010   0.0169   0.0002   0.0025  -0.0024  11.00   59.3
2024/07/31 11:18:12.000   28.306840468  -16.536205424  2263.9337   1   9   0.0010   0.0010   0.0169   0.0002   0.0025  -0.0024  12.00   60.1
2024/07/31 11:18:13.000   28.306840468  -16.536205424  2263.9337   1   9   0.0010   0.0010   0.0169   0.0002   0.0025  -0.0024  13.00   60.9
2024/07/31 11:18:14.000   28.306840468  -16.536205424  2263.9338   1   9   0.0010   0.0010   0.0169   0.0002   0.0025  -0.0024  14.00   61.9
2024/07/31 11:18:15.000   28.306840468  -16.536205424  2263.9338   1   9   0.0010   0.0010   0.0169   0.0002   0.0025  -0.0024 -15.00   62.9
2024/07/31 11:18:16.000   28.306840468  -16.536205424  2263.9338   1   9   0.0010   0.0010   0.0169   0.0002   0.0025  -0.0024 -14.00   63.8
2024/07/31 11:18:17.000   28.306840468  -16.536205424  2263.9338   1   9   0.0010   0.0010   0.0169   0.0002   0.0025  -0.0024 -13.00   64.8
2024/07/31 11:18:18.000   28.306840468  -16.536205424  2263.9338   1   9   0.0010   0.0010   0.0169   0.0002   0.0025  -0.0024 -12.00   65.8
2024/07/31 11:18:19.000   28.306840468  -16.536205424  2263.9338   1   9   0.0010   0.0010   0.0169   0.0002   0.0025  -0.0024 -11.00   66.7
2024/07/31 11:18:20.000   28.306840468  -16.536205424  2263.9339   1   9   0.0010   0.0010   0.0169   0.0002   0.0025  -0.0024 -10.00   67.5
2024/07/31 11:18:21.000   28.306840468  -16.536205424  2263.9338   1   9   0.0010   0.0010   0.0169   0.0002   0.0025  -0.0024  -9.00   68.5
2024/07/31 11:18:22.000   28.306840468  -16.536205424  2263.9338   1   9   0.0010   0.0009   0.0169   0.0002   0.0025  -0.0024  -8.00   69.1
2024/07/31 11:18:23.000   28.306840468  -16.536205424  2263.9338   1   9   0.0010   0.0009   0.0169   0.0002   0.0025  -0.0024  -7.00   70.0
2024/07/31 11:18:24.000   28.306840468  -16.536205424  2263.9337   1   9   0.0010   0.0009   0.0168   0.0002   0.0025  -0.0024  -6.00   70.6
2024/07/31 11:18:25.000   28.306840468  -16.536205424  2263.9338   1   9   0.0010   0.0009   0.0168   0.0002   0.0025  -0.0024  -5.00   71.1
2024/07/31 11:18:26.000   28.306840468  -16.536205424  2263.9337   1   9   0.0010   0.0009   0.0168   0.0002   0.0025  -0.0024  -4.00   71.7
2024/07/31 11:18:27.000   28.306840468  -16.536205424  2263.9336   1   9   0.0010   0.0009   0.0168   0.0002   0.0025  -0.0024  -3.00   72.0
2024/07/31 11:18:28.000   28.306840468  -16.536205424  2263.9336   1   9   0.0010   0.0009   0.0168   0.0002   0.0025  -0.0024  -2.00   72.2
2024/07/31 11:18:29.000   28.306840468  -16.536205424  2263.9336   1   9   0.0010   0.0009   0.0168   0.0002   0.0025  -0.0024  -1.00   72.4
2024/07/31 11:18:30.000   28.306840468  -16.536205424  2263.9336   1   9   0.0010   0.0009   0.0168   0.0002   0.0025  -0.0024   0.00   72.9
2024/07/31 11:18:31.000   28.306840468  -16.536205424  2263.9335   1   9   0.0010   0.0009   0.0168   0.0002   0.0025  -0.0024   1.00   73.0
2024/07/31 11:18:32.000   28.306840468  -16.536205424  2263.9336   1   9   0.0010   0.0009   0.0168   0.0002   0.0025  -0.0024   2.00   73.1
2024/07/31 11:18:33.000   28.306840468  -16.536205424  2263.9335   1   9   0.0010   0.0009   0.0168   0.0002   0.0025  -0.0024   3.00   73.2
2024/07/31 11:18:34.000   28.306840468  -16.536205424  2263.9334   1   9   0.0010   0.0009   0.0168   0.0002   0.0025  -0.0024   4.00   73.6
2024/07/31 11:18:35.000   28.306840468  -16.536205424  2263.9334   1   9   0.0010   0.0009   0.0168   0.0002   0.0025  -0.0024   5.00   73.9
2024/07/31 11:18:36.000   28.306840468  -16.536205424  2263.9333   1   9   0.0010   0.0009   0.0168   0.0002   0.0025  -0.0024   6.00   74.5
2024/07/31 11:18:37.000   28.306840468  -16.536205424  2263.9332   1   9   0.0010   0.0009   0.0168   0.0002   0.0025  -0.0024   7.00   75.2
2024/07/31 11:18:38.000   28.306840468  -16.536205424  2263.9332   1   9   0.0010   0.0009   0.0168   0.0002   0.0025  -0.0024   8.00   76.0
2024/07/31 11:18:39.000   28.306840468  -16.536205424  2263.9332   1   9   0.0010   0.0009   0.0168   0.0002   0.0025  -0.0024   9.00   76.8
2024/07/31 11:18:40.000   28.306840468  -16.536205424  2263.9332   1   9   0.0010   0.0009   0.0168   0.0002   0.0025  -0.0024  10.00   77.7
2024/07/31 11:18:41.000   28.306840468  -16.536205424  2263.9332   1   9   0.0010   0.0009   0.0168   0.0002   0.0025  -0.0024  11.00   78.6
2024/07/31 11:18:42.000   28.306840468  -16.536205424  2263.9332   1   9   0.0010   0.0009   0.0168   0.0002   0.0025  -0.0024  12.00   79.6
2024/07/31 11:18:43.000   28.306840468  -16.536205424  2263.9332   1   9   0.0010   0.0009   0.0168   0.0002   0.0025  -0.0024  13.00   80.5
2024/07/31 11:18:44.000   28.306840468  -16.536205424  2263.9332   1   9   0.0010   0.0009   0.0168   0.0002   0.0025  -0.0024  14.00   81.5
2024/07/31 11:18:45.000   28.306840468  -16.536205424  2263.9332   1   9   0.0010   0.0009   0.0168   0.0002   0.0025  -0.0024 -15.00   82.4
2024/07/31 11:18:46.000   28.306840468  -16.536205424  2263.9332   1   9   0.0010   0.0009   0.0168   0.0002   0.0025  -0.0024 -14.00   83.3
2024/07/31 11:18:47.000   28.306840468  -16.536205424  2263.9332   1   9   0.0010   0.0009   0.0168   0.0002   0.0025  -0.0024 -13.00   84.2
2024/07/31 11:18:48.000   28.306840468  -16.536205424  2263.9332   1   9   0.0010   0.0009   0.0168   0.0002   0.0025  -0.0024 -12.00   85.1
2024/07/31 11:18:49.000   28.306840468  -16.536205424  2263.9332   1   9   0.0010   0.0009   0.0167   0.0002   0.0025  -0.0024 -11.00   86.0
2024/07/31 11:18:50.000   28.306840468  -16.536205424  2263.9333   1   9   0.0010   0.0009   0.0167   0.0002   0.0025  -0.0024 -10.00   86.9
2024/07/31 11:18:51.000   28.306840468  -16.536205424  2263.9333   1   9   0.0010   0.0009   0.0167   0.0002   0.0025  -0.0024  -9.00   87.8
2024/07/31 11:18:52.000   28.306840468  -16.536205424  2263.9333   1   9   0.0010   0.0009   0.0167   0.0002   0.0025  -0.0024  -8.00   88.8
2024/07/31 11:18:53.000   28.306840468  -16.536205424  2263.9333   1   9   0.0010   0.0009   0.0167   0.0002   0.0025  -0.0024  -7.00   89.7
2024/07/31 11:18:54.000   28.306840468  -16.536205424  2263.9333   1   9   0.0010   0.0009   0.0167   0.0002   0.0025  -0.0024  -6.00   90.4
2024/07/31 11:18:55.000   28.306840468  -16.536205424  2263.9333   1   9   0.0010   0.0009   0.0167   0.0002   0.0025  -0.0024  -5.00   91.4
2024/07/31 11:18:56.000   28.306840468  -16.536205424  2263.9334   1   9   0.0010   0.0009   0.0167   0.0002   0.0025  -0.0024  -4.00   92.1
2024/07/31 11:18:57.000   28.306840468  -16.536205424  2263.9333   1   9   0.0010   0.0009   0.0167   0.0002   0.0025  -0.0023  -3.00   92.9
2024/07/31 11:18:58.000   28.306840468  -16.536205424  2263.9331   1   9   0.0010   0.0009   0.0167   0.0002   0.0025  -0.0023  -2.00   93.3
2024/07/31 11:18:59.000   28.306840468  -16.536205424  2263.9331   1   9   0.0010   0.0009   0.0167   0.0002   0.0025  -0.0023  -1.00   93.4
2024/07/31 11:19:00.000   28.306840468  -16.536205424  2263.9330   1   9   0.0010   0.0009   0.0167   0.0002   0.0025  -0.0023   0.00   93.5
2024/07/31 11:19:01.000   28.306840468  -16.536205424  2263.9329   1   9   0.0010   0.0009   0.0167   0.0002   0.0025  -0.0023   1.00   93.5
2024/07/31 11:19:02.000   28.306840468  -16.536205424  2263.9329   1   9   0.0010   0.0009   0.0167   0.0002   0.0025  -0.0023   2.00   93.7
2024/07/31 11:19:03.000   28.306840468  -16.536205424  2263.9330   1   9   0.0010   0.0009   0.0167   0.0002   0.0025  -0.0023   3.00   93.7
2024/07/31 11:19:04.000   28.306840468  -16.536205424  2263.9330   1   9   0.0010   0.0009   0.0167   0.0002   0.0025  -0.0023   4.00   93.9
2024/07/31 11:19:05.000   28.306840468  -16.536205424  2263.9330   1   9   0.0010   0.0009   0.0167   0.0002   0.0025  -0.0023   5.00   94.1
2024/07/31 11:19:06.000   28.306840468  -16.536205424  2263.9330   1   9   0.0010   0.0009   0.0167   0.0002   0.0025  -0.0023   6.00   94.5
2024/07/31 11:19:07.000   28.306840468  -16.536205424  2263.9329   1   9   0.0010   0.0009   0.0167   0.0002   0.0025  -0.0023   7.00   94.9
2024/07/31 11:19:08.000   28.306840468  -16.536205424  2263.9330   1   9   0.0010   0.0009   0.0167   0.0002   0.0025  -0.0023   8.00   95.2
2024/07/31 11:19:09.000   28.306840468  -16.536205424  2263.9330   1   9   0.0010   0.0009   0.0167   0.0002   0.0025  -0.0023   9.00   95.7
2024/07/31 11:19:10.000   28.306840468  -16.536205424  2263.9330   1   9   0.0010   0.0009   0.0167   0.0002   0.0025  -0.0023  10.00   96.3
2024/07/31 11:19:11.000   28.306840468  -16.536205424  2263.9330   1   9   0.0010   0.0009   0.0167   0.0002   0.0025  -0.0023  11.00   96.8
2024/07/31 11:19:12.000   28.306840468  -16.536205424  2263.9331   1   9   0.0010   0.0009   0.0167   0.0002   0.0025  -0.0023  12.00   97.4
2024/07/31 11:19:13.000   28.306840468  -16.536205424  2263.9331   1   9   0.0010   0.0009   0.0167   0.0002   0.0025  -0.0023  13.00   98.0
2024/07/31 11:19:14.000   28.306840468  -16.536205424  2263.9331   1   9   0.0010   0.0009   0.0167   0.0002   0.0025  -0.0023  14.00   98.7
2024/07/31 11:19:15.000   28.306840468  -16.536205424  2263.9331   1   9   0.0010   0.0009   0.0166   0.0002   0.0025  -0.0023 -15.00   99.4
2024/07/31 11:19:16.000   28.306840468  -16.536205424  2263.9331   1   9   0.0010   0.0009   0.0166   0.0002   0.0025  -0.0023 -14.00   99.9
2024/07/31 11:19:17.000   28.306840468  -16.536205424  2263.9331   1   9   0.0010   0.0009   0.0166   0.0002   0.0025  -0.0023 -13.00  100.5
2024/07/31 11:19:18.000   28.306840468  -16.536205424  2263.9331   1   9   0.0010   0.0009   0.0166   0.0002   0.0025  -0.0023 -12.00  101.0
2024/07/31 11:19:19.000   28.306840469  -16.536205424  2263.9331   1   9   0.0010   0.0009   0.0166   0.0002   0.0025  -0.0023 -11.00  101.7
2024/07/31 11:19:20.000   28.306840469  -16.536205424  2263.9331   1   9   0.0010   0.0009   0.0166   0.0002   0.0025  -0.0023 -10.00  102.3
2024/07/31 11:19:21.000   28.306840469  -16.536205424  2263.9331   1   9   0.0010   0.0009   0.0166   0.0002   0.0025  -0.0023  -9.00  103.0
2024/07/31 11:19:22.000   28.306840469  -16.536205424  2263.9331   1   9   0.0010   0.0009   0.0166   0.0002   0.0025  -0.0023  -8.00  103.6
2024/07/31 11:19:23.000   28.306840469  -16.536205424  2263.9330   1   9   0.0010   0.0009   0.0166   0.0002   0.0025  -0.0023  -7.00  104.1
2024/07/31 11:19:24.000   28.306840469  -16.536205424  2263.9331   1   9   0.0010   0.0009   0.0166   0.0002   0.0025  -0.0023  -6.00  104.9
2024/07/31 11:19:25.000   28.306840469  -16.536205424  2263.9331   1   9   0.0010   0.0009   0.0166   0.0002   0.0025  -0.0023  -5.00  105.4
2024/07/31 11:19:26.000   28.306840469  -16.536205424  2263.9331   1   9   0.0010   0.0009   0.0166   0.0002   0.0025  -0.0023  -4.00  106.1
2024/07/31 11:19:27.000   28.306840469  -16.536205424  2263.9331   1   9   0.0010   0.0009   0.0166   0.0002   0.0025  -0.0023  -3.00  107.6
2024/07/31 11:19:28.000   28.306840469  -16.536205424  2263.9332   1   9   0.0010   0.0009   0.0166   0.0002   0.0025  -0.0023  -2.00  108.4
2024/07/31 11:19:29.000   28.306840469  -16.536205424  2263.9332   1   9   0.0010   0.0009   0.0166   0.0002   0.0025  -0.0023  -1.00  108.7
2024/07/31 11:19:30.000   28.306840469  -16.536205424  2263.9332   1   9   0.0010   0.0009   0.0166   0.0002   0.0025  -0.0023   0.00  109.8
2024/07/31 11:19:31.000   28.306840469  -16.536205424  2263.9330   1   9   0.0010   0.0009   0.0166   0.0002   0.0025  -0.0023   1.00  110.2
2024/07/31 11:19:32.000   28.306840469  -16.536205424  2263.9329   1   9   0.0010   0.0009   0.0166   0.0002   0.0025  -0.0023   2.00  110.4
2024/07/31 11:19:33.000   28.306840469  -16.536205424  2263.9327   1   9   0.0010   0.0009   0.0166   0.0002   0.0025  -0.0023   3.00  111.3
2024/07/31 11:19:34.000   28.306840469  -16.536205424  2263.9327   1   9   0.0010   0.0009   0.0166   0.0002   0.0025  -0.0023   4.00  112.4
2024/07/31 11:19:35.000   28.306840469  -16.536205424  2263.9327   1   9   0.0010   0.0009   0.0166   0.0002   0.0025  -0.0023   5.00  113.3
2024/07/31 11:19:36.000   28.306840469  -16.536205424  2263.9327   1   9   0.0010   0.0009   0.0166   0.0002   0.0025  -0.0023   6.00  114.2
2024/07/31 11:19:37.000   28.306840469  -16.536205424  2263.9327   1   9   0.0010   0.0009   0.0166   0.0002   0.0025  -0.0023   7.00  115.1
2024/07/31 11:19:38.000   28.306840469  -16.536205424  2263.9327   1   9   0.0010   0.0009   0.0166   0.0002   0.0025  -0.0023   8.00  116.2
2024/07/31 11:19:39.000   28.306840469  -16.536205424  2263.9327   1   9   0.0010   0.0009   0.0166   0.0002   0.0025  -0.0023   9.00  117.3
2024/07/31 11:19:40.000   28.306840469  -16.536205424  2263.9327   1   9   0.0010   0.0009   0.0166   0.0002   0.0025  -0.0023  10.00  118.3
2024/07/31 11:19:41.000   28.306840469  -16.536205424  2263.9328   1   9   0.0010   0.0009   0.0166   0.0002   0.0025  -0.0023  11.00  119.3
2024/07/31 11:19:42.000   28.306840469  -16.536205424  2263.9328   1   9   0.0010   0.0009   0.0166   0.0002   0.0025  -0.0023  12.00  120.3
2024/07/31 11:19:43.000   28.306840469  -16.536205424  2263.9328   1   9   0.0010   0.0009   0.0166   0.0002   0.0025  -0.0023  13.00  121.3
2024/07/31 11:19:44.000   28.306840469  -16.536205424  2263.9328   1   9   0.0010   0.0009   0.0166   0.0002   0.0025  -0.0023  14.00  122.4
2024/07/31 11:19:45.000   28.306840469  -16.536205424  2263.9328   1   9   0.0010   0.0009   0.0165   0.0002   0.0025  -0.0023 -15.00  123.4
2024/07/31 11:19:46.000   28.306840469  -16.536205424  2263.9329   1   9   0.0010   0.0009   0.0165   0.0002   0.0025  -0.0023 -14.00  124.6
2024/07/31 11:19:47.000   28.306840469  -16.536205424  2263.9329   1   9   0.0010   0.0009   0.0165   0.0002   0.0025  -0.0023 -13.00  125.9
2024/07/31 11:19:48.000   28.306840469  -16.536205424  2263.9329   1   9   0.0010   0.0009   0.0165   0.0002   0.0025  -0.0023 -12.00  127.0
2024/07/31 11:19:49.000   28.306840469  -16.536205424  2263.9329   1   9   0.0010   0.0009   0.0165   0.0002   0.0025  -0.0023 -11.00  128.2
2024/07/31 11:19:50.000   28.306840469  -16.536205424  2263.9329   1   9   0.0010   0.0009   0.0165   0.0002   0.0025  -0.0023 -10.00  129.3
2024/07/31 11:19:51.000   28.306840469  -16.536205424  2263.9329   1   9   0.0010   0.0009   0.0165   0.0002   0.0025  -0.0023  -9.00  130.3
2024/07/31 11:19:52.000   28.306840469  -16.536205424  2263.9330   1   9   0.0010   0.0009   0.0165   0.0002   0.0025  -0.0023  -8.00  131.5
2024/07/31 11:19:53.000   28.306840469  -16.536205424  2263.9330   1   9   0.0010   0.0009   0.0165   0.0002   0.0025  -0.0023  -7.00  133.0
2024/07/31 11:19:54.000   28.306840469  -16.536205424  2263.9330   1   9   0.0010   0.0009   0.0165   0.0002   0.0025  -0.0023  -6.00  134.5
2024/07/31 11:19:55.000   28.306840469  -16.536205424  2263.9331   1   9   0.0010   0.0009   0.0165   0.0002   0.0025  -0.0023  -5.00  135.9
2024/07/31 11:19:56.000   28.306840469  -16.536205424  2263.9331   1   9   0.0010   0.0009   0.0165   0.0002   0.0025  -0.0023  -4.00  137.7
2024/07/31 11:19:57.000   28.306840469  -16.536205424  2263.9332   1   9   0.0010   0.0009   0.0165   0.0002   0.0025  -0.0023  -3.00  139.3
2024/07/31 11:19:58.000   28.306840469  -16.536205424  2263.9332   1   9   0.0010   0.0009   0.0165   0.0002   0.0025  -0.0023  -2.00  140.8
2024/07/31 11:19:59.000   28.306840469  -16.536205424  2263.9333   1   9   0.0010   0.0009   0.0165   0.0002   0.0025  -0.0023  -1.00  142.0
2024/07/31 11:20:00.000   28.306840469  -16.536205424  2263.9334   1   9   0.0010   0.0009   0.0165   0.0002   0.0025  -0.0023   0.00  143.3
2024/07/31 11:20:01.000   28.306840469  -16.536205424  2263.9335   1   9   0.0010   0.0009   0.0165   0.0002   0.0025  -0.0023   1.00  144.4
2024/07/31 11:20:02.000   28.306840469  -16.536205424  2263.9336   1   9   0.0010   0.0009   0.0165   0.0002   0.0025  -0.0023   2.00  145.2
2024/07/31 11:20:03.000   28.306840469  -16.536205424  2263.9335   1   9   0.0010   0.0009   0.0165   0.0002   0.0025  -0.0023   3.00  145.8
2024/07/31 11:20:04.000   28.306840469  -16.536205424  2263.9334   1   9   0.0010   0.0009   0.0165   0.0002   0.0025  -0.0023   4.00  146.5
2024/07/31 11:20:05.000   28.306840469  -16.536205424  2263.9333   1   9   0.0010   0.0009   0.0165   0.0002   0.0025  -0.0023   5.00  147.1
2024/07/31 11:20:06.000   28.306840469  -16.536205424  2263.9333   1   9   0.0010   0.0009   0.0165   0.0002   0.0025  -0.0023   6.00  148.0
2024/07/31 11:20:07.000   28.306840469  -16.536205424  2263.9332   1   9   0.0010   0.0009   0.0165   0.0002   0.0025  -0.0023   7.00  149.2
2024/07/31 11:20:08.000   28.306840469  -16.536205424  2263.9333   1   9   0.0010   0.0009   0.0165   0.0002   0.0025  -0.0023   8.00  150.3
2024/07/31 11:20:09.000   28.306840469  -16.536205424  2263.9333   1   9   0.0010   0.0009   0.0165   0.0002   0.0025  -0.0023   9.00  151.2
2024/07/31 11:20:10.000   28.306840469  -16.536205424  2263.9333   1   9   0.0010   0.0009   0.0165   0.0002   0.0025  -0.0023  10.00  152.3
2024/07/31 11:20:11.000   28.306840469  -16.536205424  2263.9333   1   9   0.0010   0.0009   0.0165   0.0002   0.0025  -0.0023  11.00  153.2
2024/07/31 11:20:12.000   28.306840469  -16.536205424  2263.9333   1   9   0.0010   0.0009   0.0165   0.0002   0.0025  -0.0023  12.00  154.0
2024/07/31 11:20:13.000   28.306840469  -16.536205424  2263.9333   1   9   0.0010   0.0009   0.0165   0.0002   0.0025  -0.0023  13.00  155.0
2024/07/31 11:20:14.000   28.306840469  -16.536205424  2263.9333   1   9   0.0010   0.0009   0.0165   0.0002   0.0025  -0.0023  14.00  155.9
2024/07/31 11:20:15.000   28.306840469  -16.536205424  2263.9333   1   9   0.0010   0.0009   0.0165   0.0002   0.0025  -0.0023 -15.00  156.8
2024/07/31 11:20:16.000   28.306840469  -16.536205424  2263.9333   1   9   0.0010   0.0009   0.0165   0.0002   0.0025  -0.0023 -14.00  157.7
2024/07/31 11:20:17.000   28.306840469  -16.536205424  2263.9333   1   9   0.0010   0.0009   0.0165   0.0002   0.0025  -0.0023 -13.00  158.6
2024/07/31 11:20:18.000   28.306840469  -16.536205424  2263.9333   1   9   0.0010   0.0009   0.0165   0.0002   0.0025  -0.0023 -12.00  159.4
2024/07/31 11:20:19.000   28.306840469  -16.536205424  2263.9334   1   9   0.0010   0.0009   0.0164   0.0002   0.0025  -0.0023 -11.00  160.2
2024/07/31 11:20:20.000   28.306840469  -16.536205424  2263.9334   1   9   0.0010   0.0009   0.0164   0.0002   0.0025  -0.0023 -10.00  161.0
2024/07/31 11:20:21.000   28.306840469  -16.536205424  2263.9334   1   9   0.0010   0.0009   0.0164   0.0002   0.0025  -0.0023  -9.00  161.9
2024/07/31 11:20:22.000   28.306840469  -16.536205424  2263.9335   1   9   0.0010   0.0009   0.0164   0.0002   0.0025  -0.0023  -8.00  162.6
2024/07/31 11:20:23.000   28.306840469  -16.536205424  2263.9335   1   9   0.0010   0.0009   0.0164   0.0002   0.0025  -0.0023  -7.00  163.5
2024/07/31 11:20:24.000   28.306840469  -16.536205424  2263.9335   1   9   0.0010   0.0009   0.0164   0.0002   0.0025  -0.0023  -6.00  164.6
2024/07/31 11:20:25.000   28.306840469  -16.536205424  2263.9336   1   9   0.0010   0.0009   0.0164   0.0002   0.0025  -0.0023  -5.00  166.3
2024/07/31 11:20:26.000   28.306840469  -16.536205424  2263.9336   1   9   0.0010   0.0009   0.0164   0.0002   0.0025  -0.0023  -4.00  168.1
2024/07/31 11:20:27.000   28.306840469  -16.536205424  2263.9337   1   9   0.0010   0.0009   0.0164   0.0002   0.0025  -0.0023  -3.00  170.6
2024/07/31 11:20:28.000   28.306840469  -16.536205423  2263.9338   1   9   0.0010   0.0009   0.0164   0.0002   0.0025  -0.0023  -2.00  172.6
2024/07/31 11:20:29.000   28.306840469  -16.536205423  2263.9337   1   9   0.0010   0.0009   0.0164   0.0002   0.0025  -0.0023  -1.00  175.5
2024/07/31 11:20:30.000   28.306840469  -16.536205423  2263.9338   1   9   0.0010   0.0009   0.0164   0.0002   0.0025  -0.0023   0.00  177.9
2024/07/31 11:20:31.000   28.306840469  -16.536205423  2263.9337   1   9   0.0010   0.0009   0.0164   0.0002   0.0025  -0.0023   1.00  179.3
2024/07/31 11:20:32.000   28.306840469  -16.536205424  2263.9336   1   9   0.0010   0.0009   0.0164   0.0002   0.0025  -0.0023   2.00  180.7
2024/07/31 11:20:33.000   28.306840469  -16.536205424  2263.9335   1   9   0.0010   0.0009   0.0164   0.0002   0.0025  -0.0023   3.00  180.9
2024/07/31 11:20:34.000   28.306840469  -16.536205424  2263.9334   1   9   0.0010   0.0009   0.0164   0.0002   0.0025  -0.0023   4.00  181.6
2024/07/31 11:20:35.000   28.306840469  -16.536205424  2263.9334   1   9   0.0010   0.0009   0.0164   0.0002   0.0025  -0.0023   5.00  182.4
2024/07/31 11:20:36.000   28.306840469  -16.536205424  2263.9333   1   9   0.0010   0.0009   0.0164   0.0002   0.0025  -0.0023   6.00  183.3
2024/07/31 11:20:37.000   28.306840469  -16.536205424  2263.9333   1   9   0.0010   0.0009   0.0164   0.0002   0.0025  -0.0023   7.00  184.4
2024/07/31 11:20:38.000   28.306840469  -16.536205424  2263.9333   1   9   0.0010   0.0009   0.0164   0.0002   0.0025  -0.0023   8.00  185.4
2024/07/31 11:20:39.000   28.306840469  -16.536205424  2263.9333   1   9   0.0010   0.0009   0.0164   0.0002   0.0025  -0.0023   9.00  186.5
2024/07/31 11:20:40.000   28.306840469  -16.536205424  2263.9334   1   9   0.0010   0.0009   0.0164   0.0002   0.0025  -0.0023  10.00  187.6
2024/07/31 11:20:41.000   28.306840469  -16.536205424  2263.9333   1   9   0.0010   0.0009   0.0164   0.0002   0.0025  -0.0023  11.00  188.9
2024/07/31 11:20:42.000   28.306840469  -16.536205424  2263.9333   1   9   0.0010   0.0009   0.0164   0.0002   0.0025  -0.0023  12.00  190.3
2024/07/31 11:20:43.000   28.306840469  -16.536205424  2263.9333   1   9   0.0010   0.0009   0.0164   0.0002   0.0025  -0.0023  13.00  191.6
2024/07/31 11:20:44.000   28.306840469  -16.536205424  2263.9333   1   9   0.0010   0.0009   0.0164   0.0002   0.0025  -0.0023  14.00  192.9
2024/07/31 11:20:45.000   28.306840469  -16.536205424  2263.9334   1   9   0.0010   0.0009   0.0164   0.0002   0.0025  -0.0023 -15.00  194.2
2024/07/31 11:20:46.000   28.306840469  -16.536205424  2263.9334   1   9   0.0010   0.0009   0.0164   0.0002   0.0025  -0.0023 -14.00  195.6
2024/07/31 11:20:47.000   28.306840469  -16.536205424  2263.9334   1   9   0.0010   0.0009   0.0164   0.0002   0.0025  -0.0023 -13.00  197.3
2024/07/31 11:20:48.000   28.306840469  -16.536205424  2263.9334   1   9   0.0010   0.0009   0.0164   0.0002   0.0025  -0.0023 -12.00  199.0
2024/07/31 11:20:49.000   28.306840469  -16.536205424  2263.9335   1   9   0.0010   0.0009   0.0164   0.0002   0.0025  -0.0023 -11.00  201.0
2024/07/31 11:20:50.000   28.306840469  -16.536205424  2263.9335   1   9   0.0010   0.0009   0.0164   0.0002   0.0025  -0.0023 -10.00  203.2
2024/07/31 11:20:51.000   28.306840469  -16.536205424  2263.9336   1   9   0.0010   0.0009   0.0164   0.0002   0.0025  -0.0023  -9.00  205.6
2024/07/31 11:20:52.000   28.306840469  -16.536205424  2263.9336   1   9   0.0010   0.0009   0.0164   0.0002   0.0025  -0.0023  -8.00  208.1
2024/07/31 11:20:53.000   28.306840469  -16.536205424  2263.9337   1   9   0.0010   0.0009   0.0164   0.0002   0.0025  -0.0023  -7.00  210.8
2024/07/31 11:20:54.000   28.306840469  -16.536205424  2263.9337   1   9   0.0010   0.0009   0.0164   0.0002   0.0025  -0.0023  -6.00  213.0
2024/07/31 11:20:55.000   28.306840469  -16.536205424  2263.9338   1   9   0.0010   0.0009   0.0164   0.0002   0.0025  -0.0023  -5.00  216.1
2024/07/31 11:20:56.000   28.306840469  -16.536205424  2263.9338   1   9   0.0010   0.0009   0.0164   0.0002   0.0025  -0.0023  -4.00  219.4
2024/07/31 11:20:57.000   28.306840469  -16.536205424  2263.9338   1   9   0.0010   0.0009   0.0163   0.0002   0.0025  -0.0023  -3.00  222.5
2024/07/31 11:20:58.000   28.306840469  -16.536205424  2263.9338   1   9   0.0010   0.0009   0.0163   0.0002   0.0025  -0.0023  -2.00  226.4
2024/07/31 11:20:59.000   28.306840469  -16.536205424  2263.9339   1   9   0.0010   0.0009   0.0163   0.0002   0.0025  -0.0023  -1.00  228.8
2024/07/31 11:21:00.000   28.306840469  -16.536205424  2263.9339   1   9   0.0010   0.0009   0.0163   0.0002   0.0025  -0.0023   0.00  231.8
2024/07/31 11:21:01.000   28.306840469  -16.536205424  2263.9340   1   9   0.0010   0.0009   0.0163   0.0002   0.0025  -0.0023   1.00  232.7
2024/07/31 11:21:02.000   28.306840469  -16.536205424  2263.9338   1   9   0.0010   0.0009   0.0163   0.0002   0.0025  -0.0023   2.00  234.5
2024/07/31 11:21:03.000   28.306840469  -16.536205424  2263.9336   1   9   0.0010   0.0009   0.0163   0.0002   0.0025  -0.0023   3.00  235.1
2024/07/31 11:21:04.000   28.306840469  -16.536205424  2263.9335   1   9   0.0010   0.0009   0.0163   0.0002   0.0025  -0.0023   4.00  235.9
2024/07/31 11:21:05.000   28.306840469  -16.536205424  2263.9334   1   9   0.0010   0.0009   0.0163   0.0002   0.0025  -0.0023   5.00  236.6
2024/07/31 11:21:06.000   28.306840469  -16.536205424  2263.9333   1   9   0.0010   0.0009   0.0163   0.0002   0.0025  -0.0023   6.00  236.8
2024/07/31 11:21:07.000   28.306840470  -16.536205424  2263.9332   1   9   0.0010   0.0009   0.0163   0.0002   0.0025  -0.0023   7.00  237.6
2024/07/31 11:21:08.000   28.306840470  -16.536205424  2263.9331   1   9   0.0010   0.0009   0.0163   0.0002   0.0025  -0.0023   8.00  238.1
2024/07/31 11:21:09.000   28.306840470  -16.536205424  2263.9330   1   9   0.0010   0.0009   0.0163   0.0002   0.0025  -0.0023   9.00  238.3
2024/07/31 11:21:10.000   28.306840470  -16.536205424  2263.9329   1   9   0.0010   0.0009   0.0163   0.0002   0.0025  -0.0023  10.00  239.1
2024/07/31 11:21:11.000   28.306840470  -16.536205424  2263.9328   1   9   0.0010   0.0009   0.0163   0.0002   0.0025  -0.0023  11.00  240.0
2024/07/31 11:21:12.000   28.306840470  -16.536205424  2263.9327   1   9   0.0010   0.0009   0.0163   0.0002   0.0025  -0.0023  12.00  240.9
2024/07/31 11:21:13.000   28.306840470  -16.536205424  2263.9327   1   9   0.0010   0.0009   0.0163   0.0002   0.0025  -0.0023  13.00  241.8
2024/07/31 11:21:14.000   28.306840470  -16.536205424  2263.9326   1   9   0.0010   0.0009   0.0163   0.0002   0.0025  -0.0023  14.00  242.8
2024/07/31 11:21:15.000   28.306840470  -16.536205424  2263.9326   1   9   0.0010   0.0009   0.0163   0.0002   0.0025  -0.0023 -15.00  243.8
2024/07/31 11:21:16.000   28.306840470  -16.536205424  2263.9325   1   9   0.0010   0.0009   0.0163   0.0002   0.0025  -0.0023 -14.00  244.9
2024/07/31 11:21:17.000   28.306840470  -16.536205424  2263.9324   1   9   0.0010   0.0009   0.0163   0.0002   0.0025  -0.0023 -13.00  245.9
2024/07/31 11:21:18.000   28.306840470  -16.536205424  2263.9324   1   9   0.0010   0.0009   0.0163   0.0002   0.0025  -0.0023 -12.00  246.9
2024/07/31 11:21:19.000   28.306840470  -16.536205424  2263.9323   1   9   0.0010   0.0009   0.0163   0.0002   0.0025  -0.0023 -11.00  248.1
2024/07/31 11:21:20.000   28.306840470  -16.536205424  2263.9323   1   9   0.0010   0.0009   0.0163   0.0002   0.0025  -0.0023 -10.00  249.1
2024/07/31 11:21:21.000   28.306840470  -16.536205424  2263.9322   1   9   0.0010   0.0009   0.0163   0.0002   0.0025  -0.0023  -9.00  249.7
2024/07/31 11:21:22.000   28.306840470  -16.536205424  2263.9322   1   9   0.0010   0.0009   0.0163   0.0002   0.0025  -0.0023  -8.00  250.6
2024/07/31 11:21:23.000   28.306840470  -16.536205424  2263.9321   1   9   0.0010   0.0009   0.0163   0.0002   0.0025  -0.0023  -7.00  252.1
2024/07/31 11:21:24.000   28.306840470  -16.536205424  2263.9320   1   9   0.0010   0.0009   0.0163   0.0002   0.0025  -0.0023  -6.00  252.9
2024/07/31 11:21:25.000   28.306840470  -16.536205424  2263.9320   1   9   0.0010   0.0009   0.0163   0.0002   0.0025  -0.0023  -5.00  253.6
2024/07/31 11:21:26.000   28.306840470  -16.536205424  2263.9319   1   9   0.0010   0.0009   0.0163   0.0002   0.0025  -0.0023  -4.00  254.9
2024/07/31 11:21:27.000   28.306840470  -16.536205424  2263.9318   1   9   0.0010   0.0009   0.0163   0.0002   0.0025  -0.0023  -3.00  256.0
2024/07/31 11:21:28.000   28.306840470  -16.536205424  2263.9317   1   9   0.0010   0.0009   0.0163   0.0002   0.0025  -0.0023  -2.00  258.3
2024/07/31 11:21:29.000   28.306840470  -16.536205424  2263.9317   1   9   0.0010   0.0009   0.0163   0.0002   0.0025  -0.0023  -1.00  262.1
2024/07/31 11:21:30.000   28.306840470  -16.536205424  2263.9316   1   9   0.0010   0.0009   0.0163   0.0002   0.0025  -0.0023   0.00  266.5
2024/07/31 11:21:31.000   28.306840470  -16.536205424  2263.9317   1   9   0.0010   0.0009   0.0163   0.0002   0.0025  -0.0023   1.00  269.6
2024/07/31 11:21:32.000   28.306840470  -16.536205424  2263.9315   1   9   0.0010   0.0009   0.0163   0.0002   0.0025  -0.0023   2.00  272.7
2024/07/31 11:21:33.000   28.306840470  -16.536205425  2263.9315   1   9   0.0010   0.0009   0.0163   0.0002   0.0025  -0.0023   3.00  274.4
2024/07/31 11:21:34.000   28.306840470  -16.536205425  2263.9315   1   9   0.0010   0.0009   0.0163   0.0002   0.0025  -0.0023   4.00  276.8
2024/07/31 11:21:35.000   28.306840470  -16.536205424  2263.9314   1   9   0.0010   0.0009   0.0163   0.0002   0.0025  -0.0023   5.00  278.7
2024/07/31 11:21:36.000   28.306840470  -16.536205424  2263.9314   1   9   0.0010   0.0009   0.0163   0.0002   0.0025  -0.0023   6.00  280.7
2024/07/31 11:21:37.000   28.306840470  -16.536205425  2263.9314   1   9   0.0010   0.0009   0.0163   0.0002   0.0025  -0.0023   7.00  282.1
2024/07/31 11:21:38.000   28.306840470  -16.536205425  2263.9314   1   9   0.0010   0.0009   0.0163   0.0002   0.0025  -0.0023   8.00  284.2
2024/07/31 11:21:39.000   28.306840470  -16.536205425  2263.9314   1   9   0.0010   0.0009   0.0163   0.0002   0.0025  -0.0023   9.00  286.1
2024/07/31 11:21:40.000   28.306840470  -16.536205425  2263.9314   1   9   0.0010   0.0009   0.0163   0.0002   0.0025  -0.0023  10.00  287.9
2024/07/31 11:21:41.000   28.306840470  -16.536205425  2263.9313   1   9   0.0010   0.0009   0.0163   0.0002   0.0025  -0.0023  11.00  290.1
2024/07/31 11:21:42.000   28.306840470  -16.536205425  2263.9314   1   9   0.0010   0.0009   0.0163   0.0002   0.0025  -0.0023  12.00  292.1
2024/07/31 11:21:43.000   28.306840470  -16.536205425  2263.9314   1   9   0.0010   0.0009   0.0163   0.0002   0.0025  -0.0023  13.00  293.8
2024/07/31 11:21:44.000   28.306840470  -16.536205425  2263.9314   1   9   0.0010   0.0009   0.0163   0.0002   0.0025  -0.0023  14.00  295.0
2024/07/31 11:21:45.000   28.306840470  -16.536205425  2263.9313   1   9   0.0010   0.0009   0.0163   0.0002   0.0025  -0.0023 -15.00  296.6
2024/07/31 11:21:46.000   28.306840470  -16.536205425  2263.9313   1   9   0.0010   0.0009   0.0163   0.0002   0.0025  -0.0023 -14.00  297.7
2024/07/31 11:21:47.000   28.306840470  -16.536205425  2263.9313   1   9   0.0010   0.0009   0.0163   0.0002   0.0025  -0.0023 -13.00  298.7
2024/07/31 11:21:48.000   28.306840470  -16.536205425  2263.9313   1   9   0.0010   0.0009   0.0163   0.0002   0.0025  -0.0023 -12.00  300.1
2024/07/31 11:21:49.000   28.306840470  -16.536205425  2263.9313   1   9   0.0010   0.0009   0.0163   0.0002   0.0025  -0.0023 -11.00  300.5
2024/07/31 11:21:50.000   28.306840470  -16.536205425  2263.9313   1   9   0.0010   0.0009   0.0163   0.0002   0.0025  -0.0023 -10.00  301.3
2024/07/31 11:21:51.000   28.306840470  -16.536205425  2263.9313   1   9   0.0010   0.0009   0.0163   0.0002   0.0025  -0.0023  -9.00  301.8
2024/07/31 11:21:52.000   28.306840470  -16.536205425  2263.9312   1   9   0.0010   0.0009   0.0162   0.0002   0.0025  -0.0023  -8.00  301.9
2024/07/31 11:21:53.000   28.306840470  -16.536205425  2263.9312   1   9   0.0010   0.0009   0.0162   0.0002   0.0025  -0.0023  -7.00  302.2
2024/07/31 11:21:54.000   28.306840470  -16.536205425  2263.9312   1   9   0.0010   0.0009   0.0162   0.0002   0.0025  -0.0023  -6.00  302.1
2024/07/31 11:21:55.000   28.306840470  -16.536205425  2263.9312   1   9   0.0010   0.0009   0.0162   0.0002   0.0025  -0.0023  -5.00  302.4
2024/07/31 11:21:56.000   28.306840470  -16.536205425  2263.9311   1   9   0.0010   0.0009   0.0162   0.0002   0.0025  -0.0023  -4.00  303.3
2024/07/31 11:21:57.000   28.306840470  -16.536205425  2263.9312   1   9   0.0010   0.0009   0.0162   0.0002   0.0025  -0.0023  -3.00  303.4
2024/07/31 11:21:58.000   28.306840470  -16.536205425  2263.9311   1   9   0.0010   0.0009   0.0162   0.0002   0.0024  -0.0023  -2.00  305.4
2024/07/31 11:21:59.000   28.306840470  -16.536205425  2263.9311   1   9   0.0010   0.0009   0.0162   0.0002   0.0024  -0.0023  -1.00  306.7
2024/07/31 11:22:00.000   28.306840470  -16.536205425  2263.9311   1   9   0.0010   0.0009   0.0162   0.0002   0.0024  -0.0023   0.00  307.0
2024/07/31 11:22:01.000   28.306840470  -16.536205425  2263.9310   1   9   0.0010   0.0009   0.0162   0.0002   0.0024  -0.0023   1.00  308.7
2024/07/31 11:22:02.000   28.306840471  -16.536205425  2263.9309   1   9   0.0010   0.0009   0.0162   0.0002   0.0024  -0.0023   2.00  310.0
2024/07/31 11:22:03.000   28.306840471  -16.536205425  2263.9309   1   9   0.0010   0.0009   0.0162   0.0002   0.0024  -0.0023   3.00  311.5
2024/07/31 11:22:04.000   28.306840471  -16.536205425  2263.9308   1   9   0.0010   0.0009   0.0162   0.0002   0.0024  -0.0023   4.00  312.1
2024/07/31 11:22:05.000   28.306840471  -16.536205425  2263.9308   1   9   0.0010   0.0009   0.0162   0.0002   0.0024  -0.0023   5.00  314.6
2024/07/31 11:22:06.000   28.306840471  -16.536205425  2263.9309   1   9   0.0009   0.0009   0.0162   0.0002   0.0024  -0.0023   6.00  316.0
2024/07/31 11:22:07.000   28.306840471  -16.536205425  2263.9309   1   9   0.0009   0.0009   0.0162   0.0002   0.0024  -0.0023   7.00  317.8
2024/07/31 11:22:08.000   28.306840471  -16.536205425  2263.9309   1   9   0.0009   0.0009   0.0162   0.0002   0.0024  -0.0023   8.00  319.9
2024/07/31 11:22:09.000   28.306840471  -16.536205425  2263.9309   1   9   0.0009   0.0009   0.0162   0.0002   0.0024  -0.0023   9.00  321.2
2024/07/31 11:22:10.000   28.306840471  -16.536205425  2263.9309   1   9   0.0009   0.0009   0.0162   0.0002   0.0024  -0.0023  10.00  322.5
2024/07/31 11:22:11.000   28.306840471  -16.536205425  2263.9309   1   9   0.0009   0.0009   0.0162   0.0002   0.0024  -0.0023  11.00  324.2
2024/07/31 11:22:12.000   28.306840471  -16.536205425  2263.9309   1   9   0.0009   0.0009   0.0162   0.0002   0.0024  -0.0023  12.00  325.6
2024/07/31 11:22:13.000   28.306840471  -16.536205425  2263.9309   1   9   0.0009   0.0009   0.0162   0.0002   0.0024  -0.0023  13.00  326.9
2024/07/31 11:22:14.000   28.306840471  -16.536205425  2263.9309   1   9   0.0009   0.0009   0.0162   0.0002   0.0024  -0.0023  14.00  328.4
2024/07/31 11:22:15.000   28.306840471  -16.536205425  2263.9309   1   9   0.0009   0.0009   0.0162   0.0002   0.0024  -0.0023 -15.00  330.1
2024/07/31 11:22:16.000   28.306840471  -16.536205425  2263.9309   1   9   0.0009   0.0009   0.0162   0.0002   0.0024  -0.0023 -14.00  331.7
2024/07/31 11:22:17.000   28.306840471  -16.536205425  2263.9309   1   9   0.0009   0.0009   0.0162   0.0002   0.0024  -0.0023 -13.00  333.3
2024/07/31 11:22:18.000   28.306840471  -16.536205425  2263.9309   1   9   0.0009   0.0009   0.0162   0.0002   0.0024  -0.0023 -12.00  334.8
2024/07/31 11:22:19.000   28.306840471  -16.536205425  2263.9310   1   9   0.0009   0.0009   0.0162   0.0002   0.0024  -0.0023 -11.00  336.3
2024/07/31 11:22:20.000   28.306840471  -16.536205425  2263.9310   1   9   0.0009   0.0009   0.0162   0.0002   0.0024  -0.0023 -10.00  338.0
2024/07/31 11:22:21.000   28.306840471  -16.536205424  2263.9310   1   9   0.0009   0.0009   0.0162   0.0002   0.0024  -0.0023  -9.00  339.5
2024/07/31 11:22:22.000   28.306840471  -16.536205425  2263.9310   1   9   0.0009   0.0009   0.0162   0.0002   0.0024  -0.0023  -8.00  341.9
2024/07/31 11:22:23.000   28.306840471  -16.536205425  2263.9310   1   9   0.0009   0.0009   0.0162   0.0002   0.0024  -0.0023  -7.00  343.4
2024/07/31 11:22:24.000   28.306840471  -16.536205424  2263.9310   1   9   0.0009   0.0009   0.0162   0.0002   0.0024  -0.0023  -6.00  343.7
2024/07/31 11:22:25.000   28.306840471  -16.536205424  2263.9310   1   9   0.0009   0.0009   0.0162   0.0002   0.0024  -0.0023  -5.00  344.3
2024/07/31 11:22:26.000   28.306840471  -16.536205424  2263.9310   1   9   0.0009   0.0009   0.0162   0.0002   0.0024  -0.0022  -4.00  345.5
2024/07/31 11:22:27.000   28.306840471  -16.536205424  2263.9310   1   9   0.0009   0.0009   0.0162   0.0002   0.0024  -0.0022  -3.00  348.0
2024/07/31 11:22:28.000   28.306840471  -16.536205424  2263.9311   1   9   0.0009   0.0009   0.0162   0.0002   0.0024  -0.0022  -2.00  348.3
2024/07/31 11:22:29.000   28.306840471  -16.536205424  2263.9311   1   9   0.0009   0.0009   0.0162   0.0002   0.0024  -0.0022  -1.00  350.6
2024/07/31 11:22:30.000   28.306840471  -16.536205424  2263.9311   1   9   0.0009   0.0009   0.0162   0.0002   0.0024  -0.0022   0.00  353.0
2024/07/31 11:22:31.000   28.306840471  -16.536205424  2263.9311   1   9   0.0009   0.0009   0.0162   0.0002   0.0024  -0.0022   1.00  355.9
2024/07/31 11:22:32.000   28.306840471  -16.536205424  2263.9310   1   9   0.0009   0.0009   0.0162   0.0002   0.0024  -0.0022   2.00  356.8
2024/07/31 11:22:33.000   28.306840471  -16.536205424  2263.9311   1   9   0.0009   0.0009   0.0162   0.0002   0.0024  -0.0022   3.00  357.7
2024/07/31 11:22:34.000   28.306840471  -16.536205424  2263.9311   1   9   0.0009   0.0009   0.0162   0.0002   0.0024  -0.0022   4.00  358.6
2024/07/31 11:22:35.000   28.306840471  -16.536205424  2263.9311   1   9   0.0009   0.0009   0.0162   0.0002   0.0024  -0.0022   5.00  357.2
