% program   : RTKPOST-EX 2.5.0
% inp file  : C:\Users\SallyHenry\Desktop\Sally Internship\GNSS gravi\DATA\Survey Rover Obs\CHIP.24o
% inp file  : C:\Users\SallyHenry\Desktop\Sally Internship\GNSS gravi\DATA\BaseStations\IZAN\IZAN00ESP_R_20240930000_01D_30S_MO.rnx
% inp file  : C:\Users\SallyHenry\Desktop\Sally Internship\GNSS gravi\DATA\BaseStations\IZAN\IZAN00ESP_R_20240930000_01D_MN.rnx
% inp file  : C:\Users\SallyHenry\Desktop\Sally Internship\GNSS gravi\DATA\aux_files\Survey\IGS0OPSFIN_20240930000_01D_15M_ORB.SP3
% inp file  : C:\Users\SallyHenry\Desktop\Sally Internship\GNSS gravi\DATA\aux_files\Survey\IGS0OPSFIN_20240930000_01D_30S_CLK.CLK
% obs start : 2024/04/02 17:15:45.0 GPST (week2308 234945.0s)
% obs end   : 2024/04/02 17:38:58.0 GPST (week2308 236338.0s)
% pos mode  : Static
% freqs     : L1+L2/E5b
% solution  : Combined-No Phase Reset
% elev mask : 15.0 deg
% dynamics  : on
% tidecorr  : solid
% ionos opt : Estimate TEC
% tropo opt : Estimate ZTD+Grad
% ephemeris : Precise
% navi sys  : GPS GLONASS Galileo QZSS BDS
% amb res   : Fix and Hold
% amb glo   : Fix and Hold
% amb bds   : on
% val thres : 3.0
% antenna1  :                       ( 0.0000  0.0000  1.8000)
% antenna2  :                       ( 0.0000  0.0000  0.0000)
% ref pos   :  28.308069410  -16.499677180  2417.4044
%
% (lat/lon/height=WGS84/ellipsoidal,Q=1:fix,2:float,3:sbas,4:dgps,5:single,6:ppp,ns=# of satellites)
%  GPST                  latitude(deg) longitude(deg)  height(m)   Q  ns   sdn(m)   sde(m)   sdu(m)  sdne(m)  sdeu(m)  sdun(m) age(s)  ratio
2024/04/02 17:15:45.000   28.373999835  -16.463870400  1946.8479   1   6   0.0016   0.0018   0.0333   0.0009  -0.0047  -0.0016  15.00  795.3
2024/04/02 17:15:46.000   28.373999835  -16.463870400  1946.8478   1   6   0.0016   0.0018   0.0333   0.0009  -0.0047  -0.0016 -14.00  792.9
2024/04/02 17:15:47.000   28.373999835  -16.463870400  1946.8477   1   6   0.0016   0.0018   0.0333   0.0009  -0.0047  -0.0016 -13.00  790.3
2024/04/02 17:15:48.000   28.373999835  -16.463870400  1946.8475   1   6   0.0016   0.0018   0.0333   0.0009  -0.0047  -0.0016 -12.00  787.7
2024/04/02 17:15:49.000   28.373999835  -16.463870400  1946.8474   1   6   0.0016   0.0018   0.0333   0.0009  -0.0047  -0.0016 -11.00  784.4
2024/04/02 17:15:50.000   28.373999836  -16.463870400  1946.8472   1   6   0.0016   0.0018   0.0333   0.0009  -0.0047  -0.0016 -10.00  781.7
2024/04/02 17:15:51.000   28.373999836  -16.463870400  1946.8470   1   6   0.0016   0.0018   0.0333   0.0009  -0.0047  -0.0016  -9.00  779.6
2024/04/02 17:15:52.000   28.373999836  -16.463870400  1946.8467   1   6   0.0016   0.0018   0.0333   0.0009  -0.0047  -0.0016  -8.00  777.4
2024/04/02 17:15:53.000   28.373999836  -16.463870400  1946.8464   1   6   0.0016   0.0018   0.0334   0.0009  -0.0047  -0.0016  -7.00  775.0
2024/04/02 17:15:54.000   28.373999836  -16.463870399  1946.8461   1   6   0.0016   0.0018   0.0334   0.0009  -0.0047  -0.0015  -6.00  772.7
2024/04/02 17:15:55.000   28.373999836  -16.463870399  1946.8458   1   6   0.0016   0.0018   0.0334   0.0009  -0.0047  -0.0015  -5.00  770.0
2024/04/02 17:15:56.000   28.373999836  -16.463870399  1946.8455   1   6   0.0016   0.0018   0.0334   0.0009  -0.0047  -0.0015  -4.00  768.6
2024/04/02 17:15:57.000   28.373999836  -16.463870399  1946.8453   1   6   0.0016   0.0018   0.0335   0.0009  -0.0048  -0.0015  -3.00  767.9
2024/04/02 17:15:58.000   28.373999836  -16.463870399  1946.8449   1   6   0.0016   0.0018   0.0335   0.0009  -0.0048  -0.0015  -2.00  766.0
2024/04/02 17:15:59.000   28.373999837  -16.463870399  1946.8446   1   6   0.0016   0.0018   0.0335   0.0009  -0.0048  -0.0015  -1.00  764.8
2024/04/02 17:16:00.000   28.373999837  -16.463870399  1946.8443   1   6   0.0016   0.0018   0.0336   0.0009  -0.0048  -0.0014   0.00  766.0
2024/04/02 17:16:01.000   28.373999837  -16.463870399  1946.8440   1   6   0.0016   0.0018   0.0336   0.0010  -0.0048  -0.0014   1.00  767.9
2024/04/02 17:16:02.000   28.373999837  -16.463870399  1946.8436   1   6   0.0016   0.0018   0.0337   0.0010  -0.0048  -0.0014   2.00  771.1
2024/04/02 17:16:03.000   28.373999837  -16.463870398  1946.8433   1   6   0.0016   0.0018   0.0337   0.0010  -0.0048  -0.0014   3.00  774.6
2024/04/02 17:16:04.000   28.373999837  -16.463870398  1946.8433   1   6   0.0016   0.0018   0.0338   0.0010  -0.0048  -0.0013   4.00  773.6
2024/04/02 17:16:05.000   28.373999837  -16.463870398  1946.8433   1   6   0.0016   0.0018   0.0338   0.0010  -0.0048  -0.0013   5.00  775.0
2024/04/02 17:16:06.000   28.373999837  -16.463870398  1946.8431   1   6   0.0016   0.0018   0.0338   0.0010  -0.0048  -0.0013   6.00  776.9
2024/04/02 17:16:07.000   28.373999837  -16.463870398  1946.8432   1   6   0.0016   0.0018   0.0338   0.0010  -0.0048  -0.0013   7.00  777.1
2024/04/02 17:16:08.000   28.373999837  -16.463870398  1946.8430   1   6   0.0016   0.0018   0.0339   0.0010  -0.0048  -0.0013   8.00  778.5
2024/04/02 17:16:09.000   28.373999837  -16.463870398  1946.8431   1   6   0.0016   0.0018   0.0339   0.0010  -0.0048  -0.0013   9.00  778.6
2024/04/02 17:16:10.000   28.373999837  -16.463870398  1946.8431   1   6   0.0016   0.0018   0.0339   0.0010  -0.0048  -0.0013  10.00  778.1
2024/04/02 17:16:11.000   28.373999837  -16.463870398  1946.8431   1   6   0.0016   0.0018   0.0339   0.0010  -0.0048  -0.0012  11.00  777.3
2024/04/02 17:16:12.000   28.373999837  -16.463870398  1946.8431   1   6   0.0016   0.0018   0.0339   0.0010  -0.0048  -0.0012  12.00  776.6
2024/04/02 17:16:13.000   28.373999837  -16.463870398  1946.8431   1   6   0.0016   0.0018   0.0339   0.0010  -0.0048  -0.0012  13.00  775.3
2024/04/02 17:16:14.000   28.373999837  -16.463870398  1946.8431   1   6   0.0016   0.0018   0.0339   0.0010  -0.0048  -0.0012  14.00  774.5
2024/04/02 17:16:15.000   28.373999837  -16.463870398  1946.8431   1   6   0.0016   0.0018   0.0339   0.0010  -0.0048  -0.0012  15.00  773.0
2024/04/02 17:16:16.000   28.373999837  -16.463870398  1946.8431   1   6   0.0016   0.0018   0.0339   0.0010  -0.0048  -0.0012 -14.00  771.6
2024/04/02 17:16:17.000   28.373999837  -16.463870398  1946.8432   1   6   0.0016   0.0018   0.0339   0.0010  -0.0048  -0.0012 -13.00  770.3
2024/04/02 17:16:18.000   28.373999837  -16.463870398  1946.8433   1   6   0.0016   0.0018   0.0339   0.0010  -0.0048  -0.0012 -12.00  769.1
2024/04/02 17:16:19.000   28.373999836  -16.463870398  1946.8433   1   6   0.0016   0.0018   0.0339   0.0010  -0.0048  -0.0012 -11.00  768.3
2024/04/02 17:16:20.000   28.373999836  -16.463870398  1946.8434   1   6   0.0016   0.0018   0.0339   0.0010  -0.0048  -0.0012 -10.00  767.8
2024/04/02 17:16:21.000   28.373999836  -16.463870399  1946.8436   1   6   0.0016   0.0018   0.0339   0.0010  -0.0048  -0.0012  -9.00  767.3
2024/04/02 17:16:22.000   28.373999836  -16.463870399  1946.8436   1   6   0.0016   0.0018   0.0339   0.0010  -0.0048  -0.0012  -8.00  768.6
2024/04/02 17:16:23.000   28.373999836  -16.463870399  1946.8437   1   6   0.0016   0.0018   0.0340   0.0010  -0.0048  -0.0012  -7.00  769.5
2024/04/02 17:16:24.000   28.373999836  -16.463870399  1946.8440   1   6   0.0016   0.0018   0.0340   0.0010  -0.0048  -0.0011  -6.00  770.7
2024/04/02 17:16:25.000   28.373999836  -16.463870399  1946.8441   1   6   0.0016   0.0018   0.0340   0.0010  -0.0048  -0.0011  -5.00  772.5
2024/04/02 17:16:26.000   28.373999836  -16.463870399  1946.8442   1   6   0.0016   0.0018   0.0340   0.0010  -0.0049  -0.0011  -4.00  774.1
2024/04/02 17:16:27.000   28.373999835  -16.463870400  1946.8443   1   6   0.0016   0.0018   0.0340   0.0010  -0.0049  -0.0011  -3.00  779.0
2024/04/02 17:16:28.000   28.373999835  -16.463870400  1946.8443   1   6   0.0016   0.0018   0.0341   0.0010  -0.0049  -0.0010  -2.00  783.6
2024/04/02 17:16:29.000   28.373999835  -16.463870400  1946.8446   1   6   0.0016   0.0018   0.0341   0.0010  -0.0049  -0.0010  -1.00  784.6
2024/04/02 17:16:30.000   28.373999835  -16.463870400  1946.8450   1   6   0.0016   0.0018   0.0342   0.0010  -0.0049  -0.0010   0.00  786.0
2024/04/02 17:16:31.000   28.373999835  -16.463870401  1946.8449   1   6   0.0016   0.0018   0.0342   0.0010  -0.0049  -0.0009   1.00  791.6
2024/04/02 17:16:32.000   28.373999835  -16.463870401  1946.8448   1   6   0.0016   0.0018   0.0343   0.0010  -0.0049  -0.0009   2.00  797.1
2024/04/02 17:16:33.000   28.373999834  -16.463870402  1946.8448   1   6   0.0016   0.0018   0.0343   0.0010  -0.0049  -0.0008   3.00  802.7
2024/04/02 17:16:34.000   28.373999834  -16.463870402  1946.8451   1   6   0.0016   0.0018   0.0344   0.0010  -0.0049  -0.0008   4.00  807.4
2024/04/02 17:16:35.000   28.373999834  -16.463870402  1946.8452   1   6   0.0016   0.0018   0.0344   0.0010  -0.0049  -0.0008   5.00  810.5
2024/04/02 17:16:36.000   28.373999833  -16.463870403  1946.8450   1   6   0.0016   0.0018   0.0344   0.0010  -0.0049  -0.0007   6.00  814.0
2024/04/02 17:16:37.000   28.373999833  -16.463870403  1946.8449   1   6   0.0016   0.0018   0.0344   0.0010  -0.0049  -0.0007   7.00  815.6
2024/04/02 17:16:38.000   28.373999833  -16.463870403  1946.8448   1   6   0.0016   0.0018   0.0344   0.0010  -0.0049  -0.0007   8.00  814.9
2024/04/02 17:16:39.000   28.373999833  -16.463870403  1946.8447   1   6   0.0016   0.0018   0.0345   0.0010  -0.0049  -0.0006   9.00  813.7
2024/04/02 17:16:40.000   28.373999833  -16.463870403  1946.8446   1   6   0.0016   0.0018   0.0345   0.0010  -0.0049  -0.0006  10.00  812.2
2024/04/02 17:16:41.000   28.373999833  -16.463870403  1946.8445   1   6   0.0016   0.0018   0.0345   0.0010  -0.0049  -0.0006  11.00  810.7
2024/04/02 17:16:42.000   28.373999833  -16.463870403  1946.8445   1   6   0.0016   0.0018   0.0345   0.0010  -0.0049  -0.0006  12.00  808.8
2024/04/02 17:16:43.000   28.373999833  -16.463870403  1946.8444   1   6   0.0016   0.0018   0.0345   0.0010  -0.0049  -0.0006  13.00  807.0
2024/04/02 17:16:44.000   28.373999833  -16.463870403  1946.8443   1   6   0.0016   0.0018   0.0345   0.0010  -0.0049  -0.0006  14.00  804.5
2024/04/02 17:16:45.000   28.373999833  -16.463870403  1946.8443   1   6   0.0016   0.0018   0.0345   0.0010  -0.0049  -0.0005  15.00  801.9
2024/04/02 17:16:46.000   28.373999833  -16.463870403  1946.8442   1   6   0.0016   0.0018   0.0345   0.0010  -0.0049  -0.0005 -14.00  799.5
2024/04/02 17:16:47.000   28.373999833  -16.463870403  1946.8442   1   6   0.0016   0.0018   0.0345   0.0010  -0.0049  -0.0005 -13.00  796.7
2024/04/02 17:16:48.000   28.373999833  -16.463870403  1946.8442   1   6   0.0016   0.0018   0.0345   0.0010  -0.0049  -0.0005 -12.00  793.7
2024/04/02 17:16:49.000   28.373999833  -16.463870403  1946.8441   1   6   0.0016   0.0018   0.0345   0.0010  -0.0049  -0.0005 -11.00  790.9
2024/04/02 17:16:50.000   28.373999833  -16.463870403  1946.8440   1   6   0.0016   0.0018   0.0345   0.0010  -0.0049  -0.0005 -10.00  788.6
2024/04/02 17:16:51.000   28.373999833  -16.463870403  1946.8440   1   6   0.0016   0.0018   0.0345   0.0010  -0.0049  -0.0004  -9.00  785.5
2024/04/02 17:16:52.000   28.373999833  -16.463870403  1946.8439   1   6   0.0016   0.0018   0.0345   0.0010  -0.0049  -0.0004  -8.00  782.9
2024/04/02 17:16:53.000   28.373999833  -16.463870403  1946.8438   1   6   0.0016   0.0018   0.0345   0.0010  -0.0049  -0.0004  -7.00  779.3
2024/04/02 17:16:54.000   28.373999833  -16.463870403  1946.8436   1   6   0.0016   0.0018   0.0345   0.0010  -0.0050  -0.0003  -6.00  777.0
2024/04/02 17:16:55.000   28.373999833  -16.463870403  1946.8434   1   6   0.0016   0.0018   0.0346   0.0010  -0.0050  -0.0002  -5.00  775.3
2024/04/02 17:16:56.000   28.373999833  -16.463870403  1946.8434   1   6   0.0016   0.0018   0.0346   0.0010  -0.0050  -0.0000  -4.00  772.7
2024/04/02 17:16:57.000   28.373999833  -16.463870403  1946.8433   1   6   0.0016   0.0018   0.0346   0.0010  -0.0050   0.0002  -3.00  771.4
2024/04/02 17:16:58.000   28.373999833  -16.463870403  1946.8431   1   6   0.0017   0.0018   0.0347   0.0010  -0.0050   0.0004  -2.00  770.5
2024/04/02 17:16:59.000   28.373999833  -16.463870404  1946.8431   1   6   0.0017   0.0018   0.0347   0.0010  -0.0050   0.0004  -1.00  771.1
2024/04/02 17:17:00.000   28.373999833  -16.463870404  1946.8431   1   6   0.0017   0.0018   0.0347   0.0010  -0.0050   0.0005   0.00  770.9
2024/04/02 17:17:01.000   28.373999833  -16.463870404  1946.8434   1   6   0.0017   0.0018   0.0348   0.0010  -0.0050   0.0006   1.00  772.5
2024/04/02 17:17:02.000   28.373999833  -16.463870405  1946.8435   1   6   0.0017   0.0018   0.0348   0.0010  -0.0050   0.0007   2.00  773.8
2024/04/02 17:17:03.000   28.373999832  -16.463870405  1946.8435   1   6   0.0017   0.0018   0.0349   0.0010  -0.0050   0.0007   3.00  776.5
2024/04/02 17:17:04.000   28.373999832  -16.463870405  1946.8433   1   6   0.0017   0.0018   0.0349   0.0010  -0.0050   0.0008   4.00  779.1
2024/04/02 17:17:05.000   28.373999832  -16.463870405  1946.8433   1   6   0.0017   0.0018   0.0350   0.0010  -0.0050   0.0008   5.00  781.0
2024/04/02 17:17:06.000   28.373999832  -16.463870406  1946.8434   1   6   0.0017   0.0018   0.0350   0.0010  -0.0050   0.0009   6.00  782.4
2024/04/02 17:17:07.000   28.373999832  -16.463870406  1946.8436   1   6   0.0017   0.0018   0.0350   0.0010  -0.0050   0.0009   7.00  780.9
2024/04/02 17:17:08.000   28.373999832  -16.463870406  1946.8438   1   6   0.0017   0.0018   0.0350   0.0010  -0.0050   0.0009   8.00  780.0
2024/04/02 17:17:09.000   28.373999832  -16.463870406  1946.8439   1   6   0.0017   0.0018   0.0350   0.0010  -0.0050   0.0009   9.00  778.5
2024/04/02 17:17:10.000   28.373999832  -16.463870406  1946.8440   1   6   0.0017   0.0018   0.0350   0.0010  -0.0050   0.0009  10.00  777.9
2024/04/02 17:17:11.000   28.373999832  -16.463870406  1946.8441   1   6   0.0017   0.0018   0.0350   0.0010  -0.0050   0.0010  11.00  776.3
2024/04/02 17:17:12.000   28.373999832  -16.463870406  1946.8442   1   6   0.0017   0.0018   0.0350   0.0010  -0.0050   0.0010  12.00  774.6
2024/04/02 17:17:13.000   28.373999832  -16.463870406  1946.8443   1   6   0.0017   0.0018   0.0351   0.0010  -0.0050   0.0010  13.00  773.1
2024/04/02 17:17:14.000   28.373999832  -16.463870406  1946.8443   1   6   0.0017   0.0018   0.0351   0.0010  -0.0050   0.0010  14.00  771.9
2024/04/02 17:17:15.000   28.373999832  -16.463870407  1946.8444   1   6   0.0017   0.0018   0.0351   0.0010  -0.0050   0.0010  15.00  770.4
2024/04/02 17:17:16.000   28.373999832  -16.463870407  1946.8445   1   6   0.0017   0.0018   0.0351   0.0010  -0.0050   0.0010 -14.00  769.1
2024/04/02 17:17:17.000   28.373999832  -16.463870407  1946.8445   1   6   0.0017   0.0018   0.0351   0.0010  -0.0050   0.0010 -13.00  767.9
2024/04/02 17:17:18.000   28.373999831  -16.463870407  1946.8446   1   6   0.0017   0.0018   0.0351   0.0010  -0.0050   0.0010 -12.00  766.4
2024/04/02 17:17:19.000   28.373999831  -16.463870407  1946.8447   1   6   0.0017   0.0018   0.0351   0.0010  -0.0050   0.0010 -11.00  765.4
2024/04/02 17:17:20.000   28.373999831  -16.463870407  1946.8448   1   6   0.0017   0.0018   0.0351   0.0010  -0.0050   0.0010 -10.00  764.4
2024/04/02 17:17:21.000   28.373999831  -16.463870407  1946.8449   1   6   0.0017   0.0018   0.0351   0.0010  -0.0050   0.0011  -9.00  763.7
2024/04/02 17:17:22.000   28.373999831  -16.463870407  1946.8449   1   6   0.0017   0.0018   0.0351   0.0010  -0.0050   0.0011  -8.00  763.6
2024/04/02 17:17:23.000   28.373999831  -16.463870407  1946.8452   1   6   0.0017   0.0018   0.0351   0.0010  -0.0050   0.0011  -7.00  762.8
2024/04/02 17:17:24.000   28.373999831  -16.463870407  1946.8453   1   6   0.0017   0.0018   0.0351   0.0010  -0.0051   0.0011  -6.00  763.2
2024/04/02 17:17:25.000   28.373999831  -16.463870407  1946.8455   1   6   0.0017   0.0018   0.0351   0.0010  -0.0051   0.0011  -5.00  763.4
2024/04/02 17:17:26.000   28.373999831  -16.463870407  1946.8456   1   6   0.0017   0.0018   0.0352   0.0010  -0.0051   0.0011  -4.00  764.2
2024/04/02 17:17:27.000   28.373999831  -16.463870407  1946.8459   1   6   0.0017   0.0019   0.0352   0.0010  -0.0051   0.0012  -3.00  766.7
2024/04/02 17:17:28.000   28.373999831  -16.463870408  1946.8462   1   6   0.0017   0.0019   0.0352   0.0010  -0.0051   0.0012  -2.00  771.9
2024/04/02 17:17:29.000   28.373999831  -16.463870408  1946.8463   1   6   0.0017   0.0019   0.0353   0.0010  -0.0051   0.0012  -1.00  775.1
2024/04/02 17:17:30.000   28.373999831  -16.463870408  1946.8465   1   6   0.0017   0.0019   0.0353   0.0010  -0.0051   0.0013   0.00  773.5
2024/04/02 17:17:31.000   28.373999831  -16.463870408  1946.8468   1   6   0.0017   0.0019   0.0354   0.0010  -0.0051   0.0013   1.00  769.8
2024/04/02 17:17:32.000   28.373999831  -16.463870408  1946.8468   1   6   0.0017   0.0019   0.0354   0.0010  -0.0051   0.0013   2.00  767.9
2024/04/02 17:17:33.000   28.373999832  -16.463870408  1946.8466   1   6   0.0017   0.0019   0.0354   0.0010  -0.0051   0.0014   3.00  766.4
2024/04/02 17:17:34.000   28.373999832  -16.463870408  1946.8464   1   6   0.0017   0.0019   0.0355   0.0010  -0.0051   0.0014   4.00  763.2
2024/04/02 17:17:35.000   28.373999832  -16.463870407  1946.8461   1   6   0.0017   0.0019   0.0355   0.0010  -0.0051   0.0014   5.00  761.4
2024/04/02 17:17:36.000   28.373999832  -16.463870407  1946.8458   1   6   0.0017   0.0019   0.0355   0.0010  -0.0051   0.0015   6.00  759.1
2024/04/02 17:17:37.000   28.373999832  -16.463870407  1946.8455   1   6   0.0017   0.0019   0.0355   0.0010  -0.0051   0.0015   7.00  757.4
2024/04/02 17:17:38.000   28.373999832  -16.463870407  1946.8454   1   6   0.0017   0.0019   0.0356   0.0010  -0.0051   0.0015   8.00  755.7
2024/04/02 17:17:39.000   28.373999832  -16.463870407  1946.8453   1   6   0.0017   0.0019   0.0356   0.0010  -0.0051   0.0015   9.00  754.9
2024/04/02 17:17:40.000   28.373999832  -16.463870407  1946.8452   1   6   0.0017   0.0019   0.0356   0.0010  -0.0051   0.0015  10.00  753.6
2024/04/02 17:17:41.000   28.373999832  -16.463870407  1946.8451   1   6   0.0017   0.0019   0.0356   0.0010  -0.0051   0.0015  11.00  751.4
2024/04/02 17:17:42.000   28.373999832  -16.463870406  1946.8450   1   6   0.0017   0.0019   0.0356   0.0010  -0.0051   0.0015  12.00  749.2
2024/04/02 17:17:43.000   28.373999832  -16.463870406  1946.8448   1   6   0.0017   0.0019   0.0356   0.0010  -0.0051   0.0015  13.00  747.9
2024/04/02 17:17:44.000   28.373999832  -16.463870406  1946.8447   1   6   0.0017   0.0019   0.0356   0.0010  -0.0051   0.0015  14.00  746.1
2024/04/02 17:17:45.000   28.373999832  -16.463870406  1946.8446   1   6   0.0017   0.0019   0.0356   0.0010  -0.0051   0.0015  15.00  744.2
2024/04/02 17:17:46.000   28.373999832  -16.463870406  1946.8445   1   6   0.0017   0.0019   0.0356   0.0010  -0.0051   0.0016 -14.00  742.3
2024/04/02 17:17:47.000   28.373999832  -16.463870406  1946.8444   1   6   0.0017   0.0019   0.0356   0.0010  -0.0051   0.0016 -13.00  740.2
2024/04/02 17:17:48.000   28.373999832  -16.463870406  1946.8444   1   6   0.0017   0.0019   0.0356   0.0010  -0.0051   0.0016 -12.00  737.6
2024/04/02 17:17:49.000   28.373999832  -16.463870406  1946.8442   1   6   0.0017   0.0019   0.0356   0.0010  -0.0051   0.0016 -11.00  735.6
2024/04/02 17:17:50.000   28.373999832  -16.463870406  1946.8441   1   6   0.0017   0.0019   0.0356   0.0010  -0.0051   0.0016 -10.00  732.9
2024/04/02 17:17:51.000   28.373999832  -16.463870406  1946.8439   1   6   0.0017   0.0019   0.0356   0.0010  -0.0051   0.0016  -9.00  731.1
2024/04/02 17:17:52.000   28.373999832  -16.463870406  1946.8438   1   6   0.0017   0.0019   0.0356   0.0010  -0.0051   0.0016  -8.00  728.2
2024/04/02 17:17:53.000   28.373999832  -16.463870405  1946.8436   1   6   0.0017   0.0019   0.0356   0.0010  -0.0051   0.0016  -7.00  725.5
2024/04/02 17:17:54.000   28.373999832  -16.463870405  1946.8434   1   6   0.0017   0.0019   0.0357   0.0010  -0.0051   0.0016  -6.00  722.2
2024/04/02 17:17:55.000   28.373999833  -16.463870405  1946.8431   1   6   0.0017   0.0019   0.0357   0.0010  -0.0052   0.0016  -5.00  720.1
2024/04/02 17:17:56.000   28.373999833  -16.463870405  1946.8431   1   6   0.0017   0.0019   0.0357   0.0010  -0.0052   0.0017  -4.00  717.0
2024/04/02 17:17:57.000   28.373999833  -16.463870405  1946.8429   1   6   0.0017   0.0019   0.0357   0.0010  -0.0052   0.0017  -3.00  716.2
2024/04/02 17:17:58.000   28.373999833  -16.463870405  1946.8424   1   6   0.0017   0.0019   0.0358   0.0010  -0.0052   0.0017  -2.00  716.9
2024/04/02 17:17:59.000   28.373999833  -16.463870405  1946.8424   1   6   0.0017   0.0019   0.0358   0.0010  -0.0052   0.0017  -1.00  714.6
2024/04/02 17:18:00.000   28.373999833  -16.463870405  1946.8421   1   6   0.0017   0.0019   0.0358   0.0010  -0.0052   0.0018   0.00  717.4
2024/04/02 17:18:01.000   28.373999833  -16.463870405  1946.8419   1   6   0.0017   0.0019   0.0359   0.0011  -0.0052   0.0018   1.00  715.7
2024/04/02 17:18:02.000   28.373999833  -16.463870404  1946.8418   1   6   0.0018   0.0019   0.0359   0.0011  -0.0052   0.0018   2.00  714.5
2024/04/02 17:18:03.000   28.373999833  -16.463870404  1946.8415   1   6   0.0018   0.0019   0.0360   0.0011  -0.0052   0.0018   3.00  715.1
2024/04/02 17:18:04.000   28.373999834  -16.463870404  1946.8412   1   6   0.0018   0.0019   0.0360   0.0011  -0.0052   0.0019   4.00  715.5
2024/04/02 17:18:05.000   28.373999833  -16.463870404  1946.8409   1   6   0.0018   0.0019   0.0360   0.0011  -0.0052   0.0019   5.00  716.1
2024/04/02 17:18:06.000   28.373999833  -16.463870404  1946.8409   1   6   0.0018   0.0019   0.0361   0.0011  -0.0052   0.0019   6.00  715.7
2024/04/02 17:18:07.000   28.373999833  -16.463870404  1946.8408   1   6   0.0018   0.0019   0.0361   0.0011  -0.0052   0.0019   7.00  716.0
2024/04/02 17:18:08.000   28.373999833  -16.463870404  1946.8406   1   6   0.0018   0.0019   0.0361   0.0011  -0.0052   0.0019   8.00  715.1
2024/04/02 17:18:09.000   28.373999834  -16.463870404  1946.8405   1   6   0.0018   0.0019   0.0361   0.0011  -0.0052   0.0019   9.00  713.3
2024/04/02 17:18:10.000   28.373999834  -16.463870404  1946.8403   1   6   0.0018   0.0019   0.0361   0.0011  -0.0052   0.0019  10.00  711.8
2024/04/02 17:18:11.000   28.373999834  -16.463870403  1946.8403   1   6   0.0018   0.0019   0.0361   0.0011  -0.0052   0.0020  11.00  709.8
2024/04/02 17:18:12.000   28.373999833  -16.463870403  1946.8403   1   6   0.0018   0.0019   0.0361   0.0011  -0.0052   0.0020  12.00  708.7
2024/04/02 17:18:13.000   28.373999833  -16.463870403  1946.8402   1   6   0.0018   0.0019   0.0361   0.0011  -0.0052   0.0020  13.00  707.0
2024/04/02 17:18:14.000   28.373999833  -16.463870403  1946.8402   1   6   0.0018   0.0019   0.0361   0.0011  -0.0052   0.0020  14.00  704.7
2024/04/02 17:18:15.000   28.373999834  -16.463870403  1946.8402   1   6   0.0018   0.0019   0.0361   0.0011  -0.0052   0.0020  15.00  702.4
2024/04/02 17:18:16.000   28.373999834  -16.463870403  1946.8401   1   6   0.0018   0.0019   0.0361   0.0011  -0.0052   0.0020 -14.00  700.6
2024/04/02 17:18:17.000   28.373999834  -16.463870403  1946.8401   1   6   0.0018   0.0019   0.0361   0.0011  -0.0052   0.0020 -13.00  698.3
2024/04/02 17:18:18.000   28.373999834  -16.463870403  1946.8400   1   6   0.0018   0.0019   0.0361   0.0011  -0.0052   0.0020 -12.00  696.5
2024/04/02 17:18:19.000   28.373999834  -16.463870403  1946.8398   1   6   0.0018   0.0019   0.0361   0.0011  -0.0052   0.0020 -11.00  694.9
2024/04/02 17:18:20.000   28.373999834  -16.463870403  1946.8397   1   6   0.0018   0.0019   0.0361   0.0011  -0.0052   0.0020 -10.00  693.5
2024/04/02 17:18:21.000   28.373999834  -16.463870403  1946.8395   1   6   0.0018   0.0019   0.0361   0.0011  -0.0052   0.0020  -9.00  692.3
2024/04/02 17:18:22.000   28.373999834  -16.463870402  1946.8393   1   6   0.0018   0.0019   0.0362   0.0011  -0.0052   0.0020  -8.00  691.2
2024/04/02 17:18:23.000   28.373999834  -16.463870402  1946.8391   1   6   0.0018   0.0019   0.0362   0.0011  -0.0052   0.0020  -7.00  690.1
2024/04/02 17:18:24.000   28.373999834  -16.463870402  1946.8389   1   6   0.0018   0.0019   0.0362   0.0011  -0.0052   0.0020  -6.00  688.0
2024/04/02 17:18:25.000   28.373999834  -16.463870402  1946.8387   1   6   0.0018   0.0019   0.0362   0.0011  -0.0052   0.0021  -5.00  685.6
2024/04/02 17:18:26.000   28.373999834  -16.463870401  1946.8386   1   6   0.0018   0.0019   0.0362   0.0011  -0.0052   0.0021  -4.00  681.6
2024/04/02 17:18:27.000   28.373999835  -16.463870401  1946.8381   1   6   0.0018   0.0019   0.0362   0.0011  -0.0052   0.0021  -3.00  682.0
2024/04/02 17:18:28.000   28.373999835  -16.463870401  1946.8378   1   6   0.0018   0.0019   0.0363   0.0011  -0.0053   0.0021  -2.00  678.1
2024/04/02 17:18:29.000   28.373999835  -16.463870400  1946.8381   1   6   0.0018   0.0019   0.0363   0.0011  -0.0053   0.0021  -1.00  669.8
2024/04/02 17:18:30.000   28.373999836  -16.463870400  1946.8378   1   6   0.0018   0.0019   0.0364   0.0011  -0.0053   0.0022   0.00  668.7
2024/04/02 17:18:31.000   28.373999836  -16.463870400  1946.8375   1   6   0.0018   0.0019   0.0364   0.0011  -0.0053   0.0022   1.00  669.2
2024/04/02 17:18:32.000   28.373999836  -16.463870399  1946.8370   1   6   0.0018   0.0019   0.0365   0.0011  -0.0053   0.0022   2.00  669.9
2024/04/02 17:18:33.000   28.373999836  -16.463870399  1946.8367   1   6   0.0018   0.0019   0.0365   0.0011  -0.0053   0.0022   3.00  668.4
2024/04/02 17:18:34.000   28.373999836  -16.463870399  1946.8365   1   6   0.0018   0.0019   0.0365   0.0011  -0.0053   0.0023   4.00  667.2
2024/04/02 17:18:35.000   28.373999836  -16.463870399  1946.8364   1   6   0.0018   0.0019   0.0366   0.0011  -0.0053   0.0023   5.00  664.8
2024/04/02 17:18:36.000   28.373999836  -16.463870399  1946.8362   1   6   0.0018   0.0019   0.0366   0.0011  -0.0053   0.0023   6.00  663.4
2024/04/02 17:18:37.000   28.373999836  -16.463870398  1946.8362   1   6   0.0018   0.0019   0.0366   0.0011  -0.0053   0.0023   7.00  660.9
2024/04/02 17:18:38.000   28.373999836  -16.463870398  1946.8361   1   6   0.0018   0.0019   0.0366   0.0011  -0.0053   0.0023   8.00  659.4
2024/04/02 17:18:39.000   28.373999836  -16.463870398  1946.8360   1   6   0.0018   0.0019   0.0366   0.0011  -0.0053   0.0023   9.00  657.5
2024/04/02 17:18:40.000   28.373999836  -16.463870398  1946.8360   1   6   0.0018   0.0019   0.0366   0.0011  -0.0053   0.0023  10.00  656.5
2024/04/02 17:18:41.000   28.373999836  -16.463870398  1946.8361   1   6   0.0018   0.0019   0.0366   0.0011  -0.0053   0.0023  11.00  654.8
2024/04/02 17:18:42.000   28.373999836  -16.463870398  1946.8361   1   6   0.0018   0.0019   0.0366   0.0011  -0.0053   0.0023  12.00  653.2
2024/04/02 17:18:43.000   28.373999836  -16.463870398  1946.8362   1   6   0.0018   0.0019   0.0366   0.0011  -0.0053   0.0023  13.00  651.3
2024/04/02 17:18:44.000   28.373999836  -16.463870398  1946.8362   1   6   0.0018   0.0019   0.0366   0.0011  -0.0053   0.0024  14.00  649.4
2024/04/02 17:18:45.000   28.373999836  -16.463870398  1946.8363   1   6   0.0018   0.0019   0.0366   0.0011  -0.0053   0.0024  15.00  647.2
2024/04/02 17:18:46.000   28.373999836  -16.463870398  1946.8364   1   6   0.0018   0.0019   0.0366   0.0011  -0.0053   0.0024 -14.00  645.2
2024/04/02 17:18:47.000   28.373999836  -16.463870398  1946.8365   1   6   0.0018   0.0019   0.0366   0.0011  -0.0053   0.0024 -13.00  643.2
2024/04/02 17:18:48.000   28.373999836  -16.463870398  1946.8366   1   6   0.0018   0.0019   0.0366   0.0011  -0.0053   0.0024 -12.00  641.3
2024/04/02 17:18:49.000   28.373999836  -16.463870398  1946.8367   1   6   0.0018   0.0019   0.0366   0.0011  -0.0053   0.0024 -11.00  639.3
2024/04/02 17:18:50.000   28.373999836  -16.463870398  1946.8368   1   6   0.0018   0.0019   0.0366   0.0011  -0.0053   0.0024 -10.00  637.7
2024/04/02 17:18:51.000   28.373999836  -16.463870398  1946.8371   1   6   0.0018   0.0019   0.0367   0.0011  -0.0053   0.0024  -9.00  635.4
2024/04/02 17:18:52.000   28.373999836  -16.463870399  1946.8373   1   6   0.0018   0.0020   0.0367   0.0011  -0.0053   0.0024  -8.00  633.7
2024/04/02 17:18:53.000   28.373999836  -16.463870399  1946.8376   1   6   0.0018   0.0020   0.0367   0.0011  -0.0053   0.0024  -7.00  632.4
2024/04/02 17:18:54.000   28.373999836  -16.463870399  1946.8379   1   6   0.0018   0.0020   0.0367   0.0011  -0.0053   0.0024  -6.00  630.4
2024/04/02 17:18:55.000   28.373999836  -16.463870399  1946.8383   1   6   0.0018   0.0020   0.0367   0.0011  -0.0053   0.0024  -5.00  630.6
2024/04/02 17:18:56.000   28.373999836  -16.463870400  1946.8387   1   6   0.0018   0.0020   0.0367   0.0011  -0.0053   0.0024  -4.00  630.4
2024/04/02 17:18:57.000   28.373999835  -16.463870400  1946.8393   1   6   0.0018   0.0020   0.0367   0.0011  -0.0053   0.0025  -3.00  628.5
2024/04/02 17:18:58.000   28.373999835  -16.463870400  1946.8399   1   6   0.0018   0.0020   0.0368   0.0011  -0.0053   0.0025  -2.00  627.7
2024/04/02 17:18:59.000   28.373999835  -16.463870401  1946.8406   1   6   0.0018   0.0020   0.0368   0.0011  -0.0053   0.0025  -1.00  625.7
2024/04/02 17:19:00.000   28.373999835  -16.463870401  1946.8415   1   6   0.0019   0.0020   0.0369   0.0011  -0.0053   0.0025   0.00  621.1
2024/04/02 17:19:01.000   28.373999835  -16.463870402  1946.8418   1   6   0.0019   0.0020   0.0369   0.0011  -0.0054   0.0025   1.00  617.5
2024/04/02 17:19:02.000   28.373999835  -16.463870402  1946.8425   1   6   0.0019   0.0020   0.0369   0.0011  -0.0054   0.0026   2.00  610.4
2024/04/02 17:19:03.000   28.373999835  -16.463870402  1946.8428   1   6   0.0019   0.0020   0.0370   0.0011  -0.0054   0.0026   3.00  605.7
2024/04/02 17:19:04.000   28.373999835  -16.463870403  1946.8430   1   6   0.0019   0.0020   0.0370   0.0011  -0.0054   0.0026   4.00  600.5
2024/04/02 17:19:05.000   28.373999835  -16.463870403  1946.8434   1   6   0.0019   0.0020   0.0370   0.0012  -0.0054   0.0026   5.00  593.2
2024/04/02 17:19:06.000   28.373999835  -16.463870403  1946.8439   1   6   0.0019   0.0020   0.0371   0.0012  -0.0054   0.0026   6.00  586.6
2024/04/02 17:19:07.000   28.373999836  -16.463870403  1946.8443   1   6   0.0019   0.0020   0.0371   0.0012  -0.0054   0.0027   7.00  581.2
2024/04/02 17:19:08.000   28.373999836  -16.463870403  1946.8445   1   6   0.0019   0.0020   0.0371   0.0012  -0.0054   0.0027   8.00  577.4
2024/04/02 17:19:09.000   28.373999836  -16.463870403  1946.8447   1   6   0.0019   0.0020   0.0371   0.0012  -0.0054   0.0027   9.00  574.5
2024/04/02 17:19:10.000   28.373999836  -16.463870404  1946.8450   1   6   0.0019   0.0020   0.0371   0.0012  -0.0054   0.0027  10.00  570.7
2024/04/02 17:19:11.000   28.373999836  -16.463870404  1946.8452   1   6   0.0019   0.0020   0.0371   0.0012  -0.0054   0.0027  11.00  567.5
2024/04/02 17:19:12.000   28.373999836  -16.463870404  1946.8453   1   6   0.0019   0.0020   0.0371   0.0012  -0.0054   0.0027  12.00  564.7
2024/04/02 17:19:13.000   28.373999836  -16.463870404  1946.8455   1   6   0.0019   0.0020   0.0371   0.0012  -0.0054   0.0027  13.00  561.6
2024/04/02 17:19:14.000   28.373999836  -16.463870404  1946.8457   1   6   0.0019   0.0020   0.0371   0.0012  -0.0054   0.0027  14.00  558.5
2024/04/02 17:19:15.000   28.373999836  -16.463870404  1946.8458   1   6   0.0019   0.0020   0.0371   0.0012  -0.0054   0.0027  15.00  555.7
2024/04/02 17:19:16.000   28.373999836  -16.463870404  1946.8459   1   6   0.0019   0.0020   0.0371   0.0012  -0.0054   0.0027 -14.00  553.1
2024/04/02 17:19:17.000   28.373999836  -16.463870404  1946.8460   1   6   0.0019   0.0020   0.0371   0.0012  -0.0054   0.0027 -13.00  550.2
2024/04/02 17:19:18.000   28.373999836  -16.463870404  1946.8462   1   6   0.0019   0.0020   0.0371   0.0012  -0.0054   0.0027 -12.00  547.6
2024/04/02 17:19:19.000   28.373999836  -16.463870405  1946.8464   1   6   0.0019   0.0020   0.0371   0.0012  -0.0054   0.0027 -11.00  544.4
2024/04/02 17:19:20.000   28.373999836  -16.463870405  1946.8466   1   6   0.0019   0.0020   0.0371   0.0012  -0.0054   0.0027 -10.00  541.4
2024/04/02 17:19:21.000   28.373999836  -16.463870405  1946.8468   1   6   0.0019   0.0020   0.0371   0.0012  -0.0054   0.0027  -9.00  539.5
2024/04/02 17:19:22.000   28.373999836  -16.463870405  1946.8470   1   6   0.0019   0.0020   0.0371   0.0012  -0.0054   0.0027  -8.00  537.2
2024/04/02 17:19:23.000   28.373999836  -16.463870405  1946.8472   1   6   0.0019   0.0020   0.0372   0.0012  -0.0054   0.0028  -7.00  535.5
2024/04/02 17:19:24.000   28.373999836  -16.463870406  1946.8476   1   6   0.0019   0.0020   0.0372   0.0012  -0.0054   0.0028  -6.00  533.1
2024/04/02 17:19:25.000   28.373999836  -16.463870406  1946.8479   1   6   0.0019   0.0020   0.0372   0.0012  -0.0054   0.0028  -5.00  531.0
2024/04/02 17:19:26.000   28.373999835  -16.463870406  1946.8482   1   6   0.0019   0.0020   0.0372   0.0012  -0.0054   0.0028  -4.00  530.1
2024/04/02 17:19:27.000   28.373999835  -16.463870407  1946.8485   1   6   0.0019   0.0020   0.0372   0.0012  -0.0054   0.0028  -3.00  530.6
2024/04/02 17:19:28.000   28.373999835  -16.463870408  1946.8486   1   6   0.0019   0.0020   0.0373   0.0012  -0.0054   0.0028  -2.00  531.9
2024/04/02 17:19:29.000   28.373999835  -16.463870408  1946.8489   1   6   0.0019   0.0020   0.0373   0.0012  -0.0054   0.0028  -1.00  530.9
2024/04/02 17:19:30.000   28.373999834  -16.463870409  1946.8493   1   6   0.0019   0.0020   0.0373   0.0012  -0.0054   0.0029   0.00  529.4
2024/04/02 17:19:31.000   28.373999834  -16.463870409  1946.8496   1   6   0.0019   0.0020   0.0374   0.0012  -0.0054   0.0029   1.00  527.9
2024/04/02 17:19:32.000   28.373999834  -16.463870410  1946.8498   1   6   0.0019   0.0020   0.0374   0.0012  -0.0054   0.0029   2.00  529.4
2024/04/02 17:19:33.000   28.373999833  -16.463870411  1946.8501   1   6   0.0019   0.0020   0.0374   0.0012  -0.0054   0.0029   3.00  530.6
2024/04/02 17:19:34.000   28.373999833  -16.463870412  1946.8505   1   6   0.0020   0.0020   0.0375   0.0012  -0.0054   0.0030   4.00  527.7
2024/04/02 17:19:35.000   28.373999833  -16.463870412  1946.8510   1   6   0.0020   0.0020   0.0375   0.0012  -0.0054   0.0030   5.00  525.7
2024/04/02 17:19:36.000   28.373999833  -16.463870413  1946.8514   1   6   0.0020   0.0020   0.0375   0.0012  -0.0054   0.0030   6.00  524.0
2024/04/02 17:19:37.000   28.373999833  -16.463870413  1946.8518   1   6   0.0020   0.0020   0.0375   0.0012  -0.0054   0.0030   7.00  520.8
2024/04/02 17:19:38.000   28.373999833  -16.463870413  1946.8521   1   6   0.0020   0.0020   0.0376   0.0012  -0.0055   0.0030   8.00  519.1
2024/04/02 17:19:39.000   28.373999833  -16.463870414  1946.8523   1   6   0.0020   0.0020   0.0376   0.0012  -0.0055   0.0030   9.00  517.4
2024/04/02 17:19:40.000   28.373999833  -16.463870414  1946.8524   1   6   0.0020   0.0020   0.0376   0.0012  -0.0055   0.0030  10.00  515.7
2024/04/02 17:19:41.000   28.373999833  -16.463870414  1946.8526   1   6   0.0020   0.0020   0.0376   0.0012  -0.0055   0.0030  11.00  513.3
2024/04/02 17:19:42.000   28.373999832  -16.463870414  1946.8527   1   6   0.0020   0.0020   0.0376   0.0012  -0.0055   0.0030  12.00  511.5
2024/04/02 17:19:43.000   28.373999832  -16.463870414  1946.8527   1   6   0.0020   0.0020   0.0376   0.0012  -0.0055   0.0030  13.00  509.5
2024/04/02 17:19:44.000   28.373999832  -16.463870414  1946.8527   1   6   0.0020   0.0020   0.0376   0.0012  -0.0055   0.0030  14.00  507.2
2024/04/02 17:19:45.000   28.373999832  -16.463870414  1946.8528   1   6   0.0020   0.0020   0.0376   0.0012  -0.0055   0.0030  15.00  504.6
2024/04/02 17:19:46.000   28.373999832  -16.463870414  1946.8529   1   6   0.0020   0.0020   0.0376   0.0012  -0.0055   0.0031 -14.00  502.6
2024/04/02 17:19:47.000   28.373999832  -16.463870414  1946.8529   1   6   0.0020   0.0020   0.0376   0.0012  -0.0055   0.0031 -13.00  500.7
2024/04/02 17:19:48.000   28.373999832  -16.463870414  1946.8529   1   6   0.0020   0.0020   0.0376   0.0012  -0.0055   0.0031 -12.00  498.9
2024/04/02 17:19:49.000   28.373999832  -16.463870414  1946.8529   1   6   0.0020   0.0020   0.0376   0.0012  -0.0055   0.0031 -11.00  497.2
2024/04/02 17:19:50.000   28.373999832  -16.463870414  1946.8529   1   6   0.0020   0.0020   0.0376   0.0012  -0.0055   0.0031 -10.00  495.6
2024/04/02 17:19:51.000   28.373999832  -16.463870414  1946.8529   1   6   0.0020   0.0020   0.0376   0.0012  -0.0055   0.0031  -9.00  494.2
2024/04/02 17:19:52.000   28.373999832  -16.463870414  1946.8529   1   6   0.0020   0.0020   0.0376   0.0012  -0.0055   0.0031  -8.00  493.5
2024/04/02 17:19:53.000   28.373999832  -16.463870415  1946.8530   1   6   0.0020   0.0020   0.0376   0.0012  -0.0055   0.0031  -7.00  491.9
2024/04/02 17:19:54.000   28.373999832  -16.463870415  1946.8529   1   6   0.0020   0.0020   0.0376   0.0012  -0.0055   0.0031  -6.00  491.2
2024/04/02 17:19:55.000   28.373999831  -16.463870415  1946.8530   1   6   0.0020   0.0020   0.0376   0.0012  -0.0055   0.0031  -5.00  490.6
2024/04/02 17:19:56.000   28.373999831  -16.463870415  1946.8530   1   6   0.0020   0.0021   0.0376   0.0012  -0.0055   0.0031  -4.00  490.4
2024/04/02 17:19:57.000   28.373999831  -16.463870416  1946.8531   1   6   0.0020   0.0021   0.0377   0.0012  -0.0055   0.0031  -3.00  492.0
2024/04/02 17:19:58.000   28.373999830  -16.463870416  1946.8531   1   6   0.0020   0.0021   0.0377   0.0012  -0.0055   0.0032  -2.00  493.1
2024/04/02 17:19:59.000   28.373999830  -16.463870417  1946.8530   1   6   0.0020   0.0021   0.0377   0.0013  -0.0055   0.0032  -1.00  495.2
2024/04/02 17:20:00.000   28.373999829  -16.463870417  1946.8528   1   6   0.0020   0.0021   0.0378   0.0013  -0.0055   0.0032   0.00  499.6
2024/04/02 17:20:01.000   28.373999828  -16.463870418  1946.8528   1   6   0.0020   0.0021   0.0378   0.0013  -0.0055   0.0032   1.00  501.0
2024/04/02 17:20:02.000   28.373999828  -16.463870418  1946.8528   1   6   0.0020   0.0021   0.0379   0.0013  -0.0055   0.0032   2.00  501.9
2024/04/02 17:20:03.000   28.373999827  -16.463870418  1946.8524   1   6   0.0020   0.0021   0.0379   0.0013  -0.0055   0.0033   3.00  508.6
2024/04/02 17:20:04.000   28.373999826  -16.463870419  1946.8522   1   6   0.0020   0.0021   0.0379   0.0013  -0.0055   0.0033   4.00  512.7
2024/04/02 17:20:05.000   28.373999825  -16.463870419  1946.8519   1   6   0.0020   0.0021   0.0379   0.0013  -0.0055   0.0033   5.00  517.1
2024/04/02 17:20:06.000   28.373999825  -16.463870419  1946.8516   1   6   0.0021   0.0021   0.0380   0.0013  -0.0055   0.0033   6.00  519.6
2024/04/02 17:20:07.000   28.373999825  -16.463870419  1946.8514   1   6   0.0021   0.0021   0.0380   0.0013  -0.0055   0.0033   7.00  519.9
2024/04/02 17:20:08.000   28.373999824  -16.463870419  1946.8512   1   6   0.0021   0.0021   0.0380   0.0013  -0.0055   0.0033   8.00  519.7
2024/04/02 17:20:09.000   28.373999824  -16.463870419  1946.8511   1   6   0.0021   0.0021   0.0380   0.0013  -0.0055   0.0033   9.00  519.4
2024/04/02 17:20:10.000   28.373999824  -16.463870419  1946.8509   1   6   0.0021   0.0021   0.0380   0.0013  -0.0055   0.0034  10.00  518.7
2024/04/02 17:20:11.000   28.373999824  -16.463870419  1946.8508   1   6   0.0021   0.0021   0.0380   0.0013  -0.0055   0.0034  11.00  517.8
2024/04/02 17:20:12.000   28.373999824  -16.463870419  1946.8506   1   6   0.0021   0.0021   0.0380   0.0013  -0.0055   0.0034  12.00  517.5
2024/04/02 17:20:13.000   28.373999824  -16.463870419  1946.8505   1   6   0.0021   0.0021   0.0380   0.0013  -0.0055   0.0034  13.00  517.3
2024/04/02 17:20:14.000   28.373999823  -16.463870419  1946.8503   1   6   0.0021   0.0021   0.0380   0.0013  -0.0055   0.0034  14.00  516.6
2024/04/02 17:20:15.000   28.373999823  -16.463870419  1946.8502   1   6   0.0021   0.0021   0.0380   0.0013  -0.0055   0.0034  15.00  515.5
2024/04/02 17:20:16.000   28.373999823  -16.463870419  1946.8501   1   6   0.0021   0.0021   0.0380   0.0013  -0.0055   0.0034 -14.00  513.9
2024/04/02 17:20:17.000   28.373999823  -16.463870419  1946.8499   1   6   0.0021   0.0021   0.0380   0.0013  -0.0055   0.0034 -13.00  512.2
2024/04/02 17:20:18.000   28.373999823  -16.463870419  1946.8498   1   6   0.0021   0.0021   0.0380   0.0013  -0.0055   0.0034 -12.00  510.6
2024/04/02 17:20:19.000   28.373999823  -16.463870419  1946.8496   1   6   0.0021   0.0021   0.0380   0.0013  -0.0055   0.0034 -11.00  509.5
2024/04/02 17:20:20.000   28.373999823  -16.463870419  1946.8495   1   6   0.0021   0.0021   0.0380   0.0013  -0.0055   0.0034 -10.00  507.1
2024/04/02 17:20:21.000   28.373999823  -16.463870419  1946.8493   1   6   0.0021   0.0021   0.0380   0.0013  -0.0055   0.0034  -9.00  506.0
2024/04/02 17:20:22.000   28.373999823  -16.463870419  1946.8490   1   6   0.0021   0.0021   0.0380   0.0013  -0.0055   0.0034  -8.00  505.4
2024/04/02 17:20:23.000   28.373999822  -16.463870419  1946.8487   1   6   0.0021   0.0021   0.0380   0.0013  -0.0055   0.0034  -7.00  505.4
2024/04/02 17:20:24.000   28.373999822  -16.463870419  1946.8483   1   6   0.0021   0.0021   0.0380   0.0013  -0.0055   0.0034  -6.00  506.7
2024/04/02 17:20:25.000   28.373999822  -16.463870419  1946.8480   1   6   0.0021   0.0021   0.0381   0.0013  -0.0055   0.0034  -5.00  508.2
2024/04/02 17:20:26.000   28.373999821  -16.463870419  1946.8477   1   6   0.0021   0.0021   0.0381   0.0013  -0.0055   0.0035  -4.00  510.2
2024/04/02 17:20:27.000   28.373999821  -16.463870419  1946.8471   1   6   0.0021   0.0021   0.0381   0.0013  -0.0055   0.0035  -3.00  516.0
2024/04/02 17:20:28.000   28.373999820  -16.463870419  1946.8467   1   6   0.0021   0.0021   0.0381   0.0013  -0.0055   0.0035  -2.00  522.9
2024/04/02 17:20:29.000   28.373999819  -16.463870420  1946.8462   1   6   0.0021   0.0021   0.0382   0.0013  -0.0055   0.0035  -1.00  533.7
2024/04/02 17:20:30.000   28.373999818  -16.463870421  1946.8456   1   6   0.0021   0.0021   0.0382   0.0013  -0.0055   0.0035   0.00  548.0
2024/04/02 17:20:31.000   28.373999817  -16.463870421  1946.8450   1   6   0.0021   0.0021   0.0382   0.0014  -0.0055   0.0036   1.00  563.8
2024/04/02 17:20:32.000   28.373999815  -16.463870422  1946.8449   1   6   0.0021   0.0021   0.0383   0.0014  -0.0055   0.0036   2.00  577.4
2024/04/02 17:20:33.000   28.373999814  -16.463870423  1946.8450   1   6   0.0021   0.0022   0.0383   0.0014  -0.0055   0.0036   3.00  591.2
2024/04/02 17:20:34.000   28.373999814  -16.463870424  1946.8446   1   6   0.0022   0.0022   0.0383   0.0014  -0.0055   0.0036   4.00  605.5
2024/04/02 17:20:35.000   28.373999813  -16.463870424  1946.8445   1   6   0.0022   0.0022   0.0383   0.0014  -0.0055   0.0036   5.00  613.4
2024/04/02 17:20:36.000   28.373999812  -16.463870425  1946.8443   1   6   0.0022   0.0022   0.0384   0.0014  -0.0055   0.0036   6.00  620.9
2024/04/02 17:20:37.000   28.373999811  -16.463870425  1946.8439   1   6   0.0022   0.0022   0.0384   0.0014  -0.0055   0.0037   7.00  629.3
2024/04/02 17:20:38.000   28.373999811  -16.463870425  1946.8437   1   6   0.0022   0.0022   0.0384   0.0014  -0.0056   0.0037   8.00  634.2
2024/04/02 17:20:39.000   28.373999811  -16.463870425  1946.8436   1   6   0.0022   0.0022   0.0384   0.0014  -0.0056   0.0037   9.00  636.3
2024/04/02 17:20:40.000   28.373999810  -16.463870426  1946.8435   1   6   0.0022   0.0022   0.0384   0.0014  -0.0056   0.0037  10.00  637.6
2024/04/02 17:20:41.000   28.373999810  -16.463870426  1946.8434   1   6   0.0022   0.0022   0.0384   0.0014  -0.0056   0.0037  11.00  639.1
2024/04/02 17:20:42.000   28.373999810  -16.463870426  1946.8433   1   6   0.0022   0.0022   0.0384   0.0014  -0.0056   0.0037  12.00  640.0
2024/04/02 17:20:43.000   28.373999810  -16.463870426  1946.8432   1   6   0.0022   0.0022   0.0384   0.0014  -0.0056   0.0037  13.00  639.7
2024/04/02 17:20:44.000   28.373999810  -16.463870426  1946.8432   1   6   0.0022   0.0022   0.0384   0.0014  -0.0056   0.0037  14.00  639.1
2024/04/02 17:20:45.000   28.373999810  -16.463870426  1946.8432   1   6   0.0022   0.0022   0.0384   0.0014  -0.0055   0.0037  15.00  638.2
2024/04/02 17:20:46.000   28.373999810  -16.463870426  1946.8431   1   6   0.0022   0.0022   0.0384   0.0014  -0.0055   0.0037 -14.00  636.9
2024/04/02 17:20:47.000   28.373999809  -16.463870426  1946.8431   1   6   0.0022   0.0022   0.0384   0.0014  -0.0055   0.0037 -13.00  635.5
2024/04/02 17:20:48.000   28.373999809  -16.463870426  1946.8430   1   6   0.0022   0.0022   0.0384   0.0014  -0.0055   0.0037 -12.00  634.1
2024/04/02 17:20:49.000   28.373999809  -16.463870426  1946.8430   1   6   0.0022   0.0022   0.0384   0.0014  -0.0055   0.0037 -11.00  632.7
2024/04/02 17:20:50.000   28.373999809  -16.463870427  1946.8429   1   6   0.0022   0.0022   0.0384   0.0014  -0.0055   0.0037 -10.00  632.6
2024/04/02 17:20:51.000   28.373999809  -16.463870427  1946.8429   1   6   0.0022   0.0022   0.0384   0.0014  -0.0055   0.0037  -9.00  630.9
2024/04/02 17:20:52.000   28.373999809  -16.463870427  1946.8428   1   6   0.0022   0.0022   0.0384   0.0014  -0.0055   0.0037  -8.00  631.6
2024/04/02 17:20:53.000   28.373999809  -16.463870427  1946.8427   1   6   0.0022   0.0022   0.0384   0.0014  -0.0055   0.0037  -7.00  632.2
2024/04/02 17:20:54.000   28.373999808  -16.463870427  1946.8426   1   6   0.0022   0.0022   0.0384   0.0014  -0.0055   0.0038  -6.00  633.9
2024/04/02 17:20:55.000   28.373999808  -16.463870428  1946.8426   1   6   0.0022   0.0022   0.0384   0.0014  -0.0055   0.0038  -5.00  638.5
2024/04/02 17:20:56.000   28.373999808  -16.463870428  1946.8426   1   6   0.0022   0.0022   0.0385   0.0014  -0.0056   0.0038  -4.00  640.2
2024/04/02 17:20:57.000   28.373999807  -16.463870428  1946.8426   1   6   0.0022   0.0022   0.0385   0.0014  -0.0056   0.0038  -3.00  642.7
2024/04/02 17:20:58.000   28.373999807  -16.463870429  1946.8426   1   6   0.0022   0.0022   0.0385   0.0014  -0.0056   0.0038  -2.00  646.9
2024/04/02 17:20:59.000   28.373999807  -16.463870429  1946.8426   1   6   0.0022   0.0022   0.0385   0.0014  -0.0056   0.0038  -1.00  647.4
2024/04/02 17:21:00.000   28.373999806  -16.463870430  1946.8424   1   6   0.0022   0.0022   0.0386   0.0015  -0.0056   0.0039   0.00  652.8
2024/04/02 17:21:01.000   28.373999806  -16.463870430  1946.8424   1   6   0.0023   0.0022   0.0386   0.0015  -0.0056   0.0039   1.00  655.9
2024/04/02 17:21:02.000   28.373999805  -16.463870431  1946.8421   1   6   0.0023   0.0022   0.0386   0.0015  -0.0056   0.0039   2.00  663.4
2024/04/02 17:21:03.000   28.373999804  -16.463870432  1946.8419   1   6   0.0023   0.0022   0.0387   0.0015  -0.0056   0.0039   3.00  664.8
2024/04/02 17:21:04.000   28.373999804  -16.463870433  1946.8415   1   6   0.0023   0.0022   0.0387   0.0015  -0.0056   0.0040   4.00  665.5
2024/04/02 17:21:05.000   28.373999804  -16.463870433  1946.8414   1   6   0.0023   0.0022   0.0387   0.0015  -0.0056   0.0040   5.00  659.8
2024/04/02 17:21:06.000   28.373999804  -16.463870433  1946.8415   1   6   0.0023   0.0022   0.0387   0.0015  -0.0056   0.0040   6.00  650.5
2024/04/02 17:21:07.000   28.373999804  -16.463870433  1946.8415   1   6   0.0023   0.0023   0.0388   0.0015  -0.0056   0.0040   7.00  645.9
2024/04/02 17:21:08.000   28.373999803  -16.463870433  1946.8415   1   6   0.0023   0.0023   0.0388   0.0015  -0.0056   0.0040   8.00  640.2
2024/04/02 17:21:09.000   28.373999803  -16.463870434  1946.8415   1   6   0.0023   0.0023   0.0388   0.0015  -0.0056   0.0040   9.00  634.7
2024/04/02 17:21:10.000   28.373999803  -16.463870434  1946.8414   1   6   0.0023   0.0023   0.0388   0.0015  -0.0056   0.0040  10.00  631.1
2024/04/02 17:21:11.000   28.373999803  -16.463870434  1946.8414   1   6   0.0023   0.0023   0.0388   0.0015  -0.0056   0.0040  11.00  624.8
2024/04/02 17:21:12.000   28.373999803  -16.463870434  1946.8414   1   6   0.0023   0.0023   0.0388   0.0015  -0.0056   0.0040  12.00  620.3
2024/04/02 17:21:13.000   28.373999803  -16.463870434  1946.8414   1   6   0.0023   0.0023   0.0388   0.0015  -0.0056   0.0040  13.00  616.4
2024/04/02 17:21:14.000   28.373999803  -16.463870434  1946.8413   1   6   0.0023   0.0023   0.0388   0.0015  -0.0056   0.0040  14.00  612.1
2024/04/02 17:21:15.000   28.373999803  -16.463870434  1946.8413   1   6   0.0023   0.0023   0.0388   0.0015  -0.0056   0.0040  15.00  607.8
2024/04/02 17:21:16.000   28.373999803  -16.463870434  1946.8413   1   6   0.0023   0.0023   0.0388   0.0015  -0.0056   0.0040 -14.00  603.4
2024/04/02 17:21:17.000   28.373999803  -16.463870434  1946.8413   1   6   0.0023   0.0023   0.0388   0.0015  -0.0056   0.0041 -13.00  599.2
2024/04/02 17:21:18.000   28.373999803  -16.463870434  1946.8413   1   6   0.0023   0.0023   0.0388   0.0015  -0.0056   0.0041 -12.00  594.9
2024/04/02 17:21:19.000   28.373999803  -16.463870434  1946.8413   1   6   0.0023   0.0023   0.0388   0.0015  -0.0056   0.0041 -11.00  590.6
2024/04/02 17:21:20.000   28.373999803  -16.463870434  1946.8413   1   6   0.0023   0.0023   0.0388   0.0015  -0.0056   0.0041 -10.00  586.2
2024/04/02 17:21:21.000   28.373999803  -16.463870434  1946.8413   1   6   0.0023   0.0023   0.0388   0.0015  -0.0056   0.0041  -9.00  581.8
2024/04/02 17:21:22.000   28.373999803  -16.463870435  1946.8414   1   6   0.0023   0.0023   0.0388   0.0015  -0.0056   0.0041  -8.00  578.5
2024/04/02 17:21:23.000   28.373999802  -16.463870435  1946.8414   1   6   0.0023   0.0023   0.0388   0.0015  -0.0056   0.0041  -7.00  574.5
2024/04/02 17:21:24.000   28.373999802  -16.463870435  1946.8414   1   6   0.0023   0.0023   0.0388   0.0015  -0.0056   0.0041  -6.00  571.7
2024/04/02 17:21:25.000   28.373999802  -16.463870435  1946.8413   1   6   0.0023   0.0023   0.0388   0.0016  -0.0056   0.0041  -5.00  569.3
2024/04/02 17:21:26.000   28.373999802  -16.463870435  1946.8413   1   6   0.0023   0.0023   0.0388   0.0016  -0.0056   0.0041  -4.00  567.7
2024/04/02 17:21:27.000   28.373999802  -16.463870436  1946.8413   1   6   0.0024   0.0023   0.0388   0.0016  -0.0056   0.0041  -3.00  563.8
2024/04/02 17:21:28.000   28.373999802  -16.463870436  1946.8416   1   6   0.0024   0.0023   0.0389   0.0016  -0.0056   0.0042  -2.00  552.6
2024/04/02 17:21:29.000   28.373999801  -16.463870436  1946.8416   1   6   0.0024   0.0023   0.0389   0.0016  -0.0056   0.0042  -1.00  550.4
2024/04/02 17:21:30.000   28.373999801  -16.463870436  1946.8416   1   6   0.0024   0.0023   0.0389   0.0016  -0.0056   0.0042   0.00  551.1
2024/04/02 17:21:31.000   28.373999801  -16.463870437  1946.8417   1   6   0.0024   0.0023   0.0390   0.0016  -0.0056   0.0042   1.00  549.0
2024/04/02 17:21:32.000   28.373999800  -16.463870437  1946.8417   1   6   0.0024   0.0023   0.0390   0.0016  -0.0056   0.0043   2.00  548.9
2024/04/02 17:21:33.000   28.373999800  -16.463870438  1946.8416   1   6   0.0024   0.0023   0.0390   0.0016  -0.0056   0.0043   3.00  552.3
2024/04/02 17:21:34.000   28.373999799  -16.463870438  1946.8412   1   6   0.0025   0.0023   0.0390   0.0017  -0.0056   0.0043   4.00  554.0
2024/04/02 17:21:35.000   28.373999799  -16.463870438  1946.8410   1   6   0.0025   0.0024   0.0391   0.0017  -0.0056   0.0043   5.00  556.4
2024/04/02 17:21:36.000   28.373999798  -16.463870439  1946.8407   1   6   0.0025   0.0024   0.0391   0.0017  -0.0056   0.0043   6.00  558.5
2024/04/02 17:21:37.000   28.373999798  -16.463870439  1946.8403   1   6   0.0025   0.0024   0.0391   0.0017  -0.0056   0.0043   7.00  559.4
2024/04/02 17:21:38.000   28.373999798  -16.463870439  1946.8402   1   6   0.0025   0.0024   0.0391   0.0017  -0.0056   0.0044   8.00  557.7
2024/04/02 17:21:39.000   28.373999797  -16.463870439  1946.8400   1   6   0.0025   0.0024   0.0391   0.0017  -0.0056   0.0044   9.00  555.3
2024/04/02 17:21:40.000   28.373999797  -16.463870439  1946.8398   1   6   0.0025   0.0024   0.0391   0.0017  -0.0056   0.0044  10.00  552.6
2024/04/02 17:21:41.000   28.373999797  -16.463870439  1946.8398   1   6   0.0025   0.0024   0.0391   0.0017  -0.0056   0.0044  11.00  549.8
2024/04/02 17:21:42.000   28.373999797  -16.463870439  1946.8396   1   6   0.0025   0.0024   0.0391   0.0017  -0.0056   0.0044  12.00  547.1
2024/04/02 17:21:43.000   28.373999797  -16.463870439  1946.8395   1   6   0.0025   0.0024   0.0391   0.0017  -0.0056   0.0044  13.00  545.1
2024/04/02 17:21:44.000   28.373999797  -16.463870439  1946.8394   1   6   0.0025   0.0024   0.0391   0.0017  -0.0056   0.0044  14.00  543.1
2024/04/02 17:21:45.000   28.373999797  -16.463870439  1946.8393   1   6   0.0025   0.0024   0.0391   0.0017  -0.0056   0.0044  15.00  539.9
2024/04/02 17:21:46.000   28.373999797  -16.463870439  1946.8393   1   6   0.0025   0.0024   0.0391   0.0017  -0.0056   0.0044 -14.00  536.4
2024/04/02 17:21:47.000   28.373999797  -16.463870439  1946.8393   1   6   0.0025   0.0024   0.0391   0.0017  -0.0056   0.0044 -13.00  532.2
2024/04/02 17:21:48.000   28.373999797  -16.463870439  1946.8392   1   6   0.0025   0.0024   0.0391   0.0017  -0.0056   0.0044 -12.00  529.0
2024/04/02 17:21:49.000   28.373999797  -16.463870439  1946.8392   1   6   0.0025   0.0024   0.0391   0.0017  -0.0056   0.0044 -11.00  525.9
2024/04/02 17:21:50.000   28.373999797  -16.463870439  1946.8392   1   6   0.0025   0.0024   0.0391   0.0017  -0.0056   0.0044 -10.00  522.9
2024/04/02 17:21:51.000   28.373999797  -16.463870439  1946.8391   1   6   0.0025   0.0024   0.0391   0.0017  -0.0056   0.0044  -9.00  522.0
2024/04/02 17:21:52.000   28.373999797  -16.463870439  1946.8390   1   6   0.0025   0.0024   0.0391   0.0017  -0.0055   0.0044  -8.00  521.0
2024/04/02 17:21:53.000   28.373999796  -16.463870439  1946.8390   1   6   0.0025   0.0024   0.0391   0.0017  -0.0055   0.0044  -7.00  519.5
2024/04/02 17:21:54.000   28.373999796  -16.463870439  1946.8389   1   6   0.0025   0.0024   0.0391   0.0017  -0.0055   0.0045  -6.00  518.3
2024/04/02 17:21:55.000   28.373999796  -16.463870439  1946.8388   1   6   0.0025   0.0024   0.0391   0.0017  -0.0055   0.0045  -5.00  517.7
2024/04/02 17:21:56.000   28.373999796  -16.463870439  1946.8388   1   6   0.0025   0.0024   0.0392   0.0017  -0.0055   0.0045  -4.00  518.5
2024/04/02 17:21:57.000   28.373999796  -16.463870439  1946.8387   1   6   0.0025   0.0024   0.0392   0.0017  -0.0055   0.0045  -3.00  521.8
2024/04/02 17:21:58.000   28.373999795  -16.463870440  1946.8386   1   6   0.0026   0.0024   0.0392   0.0018  -0.0055   0.0045  -2.00  528.9
2024/04/02 17:21:59.000   28.373999794  -16.463870441  1946.8384   1   6   0.0026   0.0024   0.0392   0.0018  -0.0055   0.0045  -1.00  535.6
2024/04/02 17:22:00.000   28.373999794  -16.463870441  1946.8383   1   6   0.0026   0.0024   0.0393   0.0018  -0.0055   0.0046   0.00  544.0
2024/04/02 17:22:01.000   28.373999793  -16.463870442  1946.8382   1   6   0.0026   0.0025   0.0393   0.0018  -0.0055   0.0046   1.00  546.6
2024/04/02 17:22:02.000   28.373999793  -16.463870442  1946.8383   1   6   0.0026   0.0025   0.0393   0.0018  -0.0055   0.0046   2.00  550.0
2024/04/02 17:22:03.000   28.373999792  -16.463870443  1946.8379   1   6   0.0027   0.0025   0.0393   0.0019  -0.0055   0.0047   3.00  561.4
2024/04/02 17:22:04.000   28.373999791  -16.463870444  1946.8377   1   6   0.0027   0.0025   0.0394   0.0019  -0.0055   0.0047   4.00  568.6
2024/04/02 17:22:05.000   28.373999790  -16.463870444  1946.8374   1   6   0.0027   0.0025   0.0394   0.0019  -0.0055   0.0047   5.00  581.2
2024/04/02 17:22:06.000   28.373999790  -16.463870444  1946.8372   1   6   0.0027   0.0025   0.0394   0.0019  -0.0055   0.0047   6.00  580.9
2024/04/02 17:22:07.000   28.373999789  -16.463870445  1946.8371   1   6   0.0027   0.0025   0.0394   0.0019  -0.0055   0.0047   7.00  588.6
2024/04/02 17:22:08.000   28.373999789  -16.463870445  1946.8370   1   6   0.0027   0.0025   0.0394   0.0019  -0.0055   0.0047   8.00  592.0
2024/04/02 17:22:09.000   28.373999789  -16.463870445  1946.8368   1   6   0.0027   0.0025   0.0394   0.0019  -0.0055   0.0047   9.00  590.5
2024/04/02 17:22:10.000   28.373999788  -16.463870445  1946.8368   1   6   0.0027   0.0025   0.0394   0.0019  -0.0055   0.0048  10.00  586.2
2024/04/02 17:22:11.000   28.373999788  -16.463870445  1946.8367   1   6   0.0027   0.0025   0.0394   0.0019  -0.0055   0.0048  11.00  582.3
2024/04/02 17:22:12.000   28.373999788  -16.463870446  1946.8367   1   6   0.0027   0.0025   0.0394   0.0019  -0.0055   0.0048  12.00  578.8
2024/04/02 17:22:13.000   28.373999788  -16.463870446  1946.8366   1   6   0.0027   0.0025   0.0394   0.0019  -0.0055   0.0048  13.00  574.2
2024/04/02 17:22:14.000   28.373999788  -16.463870446  1946.8366   1   6   0.0027   0.0025   0.0394   0.0019  -0.0055   0.0048  14.00  569.7
2024/04/02 17:22:15.000   28.373999788  -16.463870446  1946.8366   1   6   0.0027   0.0025   0.0394   0.0019  -0.0055   0.0048  15.00  565.3
2024/04/02 17:22:16.000   28.373999787  -16.463870446  1946.8365   1   6   0.0027   0.0025   0.0394   0.0019  -0.0055   0.0048 -14.00  561.6
2024/04/02 17:22:17.000   28.373999787  -16.463870446  1946.8365   1   6   0.0027   0.0025   0.0394   0.0019  -0.0055   0.0048 -13.00  558.6
2024/04/02 17:22:18.000   28.373999787  -16.463870446  1946.8365   1   6   0.0027   0.0025   0.0394   0.0019  -0.0055   0.0048 -12.00  555.2
2024/04/02 17:22:19.000   28.373999787  -16.463870446  1946.8365   1   6   0.0027   0.0025   0.0394   0.0019  -0.0055   0.0048 -11.00  551.3
2024/04/02 17:22:20.000   28.373999787  -16.463870446  1946.8365   1   6   0.0027   0.0025   0.0394   0.0019  -0.0055   0.0048 -10.00  546.9
2024/04/02 17:22:21.000   28.373999787  -16.463870446  1946.8364   1   6   0.0028   0.0025   0.0394   0.0019  -0.0055   0.0048  -9.00  542.6
2024/04/02 17:22:22.000   28.373999786  -16.463870447  1946.8364   1   6   0.0028   0.0025   0.0394   0.0020  -0.0055   0.0048  -8.00  536.0
2024/04/02 17:22:23.000   28.373999786  -16.463870447  1946.8364   1   6   0.0028   0.0026   0.0394   0.0020  -0.0055   0.0048  -7.00  532.9
2024/04/02 17:22:24.000   28.373999785  -16.463870448  1946.8364   1   6   0.0028   0.0026   0.0394   0.0020  -0.0055   0.0048  -6.00  527.1
2024/04/02 17:22:25.000   28.373999784  -16.463870448  1946.8364   1   6   0.0028   0.0026   0.0394   0.0020  -0.0055   0.0049  -5.00  515.3
2024/04/02 17:22:26.000   28.373999784  -16.463870449  1946.8363   1   6   0.0028   0.0026   0.0395   0.0020  -0.0055   0.0049  -4.00  479.5
2024/04/02 17:22:27.000   28.373999783  -16.463870449  1946.8363   1   6   0.0028   0.0026   0.0395   0.0020  -0.0055   0.0049  -3.00  417.5
2024/04/02 17:22:28.000   28.373999782  -16.463870450  1946.8360   1   6   0.0028   0.0026   0.0395   0.0020  -0.0055   0.0049  -2.00  325.4
2024/04/02 17:22:29.000   28.373999780  -16.463870451  1946.8361   1   6   0.0028   0.0026   0.0395   0.0020  -0.0055   0.0049  -1.00  205.7
2024/04/02 17:22:30.000   28.373999833  -16.463870408  1946.8476   1   6   0.0022   0.0022   0.0394   0.0013  -0.0059   0.0042   0.00  238.4
2024/04/02 17:22:31.000   28.373999833  -16.463870408  1946.8474   1   6   0.0022   0.0022   0.0394   0.0013  -0.0059   0.0043   1.00  238.6
2024/04/02 17:22:32.000   28.373999832  -16.463870408  1946.8475   1   6   0.0022   0.0022   0.0394   0.0013  -0.0059   0.0043   2.00  237.0
2024/04/02 17:22:33.000   28.373999831  -16.463870408  1946.8474   1   6   0.0022   0.0023   0.0395   0.0013  -0.0059   0.0043   3.00  238.3
2024/04/02 17:22:34.000   28.373999831  -16.463870408  1946.8474   1   6   0.0022   0.0023   0.0395   0.0013  -0.0059   0.0043   4.00  239.0
2024/04/02 17:22:35.000   28.373999830  -16.463870409  1946.8476   1   6   0.0022   0.0023   0.0395   0.0013  -0.0059   0.0043   5.00  238.1
