% program   : RTKPOST-EX 2.5.0
% inp file  : C:\Users\SallyHenry\Desktop\Sally Internship\GNSS gravi\DATA\Survey Rover Obs\FA00.24o
% inp file  : C:\Users\SallyHenry\Desktop\Sally Internship\GNSS gravi\DATA\BaseStations\IZAN\IZAN00ESP_R_20241240000_01D_30S_MO.rnx
% inp file  : C:\Users\SallyHenry\Desktop\Sally Internship\GNSS gravi\DATA\BaseStations\IZAN\IZAN00ESP_R_20241240000_01D_MN.rnx
% inp file  : C:\Users\SallyHenry\Desktop\Sally Internship\GNSS gravi\DATA\aux_files\Survey\IGS0OPSFIN_20241240000_01D_15M_ORB.SP3
% inp file  : C:\Users\SallyHenry\Desktop\Sally Internship\GNSS gravi\DATA\aux_files\Survey\IGS0OPSFIN_20241240000_01D_30S_CLK.CLK
% obs start : 2024/05/03 14:21:41.0 GPST (week2312 483701.0s)
% obs end   : 2024/05/03 14:26:45.0 GPST (week2312 484005.0s)
% pos mode  : Static
% freqs     : L1+L2/E5b
% solution  : Combined-No Phase Reset
% elev mask : 15.0 deg
% dynamics  : on
% tidecorr  : solid
% ionos opt : Estimate TEC
% tropo opt : Estimate ZTD+Grad
% ephemeris : Precise
% navi sys  : GPS GLONASS Galileo QZSS BDS
% amb res   : Fix and Hold
% amb glo   : Fix and Hold
% amb bds   : on
% val thres : 3.0
% antenna1  :                       ( 0.0000  0.0000  1.8000)
% antenna2  :                       ( 0.0000  0.0000  0.0000)
% ref pos   :  28.308069410  -16.499677180  2417.4044
%
% (lat/lon/height=WGS84/ellipsoidal,Q=1:fix,2:float,3:sbas,4:dgps,5:single,6:ppp,ns=# of satellites)
%  GPST                  latitude(deg) longitude(deg)  height(m)   Q  ns   sdn(m)   sde(m)   sdu(m)  sdne(m)  sdeu(m)  sdun(m) age(s)  ratio
2024/05/03 14:21:41.000   28.280973065  -16.514854662  2222.5727   1   7   0.0050   0.0020   0.0256   0.0015   0.0017  -0.0097  11.00  252.1
2024/05/03 14:21:42.000   28.280973064  -16.514854663  2222.5727   1   7   0.0050   0.0020   0.0256   0.0015   0.0017  -0.0098  12.00  247.5
2024/05/03 14:21:43.000   28.280973064  -16.514854663  2222.5729   1   7   0.0050   0.0020   0.0256   0.0015   0.0017  -0.0098  13.00  243.8
2024/05/03 14:21:44.000   28.280973063  -16.514854663  2222.5732   1   7   0.0050   0.0020   0.0256   0.0016   0.0016  -0.0098  14.00  242.1
2024/05/03 14:21:45.000   28.280973062  -16.514854663  2222.5733   1   7   0.0050   0.0020   0.0256   0.0016   0.0016  -0.0098  15.00  238.6
2024/05/03 14:21:46.000   28.280973062  -16.514854663  2222.5734   1   7   0.0051   0.0020   0.0257   0.0016   0.0016  -0.0098 -14.00  233.1
2024/05/03 14:21:47.000   28.280973062  -16.514854664  2222.5734   1   7   0.0051   0.0020   0.0257   0.0016   0.0016  -0.0099 -13.00  228.8
2024/05/03 14:21:48.000   28.280973061  -16.514854664  2222.5737   1   7   0.0051   0.0020   0.0257   0.0016   0.0015  -0.0099 -12.00  226.4
2024/05/03 14:21:49.000   28.280973059  -16.514854664  2222.5741   1   7   0.0051   0.0020   0.0257   0.0016   0.0015  -0.0099 -11.00  226.5
2024/05/03 14:21:50.000   28.280973058  -16.514854665  2222.5743   1   7   0.0051   0.0021   0.0258   0.0016   0.0014  -0.0100 -10.00  223.5
2024/05/03 14:21:51.000   28.280973058  -16.514854665  2222.5745   1   7   0.0052   0.0021   0.0258   0.0016   0.0014  -0.0100  -9.00  217.8
2024/05/03 14:21:52.000   28.280973056  -16.514854665  2222.5751   1   7   0.0052   0.0021   0.0259   0.0017   0.0013  -0.0100  -8.00  215.3
2024/05/03 14:21:53.000   28.280973054  -16.514854666  2222.5756   1   7   0.0052   0.0021   0.0259   0.0017   0.0012  -0.0101  -7.00  209.5
2024/05/03 14:21:54.000   28.280973050  -16.514854667  2222.5765   1   7   0.0053   0.0021   0.0260   0.0017   0.0011  -0.0102  -6.00  206.8
2024/05/03 14:21:55.000   28.280973048  -16.514854668  2222.5773   1   7   0.0053   0.0021   0.0261   0.0017   0.0010  -0.0103  -5.00  194.7
2024/05/03 14:21:56.000   28.280973044  -16.514854669  2222.5783   1   7   0.0054   0.0021   0.0262   0.0018   0.0007  -0.0104  -4.00  182.7
2024/05/03 14:21:57.000   28.280973039  -16.514854670  2222.5795   1   7   0.0055   0.0021   0.0264   0.0018   0.0002  -0.0105  -3.00  164.6
2024/05/03 14:21:58.000   28.280973033  -16.514854672  2222.5812   1   7   0.0056   0.0021   0.0266   0.0019  -0.0007  -0.0107  -2.00  141.3
2024/05/03 14:21:59.000   28.280973025  -16.514854674  2222.5831   1   7   0.0057   0.0021   0.0269   0.0019  -0.0011  -0.0109  -1.00   94.3
2024/05/03 14:22:00.000   28.280973064  -16.514854662  2222.5719   1   7   0.0039   0.0019   0.0242   0.0004   0.0030  -0.0083   0.00  280.3
2024/05/03 14:22:01.000   28.280973062  -16.514854663  2222.5724   1   7   0.0039   0.0019   0.0243   0.0005   0.0030  -0.0083   1.00  282.7
2024/05/03 14:22:02.000   28.280973061  -16.514854663  2222.5727   1   7   0.0039   0.0019   0.0243   0.0005   0.0030  -0.0084   2.00  280.3
2024/05/03 14:22:03.000   28.280973058  -16.514854664  2222.5733   1   7   0.0040   0.0019   0.0244   0.0005   0.0029  -0.0084   3.00  275.0
2024/05/03 14:22:04.000   28.280973058  -16.514854665  2222.5732   1   7   0.0040   0.0019   0.0245   0.0005   0.0029  -0.0085   4.00  275.8
2024/05/03 14:22:05.000   28.280973057  -16.514854665  2222.5733   1   7   0.0040   0.0019   0.0245   0.0005   0.0029  -0.0085   5.00  273.5
2024/05/03 14:22:06.000   28.280973057  -16.514854665  2222.5733   1   7   0.0040   0.0019   0.0245   0.0005   0.0029  -0.0085   6.00  274.6
2024/05/03 14:22:07.000   28.280973056  -16.514854665  2222.5737   1   7   0.0040   0.0019   0.0246   0.0005   0.0029  -0.0085   7.00  272.1
2024/05/03 14:22:08.000   28.280973054  -16.514854665  2222.5740   1   7   0.0040   0.0019   0.0246   0.0006   0.0029  -0.0086   8.00  268.9
2024/05/03 14:22:09.000   28.280973054  -16.514854665  2222.5740   1   7   0.0041   0.0020   0.0246   0.0006   0.0029  -0.0086   9.00  266.0
2024/05/03 14:22:10.000   28.280973054  -16.514854665  2222.5740   1   7   0.0041   0.0020   0.0246   0.0006   0.0029  -0.0086  10.00  265.1
2024/05/03 14:22:11.000   28.280973054  -16.514854665  2222.5740   1   7   0.0041   0.0020   0.0246   0.0006   0.0029  -0.0086  11.00  264.9
2024/05/03 14:22:12.000   28.280973054  -16.514854666  2222.5742   1   7   0.0041   0.0020   0.0246   0.0006   0.0029  -0.0086  12.00  261.8
2024/05/03 14:22:13.000   28.280973053  -16.514854666  2222.5743   1   7   0.0041   0.0020   0.0247   0.0006   0.0029  -0.0086  13.00  257.1
2024/05/03 14:22:14.000   28.280973053  -16.514854666  2222.5744   1   7   0.0041   0.0020   0.0247   0.0006   0.0029  -0.0086  14.00  253.1
2024/05/03 14:22:15.000   28.280973053  -16.514854666  2222.5745   1   7   0.0041   0.0020   0.0247   0.0006   0.0029  -0.0086  15.00  249.9
2024/05/03 14:22:16.000   28.280973053  -16.514854666  2222.5746   1   7   0.0041   0.0019   0.0247   0.0006   0.0029  -0.0086 -14.00  246.3
2024/05/03 14:22:17.000   28.280973053  -16.514854666  2222.5746   1   7   0.0041   0.0019   0.0247   0.0006   0.0029  -0.0086 -13.00  242.8
2024/05/03 14:22:18.000   28.280973053  -16.514854666  2222.5745   1   7   0.0041   0.0019   0.0247   0.0006   0.0029  -0.0086 -12.00  240.4
2024/05/03 14:22:19.000   28.280973053  -16.514854666  2222.5745   1   7   0.0041   0.0019   0.0247   0.0006   0.0029  -0.0087 -11.00  238.0
2024/05/03 14:22:20.000   28.280973053  -16.514854666  2222.5745   1   7   0.0041   0.0019   0.0247   0.0006   0.0028  -0.0087 -10.00  235.9
2024/05/03 14:22:21.000   28.280973054  -16.514854666  2222.5744   1   7   0.0041   0.0019   0.0247   0.0007   0.0028  -0.0087  -9.00  230.0
2024/05/03 14:22:22.000   28.280973054  -16.514854666  2222.5744   1   7   0.0041   0.0019   0.0247   0.0007   0.0028  -0.0087  -8.00  223.9
2024/05/03 14:22:23.000   28.280973054  -16.514854666  2222.5742   1   7   0.0042   0.0019   0.0247   0.0007   0.0028  -0.0087  -7.00  221.0
2024/05/03 14:22:24.000   28.280973055  -16.514854666  2222.5741   1   7   0.0042   0.0020   0.0247   0.0007   0.0028  -0.0087  -6.00  208.1
2024/05/03 14:22:25.000   28.280973056  -16.514854666  2222.5738   1   7   0.0042   0.0020   0.0248   0.0007   0.0028  -0.0088  -5.00  191.7
2024/05/03 14:22:26.000   28.280973057  -16.514854666  2222.5733   1   7   0.0042   0.0020   0.0248   0.0007   0.0028  -0.0088  -4.00  179.7
2024/05/03 14:22:27.000   28.280973059  -16.514854666  2222.5724   1   7   0.0042   0.0020   0.0249   0.0007   0.0028  -0.0088  -3.00  164.2
2024/05/03 14:22:28.000   28.280973061  -16.514854667  2222.5720   1   7   0.0043   0.0020   0.0250   0.0007   0.0028  -0.0089  -2.00  125.0
2024/05/03 14:22:29.000   28.280973062  -16.514854667  2222.5714   1   7   0.0043   0.0020   0.0250   0.0008   0.0028  -0.0089  -1.00   73.1
2024/05/03 14:22:30.000   28.280973046  -16.514854668  2222.5779   1   7   0.0041   0.0020   0.0247   0.0007   0.0028  -0.0086   0.00  335.0
2024/05/03 14:22:31.000   28.280973045  -16.514854668  2222.5781   1   7   0.0041   0.0020   0.0248   0.0007   0.0028  -0.0087   1.00  337.4
2024/05/03 14:22:32.000   28.280973043  -16.514854669  2222.5788   1   7   0.0042   0.0020   0.0248   0.0008   0.0028  -0.0087   2.00  334.6
2024/05/03 14:22:33.000   28.280973042  -16.514854669  2222.5790   1   7   0.0042   0.0020   0.0249   0.0008   0.0028  -0.0088   3.00  331.0
2024/05/03 14:22:34.000   28.280973043  -16.514854669  2222.5788   1   7   0.0042   0.0020   0.0250   0.0008   0.0028  -0.0088   4.00  333.3
2024/05/03 14:22:35.000   28.280973045  -16.514854669  2222.5783   1   7   0.0042   0.0020   0.0251   0.0008   0.0028  -0.0089   5.00  335.0
2024/05/03 14:22:36.000   28.280973046  -16.514854669  2222.5779   1   7   0.0043   0.0020   0.0251   0.0008   0.0028  -0.0089   6.00  332.3
2024/05/03 14:22:37.000   28.280973048  -16.514854669  2222.5773   1   7   0.0043   0.0020   0.0251   0.0008   0.0028  -0.0089   7.00  330.6
2024/05/03 14:22:38.000   28.280973049  -16.514854668  2222.5771   1   7   0.0043   0.0020   0.0252   0.0008   0.0027  -0.0089   8.00  323.0
2024/05/03 14:22:39.000   28.280973049  -16.514854668  2222.5771   1   7   0.0043   0.0020   0.0252   0.0009   0.0027  -0.0090   9.00  316.5
2024/05/03 14:22:40.000   28.280973051  -16.514854668  2222.5765   1   7   0.0043   0.0020   0.0252   0.0009   0.0027  -0.0090  10.00  315.6
2024/05/03 14:22:41.000   28.280973052  -16.514854668  2222.5762   1   7   0.0043   0.0020   0.0252   0.0009   0.0027  -0.0090  11.00  310.3
2024/05/03 14:22:42.000   28.280973052  -16.514854668  2222.5760   1   7   0.0044   0.0020   0.0253   0.0009   0.0027  -0.0090  12.00  306.0
2024/05/03 14:22:43.000   28.280973053  -16.514854668  2222.5759   1   7   0.0044   0.0020   0.0253   0.0009   0.0027  -0.0090  13.00  300.4
2024/05/03 14:22:44.000   28.280973053  -16.514854668  2222.5758   1   7   0.0044   0.0020   0.0253   0.0009   0.0027  -0.0090  14.00  297.7
2024/05/03 14:22:45.000   28.280973054  -16.514854668  2222.5756   1   7   0.0044   0.0020   0.0253   0.0009   0.0027  -0.0090  15.00  293.2
2024/05/03 14:22:46.000   28.280973055  -16.514854668  2222.5754   1   7   0.0044   0.0020   0.0253   0.0009   0.0027  -0.0091 -14.00  289.8
2024/05/03 14:22:47.000   28.280973055  -16.514854668  2222.5751   1   7   0.0044   0.0020   0.0253   0.0009   0.0027  -0.0091 -13.00  288.7
2024/05/03 14:22:48.000   28.280973056  -16.514854668  2222.5749   1   7   0.0044   0.0020   0.0253   0.0009   0.0027  -0.0091 -12.00  286.2
2024/05/03 14:22:49.000   28.280973057  -16.514854667  2222.5746   1   7   0.0044   0.0020   0.0253   0.0009   0.0027  -0.0091 -11.00  284.2
2024/05/03 14:22:50.000   28.280973058  -16.514854667  2222.5743   1   7   0.0044   0.0020   0.0253   0.0009   0.0026  -0.0091 -10.00  280.4
2024/05/03 14:22:51.000   28.280973059  -16.514854667  2222.5740   1   7   0.0044   0.0020   0.0253   0.0009   0.0026  -0.0091  -9.00  276.2
2024/05/03 14:22:52.000   28.280973060  -16.514854667  2222.5735   1   7   0.0044   0.0020   0.0254   0.0010   0.0026  -0.0091  -8.00  274.1
2024/05/03 14:22:53.000   28.280973061  -16.514854667  2222.5732   1   7   0.0045   0.0020   0.0254   0.0010   0.0026  -0.0092  -7.00  269.9
2024/05/03 14:22:54.000   28.280973063  -16.514854667  2222.5727   1   7   0.0045   0.0020   0.0254   0.0010   0.0026  -0.0092  -6.00  258.9
2024/05/03 14:22:55.000   28.280973064  -16.514854666  2222.5722   1   7   0.0045   0.0020   0.0255   0.0010   0.0026  -0.0092  -5.00  238.3
2024/05/03 14:22:56.000   28.280973066  -16.514854666  2222.5717   1   7   0.0045   0.0020   0.0255   0.0010   0.0026  -0.0093  -4.00  206.9
2024/05/03 14:22:57.000   28.280973067  -16.514854666  2222.5710   1   7   0.0046   0.0020   0.0256   0.0010   0.0025  -0.0093  -3.00  164.3
2024/05/03 14:22:58.000   28.280973068  -16.514854666  2222.5705   1   7   0.0046   0.0020   0.0257   0.0011   0.0025  -0.0094  -2.00  117.3
2024/05/03 14:22:59.000   28.280973069  -16.514854666  2222.5704   1   7   0.0046   0.0020   0.0258   0.0011   0.0025  -0.0095  -1.00   62.9
2024/05/03 14:23:00.000   28.280973065  -16.514854666  2222.5718   1   7   0.0044   0.0020   0.0253   0.0010   0.0026  -0.0090   0.00  463.6
2024/05/03 14:23:01.000   28.280973062  -16.514854667  2222.5721   1   7   0.0044   0.0020   0.0254   0.0010   0.0026  -0.0091   1.00  465.6
2024/05/03 14:23:02.000   28.280973061  -16.514854668  2222.5720   1   7   0.0045   0.0020   0.0255   0.0011   0.0026  -0.0092   2.00  462.4
2024/05/03 14:23:03.000   28.280973060  -16.514854668  2222.5718   1   7   0.0045   0.0021   0.0256   0.0011   0.0026  -0.0092   3.00  446.6
2024/05/03 14:23:04.000   28.280973060  -16.514854667  2222.5718   1   7   0.0046   0.0021   0.0257   0.0011   0.0025  -0.0093   4.00  437.5
2024/05/03 14:23:05.000   28.280973059  -16.514854667  2222.5720   1   7   0.0046   0.0021   0.0258   0.0011   0.0025  -0.0094   5.00  425.9
2024/05/03 14:23:06.000   28.280973058  -16.514854667  2222.5722   1   7   0.0046   0.0021   0.0258   0.0011   0.0025  -0.0094   6.00  419.9
2024/05/03 14:23:07.000   28.280973057  -16.514854667  2222.5723   1   7   0.0047   0.0021   0.0259   0.0012   0.0025  -0.0095   7.00  414.9
2024/05/03 14:23:08.000   28.280973055  -16.514854667  2222.5726   1   7   0.0047   0.0021   0.0260   0.0012   0.0024  -0.0095   8.00  413.8
2024/05/03 14:23:09.000   28.280973056  -16.514854666  2222.5724   1   7   0.0047   0.0021   0.0260   0.0012   0.0024  -0.0095   9.00  406.4
2024/05/03 14:23:10.000   28.280973055  -16.514854666  2222.5725   1   7   0.0047   0.0021   0.0260   0.0012   0.0024  -0.0096  10.00  401.5
2024/05/03 14:23:11.000   28.280973055  -16.514854666  2222.5726   1   7   0.0047   0.0021   0.0260   0.0012   0.0024  -0.0096  11.00  394.6
2024/05/03 14:23:12.000   28.280973054  -16.514854666  2222.5727   1   7   0.0048   0.0021   0.0261   0.0012   0.0024  -0.0096  12.00  387.7
2024/05/03 14:23:13.000   28.280973053  -16.514854666  2222.5729   1   7   0.0048   0.0021   0.0261   0.0012   0.0023  -0.0096  13.00  384.2
2024/05/03 14:23:14.000   28.280973053  -16.514854666  2222.5731   1   7   0.0048   0.0021   0.0261   0.0012   0.0023  -0.0096  14.00  380.6
2024/05/03 14:23:15.000   28.280973053  -16.514854666  2222.5731   1   7   0.0048   0.0021   0.0261   0.0013   0.0023  -0.0097  15.00  373.0
2024/05/03 14:23:16.000   28.280973052  -16.514854666  2222.5731   1   7   0.0048   0.0021   0.0261   0.0013   0.0023  -0.0097 -14.00  366.4
2024/05/03 14:23:17.000   28.280973052  -16.514854666  2222.5730   1   7   0.0048   0.0021   0.0261   0.0013   0.0023  -0.0097 -13.00  359.7
2024/05/03 14:23:18.000   28.280973052  -16.514854666  2222.5731   1   7   0.0048   0.0021   0.0261   0.0013   0.0023  -0.0097 -12.00  353.7
2024/05/03 14:23:19.000   28.280973051  -16.514854666  2222.5732   1   7   0.0048   0.0021   0.0262   0.0013   0.0023  -0.0097 -11.00  348.8
2024/05/03 14:23:20.000   28.280973050  -16.514854666  2222.5735   1   7   0.0049   0.0021   0.0262   0.0013   0.0022  -0.0097 -10.00  345.9
2024/05/03 14:23:21.000   28.280973048  -16.514854666  2222.5741   1   7   0.0049   0.0021   0.0262   0.0013   0.0022  -0.0098  -9.00  346.0
2024/05/03 14:23:22.000   28.280973047  -16.514854667  2222.5743   1   7   0.0049   0.0021   0.0263   0.0013   0.0022  -0.0098  -8.00  333.4
2024/05/03 14:23:23.000   28.280973046  -16.514854667  2222.5745   1   7   0.0049   0.0021   0.0263   0.0013   0.0022  -0.0098  -7.00  318.5
2024/05/03 14:23:24.000   28.280973045  -16.514854667  2222.5744   1   7   0.0049   0.0021   0.0264   0.0014   0.0021  -0.0099  -6.00  298.5
2024/05/03 14:23:25.000   28.280973045  -16.514854667  2222.5743   1   7   0.0050   0.0021   0.0264   0.0014   0.0021  -0.0099  -5.00  270.7
2024/05/03 14:23:26.000   28.280973043  -16.514854667  2222.5744   1   7   0.0050   0.0021   0.0265   0.0014   0.0020  -0.0100  -4.00  228.3
2024/05/03 14:23:27.000   28.280973043  -16.514854666  2222.5741   1   7   0.0051   0.0021   0.0266   0.0014   0.0020  -0.0101  -3.00  187.1
2024/05/03 14:23:28.000   28.280973043  -16.514854666  2222.5737   1   7   0.0052   0.0021   0.0268   0.0015   0.0019  -0.0102  -2.00  138.5
2024/05/03 14:23:29.000   28.280973042  -16.514854666  2222.5737   1   7   0.0052   0.0021   0.0270   0.0015   0.0018  -0.0103  -1.00   73.3
2024/05/03 14:23:30.000   28.280973035  -16.514854667  2222.5754   1   7   0.0048   0.0021   0.0261   0.0014   0.0022  -0.0096   0.00  507.3
2024/05/03 14:23:31.000   28.280973035  -16.514854667  2222.5751   1   7   0.0049   0.0021   0.0263   0.0014   0.0021  -0.0098   1.00  493.8
2024/05/03 14:23:32.000   28.280973033  -16.514854668  2222.5750   1   7   0.0050   0.0021   0.0264   0.0014   0.0021  -0.0099   2.00  496.7
2024/05/03 14:23:33.000   28.280973032  -16.514854668  2222.5751   1   7   0.0050   0.0021   0.0266   0.0015   0.0020  -0.0100   3.00  502.0
2024/05/03 14:23:34.000   28.280973031  -16.514854669  2222.5750   1   7   0.0051   0.0022   0.0267   0.0015   0.0019  -0.0101   4.00  513.3
2024/05/03 14:23:35.000   28.280973031  -16.514854668  2222.5747   1   7   0.0052   0.0022   0.0268   0.0016   0.0019  -0.0102   5.00  507.5
2024/05/03 14:23:36.000   28.280973030  -16.514854669  2222.5745   1   7   0.0052   0.0022   0.0269   0.0016   0.0018  -0.0102   6.00  515.2
2024/05/03 14:23:37.000   28.280973029  -16.514854669  2222.5744   1   7   0.0053   0.0022   0.0270   0.0016   0.0017  -0.0103   7.00  512.3
2024/05/03 14:23:38.000   28.280973029  -16.514854669  2222.5744   1   7   0.0053   0.0022   0.0271   0.0016   0.0017  -0.0104   8.00  503.8
2024/05/03 14:23:39.000   28.280973028  -16.514854669  2222.5744   1   7   0.0053   0.0022   0.0272   0.0017   0.0016  -0.0104   9.00  498.3
2024/05/03 14:23:40.000   28.280973027  -16.514854669  2222.5746   1   7   0.0054   0.0022   0.0272   0.0017   0.0015  -0.0105  10.00  496.4
2024/05/03 14:23:41.000   28.280973026  -16.514854670  2222.5748   1   7   0.0054   0.0022   0.0273   0.0017   0.0015  -0.0105  11.00  490.4
2024/05/03 14:23:42.000   28.280973024  -16.514854670  2222.5751   1   7   0.0054   0.0022   0.0273   0.0017   0.0014  -0.0106  12.00  483.6
2024/05/03 14:23:43.000   28.280973023  -16.514854670  2222.5753   1   7   0.0055   0.0022   0.0273   0.0017   0.0014  -0.0106  13.00  474.6
2024/05/03 14:23:44.000   28.280973023  -16.514854670  2222.5752   1   7   0.0055   0.0022   0.0274   0.0017   0.0013  -0.0106  14.00  466.3
2024/05/03 14:23:45.000   28.280973023  -16.514854671  2222.5754   1   7   0.0055   0.0022   0.0274   0.0018   0.0013  -0.0107  15.00  457.2
2024/05/03 14:23:46.000   28.280973022  -16.514854671  2222.5756   1   7   0.0055   0.0022   0.0274   0.0018   0.0012  -0.0107 -14.00  447.6
2024/05/03 14:23:47.000   28.280973022  -16.514854671  2222.5756   1   7   0.0055   0.0022   0.0275   0.0018   0.0012  -0.0107 -13.00  437.4
2024/05/03 14:23:48.000   28.280973022  -16.514854671  2222.5757   1   7   0.0056   0.0022   0.0275   0.0018   0.0011  -0.0107 -12.00  426.0
2024/05/03 14:23:49.000   28.280973021  -16.514854671  2222.5759   1   7   0.0056   0.0022   0.0275   0.0018   0.0010  -0.0108 -11.00  415.5
2024/05/03 14:23:50.000   28.280973020  -16.514854671  2222.5760   1   7   0.0056   0.0022   0.0276   0.0018   0.0009  -0.0108 -10.00  404.9
2024/05/03 14:23:51.000   28.280973020  -16.514854671  2222.5762   1   7   0.0056   0.0022   0.0276   0.0018   0.0008  -0.0109  -9.00  392.3
2024/05/03 14:23:52.000   28.280973019  -16.514854671  2222.5763   1   7   0.0057   0.0022   0.0277   0.0019   0.0006  -0.0109  -8.00  379.8
2024/05/03 14:23:53.000   28.280973019  -16.514854671  2222.5763   1   7   0.0057   0.0022   0.0278   0.0019   0.0003  -0.0110  -7.00  360.2
2024/05/03 14:23:54.000   28.280973019  -16.514854672  2222.5765   1   7   0.0058   0.0022   0.0279   0.0019  -0.0005  -0.0111  -6.00  338.2
2024/05/03 14:23:55.000   28.280973018  -16.514854672  2222.5768   1   7   0.0059   0.0022   0.0281   0.0020  -0.0009  -0.0112  -5.00  306.5
2024/05/03 14:23:56.000   28.280973017  -16.514854672  2222.5768   1   7   0.0060   0.0022   0.0282   0.0020  -0.0011  -0.0114  -4.00  261.4
2024/05/03 14:23:57.000   28.280973015  -16.514854672  2222.5774   1   7   0.0061   0.0023   0.0285   0.0021  -0.0014  -0.0116  -3.00  207.7
2024/05/03 14:23:58.000   28.280973014  -16.514854673  2222.5778   1   7   0.0062   0.0023   0.0288   0.0022  -0.0017  -0.0118  -2.00  145.8
2024/05/03 14:23:59.000   28.280973011  -16.514854674  2222.5784   1   7   0.0064   0.0023   0.0291   0.0023  -0.0020  -0.0121  -1.00   61.9
2024/05/03 14:24:00.000   28.280972991  -16.514854679  2222.5837   1   7   0.0041   0.0020   0.0258   0.0004   0.0030  -0.0089   0.00  501.5
2024/05/03 14:24:01.000   28.280972990  -16.514854680  2222.5838   1   7   0.0042   0.0021   0.0259   0.0004   0.0030  -0.0090   1.00  485.9
2024/05/03 14:24:02.000   28.280972990  -16.514854680  2222.5837   1   7   0.0042   0.0021   0.0260   0.0004   0.0030  -0.0090   2.00  481.1
2024/05/03 14:24:03.000   28.280972990  -16.514854679  2222.5839   1   7   0.0042   0.0021   0.0261   0.0004   0.0030  -0.0091   3.00  472.6
2024/05/03 14:24:04.000   28.280972990  -16.514854680  2222.5839   1   7   0.0042   0.0021   0.0262   0.0004   0.0030  -0.0091   4.00  466.3
2024/05/03 14:24:05.000   28.280972989  -16.514854680  2222.5841   1   7   0.0043   0.0021   0.0263   0.0005   0.0030  -0.0092   5.00  454.7
2024/05/03 14:24:06.000   28.280972988  -16.514854680  2222.5842   1   7   0.0043   0.0021   0.0263   0.0005   0.0030  -0.0092   6.00  442.8
2024/05/03 14:24:07.000   28.280972988  -16.514854680  2222.5843   1   7   0.0043   0.0021   0.0264   0.0005   0.0030  -0.0092   7.00  433.4
2024/05/03 14:24:08.000   28.280972979  -16.514854686  2222.5980   1   7   0.0040   0.0018   0.0230   0.0008   0.0023  -0.0083   8.00    3.5
2024/05/03 14:24:09.000   28.280972979  -16.514854686  2222.5983   1   7   0.0040   0.0018   0.0230   0.0008   0.0023  -0.0083   9.00    3.4
2024/05/03 14:24:10.000   28.280972978  -16.514854686  2222.5986   1   7   0.0040   0.0018   0.0230   0.0008   0.0023  -0.0083  10.00    3.4
2024/05/03 14:24:11.000   28.280972977  -16.514854686  2222.5987   1   7   0.0040   0.0018   0.0230   0.0008   0.0023  -0.0083  11.00    3.4
2024/05/03 14:24:12.000   28.280972977  -16.514854686  2222.5990   1   7   0.0040   0.0018   0.0230   0.0008   0.0023  -0.0083  12.00    3.3
2024/05/03 14:24:13.000   28.280972976  -16.514854687  2222.5991   1   7   0.0040   0.0018   0.0230   0.0008   0.0023  -0.0083  13.00    3.3
2024/05/03 14:24:14.000   28.280972976  -16.514854687  2222.5991   1   7   0.0040   0.0018   0.0230   0.0008   0.0023  -0.0083  14.00    3.3
2024/05/03 14:24:15.000   28.280972976  -16.514854687  2222.5991   1   7   0.0040   0.0018   0.0230   0.0008   0.0023  -0.0083 -15.00    3.4
2024/05/03 14:24:16.000   28.280972976  -16.514854687  2222.5991   1   7   0.0040   0.0018   0.0230   0.0008   0.0023  -0.0083 -14.00    3.3
2024/05/03 14:24:17.000   28.280972976  -16.514854687  2222.5991   1   7   0.0040   0.0018   0.0229   0.0008   0.0023  -0.0083 -13.00    3.3
2024/05/03 14:24:18.000   28.280972976  -16.514854687  2222.5992   1   7   0.0040   0.0018   0.0229   0.0008   0.0023  -0.0083 -12.00    3.4
2024/05/03 14:24:19.000   28.280972976  -16.514854687  2222.5990   1   7   0.0040   0.0018   0.0229   0.0008   0.0023  -0.0083 -11.00    3.6
2024/05/03 14:24:20.000   28.280972975  -16.514854687  2222.5992   1   7   0.0039   0.0018   0.0228   0.0008   0.0023  -0.0082 -10.00    3.7
2024/05/03 14:24:21.000   28.280972975  -16.514854687  2222.5991   1   7   0.0039   0.0018   0.0228   0.0008   0.0023  -0.0082  -9.00    3.7
2024/05/03 14:24:22.000   28.280972975  -16.514854687  2222.5992   1   7   0.0039   0.0018   0.0228   0.0008   0.0023  -0.0082  -8.00    3.7
2024/05/03 14:24:23.000   28.280972975  -16.514854687  2222.5992   1   7   0.0039   0.0018   0.0228   0.0008   0.0023  -0.0082  -7.00    3.8
2024/05/03 14:24:24.000   28.280972995  -16.514854681  2222.5932   1   7   0.0036   0.0017   0.0224   0.0002   0.0026  -0.0078  -6.00    3.0
2024/05/03 14:24:25.000   28.280972995  -16.514854681  2222.5931   1   7   0.0036   0.0017   0.0224   0.0002   0.0026  -0.0078  -5.00    3.1
2024/05/03 14:24:26.000   28.280972995  -16.514854681  2222.5930   1   7   0.0036   0.0017   0.0224   0.0002   0.0026  -0.0078  -4.00    3.1
2024/05/03 14:24:27.000   28.280972995  -16.514854681  2222.5931   1   7   0.0036   0.0017   0.0224   0.0002   0.0026  -0.0078  -3.00    3.2
2024/05/03 14:24:28.000   28.280972995  -16.514854681  2222.5931   1   7   0.0036   0.0017   0.0223   0.0001   0.0026  -0.0077  -2.00    8.7
2024/05/03 14:24:29.000   28.280972995  -16.514854681  2222.5932   1   7   0.0036   0.0017   0.0223   0.0001   0.0026  -0.0077  -1.00   15.5
2024/05/03 14:24:30.000   28.280972999  -16.514854681  2222.5909   1   7   0.0035   0.0017   0.0220   0.0001   0.0026  -0.0075   0.00   23.8
2024/05/03 14:24:31.000   28.280973003  -16.514854681  2222.5896   1   7   0.0036   0.0017   0.0224   0.0001   0.0026  -0.0078   1.00   33.1
2024/05/03 14:24:32.000   28.280973002  -16.514854681  2222.5896   1   7   0.0036   0.0017   0.0224   0.0000   0.0026  -0.0078   2.00   42.2
2024/05/03 14:24:33.000   28.280973001  -16.514854681  2222.5898   1   7   0.0036   0.0017   0.0224  -0.0000   0.0026  -0.0078   3.00   54.6
2024/05/03 14:24:34.000   28.280973002  -16.514854681  2222.5898   1   7   0.0036   0.0017   0.0224  -0.0000   0.0026  -0.0078   4.00   66.9
2024/05/03 14:24:35.000   28.280973001  -16.514854682  2222.5899   1   7   0.0036   0.0017   0.0224  -0.0000   0.0026  -0.0078   5.00   81.4
2024/05/03 14:24:36.000   28.280973001  -16.514854682  2222.5900   1   7   0.0036   0.0017   0.0223   0.0000   0.0026  -0.0078   6.00   98.7
2024/05/03 14:24:37.000   28.280973001  -16.514854682  2222.5898   1   7   0.0036   0.0017   0.0223   0.0000   0.0026  -0.0078   7.00  115.3
2024/05/03 14:24:38.000   28.280973001  -16.514854682  2222.5899   1   7   0.0036   0.0017   0.0223   0.0001   0.0026  -0.0078   8.00  132.2
2024/05/03 14:24:39.000   28.280973001  -16.514854682  2222.5898   1   7   0.0036   0.0017   0.0223   0.0001   0.0026  -0.0078   9.00  150.6
2024/05/03 14:24:40.000   28.280973001  -16.514854682  2222.5898   1   7   0.0036   0.0017   0.0223   0.0001   0.0026  -0.0078  10.00  170.2
2024/05/03 14:24:41.000   28.280973001  -16.514854682  2222.5898   1   7   0.0036   0.0017   0.0223   0.0001   0.0026  -0.0078  11.00  187.5
2024/05/03 14:24:42.000   28.280973001  -16.514854682  2222.5898   1   7   0.0036   0.0017   0.0223   0.0001   0.0026  -0.0078  12.00  205.9
2024/05/03 14:24:43.000   28.280973001  -16.514854682  2222.5898   1   7   0.0036   0.0017   0.0223   0.0001   0.0026  -0.0078  13.00  226.3
2024/05/03 14:24:44.000   28.280973001  -16.514854682  2222.5898   1   7   0.0036   0.0017   0.0223   0.0001   0.0026  -0.0078  14.00  243.2
2024/05/03 14:24:45.000   28.280973001  -16.514854682  2222.5898   1   7   0.0036   0.0017   0.0223   0.0001   0.0026  -0.0078 -15.00  260.9
2024/05/03 14:24:46.000   28.280973001  -16.514854682  2222.5898   1   7   0.0036   0.0017   0.0223   0.0001   0.0026  -0.0078 -14.00  276.8
2024/05/03 14:24:47.000   28.280973001  -16.514854682  2222.5900   1   7   0.0036   0.0017   0.0223   0.0001   0.0026  -0.0077 -13.00  294.1
2024/05/03 14:24:48.000   28.280973000  -16.514854682  2222.5900   1   7   0.0036   0.0017   0.0223   0.0001   0.0026  -0.0077 -12.00  314.2
2024/05/03 14:24:49.000   28.280973000  -16.514854682  2222.5900   1   7   0.0036   0.0017   0.0223   0.0001   0.0026  -0.0077 -11.00  335.1
2024/05/03 14:24:50.000   28.280973000  -16.514854682  2222.5901   1   7   0.0036   0.0017   0.0223   0.0001   0.0026  -0.0077 -10.00  351.1
2024/05/03 14:24:51.000   28.280973000  -16.514854682  2222.5902   1   7   0.0036   0.0017   0.0223   0.0001   0.0026  -0.0077  -9.00  366.2
2024/05/03 14:24:52.000   28.280972999  -16.514854682  2222.5904   1   7   0.0036   0.0017   0.0223   0.0001   0.0026  -0.0077  -8.00  382.5
2024/05/03 14:24:53.000   28.280972999  -16.514854682  2222.5904   1   7   0.0036   0.0017   0.0222   0.0001   0.0026  -0.0077  -7.00  402.0
2024/05/03 14:24:54.000   28.280972999  -16.514854682  2222.5906   1   7   0.0036   0.0017   0.0222   0.0001   0.0026  -0.0077  -6.00  423.6
2024/05/03 14:24:55.000   28.280972999  -16.514854682  2222.5905   1   7   0.0036   0.0017   0.0222   0.0001   0.0026  -0.0077  -5.00  451.5
2024/05/03 14:24:56.000   28.280972998  -16.514854682  2222.5906   1   7   0.0036   0.0017   0.0222   0.0002   0.0026  -0.0077  -4.00  468.2
2024/05/03 14:24:57.000   28.280972998  -16.514854682  2222.5909   1   7   0.0036   0.0017   0.0222   0.0002   0.0026  -0.0077  -3.00  493.9
2024/05/03 14:24:58.000   28.280972998  -16.514854682  2222.5910   1   7   0.0036   0.0017   0.0222   0.0002   0.0026  -0.0077  -2.00  509.9
2024/05/03 14:24:59.000   28.280972997  -16.514854682  2222.5914   1   7   0.0036   0.0017   0.0222   0.0002   0.0026  -0.0077  -1.00  515.0
2024/05/03 14:25:00.000   28.280973017  -16.514854681  2222.5833   1   7   0.0034   0.0017   0.0218   0.0001   0.0026  -0.0075   0.00  528.6
2024/05/03 14:25:01.000   28.280973018  -16.514854681  2222.5827   1   7   0.0036   0.0017   0.0222  -0.0001   0.0026  -0.0077   1.00  170.2
2024/05/03 14:25:02.000   28.280973018  -16.514854681  2222.5828   1   7   0.0036   0.0017   0.0222  -0.0001   0.0026  -0.0077   2.00  256.8
2024/05/03 14:25:03.000   28.280973016  -16.514854682  2222.5832   1   7   0.0036   0.0017   0.0222  -0.0000   0.0026  -0.0077   3.00  316.8
2024/05/03 14:25:04.000   28.280973016  -16.514854682  2222.5832   1   7   0.0036   0.0017   0.0222   0.0001   0.0026  -0.0077   4.00  298.5
2024/05/03 14:25:05.000   28.280973018  -16.514854682  2222.5828   1   7   0.0036   0.0017   0.0222   0.0001   0.0026  -0.0077   5.00  231.3
2024/05/03 14:25:06.000   28.280973016  -16.514854683  2222.5832   1   7   0.0036   0.0017   0.0222   0.0001   0.0026  -0.0077   6.00  219.0
2024/05/03 14:25:07.000   28.280973016  -16.514854682  2222.5830   1   7   0.0036   0.0017   0.0222   0.0001   0.0026  -0.0077   7.00  203.7
2024/05/03 14:25:08.000   28.280973016  -16.514854683  2222.5831   1   7   0.0036   0.0017   0.0222   0.0001   0.0026  -0.0077   8.00  199.3
2024/05/03 14:25:09.000   28.280973016  -16.514854682  2222.5828   1   7   0.0036   0.0017   0.0222   0.0001   0.0026  -0.0077   9.00  185.9
2024/05/03 14:25:10.000   28.280973016  -16.514854683  2222.5828   1   7   0.0036   0.0017   0.0222   0.0002   0.0026  -0.0077  10.00  174.7
2024/05/03 14:25:11.000   28.280973017  -16.514854682  2222.5827   1   7   0.0036   0.0017   0.0222   0.0002   0.0026  -0.0077  11.00  169.0
2024/05/03 14:25:12.000   28.280973017  -16.514854682  2222.5827   1   7   0.0036   0.0017   0.0222   0.0002   0.0026  -0.0077  12.00  162.4
2024/05/03 14:25:13.000   28.280973017  -16.514854682  2222.5827   1   7   0.0036   0.0017   0.0222   0.0002   0.0026  -0.0077  13.00  159.3
2024/05/03 14:25:14.000   28.280973017  -16.514854682  2222.5827   1   7   0.0036   0.0017   0.0222   0.0002   0.0026  -0.0077  14.00  155.7
2024/05/03 14:25:15.000   28.280973017  -16.514854682  2222.5827   1   7   0.0036   0.0017   0.0222   0.0002   0.0026  -0.0077 -15.00  153.9
2024/05/03 14:25:16.000   28.280973017  -16.514854682  2222.5826   1   7   0.0036   0.0017   0.0222   0.0002   0.0026  -0.0077 -14.00  151.7
2024/05/03 14:25:17.000   28.280973017  -16.514854682  2222.5825   1   7   0.0036   0.0017   0.0222   0.0002   0.0026  -0.0077 -13.00  148.7
2024/05/03 14:25:18.000   28.280973017  -16.514854682  2222.5824   1   7   0.0036   0.0017   0.0221   0.0002   0.0026  -0.0077 -12.00  144.8
2024/05/03 14:25:19.000   28.280973017  -16.514854682  2222.5823   1   7   0.0036   0.0017   0.0221   0.0002   0.0026  -0.0077 -11.00  141.9
2024/05/03 14:25:20.000   28.280973017  -16.514854682  2222.5823   1   7   0.0036   0.0017   0.0221   0.0002   0.0025  -0.0077 -10.00  139.7
2024/05/03 14:25:21.000   28.280973018  -16.514854682  2222.5821   1   7   0.0036   0.0017   0.0221   0.0002   0.0025  -0.0077  -9.00  136.7
2024/05/03 14:25:22.000   28.280973018  -16.514854682  2222.5820   1   7   0.0036   0.0017   0.0221   0.0002   0.0025  -0.0077  -8.00  134.4
2024/05/03 14:25:23.000   28.280973018  -16.514854682  2222.5820   1   7   0.0036   0.0017   0.0221   0.0002   0.0025  -0.0077  -7.00  132.4
2024/05/03 14:25:24.000   28.280973018  -16.514854682  2222.5819   1   7   0.0036   0.0017   0.0221   0.0002   0.0025  -0.0077  -6.00  133.0
2024/05/03 14:25:25.000   28.280973018  -16.514854682  2222.5818   1   7   0.0036   0.0017   0.0221   0.0002   0.0025  -0.0077  -5.00  133.8
2024/05/03 14:25:26.000   28.280973018  -16.514854682  2222.5814   1   7   0.0036   0.0017   0.0221   0.0003   0.0025  -0.0077  -4.00  133.9
2024/05/03 14:25:27.000   28.280973018  -16.514854682  2222.5814   1   7   0.0036   0.0017   0.0221   0.0003   0.0025  -0.0077  -3.00  135.4
2024/05/03 14:25:28.000   28.280973017  -16.514854683  2222.5813   1   7   0.0036   0.0017   0.0221   0.0003   0.0025  -0.0077  -2.00  141.1
2024/05/03 14:25:29.000   28.280973017  -16.514854683  2222.5809   1   7   0.0036   0.0017   0.0221   0.0003   0.0025  -0.0077  -1.00  145.9
2024/05/03 14:25:30.000   28.280973015  -16.514854684  2222.5815   1   7   0.0034   0.0017   0.0217   0.0002   0.0025  -0.0074   0.00  151.9
2024/05/03 14:25:31.000   28.280973019  -16.514854678  2222.5834   1   7   0.0047   0.0018   0.0235   0.0014   0.0011  -0.0091   1.00   82.1
2024/05/03 14:25:32.000   28.280973018  -16.514854678  2222.5842   1   7   0.0046   0.0018   0.0234   0.0014   0.0011  -0.0091   2.00  121.1
2024/05/03 14:25:33.000   28.280973017  -16.514854678  2222.5847   1   7   0.0046   0.0018   0.0234   0.0014   0.0011  -0.0091   3.00  168.0
2024/05/03 14:25:34.000   28.280973016  -16.514854678  2222.5851   1   7   0.0046   0.0018   0.0234   0.0014   0.0011  -0.0091   4.00  214.6
2024/05/03 14:25:35.000   28.280973017  -16.514854678  2222.5850   1   7   0.0046   0.0018   0.0234   0.0014   0.0011  -0.0091   5.00  249.3
2024/05/03 14:25:36.000   28.280973016  -16.514854679  2222.5851   1   7   0.0046   0.0018   0.0234   0.0014   0.0011  -0.0091   6.00  275.7
2024/05/03 14:25:37.000   28.280973016  -16.514854679  2222.5851   1   7   0.0046   0.0018   0.0234   0.0014   0.0011  -0.0091   7.00  304.2
2024/05/03 14:25:38.000   28.280973016  -16.514854679  2222.5852   1   7   0.0046   0.0018   0.0234   0.0014   0.0011  -0.0091   8.00  338.9
2024/05/03 14:25:39.000   28.280973016  -16.514854678  2222.5851   1   7   0.0046   0.0018   0.0234   0.0014   0.0011  -0.0091   9.00  365.4
2024/05/03 14:25:40.000   28.280973016  -16.514854678  2222.5851   1   7   0.0046   0.0018   0.0234   0.0014   0.0011  -0.0091  10.00  386.4
2024/05/03 14:25:41.000   28.280973017  -16.514854678  2222.5850   1   7   0.0046   0.0018   0.0234   0.0014   0.0011  -0.0091  11.00  390.4
2024/05/03 14:25:42.000   28.280973016  -16.514854678  2222.5854   1   7   0.0046   0.0018   0.0234   0.0014   0.0011  -0.0091  12.00  412.1
2024/05/03 14:25:43.000   28.280973016  -16.514854678  2222.5853   1   7   0.0046   0.0018   0.0234   0.0014   0.0011  -0.0091  13.00  420.6
2024/05/03 14:25:44.000   28.280973016  -16.514854678  2222.5854   1   7   0.0046   0.0018   0.0234   0.0014   0.0011  -0.0091  14.00  428.3
2024/05/03 14:25:45.000   28.280973016  -16.514854678  2222.5855   1   7   0.0046   0.0018   0.0234   0.0014   0.0011  -0.0091 -15.00  442.9
2024/05/03 14:25:46.000   28.280973016  -16.514854678  2222.5855   1   7   0.0046   0.0018   0.0234   0.0014   0.0011  -0.0091 -14.00  458.1
2024/05/03 14:25:47.000   28.280973016  -16.514854678  2222.5855   1   7   0.0046   0.0018   0.0234   0.0014   0.0011  -0.0091 -13.00  466.9
2024/05/03 14:25:48.000   28.280973016  -16.514854678  2222.5856   1   7   0.0046   0.0018   0.0233   0.0014   0.0011  -0.0090 -12.00  475.2
2024/05/03 14:25:49.000   28.280973016  -16.514854678  2222.5856   1   7   0.0046   0.0018   0.0233   0.0014   0.0011  -0.0090 -11.00  474.2
2024/05/03 14:25:50.000   28.280973015  -16.514854678  2222.5860   1   7   0.0046   0.0018   0.0233   0.0014   0.0011  -0.0090 -10.00  488.3
2024/05/03 14:25:51.000   28.280973015  -16.514854678  2222.5861   1   7   0.0046   0.0018   0.0233   0.0014   0.0011  -0.0090  -9.00  507.6
2024/05/03 14:25:52.000   28.280973015  -16.514854678  2222.5861   1   7   0.0046   0.0018   0.0233   0.0014   0.0011  -0.0090  -8.00  514.3
2024/05/03 14:25:53.000   28.280973014  -16.514854679  2222.5864   1   7   0.0046   0.0018   0.0233   0.0014   0.0011  -0.0090  -7.00  533.4
2024/05/03 14:25:54.000   28.280973014  -16.514854679  2222.5864   1   7   0.0046   0.0018   0.0233   0.0014   0.0011  -0.0090  -6.00  548.4
2024/05/03 14:25:55.000   28.280973015  -16.514854678  2222.5862   1   7   0.0046   0.0018   0.0233   0.0014   0.0011  -0.0090  -5.00  569.9
2024/05/03 14:25:56.000   28.280973014  -16.514854679  2222.5866   1   7   0.0046   0.0018   0.0233   0.0014   0.0011  -0.0090  -4.00  579.8
2024/05/03 14:25:57.000   28.280973014  -16.514854679  2222.5865   1   7   0.0046   0.0018   0.0232   0.0014   0.0011  -0.0090  -3.00  593.2
2024/05/03 14:25:58.000   28.280973014  -16.514854679  2222.5863   1   7   0.0046   0.0018   0.0232   0.0014   0.0011  -0.0090  -2.00  617.2
2024/05/03 14:25:59.000   28.280973016  -16.514854678  2222.5856   1   7   0.0046   0.0018   0.0232   0.0014   0.0011  -0.0090  -1.00  609.7
2024/05/03 14:26:00.000   28.280973021  -16.514854676  2222.5851   1   7   0.0035   0.0017   0.0217   0.0002   0.0025  -0.0075   0.00  602.7
2024/05/03 14:26:01.000   28.280973027  -16.514854676  2222.5823   1   7   0.0036   0.0017   0.0222   0.0003   0.0024  -0.0078   1.00  126.1
2024/05/03 14:26:02.000   28.280973029  -16.514854675  2222.5821   1   7   0.0036   0.0017   0.0222   0.0003   0.0024  -0.0078   2.00  236.7
2024/05/03 14:26:03.000   28.280973030  -16.514854675  2222.5821   1   7   0.0036   0.0017   0.0222   0.0003   0.0024  -0.0078   3.00  295.1
2024/05/03 14:26:04.000   28.280973029  -16.514854675  2222.5824   1   7   0.0036   0.0017   0.0222   0.0002   0.0024  -0.0078   4.00  343.0
2024/05/03 14:26:05.000   28.280973029  -16.514854675  2222.5826   1   7   0.0036   0.0017   0.0221   0.0002   0.0024  -0.0078   5.00  373.6
2024/05/03 14:26:06.000   28.280973029  -16.514854674  2222.5826   1   7   0.0036   0.0017   0.0221   0.0002   0.0025  -0.0078   6.00  394.4
2024/05/03 14:26:07.000   28.280973029  -16.514854674  2222.5826   1   7   0.0036   0.0017   0.0221   0.0002   0.0025  -0.0078   7.00  404.0
2024/05/03 14:26:08.000   28.280973029  -16.514854674  2222.5828   1   7   0.0036   0.0017   0.0221   0.0002   0.0025  -0.0078   8.00  415.7
2024/05/03 14:26:09.000   28.280973029  -16.514854674  2222.5830   1   7   0.0036   0.0017   0.0221   0.0002   0.0025  -0.0078   9.00  423.1
2024/05/03 14:26:10.000   28.280973028  -16.514854674  2222.5831   1   7   0.0036   0.0017   0.0221   0.0002   0.0025  -0.0078  10.00  430.9
2024/05/03 14:26:11.000   28.280973029  -16.514854674  2222.5830   1   7   0.0036   0.0017   0.0221   0.0002   0.0025  -0.0078  11.00  436.1
2024/05/03 14:26:12.000   28.280973029  -16.514854674  2222.5830   1   7   0.0036   0.0017   0.0221   0.0002   0.0025  -0.0078  12.00  442.2
2024/05/03 14:26:13.000   28.280973029  -16.514854674  2222.5830   1   7   0.0036   0.0017   0.0221   0.0002   0.0025  -0.0078  13.00  449.9
2024/05/03 14:26:14.000   28.280973029  -16.514854674  2222.5830   1   7   0.0036   0.0017   0.0221   0.0002   0.0025  -0.0078  14.00  456.4
2024/05/03 14:26:15.000   28.280973029  -16.514854674  2222.5830   1   7   0.0036   0.0017   0.0221   0.0002   0.0025  -0.0078 -15.00  462.2
2024/05/03 14:26:16.000   28.280973029  -16.514854674  2222.5830   1   7   0.0036   0.0017   0.0221   0.0002   0.0025  -0.0078 -14.00  467.0
2024/05/03 14:26:17.000   28.280973029  -16.514854674  2222.5830   1   7   0.0036   0.0017   0.0221   0.0002   0.0025  -0.0078 -13.00  471.0
2024/05/03 14:26:18.000   28.280973029  -16.514854674  2222.5831   1   7   0.0036   0.0017   0.0221   0.0002   0.0025  -0.0078 -12.00  475.9
2024/05/03 14:26:19.000   28.280973029  -16.514854674  2222.5831   1   7   0.0036   0.0017   0.0221   0.0002   0.0025  -0.0078 -11.00  484.3
2024/05/03 14:26:20.000   28.280973029  -16.514854674  2222.5830   1   7   0.0036   0.0017   0.0221   0.0002   0.0025  -0.0078 -10.00  487.3
2024/05/03 14:26:21.000   28.280973029  -16.514854674  2222.5831   1   7   0.0036   0.0017   0.0221   0.0002   0.0025  -0.0078  -9.00  492.0
2024/05/03 14:26:22.000   28.280973029  -16.514854674  2222.5832   1   7   0.0036   0.0017   0.0221   0.0002   0.0025  -0.0078  -8.00  502.3
2024/05/03 14:26:23.000   28.280973028  -16.514854674  2222.5832   1   7   0.0036   0.0017   0.0221   0.0002   0.0025  -0.0078  -7.00  509.1
2024/05/03 14:26:24.000   28.280973028  -16.514854675  2222.5831   1   7   0.0036   0.0017   0.0221   0.0002   0.0025  -0.0078  -6.00  514.3
2024/05/03 14:26:25.000   28.280973028  -16.514854675  2222.5830   1   7   0.0036   0.0017   0.0221   0.0001   0.0025  -0.0078  -5.00  516.7
2024/05/03 14:26:26.000   28.280973029  -16.514854675  2222.5826   1   7   0.0036   0.0017   0.0220   0.0001   0.0025  -0.0077  -4.00  519.9
2024/05/03 14:26:27.000   28.280973029  -16.514854676  2222.5826   1   7   0.0036   0.0017   0.0220   0.0001   0.0025  -0.0077  -3.00  530.7
2024/05/03 14:26:28.000   28.280973029  -16.514854676  2222.5821   1   7   0.0036   0.0017   0.0220   0.0001   0.0025  -0.0077  -2.00  530.6
2024/05/03 14:26:29.000   28.280973029  -16.514854676  2222.5820   1   7   0.0036   0.0017   0.0220   0.0001   0.0025  -0.0077  -1.00  541.5
2024/05/03 14:26:30.000   28.280973029  -16.514854678  2222.5817   1   7   0.0035   0.0017   0.0218   0.0001   0.0025  -0.0076   0.00  566.2
2024/05/03 14:26:31.000   28.280973035  -16.514854677  2222.5788   1   7   0.0036   0.0017   0.0222   0.0001   0.0025  -0.0079   1.00  122.9
2024/05/03 14:26:32.000   28.280973035  -16.514854677  2222.5788   1   7   0.0036   0.0017   0.0222   0.0001   0.0025  -0.0079   2.00  218.7
2024/05/03 14:26:33.000   28.280973036  -16.514854677  2222.5786   1   7   0.0036   0.0017   0.0223   0.0001   0.0025  -0.0079   3.00  282.2
2024/05/03 14:26:34.000   28.280973036  -16.514854677  2222.5788   1   7   0.0036   0.0017   0.0223   0.0000   0.0025  -0.0079   4.00  352.0
2024/05/03 14:26:35.000   28.280973036  -16.514854677  2222.5789   1   7   0.0036   0.0017   0.0223   0.0000   0.0025  -0.0079   5.00  402.2
2024/05/03 14:26:36.000   28.280973037  -16.514854677  2222.5789   1   7   0.0036   0.0017   0.0223   0.0000   0.0025  -0.0079   6.00  433.5
2024/05/03 14:26:37.000   28.280973037  -16.514854677  2222.5790   1   7   0.0036   0.0017   0.0223   0.0001   0.0025  -0.0079   7.00  481.0
2024/05/03 14:26:38.000   28.280973037  -16.514854676  2222.5791   1   7   0.0036   0.0017   0.0223   0.0001   0.0025  -0.0079   8.00  517.6
2024/05/03 14:26:39.000   28.280973037  -16.514854676  2222.5792   1   7   0.0036   0.0017   0.0223   0.0001   0.0025  -0.0079   9.00  552.7
2024/05/03 14:26:40.000   28.280973037  -16.514854676  2222.5791   1   7   0.0036   0.0017   0.0223   0.0001   0.0025  -0.0079  10.00  573.9
2024/05/03 14:26:41.000   28.280973037  -16.514854676  2222.5791   1   7   0.0036   0.0017   0.0223   0.0001   0.0025  -0.0079  11.00  593.2
2024/05/03 14:26:42.000   28.280973037  -16.514854676  2222.5791   1   7   0.0036   0.0017   0.0223   0.0001   0.0025  -0.0079  12.00  606.4
2024/05/03 14:26:43.000   28.280973038  -16.514854675  2222.5793   1   7   0.0036   0.0017   0.0223   0.0001   0.0025  -0.0079  13.00  620.7
2024/05/03 14:26:44.000   28.280973038  -16.514854674  2222.5794   1   7   0.0036   0.0017   0.0223   0.0001   0.0024  -0.0079  14.00  624.9
2024/05/03 14:26:45.000   28.280973040  -16.514854673  2222.5797   1   7   0.0036   0.0017   0.0223   0.0001   0.0024  -0.0079 -15.00  595.3
