% program   : RTKPOST-EX 2.5.0
% inp file  : C:\Users\SallyHenry\Desktop\Sally Internship\GNSS gravi\DATA\Survey Rover Obs\FA01.24o
% inp file  : C:\Users\SallyHenry\Desktop\Sally Internship\GNSS gravi\DATA\BaseStations\IZAN\IZAN00ESP_R_20241240000_01D_30S_MO.rnx
% inp file  : C:\Users\SallyHenry\Desktop\Sally Internship\GNSS gravi\DATA\BaseStations\IZAN\IZAN00ESP_R_20241240000_01D_MN.rnx
% inp file  : C:\Users\SallyHenry\Desktop\Sally Internship\GNSS gravi\DATA\aux_files\Survey\IGS0OPSFIN_20241240000_01D_15M_ORB.SP3
% inp file  : C:\Users\SallyHenry\Desktop\Sally Internship\GNSS gravi\DATA\aux_files\Survey\IGS0OPSFIN_20241240000_01D_30S_CLK.CLK
% obs start : 2024/05/03 14:59:46.0 GPST (week2312 485986.0s)
% obs end   : 2024/05/03 15:04:59.0 GPST (week2312 486299.0s)
% pos mode  : Static
% freqs     : L1+L2/E5b
% solution  : Combined-No Phase Reset
% elev mask : 15.0 deg
% dynamics  : on
% tidecorr  : solid
% ionos opt : Estimate TEC
% tropo opt : Estimate ZTD+Grad
% ephemeris : Precise
% navi sys  : GPS GLONASS Galileo QZSS BDS
% amb res   : Fix and Hold
% amb glo   : Fix and Hold
% amb bds   : on
% val thres : 3.0
% antenna1  :                       ( 0.0000  0.0000  1.8000)
% antenna2  :                       ( 0.0000  0.0000  0.0000)
% ref pos   :  28.308069410  -16.499677180  2417.4044
%
% (lat/lon/height=WGS84/ellipsoidal,Q=1:fix,2:float,3:sbas,4:dgps,5:single,6:ppp,ns=# of satellites)
%  GPST                  latitude(deg) longitude(deg)  height(m)   Q  ns   sdn(m)   sde(m)   sdu(m)  sdne(m)  sdeu(m)  sdun(m) age(s)  ratio
2024/05/03 14:59:46.000   28.280969890  -16.515021587  2222.7949   1   6   0.0021   0.0016   0.0314   0.0008   0.0013  -0.0067 -14.00  552.7
2024/05/03 14:59:47.000   28.280969890  -16.515021587  2222.7950   1   6   0.0021   0.0016   0.0314   0.0008   0.0013  -0.0067 -13.00  552.4
2024/05/03 14:59:48.000   28.280969890  -16.515021587  2222.7949   1   6   0.0021   0.0016   0.0314   0.0008   0.0013  -0.0067 -12.00  551.6
2024/05/03 14:59:49.000   28.280969890  -16.515021587  2222.7948   1   6   0.0021   0.0016   0.0314   0.0008   0.0013  -0.0067 -11.00  550.7
2024/05/03 14:59:50.000   28.280969890  -16.515021587  2222.7946   1   6   0.0021   0.0016   0.0313   0.0008   0.0013  -0.0067 -10.00  549.1
2024/05/03 14:59:51.000   28.280969890  -16.515021587  2222.7943   1   6   0.0021   0.0016   0.0313   0.0008   0.0013  -0.0067  -9.00  546.3
2024/05/03 14:59:52.000   28.280969890  -16.515021587  2222.7941   1   6   0.0021   0.0016   0.0314   0.0008   0.0013  -0.0067  -8.00  544.9
2024/05/03 14:59:53.000   28.280969890  -16.515021587  2222.7938   1   6   0.0021   0.0016   0.0314   0.0008   0.0013  -0.0067  -7.00  543.5
2024/05/03 14:59:54.000   28.280969890  -16.515021587  2222.7935   1   6   0.0021   0.0016   0.0314   0.0008   0.0013  -0.0067  -6.00  542.4
2024/05/03 14:59:55.000   28.280969890  -16.515021587  2222.7931   1   6   0.0021   0.0016   0.0314   0.0008   0.0013  -0.0067  -5.00  541.9
2024/05/03 14:59:56.000   28.280969890  -16.515021587  2222.7927   1   6   0.0021   0.0016   0.0314   0.0008   0.0013  -0.0067  -4.00  542.7
2024/05/03 14:59:57.000   28.280969890  -16.515021586  2222.7919   1   6   0.0021   0.0016   0.0315   0.0008   0.0013  -0.0067  -3.00  542.1
2024/05/03 14:59:58.000   28.280969890  -16.515021586  2222.7909   1   6   0.0021   0.0016   0.0315   0.0008   0.0013  -0.0067  -2.00  542.2
2024/05/03 14:59:59.000   28.280969890  -16.515021586  2222.7903   1   6   0.0021   0.0016   0.0316   0.0008   0.0013  -0.0067  -1.00  542.7
2024/05/03 15:00:00.000   28.280969891  -16.515021586  2222.7893   1   6   0.0021   0.0016   0.0316   0.0008   0.0013  -0.0067   0.00  543.7
2024/05/03 15:00:01.000   28.280969891  -16.515021586  2222.7887   1   6   0.0021   0.0016   0.0317   0.0008   0.0014  -0.0067   1.00  541.6
2024/05/03 15:00:02.000   28.280969891  -16.515021585  2222.7875   1   6   0.0021   0.0016   0.0318   0.0008   0.0014  -0.0067   2.00  533.9
2024/05/03 15:00:03.000   28.280969891  -16.515021585  2222.7870   1   6   0.0021   0.0016   0.0319   0.0008   0.0014  -0.0068   3.00  527.6
2024/05/03 15:00:04.000   28.280969891  -16.515021585  2222.7864   1   6   0.0021   0.0016   0.0319   0.0008   0.0014  -0.0068   4.00  519.8
2024/05/03 15:00:05.000   28.280969891  -16.515021585  2222.7857   1   6   0.0021   0.0016   0.0320   0.0008   0.0014  -0.0068   5.00  511.3
2024/05/03 15:00:06.000   28.280969891  -16.515021585  2222.7852   1   6   0.0021   0.0016   0.0320   0.0008   0.0014  -0.0068   6.00  504.8
2024/05/03 15:00:07.000   28.280969891  -16.515021585  2222.7849   1   6   0.0021   0.0016   0.0320   0.0008   0.0014  -0.0068   7.00  500.5
2024/05/03 15:00:08.000   28.280969891  -16.515021585  2222.7848   1   6   0.0021   0.0016   0.0320   0.0008   0.0014  -0.0068   8.00  497.4
2024/05/03 15:00:09.000   28.280969891  -16.515021585  2222.7848   1   6   0.0021   0.0016   0.0320   0.0008   0.0014  -0.0068   9.00  494.4
2024/05/03 15:00:10.000   28.280969891  -16.515021585  2222.7847   1   6   0.0021   0.0016   0.0320   0.0008   0.0014  -0.0068  10.00  490.6
2024/05/03 15:00:11.000   28.280969891  -16.515021585  2222.7846   1   6   0.0021   0.0016   0.0320   0.0008   0.0014  -0.0068  11.00  487.6
2024/05/03 15:00:12.000   28.280969892  -16.515021585  2222.7846   1   6   0.0021   0.0016   0.0320   0.0008   0.0014  -0.0068  12.00  485.7
2024/05/03 15:00:13.000   28.280969892  -16.515021585  2222.7847   1   6   0.0021   0.0016   0.0320   0.0008   0.0014  -0.0068  13.00  484.3
2024/05/03 15:00:14.000   28.280969892  -16.515021585  2222.7847   1   6   0.0021   0.0016   0.0320   0.0008   0.0014  -0.0068  14.00  482.1
2024/05/03 15:00:15.000   28.280969892  -16.515021585  2222.7847   1   6   0.0021   0.0016   0.0320   0.0008   0.0013  -0.0068  15.00  479.9
2024/05/03 15:00:16.000   28.280969892  -16.515021585  2222.7847   1   6   0.0021   0.0016   0.0320   0.0008   0.0013  -0.0068 -14.00  478.0
2024/05/03 15:00:17.000   28.280969892  -16.515021585  2222.7847   1   6   0.0021   0.0016   0.0320   0.0008   0.0013  -0.0068 -13.00  475.3
2024/05/03 15:00:18.000   28.280969892  -16.515021585  2222.7848   1   6   0.0021   0.0016   0.0320   0.0008   0.0013  -0.0068 -12.00  473.4
2024/05/03 15:00:19.000   28.280969892  -16.515021585  2222.7848   1   6   0.0021   0.0016   0.0320   0.0008   0.0013  -0.0068 -11.00  470.8
2024/05/03 15:00:20.000   28.280969892  -16.515021584  2222.7848   1   6   0.0021   0.0016   0.0320   0.0008   0.0013  -0.0068 -10.00  468.3
2024/05/03 15:00:21.000   28.280969892  -16.515021584  2222.7848   1   6   0.0021   0.0016   0.0320   0.0008   0.0013  -0.0068  -9.00  465.9
2024/05/03 15:00:22.000   28.280969892  -16.515021584  2222.7849   1   6   0.0021   0.0016   0.0320   0.0008   0.0013  -0.0068  -8.00  463.9
2024/05/03 15:00:23.000   28.280969892  -16.515021584  2222.7847   1   6   0.0021   0.0016   0.0320   0.0008   0.0013  -0.0068  -7.00  459.7
2024/05/03 15:00:24.000   28.280969892  -16.515021584  2222.7845   1   6   0.0021   0.0016   0.0320   0.0008   0.0013  -0.0068  -6.00  456.0
2024/05/03 15:00:25.000   28.280969892  -16.515021584  2222.7842   1   6   0.0021   0.0016   0.0320   0.0008   0.0013  -0.0068  -5.00  451.6
2024/05/03 15:00:26.000   28.280969893  -16.515021584  2222.7840   1   6   0.0021   0.0016   0.0320   0.0008   0.0013  -0.0068  -4.00  447.2
2024/05/03 15:00:27.000   28.280969893  -16.515021584  2222.7837   1   6   0.0021   0.0016   0.0321   0.0008   0.0013  -0.0068  -3.00  443.1
2024/05/03 15:00:28.000   28.280969893  -16.515021584  2222.7836   1   6   0.0021   0.0016   0.0321   0.0008   0.0013  -0.0068  -2.00  438.9
2024/05/03 15:00:29.000   28.280969894  -16.515021584  2222.7832   1   6   0.0021   0.0016   0.0322   0.0008   0.0013  -0.0068  -1.00  435.8
2024/05/03 15:00:30.000   28.280969894  -16.515021583  2222.7831   1   6   0.0021   0.0016   0.0323   0.0008   0.0013  -0.0068   0.00  430.2
2024/05/03 15:00:31.000   28.280969894  -16.515021583  2222.7828   1   6   0.0021   0.0016   0.0324   0.0008   0.0014  -0.0068   1.00  427.0
2024/05/03 15:00:32.000   28.280969895  -16.515021583  2222.7827   1   6   0.0021   0.0016   0.0324   0.0008   0.0014  -0.0068   2.00  425.2
2024/05/03 15:00:33.000   28.280969894  -16.515021583  2222.7827   1   6   0.0021   0.0016   0.0325   0.0008   0.0014  -0.0069   3.00  421.8
2024/05/03 15:00:34.000   28.280969895  -16.515021583  2222.7830   1   6   0.0021   0.0016   0.0326   0.0008   0.0014  -0.0069   4.00  424.4
2024/05/03 15:00:35.000   28.280969895  -16.515021583  2222.7830   1   6   0.0021   0.0016   0.0326   0.0008   0.0014  -0.0069   5.00  427.2
2024/05/03 15:00:36.000   28.280969895  -16.515021583  2222.7831   1   6   0.0021   0.0017   0.0326   0.0008   0.0014  -0.0069   6.00  427.6
2024/05/03 15:00:37.000   28.280969895  -16.515021582  2222.7831   1   6   0.0021   0.0017   0.0327   0.0008   0.0014  -0.0069   7.00  428.5
2024/05/03 15:00:38.000   28.280969895  -16.515021582  2222.7831   1   6   0.0021   0.0017   0.0327   0.0008   0.0014  -0.0069   8.00  429.0
2024/05/03 15:00:39.000   28.280969895  -16.515021582  2222.7831   1   6   0.0021   0.0017   0.0327   0.0008   0.0014  -0.0069   9.00  429.1
2024/05/03 15:00:40.000   28.280969895  -16.515021582  2222.7830   1   6   0.0021   0.0017   0.0327   0.0008   0.0014  -0.0069  10.00  428.5
2024/05/03 15:00:41.000   28.280969895  -16.515021582  2222.7829   1   6   0.0021   0.0017   0.0327   0.0008   0.0014  -0.0069  11.00  428.2
2024/05/03 15:00:42.000   28.280969895  -16.515021582  2222.7830   1   6   0.0021   0.0017   0.0327   0.0008   0.0014  -0.0069  12.00  428.8
2024/05/03 15:00:43.000   28.280969895  -16.515021582  2222.7830   1   6   0.0021   0.0017   0.0327   0.0008   0.0014  -0.0069  13.00  428.7
2024/05/03 15:00:44.000   28.280969895  -16.515021582  2222.7830   1   6   0.0021   0.0017   0.0327   0.0008   0.0013  -0.0069  14.00  428.6
2024/05/03 15:00:45.000   28.280969895  -16.515021581  2222.7831   1   6   0.0021   0.0017   0.0327   0.0008   0.0013  -0.0069  15.00  428.0
2024/05/03 15:00:46.000   28.280969895  -16.515021581  2222.7832   1   6   0.0021   0.0017   0.0327   0.0008   0.0013  -0.0069 -14.00  427.4
2024/05/03 15:00:47.000   28.280969895  -16.515021581  2222.7833   1   6   0.0021   0.0017   0.0327   0.0008   0.0013  -0.0069 -13.00  426.9
2024/05/03 15:00:48.000   28.280969895  -16.515021581  2222.7834   1   6   0.0021   0.0016   0.0326   0.0008   0.0013  -0.0069 -12.00  426.2
2024/05/03 15:00:49.000   28.280969895  -16.515021581  2222.7835   1   6   0.0021   0.0016   0.0326   0.0008   0.0013  -0.0069 -11.00  426.7
2024/05/03 15:00:50.000   28.280969895  -16.515021581  2222.7838   1   6   0.0021   0.0016   0.0326   0.0008   0.0013  -0.0069 -10.00  427.4
2024/05/03 15:00:51.000   28.280969895  -16.515021581  2222.7840   1   6   0.0021   0.0016   0.0326   0.0008   0.0013  -0.0069  -9.00  427.5
2024/05/03 15:00:52.000   28.280969895  -16.515021581  2222.7841   1   6   0.0021   0.0016   0.0326   0.0008   0.0013  -0.0069  -8.00  426.8
2024/05/03 15:00:53.000   28.280969895  -16.515021581  2222.7841   1   6   0.0021   0.0016   0.0326   0.0008   0.0013  -0.0069  -7.00  425.3
2024/05/03 15:00:54.000   28.280969895  -16.515021581  2222.7843   1   6   0.0021   0.0016   0.0327   0.0008   0.0013  -0.0069  -6.00  424.7
2024/05/03 15:00:55.000   28.280969895  -16.515021581  2222.7844   1   6   0.0021   0.0017   0.0327   0.0008   0.0013  -0.0069  -5.00  424.4
2024/05/03 15:00:56.000   28.280969895  -16.515021581  2222.7845   1   6   0.0021   0.0017   0.0327   0.0008   0.0013  -0.0069  -4.00  424.1
2024/05/03 15:00:57.000   28.280969895  -16.515021581  2222.7847   1   6   0.0021   0.0017   0.0328   0.0008   0.0013  -0.0069  -3.00  422.6
2024/05/03 15:00:58.000   28.280969894  -16.515021581  2222.7849   1   6   0.0021   0.0017   0.0328   0.0008   0.0013  -0.0069  -2.00  421.7
2024/05/03 15:00:59.000   28.280969894  -16.515021581  2222.7849   1   6   0.0021   0.0017   0.0329   0.0008   0.0013  -0.0069  -1.00  418.4
2024/05/03 15:01:00.000   28.280969894  -16.515021580  2222.7854   1   6   0.0021   0.0017   0.0330   0.0008   0.0013  -0.0069   0.00  417.2
2024/05/03 15:01:01.000   28.280969894  -16.515021581  2222.7859   1   6   0.0021   0.0017   0.0330   0.0008   0.0014  -0.0069   1.00  420.6
2024/05/03 15:01:02.000   28.280969894  -16.515021580  2222.7863   1   6   0.0022   0.0017   0.0331   0.0008   0.0014  -0.0070   2.00  421.7
2024/05/03 15:01:03.000   28.280969894  -16.515021580  2222.7868   1   6   0.0022   0.0017   0.0332   0.0008   0.0014  -0.0070   3.00  425.5
2024/05/03 15:01:04.000   28.280969894  -16.515021580  2222.7874   1   6   0.0022   0.0017   0.0332   0.0008   0.0014  -0.0070   4.00  429.9
2024/05/03 15:01:05.000   28.280969894  -16.515021580  2222.7877   1   6   0.0022   0.0017   0.0333   0.0008   0.0014  -0.0070   5.00  433.4
2024/05/03 15:01:06.000   28.280969895  -16.515021580  2222.7879   1   6   0.0022   0.0017   0.0333   0.0008   0.0014  -0.0070   6.00  433.9
2024/05/03 15:01:07.000   28.280969895  -16.515021580  2222.7882   1   6   0.0022   0.0017   0.0333   0.0008   0.0014  -0.0070   7.00  435.5
2024/05/03 15:01:08.000   28.280969895  -16.515021580  2222.7884   1   6   0.0022   0.0017   0.0334   0.0008   0.0014  -0.0070   8.00  437.4
2024/05/03 15:01:09.000   28.280969894  -16.515021580  2222.7887   1   6   0.0022   0.0017   0.0334   0.0008   0.0014  -0.0070   9.00  439.6
2024/05/03 15:01:10.000   28.280969894  -16.515021580  2222.7889   1   6   0.0022   0.0017   0.0334   0.0008   0.0014  -0.0070  10.00  440.4
2024/05/03 15:01:11.000   28.280969894  -16.515021580  2222.7889   1   6   0.0022   0.0017   0.0334   0.0008   0.0014  -0.0070  11.00  440.8
2024/05/03 15:01:12.000   28.280969894  -16.515021580  2222.7891   1   6   0.0022   0.0017   0.0334   0.0008   0.0013  -0.0070  12.00  441.6
2024/05/03 15:01:13.000   28.280969894  -16.515021580  2222.7893   1   6   0.0022   0.0017   0.0334   0.0008   0.0013  -0.0070  13.00  441.8
2024/05/03 15:01:14.000   28.280969894  -16.515021580  2222.7894   1   6   0.0022   0.0017   0.0334   0.0008   0.0013  -0.0070  14.00  441.8
2024/05/03 15:01:15.000   28.280969894  -16.515021580  2222.7895   1   6   0.0022   0.0017   0.0334   0.0008   0.0013  -0.0070  15.00  441.6
2024/05/03 15:01:16.000   28.280969894  -16.515021580  2222.7897   1   6   0.0022   0.0017   0.0334   0.0008   0.0013  -0.0070 -14.00  441.3
2024/05/03 15:01:17.000   28.280969894  -16.515021580  2222.7898   1   6   0.0022   0.0017   0.0333   0.0008   0.0013  -0.0070 -13.00  441.6
2024/05/03 15:01:18.000   28.280969894  -16.515021580  2222.7898   1   6   0.0022   0.0017   0.0333   0.0008   0.0013  -0.0070 -12.00  441.5
2024/05/03 15:01:19.000   28.280969894  -16.515021580  2222.7900   1   6   0.0022   0.0017   0.0333   0.0008   0.0013  -0.0070 -11.00  441.9
2024/05/03 15:01:20.000   28.280969894  -16.515021580  2222.7902   1   6   0.0022   0.0017   0.0333   0.0008   0.0013  -0.0070 -10.00  442.6
2024/05/03 15:01:21.000   28.280969894  -16.515021580  2222.7905   1   6   0.0022   0.0017   0.0333   0.0008   0.0013  -0.0070  -9.00  443.2
2024/05/03 15:01:22.000   28.280969894  -16.515021580  2222.7906   1   6   0.0022   0.0017   0.0333   0.0008   0.0013  -0.0070  -8.00  442.9
2024/05/03 15:01:23.000   28.280969894  -16.515021580  2222.7908   1   6   0.0022   0.0017   0.0333   0.0008   0.0013  -0.0070  -7.00  443.0
2024/05/03 15:01:24.000   28.280969894  -16.515021580  2222.7911   1   6   0.0022   0.0017   0.0334   0.0008   0.0013  -0.0070  -6.00  443.8
2024/05/03 15:01:25.000   28.280969894  -16.515021580  2222.7913   1   6   0.0022   0.0017   0.0334   0.0008   0.0013  -0.0070  -5.00  445.7
2024/05/03 15:01:26.000   28.280969894  -16.515021580  2222.7917   1   6   0.0022   0.0017   0.0334   0.0008   0.0013  -0.0070  -4.00  446.0
2024/05/03 15:01:27.000   28.280969894  -16.515021580  2222.7922   1   6   0.0022   0.0017   0.0335   0.0008   0.0013  -0.0070  -3.00  447.8
2024/05/03 15:01:28.000   28.280969893  -16.515021580  2222.7925   1   6   0.0022   0.0017   0.0335   0.0008   0.0013  -0.0070  -2.00  449.0
2024/05/03 15:01:29.000   28.280969893  -16.515021581  2222.7929   1   6   0.0022   0.0017   0.0336   0.0008   0.0013  -0.0070  -1.00  453.5
2024/05/03 15:01:30.000   28.280969893  -16.515021581  2222.7931   1   6   0.0022   0.0017   0.0337   0.0009   0.0013  -0.0070   0.00  456.2
2024/05/03 15:01:31.000   28.280969893  -16.515021581  2222.7931   1   6   0.0022   0.0017   0.0338   0.0009   0.0013  -0.0071   1.00  456.7
2024/05/03 15:01:32.000   28.280969893  -16.515021581  2222.7931   1   6   0.0022   0.0017   0.0338   0.0009   0.0013  -0.0071   2.00  457.9
2024/05/03 15:01:33.000   28.280969893  -16.515021581  2222.7931   1   6   0.0022   0.0017   0.0339   0.0009   0.0014  -0.0071   3.00  457.7
2024/05/03 15:01:34.000   28.280969893  -16.515021582  2222.7931   1   6   0.0022   0.0017   0.0340   0.0009   0.0014  -0.0071   4.00  459.1
2024/05/03 15:01:35.000   28.280969893  -16.515021582  2222.7935   1   6   0.0022   0.0017   0.0340   0.0009   0.0014  -0.0071   5.00  462.6
2024/05/03 15:01:36.000   28.280969893  -16.515021582  2222.7938   1   6   0.0022   0.0017   0.0340   0.0009   0.0014  -0.0071   6.00  463.0
2024/05/03 15:01:37.000   28.280969893  -16.515021582  2222.7940   1   6   0.0022   0.0017   0.0341   0.0009   0.0014  -0.0071   7.00  464.6
2024/05/03 15:01:38.000   28.280969893  -16.515021582  2222.7941   1   6   0.0022   0.0017   0.0341   0.0009   0.0013  -0.0071   8.00  464.9
2024/05/03 15:01:39.000   28.280969893  -16.515021582  2222.7944   1   6   0.0022   0.0017   0.0341   0.0009   0.0013  -0.0071   9.00  464.9
2024/05/03 15:01:40.000   28.280969893  -16.515021582  2222.7947   1   6   0.0022   0.0017   0.0341   0.0009   0.0013  -0.0071  10.00  463.9
2024/05/03 15:01:41.000   28.280969893  -16.515021581  2222.7947   1   6   0.0022   0.0017   0.0341   0.0009   0.0013  -0.0071  11.00  462.0
2024/05/03 15:01:42.000   28.280969893  -16.515021581  2222.7947   1   6   0.0022   0.0017   0.0341   0.0009   0.0013  -0.0071  12.00  460.8
2024/05/03 15:01:43.000   28.280969893  -16.515021581  2222.7948   1   6   0.0022   0.0017   0.0341   0.0009   0.0013  -0.0071  13.00  459.7
2024/05/03 15:01:44.000   28.280969893  -16.515021581  2222.7949   1   6   0.0022   0.0017   0.0341   0.0009   0.0013  -0.0071  14.00  458.4
2024/05/03 15:01:45.000   28.280969893  -16.515021581  2222.7949   1   6   0.0022   0.0017   0.0341   0.0009   0.0013  -0.0071  15.00  456.4
2024/05/03 15:01:46.000   28.280969892  -16.515021581  2222.7950   1   6   0.0022   0.0017   0.0341   0.0009   0.0013  -0.0071 -14.00  454.5
2024/05/03 15:01:47.000   28.280969892  -16.515021581  2222.7951   1   6   0.0022   0.0017   0.0341   0.0009   0.0013  -0.0071 -13.00  453.4
2024/05/03 15:01:48.000   28.280969892  -16.515021581  2222.7952   1   6   0.0022   0.0017   0.0341   0.0009   0.0013  -0.0071 -12.00  451.6
2024/05/03 15:01:49.000   28.280969892  -16.515021581  2222.7953   1   6   0.0022   0.0017   0.0341   0.0009   0.0013  -0.0071 -11.00  449.9
2024/05/03 15:01:50.000   28.280969892  -16.515021581  2222.7953   1   6   0.0022   0.0017   0.0341   0.0009   0.0013  -0.0071 -10.00  447.5
2024/05/03 15:01:51.000   28.280969892  -16.515021581  2222.7953   1   6   0.0022   0.0017   0.0341   0.0009   0.0013  -0.0071  -9.00  444.8
2024/05/03 15:01:52.000   28.280969892  -16.515021581  2222.7953   1   6   0.0022   0.0017   0.0341   0.0009   0.0013  -0.0071  -8.00  442.7
2024/05/03 15:01:53.000   28.280969892  -16.515021581  2222.7953   1   6   0.0022   0.0017   0.0341   0.0009   0.0013  -0.0071  -7.00  440.3
2024/05/03 15:01:54.000   28.280969892  -16.515021581  2222.7952   1   6   0.0022   0.0017   0.0341   0.0009   0.0012  -0.0071  -6.00  439.1
2024/05/03 15:01:55.000   28.280969892  -16.515021581  2222.7951   1   6   0.0022   0.0017   0.0341   0.0009   0.0012  -0.0071  -5.00  437.8
2024/05/03 15:01:56.000   28.280969892  -16.515021581  2222.7949   1   6   0.0022   0.0017   0.0341   0.0009   0.0012  -0.0071  -4.00  433.9
2024/05/03 15:01:57.000   28.280969892  -16.515021581  2222.7944   1   6   0.0022   0.0017   0.0342   0.0009   0.0012  -0.0071  -3.00  429.8
2024/05/03 15:01:58.000   28.280969892  -16.515021581  2222.7941   1   6   0.0022   0.0017   0.0342   0.0009   0.0013  -0.0071  -2.00  427.6
2024/05/03 15:01:59.000   28.280969892  -16.515021581  2222.7936   1   6   0.0022   0.0017   0.0343   0.0009   0.0013  -0.0071  -1.00  425.4
2024/05/03 15:02:00.000   28.280969890  -16.515021587  2222.7968   1   6   0.0019   0.0015   0.0290   0.0007   0.0009  -0.0061   0.00    3.7
2024/05/03 15:02:01.000   28.280969890  -16.515021587  2222.7971   1   6   0.0019   0.0015   0.0290   0.0007   0.0009  -0.0061   1.00    3.6
2024/05/03 15:02:02.000   28.280969890  -16.515021586  2222.7972   1   6   0.0019   0.0015   0.0290   0.0007   0.0008  -0.0061   2.00    3.6
2024/05/03 15:02:03.000   28.280969890  -16.515021586  2222.7972   1   6   0.0019   0.0015   0.0290   0.0007   0.0008  -0.0061   3.00    3.6
2024/05/03 15:02:04.000   28.280969890  -16.515021586  2222.7968   1   6   0.0019   0.0015   0.0290   0.0007   0.0008  -0.0061   4.00    3.6
2024/05/03 15:02:05.000   28.280969890  -16.515021586  2222.7970   1   6   0.0019   0.0015   0.0290   0.0007   0.0008  -0.0061   5.00    3.6
2024/05/03 15:02:06.000   28.280969890  -16.515021586  2222.7970   1   6   0.0019   0.0015   0.0290   0.0007   0.0008  -0.0061   6.00    3.5
2024/05/03 15:02:07.000   28.280969890  -16.515021586  2222.7972   1   6   0.0019   0.0015   0.0290   0.0007   0.0008  -0.0061   7.00    3.4
2024/05/03 15:02:08.000   28.280969890  -16.515021586  2222.7971   1   6   0.0019   0.0015   0.0290   0.0007   0.0008  -0.0061   8.00    3.4
2024/05/03 15:02:09.000   28.280969890  -16.515021586  2222.7972   1   6   0.0019   0.0015   0.0290   0.0007   0.0008  -0.0061   9.00    3.4
2024/05/03 15:02:10.000   28.280969890  -16.515021586  2222.7971   1   6   0.0019   0.0015   0.0290   0.0007   0.0008  -0.0061  10.00    3.4
2024/05/03 15:02:11.000   28.280969890  -16.515021586  2222.7971   1   6   0.0019   0.0015   0.0290   0.0007   0.0008  -0.0061  11.00    3.4
2024/05/03 15:02:12.000   28.280969890  -16.515021586  2222.7972   1   6   0.0019   0.0015   0.0290   0.0007   0.0008  -0.0061  12.00    3.4
2024/05/03 15:02:13.000   28.280969890  -16.515021586  2222.7972   1   6   0.0019   0.0015   0.0290   0.0007   0.0008  -0.0061  13.00    3.4
2024/05/03 15:02:14.000   28.280969890  -16.515021586  2222.7972   1   6   0.0019   0.0015   0.0290   0.0007   0.0008  -0.0061  14.00    3.4
2024/05/03 15:02:15.000   28.280969890  -16.515021586  2222.7972   1   6   0.0019   0.0015   0.0290   0.0007   0.0008  -0.0061 -15.00    3.4
2024/05/03 15:02:16.000   28.280969890  -16.515021586  2222.7972   1   6   0.0019   0.0015   0.0290   0.0007   0.0008  -0.0061 -14.00    3.4
2024/05/03 15:02:17.000   28.280969890  -16.515021586  2222.7972   1   6   0.0019   0.0015   0.0290   0.0007   0.0008  -0.0061 -13.00    3.4
2024/05/03 15:02:18.000   28.280969890  -16.515021586  2222.7973   1   6   0.0019   0.0015   0.0289   0.0007   0.0008  -0.0061 -12.00    3.4
2024/05/03 15:02:19.000   28.280969890  -16.515021586  2222.7973   1   6   0.0019   0.0015   0.0289   0.0007   0.0008  -0.0061 -11.00    3.4
2024/05/03 15:02:20.000   28.280969890  -16.515021586  2222.7973   1   6   0.0019   0.0015   0.0289   0.0007   0.0008  -0.0061 -10.00    7.2
2024/05/03 15:02:21.000   28.280969890  -16.515021586  2222.7974   1   6   0.0019   0.0015   0.0289   0.0007   0.0008  -0.0061  -9.00   10.9
2024/05/03 15:02:22.000   28.280969890  -16.515021586  2222.7974   1   6   0.0019   0.0015   0.0289   0.0007   0.0008  -0.0061  -8.00   14.7
2024/05/03 15:02:23.000   28.280969890  -16.515021586  2222.7974   1   6   0.0019   0.0015   0.0289   0.0007   0.0008  -0.0061  -7.00   18.3
2024/05/03 15:02:24.000   28.280969890  -16.515021586  2222.7974   1   6   0.0019   0.0015   0.0289   0.0007   0.0007  -0.0061  -6.00   22.0
2024/05/03 15:02:25.000   28.280969890  -16.515021586  2222.7973   1   6   0.0019   0.0015   0.0289   0.0007   0.0007  -0.0061  -5.00   25.5
2024/05/03 15:02:26.000   28.280969890  -16.515021586  2222.7974   1   6   0.0019   0.0015   0.0288   0.0007   0.0007  -0.0061  -4.00   29.5
2024/05/03 15:02:27.000   28.280969890  -16.515021586  2222.7976   1   6   0.0019   0.0015   0.0288   0.0007   0.0007  -0.0061  -3.00   33.1
2024/05/03 15:02:28.000   28.280969890  -16.515021586  2222.7972   1   6   0.0019   0.0015   0.0288   0.0007   0.0007  -0.0061  -2.00   36.7
2024/05/03 15:02:29.000   28.280969890  -16.515021586  2222.7972   1   6   0.0019   0.0015   0.0288   0.0007   0.0007  -0.0061  -1.00   40.5
2024/05/03 15:02:30.000   28.280969890  -16.515021586  2222.7969   1   6   0.0019   0.0015   0.0288   0.0007   0.0007  -0.0061   0.00   43.8
2024/05/03 15:02:31.000   28.280969890  -16.515021586  2222.7969   1   6   0.0019   0.0015   0.0288   0.0007   0.0007  -0.0061   1.00   47.4
2024/05/03 15:02:32.000   28.280969890  -16.515021586  2222.7970   1   6   0.0019   0.0015   0.0288   0.0007   0.0007  -0.0061   2.00   51.0
2024/05/03 15:02:33.000   28.280969890  -16.515021586  2222.7969   1   6   0.0019   0.0015   0.0288   0.0007   0.0007  -0.0061   3.00   55.1
2024/05/03 15:02:34.000   28.280969890  -16.515021586  2222.7967   1   6   0.0019   0.0015   0.0288   0.0007   0.0007  -0.0061   4.00   59.1
2024/05/03 15:02:35.000   28.280969890  -16.515021586  2222.7965   1   6   0.0019   0.0015   0.0288   0.0007   0.0007  -0.0061   5.00   62.9
2024/05/03 15:02:36.000   28.280969890  -16.515021586  2222.7964   1   6   0.0019   0.0015   0.0288   0.0007   0.0007  -0.0061   6.00   66.9
2024/05/03 15:02:37.000   28.280969890  -16.515021586  2222.7963   1   6   0.0019   0.0015   0.0288   0.0007   0.0007  -0.0061   7.00   71.3
2024/05/03 15:02:38.000   28.280969890  -16.515021586  2222.7962   1   6   0.0019   0.0015   0.0288   0.0007   0.0007  -0.0061   8.00   75.8
2024/05/03 15:02:39.000   28.280969890  -16.515021586  2222.7962   1   6   0.0019   0.0015   0.0288   0.0007   0.0006  -0.0061   9.00   80.1
2024/05/03 15:02:40.000   28.280969890  -16.515021585  2222.7962   1   6   0.0019   0.0015   0.0288   0.0007   0.0006  -0.0061  10.00   84.3
2024/05/03 15:02:41.000   28.280969890  -16.515021585  2222.7963   1   6   0.0019   0.0015   0.0288   0.0007   0.0006  -0.0061  11.00   88.6
2024/05/03 15:02:42.000   28.280969890  -16.515021585  2222.7962   1   6   0.0019   0.0015   0.0287   0.0007   0.0006  -0.0061  12.00   93.2
2024/05/03 15:02:43.000   28.280969890  -16.515021585  2222.7962   1   6   0.0019   0.0015   0.0287   0.0007   0.0006  -0.0061  13.00   97.8
2024/05/03 15:02:44.000   28.280969890  -16.515021585  2222.7961   1   6   0.0019   0.0015   0.0287   0.0007   0.0006  -0.0061  14.00  102.2
2024/05/03 15:02:45.000   28.280969890  -16.515021585  2222.7961   1   6   0.0019   0.0015   0.0287   0.0007   0.0006  -0.0061 -15.00  106.6
2024/05/03 15:02:46.000   28.280969890  -16.515021585  2222.7961   1   6   0.0019   0.0015   0.0287   0.0007   0.0006  -0.0060 -14.00  111.2
2024/05/03 15:02:47.000   28.280969890  -16.515021585  2222.7962   1   6   0.0019   0.0015   0.0287   0.0007   0.0006  -0.0060 -13.00  115.9
2024/05/03 15:02:48.000   28.280969890  -16.515021585  2222.7962   1   6   0.0019   0.0015   0.0287   0.0007   0.0006  -0.0060 -12.00  120.8
2024/05/03 15:02:49.000   28.280969890  -16.515021585  2222.7963   1   6   0.0019   0.0015   0.0287   0.0007   0.0006  -0.0060 -11.00  125.7
2024/05/03 15:02:50.000   28.280969890  -16.515021585  2222.7963   1   6   0.0019   0.0015   0.0287   0.0007   0.0006  -0.0060 -10.00  130.7
2024/05/03 15:02:51.000   28.280969890  -16.515021585  2222.7963   1   6   0.0019   0.0015   0.0287   0.0007   0.0006  -0.0060  -9.00  134.6
2024/05/03 15:02:52.000   28.280969890  -16.515021585  2222.7964   1   6   0.0019   0.0015   0.0287   0.0007   0.0006  -0.0060  -8.00  137.9
2024/05/03 15:02:53.000   28.280969890  -16.515021585  2222.7964   1   6   0.0019   0.0015   0.0287   0.0007   0.0006  -0.0060  -7.00  141.3
2024/05/03 15:02:54.000   28.280969890  -16.515021585  2222.7963   1   6   0.0019   0.0015   0.0287   0.0007   0.0006  -0.0060  -6.00  143.5
2024/05/03 15:02:55.000   28.280969890  -16.515021585  2222.7964   1   6   0.0019   0.0015   0.0286   0.0007   0.0005  -0.0060  -5.00  146.4
2024/05/03 15:02:56.000   28.280969890  -16.515021585  2222.7964   1   6   0.0019   0.0015   0.0286   0.0007   0.0005  -0.0060  -4.00  148.3
2024/05/03 15:02:57.000   28.280969890  -16.515021585  2222.7967   1   6   0.0019   0.0015   0.0286   0.0007   0.0005  -0.0060  -3.00  150.0
2024/05/03 15:02:58.000   28.280969890  -16.515021585  2222.7965   1   6   0.0019   0.0015   0.0286   0.0007   0.0005  -0.0060  -2.00  149.7
2024/05/03 15:02:59.000   28.280969890  -16.515021585  2222.7961   1   6   0.0019   0.0015   0.0286   0.0007   0.0005  -0.0060  -1.00  150.5
2024/05/03 15:03:00.000   28.280969890  -16.515021585  2222.7963   1   6   0.0019   0.0015   0.0286   0.0007   0.0005  -0.0060   0.00  153.9
2024/05/03 15:03:01.000   28.280969890  -16.515021585  2222.7964   1   6   0.0019   0.0015   0.0286   0.0007   0.0005  -0.0060   1.00  156.7
2024/05/03 15:03:02.000   28.280969890  -16.515021585  2222.7969   1   6   0.0019   0.0015   0.0286   0.0007   0.0005  -0.0060   2.00  158.0
2024/05/03 15:03:03.000   28.280969890  -16.515021585  2222.7971   1   6   0.0019   0.0015   0.0286   0.0007   0.0005  -0.0060   3.00  158.1
2024/05/03 15:03:04.000   28.280969890  -16.515021585  2222.7974   1   6   0.0019   0.0015   0.0286   0.0007   0.0004  -0.0060   4.00  158.8
2024/05/03 15:03:05.000   28.280969890  -16.515021586  2222.7975   1   6   0.0019   0.0015   0.0286   0.0007   0.0004  -0.0060   5.00  160.0
2024/05/03 15:03:06.000   28.280969890  -16.515021586  2222.7975   1   6   0.0019   0.0015   0.0286   0.0007   0.0004  -0.0060   6.00  161.2
2024/05/03 15:03:07.000   28.280969890  -16.515021586  2222.7976   1   6   0.0019   0.0015   0.0286   0.0007   0.0004  -0.0060   7.00  162.2
2024/05/03 15:03:08.000   28.280969890  -16.515021586  2222.7979   1   6   0.0019   0.0015   0.0286   0.0007   0.0004  -0.0060   8.00  163.7
2024/05/03 15:03:09.000   28.280969890  -16.515021586  2222.7980   1   6   0.0019   0.0015   0.0286   0.0007   0.0004  -0.0060   9.00  164.9
2024/05/03 15:03:10.000   28.280969890  -16.515021586  2222.7980   1   6   0.0019   0.0015   0.0286   0.0007   0.0004  -0.0060  10.00  166.9
2024/05/03 15:03:11.000   28.280969890  -16.515021586  2222.7979   1   6   0.0019   0.0015   0.0286   0.0007   0.0004  -0.0060  11.00  169.3
2024/05/03 15:03:12.000   28.280969890  -16.515021586  2222.7977   1   6   0.0019   0.0015   0.0286   0.0007   0.0003  -0.0060  12.00  171.9
2024/05/03 15:03:13.000   28.280969890  -16.515021586  2222.7976   1   6   0.0019   0.0015   0.0286   0.0007   0.0003  -0.0060  13.00  173.8
2024/05/03 15:03:14.000   28.280969890  -16.515021586  2222.7975   1   6   0.0019   0.0015   0.0286   0.0007   0.0003  -0.0060  14.00  176.3
2024/05/03 15:03:15.000   28.280969890  -16.515021586  2222.7974   1   6   0.0019   0.0015   0.0286   0.0007   0.0003  -0.0060 -15.00  178.9
2024/05/03 15:03:16.000   28.280969890  -16.515021586  2222.7973   1   6   0.0019   0.0015   0.0286   0.0007   0.0003  -0.0060 -14.00  180.2
2024/05/03 15:03:17.000   28.280969890  -16.515021586  2222.7974   1   6   0.0019   0.0015   0.0285   0.0007   0.0003  -0.0060 -13.00  181.3
2024/05/03 15:03:18.000   28.280969890  -16.515021586  2222.7974   1   6   0.0019   0.0015   0.0285   0.0007   0.0003  -0.0060 -12.00  183.2
2024/05/03 15:03:19.000   28.280969890  -16.515021586  2222.7974   1   6   0.0019   0.0015   0.0285   0.0007   0.0003  -0.0060 -11.00  185.3
2024/05/03 15:03:20.000   28.280969890  -16.515021586  2222.7974   1   6   0.0019   0.0015   0.0285   0.0007   0.0003  -0.0060 -10.00  187.9
2024/05/03 15:03:21.000   28.280969890  -16.515021586  2222.7973   1   6   0.0019   0.0015   0.0285   0.0007   0.0002  -0.0060  -9.00  190.8
2024/05/03 15:03:22.000   28.280969890  -16.515021586  2222.7973   1   6   0.0019   0.0015   0.0285   0.0007   0.0002  -0.0060  -8.00  194.7
2024/05/03 15:03:23.000   28.280969890  -16.515021586  2222.7972   1   6   0.0019   0.0015   0.0285   0.0007   0.0002  -0.0060  -7.00  198.0
2024/05/03 15:03:24.000   28.280969890  -16.515021586  2222.7971   1   6   0.0019   0.0015   0.0285   0.0007   0.0002  -0.0060  -6.00  199.4
2024/05/03 15:03:25.000   28.280969891  -16.515021586  2222.7972   1   6   0.0019   0.0015   0.0285   0.0007   0.0001  -0.0060  -5.00  203.3
2024/05/03 15:03:26.000   28.280969891  -16.515021586  2222.7970   1   6   0.0019   0.0015   0.0285   0.0007  -0.0000  -0.0060  -4.00  203.9
2024/05/03 15:03:27.000   28.280969890  -16.515021586  2222.7972   1   6   0.0019   0.0015   0.0285   0.0007  -0.0001  -0.0060  -3.00  203.7
2024/05/03 15:03:28.000   28.280969890  -16.515021586  2222.7978   1   6   0.0019   0.0015   0.0285   0.0007  -0.0002  -0.0060  -2.00  201.9
2024/05/03 15:03:29.000   28.280969890  -16.515021586  2222.7982   1   6   0.0019   0.0015   0.0285   0.0007  -0.0003  -0.0060  -1.00  202.1
2024/05/03 15:03:30.000   28.280969891  -16.515021586  2222.7982   1   6   0.0019   0.0015   0.0284   0.0007  -0.0003  -0.0060   0.00  210.1
2024/05/03 15:03:31.000   28.280969891  -16.515021586  2222.7987   1   6   0.0019   0.0015   0.0284   0.0007  -0.0003  -0.0060   1.00  211.0
2024/05/03 15:03:32.000   28.280969890  -16.515021586  2222.7991   1   6   0.0019   0.0015   0.0284   0.0007  -0.0003  -0.0060   2.00  209.0
2024/05/03 15:03:33.000   28.280969890  -16.515021587  2222.7991   1   6   0.0019   0.0015   0.0284   0.0007  -0.0003  -0.0060   3.00  210.2
2024/05/03 15:03:34.000   28.280969890  -16.515021587  2222.7993   1   6   0.0019   0.0015   0.0285   0.0007  -0.0003  -0.0060   4.00  212.1
2024/05/03 15:03:35.000   28.280969890  -16.515021587  2222.7993   1   6   0.0019   0.0015   0.0285   0.0007  -0.0003  -0.0060   5.00  214.1
2024/05/03 15:03:36.000   28.280969890  -16.515021587  2222.7991   1   6   0.0019   0.0015   0.0285   0.0007  -0.0004  -0.0060   6.00  216.6
2024/05/03 15:03:37.000   28.280969890  -16.515021587  2222.7991   1   6   0.0019   0.0015   0.0285   0.0007  -0.0004  -0.0060   7.00  219.2
2024/05/03 15:03:38.000   28.280969890  -16.515021587  2222.7992   1   6   0.0019   0.0015   0.0285   0.0007  -0.0004  -0.0060   8.00  220.4
2024/05/03 15:03:39.000   28.280969890  -16.515021587  2222.7992   1   6   0.0019   0.0015   0.0285   0.0007  -0.0004  -0.0060   9.00  222.9
2024/05/03 15:03:40.000   28.280969890  -16.515021587  2222.7992   1   6   0.0019   0.0015   0.0285   0.0007  -0.0004  -0.0060  10.00  225.0
2024/05/03 15:03:41.000   28.280969890  -16.515021587  2222.7992   1   6   0.0019   0.0015   0.0285   0.0007  -0.0004  -0.0060  11.00  227.0
2024/05/03 15:03:42.000   28.280969890  -16.515021587  2222.7992   1   6   0.0019   0.0015   0.0285   0.0007  -0.0004  -0.0060  12.00  229.2
2024/05/03 15:03:43.000   28.280969890  -16.515021587  2222.7992   1   6   0.0019   0.0015   0.0285   0.0007  -0.0004  -0.0060  13.00  231.7
2024/05/03 15:03:44.000   28.280969890  -16.515021587  2222.7992   1   6   0.0019   0.0015   0.0284   0.0007  -0.0004  -0.0060  14.00  234.2
2024/05/03 15:03:45.000   28.280969890  -16.515021587  2222.7992   1   6   0.0019   0.0015   0.0284   0.0007  -0.0004  -0.0060 -15.00  237.1
2024/05/03 15:03:46.000   28.280969890  -16.515021587  2222.7991   1   6   0.0019   0.0015   0.0284   0.0007  -0.0005  -0.0060 -14.00  239.6
2024/05/03 15:03:47.000   28.280969891  -16.515021587  2222.7989   1   6   0.0019   0.0015   0.0284   0.0007  -0.0005  -0.0060 -13.00  242.4
2024/05/03 15:03:48.000   28.280969891  -16.515021587  2222.7987   1   6   0.0019   0.0015   0.0284   0.0007  -0.0005  -0.0060 -12.00  246.0
2024/05/03 15:03:49.000   28.280969891  -16.515021587  2222.7986   1   6   0.0019   0.0015   0.0284   0.0007  -0.0005  -0.0060 -11.00  247.9
2024/05/03 15:03:50.000   28.280969891  -16.515021587  2222.7985   1   6   0.0019   0.0015   0.0284   0.0007  -0.0005  -0.0060 -10.00  250.7
2024/05/03 15:03:51.000   28.280969891  -16.515021587  2222.7983   1   6   0.0019   0.0015   0.0284   0.0007  -0.0005  -0.0060  -9.00  254.5
2024/05/03 15:03:52.000   28.280969891  -16.515021587  2222.7983   1   6   0.0019   0.0015   0.0284   0.0007  -0.0005  -0.0060  -8.00  256.6
2024/05/03 15:03:53.000   28.280969891  -16.515021587  2222.7981   1   6   0.0019   0.0015   0.0284   0.0007  -0.0005  -0.0060  -7.00  258.7
2024/05/03 15:03:54.000   28.280969891  -16.515021586  2222.7978   1   6   0.0019   0.0015   0.0284   0.0007  -0.0005  -0.0060  -6.00  259.2
2024/05/03 15:03:55.000   28.280969891  -16.515021586  2222.7975   1   6   0.0019   0.0015   0.0284   0.0007  -0.0005  -0.0060  -5.00  258.6
2024/05/03 15:03:56.000   28.280969891  -16.515021586  2222.7970   1   6   0.0019   0.0015   0.0284   0.0007  -0.0006  -0.0060  -4.00  257.2
2024/05/03 15:03:57.000   28.280969892  -16.515021585  2222.7959   1   6   0.0019   0.0015   0.0284   0.0007  -0.0006  -0.0060  -3.00  250.0
2024/05/03 15:03:58.000   28.280969892  -16.515021585  2222.7956   1   6   0.0019   0.0015   0.0284   0.0007  -0.0006  -0.0059  -2.00  244.7
2024/05/03 15:03:59.000   28.280969892  -16.515021586  2222.7963   1   6   0.0019   0.0015   0.0284   0.0007  -0.0006  -0.0059  -1.00  246.0
2024/05/03 15:04:00.000   28.280969891  -16.515021585  2222.7960   1   6   0.0019   0.0015   0.0284   0.0007  -0.0006  -0.0059   0.00  244.2
2024/05/03 15:04:01.000   28.280969892  -16.515021585  2222.7958   1   6   0.0019   0.0015   0.0284   0.0007  -0.0007  -0.0059   1.00  241.2
2024/05/03 15:04:02.000   28.280969892  -16.515021585  2222.7953   1   6   0.0019   0.0015   0.0284   0.0007  -0.0007  -0.0059   2.00  240.3
2024/05/03 15:04:03.000   28.280969892  -16.515021585  2222.7951   1   6   0.0019   0.0015   0.0284   0.0007  -0.0007  -0.0059   3.00  240.0
2024/05/03 15:04:04.000   28.280969892  -16.515021585  2222.7952   1   6   0.0019   0.0015   0.0284   0.0007  -0.0007  -0.0059   4.00  241.8
2024/05/03 15:04:05.000   28.280969892  -16.515021585  2222.7954   1   6   0.0019   0.0015   0.0284   0.0007  -0.0007  -0.0059   5.00  243.0
2024/05/03 15:04:06.000   28.280969892  -16.515021585  2222.7953   1   6   0.0019   0.0015   0.0284   0.0007  -0.0007  -0.0059   6.00  245.0
2024/05/03 15:04:07.000   28.280969892  -16.515021585  2222.7952   1   6   0.0019   0.0015   0.0284   0.0007  -0.0007  -0.0059   7.00  245.7
2024/05/03 15:04:08.000   28.280969892  -16.515021585  2222.7952   1   6   0.0019   0.0015   0.0284   0.0007  -0.0007  -0.0059   8.00  247.0
2024/05/03 15:04:09.000   28.280969891  -16.515021585  2222.7953   1   6   0.0019   0.0015   0.0284   0.0007  -0.0007  -0.0059   9.00  248.2
2024/05/03 15:04:10.000   28.280969891  -16.515021585  2222.7953   1   6   0.0019   0.0015   0.0284   0.0007  -0.0007  -0.0059  10.00  249.8
2024/05/03 15:04:11.000   28.280969892  -16.515021585  2222.7953   1   6   0.0019   0.0015   0.0284   0.0007  -0.0007  -0.0059  11.00  251.1
2024/05/03 15:04:12.000   28.280969892  -16.515021585  2222.7952   1   6   0.0019   0.0015   0.0284   0.0007  -0.0007  -0.0059  12.00  253.1
2024/05/03 15:04:13.000   28.280969892  -16.515021585  2222.7951   1   6   0.0019   0.0015   0.0284   0.0007  -0.0007  -0.0059  13.00  254.7
2024/05/03 15:04:14.000   28.280969892  -16.515021585  2222.7951   1   6   0.0019   0.0015   0.0284   0.0007  -0.0007  -0.0059  14.00  255.8
2024/05/03 15:04:15.000   28.280969892  -16.515021585  2222.7951   1   6   0.0019   0.0015   0.0284   0.0007  -0.0008  -0.0059 -15.00  257.8
2024/05/03 15:04:16.000   28.280969892  -16.515021585  2222.7951   1   6   0.0019   0.0015   0.0284   0.0007  -0.0008  -0.0059 -14.00  259.5
2024/05/03 15:04:17.000   28.280969892  -16.515021585  2222.7951   1   6   0.0019   0.0015   0.0284   0.0007  -0.0008  -0.0059 -13.00  261.3
2024/05/03 15:04:18.000   28.280969892  -16.515021585  2222.7951   1   6   0.0019   0.0015   0.0284   0.0007  -0.0008  -0.0059 -12.00  262.6
2024/05/03 15:04:19.000   28.280969892  -16.515021585  2222.7950   1   6   0.0019   0.0015   0.0284   0.0007  -0.0008  -0.0059 -11.00  263.8
2024/05/03 15:04:20.000   28.280969892  -16.515021585  2222.7948   1   6   0.0019   0.0015   0.0284   0.0007  -0.0008  -0.0059 -10.00  263.2
2024/05/03 15:04:21.000   28.280969892  -16.515021585  2222.7944   1   6   0.0019   0.0015   0.0284   0.0007  -0.0008  -0.0059  -9.00  261.2
2024/05/03 15:04:22.000   28.280969892  -16.515021585  2222.7941   1   6   0.0019   0.0015   0.0284   0.0007  -0.0008  -0.0059  -8.00  260.5
2024/05/03 15:04:23.000   28.280969892  -16.515021585  2222.7939   1   6   0.0019   0.0015   0.0284   0.0007  -0.0008  -0.0059  -7.00  261.2
2024/05/03 15:04:24.000   28.280969892  -16.515021585  2222.7937   1   6   0.0019   0.0015   0.0284   0.0007  -0.0008  -0.0059  -6.00  263.9
2024/05/03 15:04:25.000   28.280969892  -16.515021585  2222.7937   1   6   0.0019   0.0015   0.0284   0.0007  -0.0008  -0.0059  -5.00  267.5
2024/05/03 15:04:26.000   28.280969892  -16.515021584  2222.7937   1   6   0.0019   0.0015   0.0284   0.0007  -0.0008  -0.0059  -4.00  270.6
2024/05/03 15:04:27.000   28.280969892  -16.515021584  2222.7937   1   6   0.0019   0.0015   0.0284   0.0007  -0.0008  -0.0059  -3.00  273.2
2024/05/03 15:04:28.000   28.280969892  -16.515021584  2222.7932   1   6   0.0019   0.0015   0.0284   0.0007  -0.0009  -0.0059  -2.00  274.8
2024/05/03 15:04:29.000   28.280969892  -16.515021583  2222.7921   1   6   0.0019   0.0015   0.0284   0.0007  -0.0009  -0.0059  -1.00  272.3
2024/05/03 15:04:30.000   28.280969891  -16.515021581  2222.7919   1   6   0.0019   0.0015   0.0284   0.0007  -0.0009  -0.0059   0.00  271.3
2024/05/03 15:04:31.000   28.280969891  -16.515021582  2222.7925   1   6   0.0019   0.0015   0.0284   0.0007  -0.0009  -0.0059   1.00  271.6
2024/05/03 15:04:32.000   28.280969892  -16.515021582  2222.7926   1   6   0.0019   0.0015   0.0284   0.0007  -0.0010  -0.0059   2.00  275.2
2024/05/03 15:04:33.000   28.280969892  -16.515021581  2222.7921   1   6   0.0019   0.0015   0.0284   0.0007  -0.0010  -0.0059   3.00  278.8
2024/05/03 15:04:34.000   28.280969892  -16.515021581  2222.7919   1   6   0.0019   0.0015   0.0284   0.0007  -0.0010  -0.0059   4.00  280.9
2024/05/03 15:04:35.000   28.280969892  -16.515021581  2222.7916   1   6   0.0019   0.0015   0.0284   0.0007  -0.0010  -0.0059   5.00  283.3
2024/05/03 15:04:36.000   28.280969892  -16.515021580  2222.7914   1   6   0.0019   0.0015   0.0284   0.0007  -0.0010  -0.0059   6.00  285.6
2024/05/03 15:04:37.000   28.280969893  -16.515021581  2222.7914   1   6   0.0019   0.0015   0.0284   0.0007  -0.0010  -0.0059   7.00  287.8
2024/05/03 15:04:38.000   28.280969892  -16.515021581  2222.7913   1   6   0.0019   0.0015   0.0284   0.0007  -0.0010  -0.0059   8.00  290.4
2024/05/03 15:04:39.000   28.280969892  -16.515021581  2222.7912   1   6   0.0019   0.0015   0.0284   0.0007  -0.0011  -0.0059   9.00  293.5
2024/05/03 15:04:40.000   28.280969892  -16.515021581  2222.7914   1   6   0.0019   0.0015   0.0284   0.0007  -0.0011  -0.0059  10.00  297.0
2024/05/03 15:04:41.000   28.280969892  -16.515021581  2222.7917   1   6   0.0019   0.0015   0.0284   0.0007  -0.0011  -0.0059  11.00  300.4
2024/05/03 15:04:42.000   28.280969892  -16.515021581  2222.7922   1   6   0.0019   0.0015   0.0285   0.0007  -0.0011  -0.0059  12.00  303.9
2024/05/03 15:04:43.000   28.280969892  -16.515021582  2222.7926   1   6   0.0019   0.0015   0.0285   0.0007  -0.0011  -0.0059  13.00  307.5
2024/05/03 15:04:44.000   28.280969892  -16.515021582  2222.7932   1   6   0.0019   0.0015   0.0285   0.0007  -0.0011  -0.0059  14.00  310.6
2024/05/03 15:04:45.000   28.280969892  -16.515021583  2222.7940   1   6   0.0019   0.0015   0.0285   0.0007  -0.0011  -0.0059 -15.00  313.8
2024/05/03 15:04:46.000   28.280969892  -16.515021584  2222.7947   1   6   0.0019   0.0015   0.0285   0.0007  -0.0011  -0.0059 -14.00  316.7
2024/05/03 15:04:47.000   28.280969892  -16.515021585  2222.7954   1   6   0.0019   0.0015   0.0285   0.0007  -0.0011  -0.0059 -13.00  320.1
2024/05/03 15:04:48.000   28.280969892  -16.515021585  2222.7960   1   6   0.0019   0.0015   0.0285   0.0007  -0.0011  -0.0059 -12.00  323.1
2024/05/03 15:04:49.000   28.280969892  -16.515021586  2222.7967   1   6   0.0019   0.0015   0.0285   0.0007  -0.0012  -0.0059 -11.00  325.8
2024/05/03 15:04:50.000   28.280969891  -16.515021586  2222.7973   1   6   0.0019   0.0015   0.0285   0.0007  -0.0012  -0.0059 -10.00  328.5
2024/05/03 15:04:51.000   28.280969891  -16.515021587  2222.7979   1   6   0.0019   0.0015   0.0285   0.0007  -0.0012  -0.0059  -9.00  330.9
2024/05/03 15:04:52.000   28.280969891  -16.515021588  2222.7983   1   6   0.0019   0.0015   0.0284   0.0007  -0.0012  -0.0059  -8.00  332.5
2024/05/03 15:04:53.000   28.280969891  -16.515021588  2222.7989   1   6   0.0019   0.0015   0.0284   0.0007  -0.0012  -0.0059  -7.00  334.8
2024/05/03 15:04:54.000   28.280969891  -16.515021589  2222.7994   1   6   0.0019   0.0015   0.0284   0.0007  -0.0012  -0.0059  -6.00  337.2
2024/05/03 15:04:55.000   28.280969892  -16.515021590  2222.7995   1   6   0.0018   0.0015   0.0284   0.0007  -0.0012  -0.0059  -5.00  336.1
2024/05/03 15:04:56.000   28.280969892  -16.515021590  2222.7995   1   6   0.0018   0.0015   0.0284   0.0007  -0.0012  -0.0059  -4.00  334.1
2024/05/03 15:04:57.000   28.280969893  -16.515021591  2222.7996   1   6   0.0018   0.0015   0.0283   0.0007  -0.0012  -0.0059  -3.00  331.9
2024/05/03 15:04:58.000   28.280969892  -16.515021591  2222.8003   1   6   0.0018   0.0015   0.0283   0.0007  -0.0012  -0.0059  -2.00  334.6
2024/05/03 15:04:59.000   28.280969891  -16.515021591  2222.8019   1   6   0.0018   0.0015   0.0283   0.0007  -0.0012  -0.0059  -1.00  340.4
