% program   : RTKPOST-EX 2.5.0
% inp file  : C:\Users\SallyHenry\Desktop\Sally Internship\GNSS gravi\DATA\Survey Rover Obs\FA02.24o
% inp file  : C:\Users\SallyHenry\Desktop\Sally Internship\GNSS gravi\DATA\BaseStations\IZAN\IZAN00ESP_R_20241240000_01D_30S_MO.rnx
% inp file  : C:\Users\SallyHenry\Desktop\Sally Internship\GNSS gravi\DATA\BaseStations\IZAN\IZAN00ESP_R_20241240000_01D_MN.rnx
% inp file  : C:\Users\SallyHenry\Desktop\Sally Internship\GNSS gravi\DATA\aux_files\Survey\IGS0OPSFIN_20241240000_01D_15M_ORB.SP3
% inp file  : C:\Users\SallyHenry\Desktop\Sally Internship\GNSS gravi\DATA\aux_files\Survey\IGS0OPSFIN_20241240000_01D_30S_CLK.CLK
% obs start : 2024/05/03 15:15:00.0 GPST (week2312 486900.0s)
% obs end   : 2024/05/03 15:20:05.0 GPST (week2312 487205.0s)
% pos mode  : Static
% freqs     : L1+L2/E5b
% solution  : Combined-No Phase Reset
% elev mask : 15.0 deg
% dynamics  : on
% tidecorr  : solid
% ionos opt : Estimate TEC
% tropo opt : Estimate ZTD+Grad
% ephemeris : Precise
% navi sys  : GPS GLONASS Galileo QZSS BDS
% amb res   : Fix and Hold
% amb glo   : Fix and Hold
% amb bds   : on
% val thres : 3.0
% antenna1  :                       ( 0.0000  0.0000  1.8000)
% antenna2  :                       ( 0.0000  0.0000  0.0000)
% ref pos   :  28.308069410  -16.499677180  2417.4044
%
% (lat/lon/height=WGS84/ellipsoidal,Q=1:fix,2:float,3:sbas,4:dgps,5:single,6:ppp,ns=# of satellites)
%  GPST                  latitude(deg) longitude(deg)  height(m)   Q  ns   sdn(m)   sde(m)   sdu(m)  sdne(m)  sdeu(m)  sdun(m) age(s)  ratio
2024/05/03 15:15:00.000   28.281067931  -16.515194102  2223.3615   1   6   0.0024   0.0035   0.1105  -0.0021  -0.0166   0.0121   0.00  154.7
2024/05/03 15:15:01.000   28.281067936  -16.515194110  2223.3816   1   6   0.0024   0.0036   0.1117  -0.0022  -0.0169   0.0124   1.00  841.8
2024/05/03 15:15:02.000   28.281067931  -16.515194101  2223.3622   1   6   0.0024   0.0036   0.1118  -0.0022  -0.0169   0.0123   2.00   45.5
2024/05/03 15:15:03.000   28.281067935  -16.515194107  2223.3764   1   6   0.0024   0.0036   0.1129  -0.0022  -0.0172   0.0126   3.00   17.5
2024/05/03 15:15:04.000   28.281067942  -16.515194120  2223.4067   1   6   0.0024   0.0037   0.1139  -0.0023  -0.0174   0.0128   4.00  978.0
2024/05/03 15:15:05.000   28.281067945  -16.515194125  2223.4178   1   6   0.0025   0.0037   0.1145  -0.0023  -0.0176   0.0129   5.00  999.9
2024/05/03 15:15:06.000   28.281067948  -16.515194131  2223.4333   1   6   0.0025   0.0037   0.1148  -0.0023  -0.0177   0.0130   6.00   47.2
2024/05/03 15:15:07.000   28.281067947  -16.515194129  2223.4295   1   6   0.0025   0.0038   0.1153  -0.0024  -0.0178   0.0131   7.00  109.7
2024/05/03 15:15:08.000   28.281067948  -16.515194131  2223.4350   1   6   0.0025   0.0038   0.1159  -0.0024  -0.0180   0.0132   8.00  999.9
2024/05/03 15:15:09.000   28.281067948  -16.515194131  2223.4336   1   6   0.0025   0.0038   0.1160  -0.0024  -0.0180   0.0132   9.00  310.2
2024/05/03 15:15:10.000   28.281067949  -16.515194133  2223.4375   1   6   0.0025   0.0038   0.1164  -0.0024  -0.0181   0.0133  10.00   46.5
2024/05/03 15:15:11.000   28.281067949  -16.515194132  2223.4353   1   6   0.0025   0.0039   0.1168  -0.0024  -0.0182   0.0134  11.00   14.2
2024/05/03 15:15:12.000   28.281067944  -16.515194125  2223.4183   1   6   0.0025   0.0039   0.1170  -0.0025  -0.0183   0.0135  12.00   26.4
2024/05/03 15:15:13.000   28.281067946  -16.515194129  2223.4261   1   6   0.0026   0.0039   0.1173  -0.0025  -0.0184   0.0135  13.00   17.5
2024/05/03 15:15:14.000   28.281067948  -16.515194132  2223.4331   1   6   0.0026   0.0039   0.1175  -0.0025  -0.0184   0.0136  14.00  975.9
2024/05/03 15:15:15.000   28.281067948  -16.515194132  2223.4331   1   6   0.0026   0.0039   0.1176  -0.0025  -0.0185   0.0136  15.00   36.3
2024/05/03 15:15:16.000   28.281067948  -16.515194132  2223.4342   1   6   0.0026   0.0039   0.1178  -0.0025  -0.0185   0.0137 -14.00  919.8
2024/05/03 15:15:17.000   28.281067948  -16.515194132  2223.4339   1   6   0.0026   0.0039   0.1179  -0.0025  -0.0186   0.0137 -13.00   49.4
2024/05/03 15:15:18.000   28.281067949  -16.515194134  2223.4378   1   6   0.0026   0.0040   0.1182  -0.0025  -0.0186   0.0138 -12.00  913.1
2024/05/03 15:15:19.000   28.281067956  -16.515194147  2223.4683   1   6   0.0026   0.0040   0.1181  -0.0025  -0.0186   0.0137 -11.00   11.8
2024/05/03 15:15:20.000   28.281067955  -16.515194146  2223.4646   1   6   0.0026   0.0040   0.1184  -0.0025  -0.0187   0.0138 -10.00    8.5
2024/05/03 15:15:21.000   28.281067952  -16.515194140  2223.4520   1   6   0.0026   0.0040   0.1188  -0.0026  -0.0188   0.0139  -9.00    7.0
2024/05/03 15:15:22.000   28.281067947  -16.515194131  2223.4305   1   6   0.0026   0.0040   0.1192  -0.0026  -0.0189   0.0140  -8.00   22.4
2024/05/03 15:15:23.000   28.281067953  -16.515194143  2223.4582   1   6   0.0026   0.0041   0.1196  -0.0026  -0.0190   0.0141  -7.00   12.6
2024/05/03 15:15:24.000   28.281067937  -16.515194115  2223.3932   1   6   0.0026   0.0041   0.1197  -0.0026  -0.0191   0.0141  -6.00   10.8
2024/05/03 15:15:25.000   28.281067943  -16.515194125  2223.4153   1   6   0.0027   0.0041   0.1205  -0.0027  -0.0193   0.0143  -5.00    6.7
2024/05/03 15:15:26.000   28.281067954  -16.515194146  2223.4618   1   6   0.0027   0.0042   0.1212  -0.0027  -0.0195   0.0144  -4.00   93.4
2024/05/03 15:15:27.000   28.281067939  -16.515194119  2223.3978   1   6   0.0027   0.0042   0.1213  -0.0027  -0.0195   0.0144  -3.00   24.3
2024/05/03 15:15:28.000   28.281067947  -16.515194134  2223.4353   1   6   0.0027   0.0043   0.1229  -0.0028  -0.0200   0.0148  -2.00   26.7
2024/05/03 15:15:29.000   28.281067958  -16.515194154  2223.4797   1   6   0.0028   0.0044   0.1249  -0.0029  -0.0205   0.0152  -1.00  365.7
2024/05/03 15:15:30.000   28.281067948  -16.515194133  2223.4395   1   6   0.0025   0.0037   0.1171  -0.0023  -0.0177   0.0133   0.00  999.9
2024/05/03 15:15:31.000   28.281067956  -16.515194147  2223.4725   1   6   0.0025   0.0037   0.1174  -0.0023  -0.0178   0.0133   1.00   23.3
2024/05/03 15:15:32.000   28.281067961  -16.515194157  2223.4930   1   6   0.0025   0.0037   0.1182  -0.0024  -0.0180   0.0135   2.00    9.1
2024/05/03 15:15:33.000   28.281067953  -16.515194144  2223.4592   1   6   0.0025   0.0038   0.1187  -0.0024  -0.0181   0.0136   3.00  431.2
2024/05/03 15:15:34.000   28.281067956  -16.515194150  2223.4703   1   6   0.0026   0.0038   0.1198  -0.0024  -0.0184   0.0138   4.00   43.1
2024/05/03 15:15:35.000   28.281067957  -16.515194153  2223.4769   1   6   0.0026   0.0039   0.1205  -0.0025  -0.0186   0.0139   5.00   13.4
2024/05/03 15:15:36.000   28.281067951  -16.515194144  2223.4548   1   6   0.0026   0.0039   0.1213  -0.0025  -0.0188   0.0141   6.00  999.9
2024/05/03 15:15:37.000   28.281067951  -16.515194145  2223.4547   1   6   0.0026   0.0039   0.1218  -0.0025  -0.0189   0.0142   7.00  999.9
2024/05/03 15:15:38.000   28.281067950  -16.515194143  2223.4512   1   6   0.0026   0.0040   0.1220  -0.0026  -0.0190   0.0143   8.00  111.6
2024/05/03 15:15:39.000   28.281067944  -16.515194133  2223.4259   1   6   0.0026   0.0040   0.1223  -0.0026  -0.0191   0.0144   9.00    5.2
2024/05/03 15:15:40.000   28.281067950  -16.515194142  2223.4483   1   6   0.0027   0.0040   0.1228  -0.0026  -0.0192   0.0145  10.00    5.1
2024/05/03 15:15:41.000   28.281067953  -16.515194149  2223.4640   1   6   0.0027   0.0040   0.1230  -0.0026  -0.0193   0.0145  11.00  263.4
2024/05/03 15:15:42.000   28.281067954  -16.515194151  2223.4690   1   6   0.0027   0.0040   0.1235  -0.0026  -0.0194   0.0146  12.00  999.9
2024/05/03 15:15:43.000   28.281067955  -16.515194152  2223.4707   1   6   0.0027   0.0041   0.1237  -0.0026  -0.0194   0.0147  13.00  999.9
2024/05/03 15:15:44.000   28.281067953  -16.515194149  2223.4641   1   6   0.0027   0.0041   0.1237  -0.0027  -0.0195   0.0147  14.00   62.6
2024/05/03 15:15:45.000   28.281067955  -16.515194153  2223.4722   1   6   0.0027   0.0041   0.1239  -0.0027  -0.0195   0.0147  15.00  100.4
2024/05/03 15:15:46.000   28.281067956  -16.515194155  2223.4762   1   6   0.0027   0.0041   0.1242  -0.0027  -0.0196   0.0148 -14.00   91.9
2024/05/03 15:15:47.000   28.281067955  -16.515194153  2223.4719   1   6   0.0027   0.0041   0.1243  -0.0027  -0.0196   0.0148 -13.00    6.6
2024/05/03 15:15:48.000   28.281067958  -16.515194159  2223.4870   1   6   0.0027   0.0041   0.1245  -0.0027  -0.0197   0.0149 -12.00   14.6
2024/05/03 15:15:49.000   28.281067955  -16.515194154  2223.4744   1   6   0.0027   0.0041   0.1248  -0.0027  -0.0198   0.0149 -11.00   15.7
2024/05/03 15:15:50.000   28.281067958  -16.515194158  2223.4844   1   6   0.0027   0.0042   0.1251  -0.0027  -0.0199   0.0150 -10.00  999.9
2024/05/03 15:15:51.000   28.281067955  -16.515194154  2223.4758   1   6   0.0027   0.0042   0.1253  -0.0027  -0.0199   0.0150  -9.00   26.0
2024/05/03 15:15:52.000   28.281067960  -16.515194163  2223.4965   1   6   0.0028   0.0042   0.1256  -0.0028  -0.0200   0.0151  -8.00   21.0
2024/05/03 15:15:53.000   28.281067957  -16.515194157  2223.4826   1   6   0.0028   0.0042   0.1260  -0.0028  -0.0201   0.0152  -7.00   62.0
2024/05/03 15:15:54.000   28.281067957  -16.515194158  2223.4838   1   6   0.0028   0.0043   0.1265  -0.0028  -0.0203   0.0153  -6.00   56.0
2024/05/03 15:15:55.000   28.281067961  -16.515194166  2223.5025   1   6   0.0028   0.0042   0.1260  -0.0028  -0.0202   0.0152  -5.00  999.9
2024/05/03 15:15:56.000   28.281067967  -16.515194176  2223.5252   1   6   0.0028   0.0043   0.1271  -0.0029  -0.0205   0.0154  -4.00  162.9
2024/05/03 15:15:57.000   28.281067967  -16.515194177  2223.5270   1   6   0.0029   0.0044   0.1285  -0.0029  -0.0208   0.0157  -3.00   61.3
2024/05/03 15:15:58.000   28.281067941  -16.515194131  2223.4179   1   6   0.0029   0.0045   0.1295  -0.0030  -0.0211   0.0159  -2.00    3.1
2024/05/03 15:15:59.000   28.281067984  -16.515194208  2223.5984   1   6   0.0029   0.0045   0.1307  -0.0031  -0.0214   0.0162  -1.00    5.1
2024/05/03 15:16:00.000   28.281067946  -16.515194141  2223.4365   1   6   0.0026   0.0038   0.1229  -0.0024  -0.0187   0.0142   0.00   13.4
2024/05/03 15:16:01.000   28.281067974  -16.515194187  2223.5550   1   6   0.0026   0.0038   0.1228  -0.0024  -0.0186   0.0142   1.00   53.0
2024/05/03 15:16:02.000   28.281067966  -16.515194175  2223.5197   1   6   0.0026   0.0039   0.1242  -0.0025  -0.0190   0.0145   2.00   95.0
2024/05/03 15:16:03.000   28.281067964  -16.515194173  2223.5117   1   6   0.0027   0.0039   0.1255  -0.0026  -0.0193   0.0147   3.00   35.2
2024/05/03 15:16:04.000   28.281067961  -16.515194169  2223.4992   1   6   0.0027   0.0040   0.1263  -0.0026  -0.0195   0.0149   4.00   61.9
2024/05/03 15:16:05.000   28.281067957  -16.515194163  2223.4840   1   6   0.0027   0.0040   0.1273  -0.0027  -0.0197   0.0151   5.00  999.9
2024/05/03 15:16:06.000   28.281067958  -16.515194165  2223.4877   1   6   0.0027   0.0041   0.1276  -0.0027  -0.0198   0.0152   6.00   68.4
2024/05/03 15:16:07.000   28.281067957  -16.515194164  2223.4860   1   6   0.0028   0.0041   0.1280  -0.0027  -0.0199   0.0153   7.00  158.2
2024/05/03 15:16:08.000   28.281067957  -16.515194164  2223.4869   1   6   0.0028   0.0041   0.1287  -0.0027  -0.0201   0.0154   8.00   56.7
2024/05/03 15:16:09.000   28.281067963  -16.515194173  2223.5087   1   6   0.0028   0.0042   0.1291  -0.0028  -0.0202   0.0155   9.00    3.5
2024/05/03 15:16:10.000   28.281067954  -16.515194159  2223.4738   1   6   0.0028   0.0042   0.1295  -0.0028  -0.0203   0.0156  10.00    4.5
2024/05/03 15:16:11.000   28.281067958  -16.515194165  2223.4885   1   6   0.0028   0.0042   0.1299  -0.0028  -0.0205   0.0157  11.00  999.9
2024/05/03 15:16:12.000   28.281067958  -16.515194165  2223.4892   1   6   0.0028   0.0042   0.1300  -0.0028  -0.0205   0.0157  12.00  586.6
2024/05/03 15:16:13.000   28.281067958  -16.515194165  2223.4900   1   6   0.0028   0.0042   0.1304  -0.0028  -0.0206   0.0158  13.00  999.9
2024/05/03 15:16:14.000   28.281067958  -16.515194166  2223.4910   1   6   0.0028   0.0043   0.1306  -0.0028  -0.0207   0.0159  14.00  999.9
2024/05/03 15:16:15.000   28.281067960  -16.515194168  2223.4964   1   6   0.0029   0.0043   0.1306  -0.0029  -0.0207   0.0159  15.00   43.7
2024/05/03 15:16:16.000   28.281067958  -16.515194166  2223.4908   1   6   0.0029   0.0043   0.1309  -0.0029  -0.0207   0.0159 -14.00   23.3
2024/05/03 15:16:17.000   28.281067957  -16.515194164  2223.4855   1   6   0.0029   0.0043   0.1310  -0.0029  -0.0208   0.0160 -13.00  190.4
2024/05/03 15:16:18.000   28.281067959  -16.515194167  2223.4927   1   6   0.0029   0.0043   0.1313  -0.0029  -0.0209   0.0160 -12.00    4.5
2024/05/03 15:16:19.000   28.281067953  -16.515194156  2223.4681   1   6   0.0029   0.0043   0.1315  -0.0029  -0.0209   0.0161 -11.00    6.2
2024/05/03 15:16:20.000   28.281067956  -16.515194161  2223.4793   1   6   0.0029   0.0044   0.1319  -0.0029  -0.0211   0.0162 -10.00  999.9
2024/05/03 15:16:21.000   28.281067957  -16.515194164  2223.4855   1   6   0.0029   0.0044   0.1320  -0.0029  -0.0211   0.0162  -9.00   43.5
2024/05/03 15:16:22.000   28.281067952  -16.515194155  2223.4638   1   6   0.0029   0.0044   0.1324  -0.0030  -0.0212   0.0163  -8.00   17.9
2024/05/03 15:16:23.000   28.281067956  -16.515194162  2223.4796   1   6   0.0029   0.0044   0.1331  -0.0030  -0.0214   0.0164  -7.00  999.9
2024/05/03 15:16:24.000   28.281067963  -16.515194174  2223.5082   1   6   0.0029   0.0045   0.1332  -0.0030  -0.0215   0.0165  -6.00    7.9
2024/05/03 15:16:25.000   28.281067947  -16.515194148  2223.4471   1   6   0.0030   0.0045   0.1338  -0.0031  -0.0216   0.0166  -5.00    6.2
2024/05/03 15:16:26.000   28.281067952  -16.515194156  2223.4613   1   6   0.0030   0.0047   0.1347  -0.0032  -0.0221   0.0169  -4.00   68.6
2024/05/03 15:16:27.000   28.281067951  -16.515194156  2223.4595   1   6   0.0031   0.0047   0.1359  -0.0032  -0.0223   0.0171  -3.00   33.9
2024/05/03 15:16:28.000   28.281067956  -16.515194164  2223.4798   1   6   0.0032   0.0049   0.1402  -0.0034  -0.0234   0.0179  -2.00  999.9
2024/05/03 15:16:29.000   28.281068014  -16.515194262  2223.7377   1   6   0.0031   0.0048   0.1376  -0.0033  -0.0227   0.0174  -1.00    6.6
2024/05/03 15:16:30.000   28.281067991  -16.515194220  2223.6243   1   6   0.0027   0.0039   0.1286  -0.0026  -0.0196   0.0152   0.00    5.1
2024/05/03 15:16:31.000   28.281067973  -16.515194192  2223.5423   1   6   0.0028   0.0040   0.1301  -0.0026  -0.0199   0.0155   1.00    4.3
2024/05/03 15:16:32.000   28.281067952  -16.515194159  2223.4508   1   6   0.0028   0.0040   0.1310  -0.0027  -0.0201   0.0156   2.00  216.6
2024/05/03 15:16:33.000   28.281067955  -16.515194165  2223.4624   1   6   0.0028   0.0041   0.1324  -0.0028  -0.0205   0.0159   3.00  999.9
2024/05/03 15:16:34.000   28.281067953  -16.515194163  2223.4571   1   6   0.0028   0.0041   0.1326  -0.0028  -0.0205   0.0160   4.00  542.7
2024/05/03 15:16:35.000   28.281067963  -16.515194178  2223.4945   1   6   0.0029   0.0042   0.1333  -0.0028  -0.0207   0.0161   5.00    4.6
2024/05/03 15:16:36.000   28.281067953  -16.515194162  2223.4533   1   6   0.0029   0.0042   0.1343  -0.0029  -0.0210   0.0163   6.00  999.9
2024/05/03 15:16:37.000   28.281067950  -16.515194158  2223.4430   1   6   0.0029   0.0043   0.1345  -0.0029  -0.0210   0.0164   7.00   26.8
2024/05/03 15:16:38.000   28.281067952  -16.515194160  2223.4500   1   6   0.0029   0.0043   0.1350  -0.0029  -0.0212   0.0165   8.00  168.5
2024/05/03 15:16:39.000   28.281067952  -16.515194159  2223.4478   1   6   0.0029   0.0043   0.1356  -0.0029  -0.0213   0.0166   9.00  999.9
2024/05/03 15:16:40.000   28.281067952  -16.515194160  2223.4488   1   6   0.0030   0.0044   0.1359  -0.0030  -0.0214   0.0167  10.00  999.9
2024/05/03 15:16:41.000   28.281067953  -16.515194162  2223.4539   1   6   0.0030   0.0044   0.1361  -0.0030  -0.0215   0.0167  11.00   27.0
2024/05/03 15:16:42.000   28.281067950  -16.515194157  2223.4416   1   6   0.0030   0.0044   0.1364  -0.0030  -0.0216   0.0168  12.00   72.2
2024/05/03 15:16:43.000   28.281067949  -16.515194154  2223.4355   1   6   0.0030   0.0044   0.1366  -0.0030  -0.0216   0.0169  13.00    9.8
2024/05/03 15:16:44.000   28.281067952  -16.515194160  2223.4483   1   6   0.0030   0.0044   0.1368  -0.0030  -0.0217   0.0169  14.00   29.9
2024/05/03 15:16:45.000   28.281067950  -16.515194156  2223.4386   1   6   0.0030   0.0044   0.1370  -0.0030  -0.0217   0.0169  15.00   21.5
2024/05/03 15:16:46.000   28.281067950  -16.515194157  2223.4419   1   6   0.0030   0.0044   0.1369  -0.0030  -0.0217   0.0169 -14.00  328.1
2024/05/03 15:16:47.000   28.281067951  -16.515194157  2223.4429   1   6   0.0030   0.0045   0.1374  -0.0031  -0.0219   0.0170 -13.00  999.9
2024/05/03 15:16:48.000   28.281067947  -16.515194150  2223.4289   1   6   0.0033   0.0050   0.1447  -0.0035  -0.0242   0.0187 -12.00  999.9
2024/05/03 15:16:49.000   28.281067966  -16.515194183  2223.5069   1   6   0.0033   0.0050   0.1439  -0.0035  -0.0240   0.0186 -11.00    6.4
2024/05/03 15:16:50.000   28.281067963  -16.515194177  2223.4920   1   6   0.0033   0.0050   0.1441  -0.0035  -0.0240   0.0186 -10.00    6.8
2024/05/03 15:16:51.000   28.281067958  -16.515194169  2223.4735   1   6   0.0033   0.0050   0.1443  -0.0035  -0.0241   0.0186  -9.00    7.5
2024/05/03 15:16:52.000   28.281067950  -16.515194155  2223.4489   1   6   0.0033   0.0050   0.1447  -0.0035  -0.0241   0.0187  -8.00   21.6
2024/05/03 15:16:53.000   28.281067946  -16.515194149  2223.4310   1   6   0.0033   0.0050   0.1450  -0.0035  -0.0242   0.0187  -7.00  999.9
2024/05/03 15:16:54.000   28.281067946  -16.515194149  2223.4310   1   6   0.0033   0.0050   0.1441  -0.0035  -0.0240   0.0186  -6.00  999.9
2024/05/03 15:16:55.000   28.281067950  -16.515194154  2223.4468   1   6   0.0033   0.0050   0.1447  -0.0035  -0.0241   0.0187  -5.00   76.4
2024/05/03 15:16:56.000   28.281067947  -16.515194148  2223.4308   1   6   0.0033   0.0050   0.1453  -0.0035  -0.0242   0.0188  -4.00  999.9
2024/05/03 15:16:57.000   28.281067947  -16.515194148  2223.4307   1   6   0.0033   0.0050   0.1455  -0.0035  -0.0242   0.0188  -3.00  999.9
2024/05/03 15:16:58.000   28.281067928  -16.515194117  2223.3482   1   6   0.0033   0.0050   0.1446  -0.0035  -0.0240   0.0186  -2.00    8.2
2024/05/03 15:16:59.000   28.281067927  -16.515194167  2223.4051   1   6   0.0059   0.0065   0.1549   0.0028  -0.0193   0.0247  -1.00  999.9
2024/05/03 15:17:00.000   28.281067919  -16.515194177  2223.3853   1   6   0.0059   0.0051   0.1493   0.0029  -0.0151   0.0243   0.00   43.8
2024/05/03 15:17:01.000   28.281067915  -16.515194169  2223.3669   1   6   0.0059   0.0052   0.1497   0.0029  -0.0153   0.0243   1.00   14.2
2024/05/03 15:17:02.000   28.281067930  -16.515194134  2223.3421   2   6   0.0083   0.0100   0.1803   0.0045  -0.0256  -0.0071   2.00    0.0
2024/05/03 15:17:03.000   28.281067940  -16.515194216  2223.4787   1   6   0.0059   0.0053   0.1507   0.0029  -0.0158   0.0244   3.00    4.9
2024/05/03 15:17:04.000   28.281067926  -16.515194188  2223.4153   1   6   0.0059   0.0054   0.1511   0.0029  -0.0160   0.0244   4.00  438.2
2024/05/03 15:17:05.000   28.281067919  -16.515194172  2223.3792   1   6   0.0059   0.0054   0.1515   0.0028  -0.0162   0.0245   5.00    9.8
2024/05/03 15:17:06.000   28.281067926  -16.515194186  2223.4105   1   6   0.0059   0.0055   0.1522   0.0028  -0.0165   0.0245   6.00  999.9
2024/05/03 15:17:07.000   28.281067933  -16.515194202  2223.4458   1   6   0.0059   0.0055   0.1520   0.0028  -0.0164   0.0245   7.00   11.3
2024/05/03 15:17:08.000   28.281067930  -16.515194193  2223.4281   1   6   0.0059   0.0055   0.1525   0.0028  -0.0167   0.0246   8.00    9.4
2024/05/03 15:17:09.000   28.281067930  -16.515194131  2223.3315   2   6   0.0083   0.0100   0.1809   0.0045  -0.0257  -0.0070   9.00    0.0
2024/05/03 15:17:10.000   28.281067950  -16.515194154  2223.4272   1   6   0.0031   0.0044   0.1406  -0.0031  -0.0221   0.0174  10.00    3.7
2024/05/03 15:17:11.000   28.281067954  -16.515194160  2223.4426   1   6   0.0031   0.0045   0.1411  -0.0031  -0.0222   0.0175  11.00  999.9
2024/05/03 15:17:12.000   28.281067952  -16.515194157  2223.4344   1   6   0.0031   0.0045   0.1411  -0.0031  -0.0223   0.0175  12.00   21.6
2024/05/03 15:17:13.000   28.281067953  -16.515194158  2223.4391   1   6   0.0031   0.0045   0.1414  -0.0031  -0.0224   0.0176  13.00  999.9
2024/05/03 15:17:14.000   28.281067952  -16.515194157  2223.4367   1   6   0.0031   0.0045   0.1416  -0.0031  -0.0224   0.0176  14.00  999.9
2024/05/03 15:17:15.000   28.281067952  -16.515194157  2223.4379   1   6   0.0031   0.0045   0.1415  -0.0031  -0.0224   0.0176  15.00  189.1
2024/05/03 15:17:16.000   28.281067951  -16.515194155  2223.4329   1   6   0.0031   0.0045   0.1419  -0.0031  -0.0225   0.0177 -14.00  999.9
2024/05/03 15:17:17.000   28.281067951  -16.515194154  2223.4301   1   6   0.0031   0.0046   0.1420  -0.0031  -0.0226   0.0177 -13.00  999.9
2024/05/03 15:17:18.000   28.281067951  -16.515194154  2223.4316   1   6   0.0031   0.0046   0.1420  -0.0031  -0.0226   0.0177 -12.00   42.8
2024/05/03 15:17:19.000   28.281067949  -16.515194152  2223.4254   1   6   0.0031   0.0046   0.1419  -0.0032  -0.0226   0.0177 -11.00  456.1
2024/05/03 15:17:20.000   28.281067949  -16.515194150  2223.4229   1   6   0.0031   0.0046   0.1425  -0.0032  -0.0227   0.0179 -10.00  999.9
2024/05/03 15:17:21.000   28.281067948  -16.515194149  2223.4202   1   6   0.0031   0.0046   0.1428  -0.0032  -0.0228   0.0179  -9.00  999.9
2024/05/03 15:17:22.000   28.281067951  -16.515194153  2223.4311   1   6   0.0031   0.0046   0.1423  -0.0032  -0.0227   0.0178  -8.00  113.0
2024/05/03 15:17:23.000   28.281067947  -16.515194147  2223.4158   1   6   0.0032   0.0047   0.1430  -0.0032  -0.0229   0.0180  -7.00  260.4
2024/05/03 15:17:24.000   28.281067945  -16.515194144  2223.4105   1   6   0.0032   0.0047   0.1438  -0.0033  -0.0231   0.0182  -6.00  999.9
2024/05/03 15:17:25.000   28.281067945  -16.515194144  2223.4094   1   6   0.0032   0.0048   0.1443  -0.0033  -0.0233   0.0183  -5.00  999.9
2024/05/03 15:17:26.000   28.281067932  -16.515194122  2223.3121   2   6   0.0083   0.0100   0.1804   0.0045  -0.0256  -0.0070  -4.00    0.0
2024/05/03 15:17:27.000   28.281067925  -16.515194111  2223.3341   1   6   0.0032   0.0048   0.1448  -0.0034  -0.0235   0.0184  -3.00    4.8
2024/05/03 15:17:28.000   28.281067953  -16.515194152  2223.4556   1   6   0.0025   0.0039   0.1174  -0.0026  -0.0190   0.0140  -2.00    4.1
2024/05/03 15:17:29.000   28.281067951  -16.515194148  2223.4462   1   6   0.0025   0.0040   0.1184  -0.0026  -0.0192   0.0142  -1.00    4.0
2024/05/03 15:17:30.000   28.281067955  -16.515194157  2223.4607   1   6   0.0023   0.0036   0.1150  -0.0023  -0.0179   0.0132   0.00    3.9
2024/05/03 15:17:31.000   28.281067950  -16.515194147  2223.4387   1   6   0.0026   0.0041   0.1226  -0.0028  -0.0203   0.0150   1.00    3.6
2024/05/03 15:17:32.000   28.281067957  -16.515194158  2223.4668   1   6   0.0026   0.0042   0.1223  -0.0028  -0.0203   0.0149   2.00    3.2
2024/05/03 15:17:33.000   28.281067939  -16.515194137  2223.3927   1   6   0.0030   0.0044   0.1424  -0.0030  -0.0221   0.0175   3.00   50.8
2024/05/03 15:17:34.000   28.281067956  -16.515194162  2223.4673   1   6   0.0031   0.0044   0.1431  -0.0030  -0.0223   0.0176   4.00    4.8
2024/05/03 15:17:35.000   28.281067942  -16.515194140  2223.4100   1   6   0.0031   0.0045   0.1442  -0.0031  -0.0225   0.0178   5.00  999.9
2024/05/03 15:17:36.000   28.281067936  -16.515194131  2223.3872   1   6   0.0031   0.0045   0.1443  -0.0031  -0.0226   0.0179   6.00   27.0
2024/05/03 15:17:37.000   28.281067933  -16.515194126  2223.3747   1   6   0.0031   0.0045   0.1444  -0.0031  -0.0226   0.0179   7.00   21.4
2024/05/03 15:17:38.000   28.281067934  -16.515194127  2223.3825   1   6   0.0033   0.0049   0.1474  -0.0034  -0.0239   0.0188   8.00    9.1
2024/05/03 15:17:39.000   28.281067939  -16.515194136  2223.4070   1   6   0.0033   0.0049   0.1476  -0.0035  -0.0239   0.0188   9.00  174.9
2024/05/03 15:17:40.000   28.281067942  -16.515194141  2223.4181   1   6   0.0034   0.0052   0.1517  -0.0037  -0.0251   0.0197  10.00  999.9
2024/05/03 15:17:41.000   28.281067941  -16.515194140  2223.4152   1   6   0.0035   0.0052   0.1520  -0.0037  -0.0251   0.0197  11.00  999.9
2024/05/03 15:17:42.000   28.281067941  -16.515194139  2223.4134   1   6   0.0035   0.0052   0.1521  -0.0037  -0.0252   0.0198  12.00  999.9
2024/05/03 15:17:43.000   28.281067938  -16.515194134  2223.3997   1   6   0.0035   0.0052   0.1520  -0.0037  -0.0251   0.0197  13.00    7.2
2024/05/03 15:17:44.000   28.281067940  -16.515194138  2223.4091   1   6   0.0035   0.0052   0.1520  -0.0037  -0.0251   0.0197  14.00  118.6
2024/05/03 15:17:45.000   28.281067941  -16.515194139  2223.4109   1   6   0.0035   0.0052   0.1521  -0.0037  -0.0252   0.0198  15.00  999.9
2024/05/03 15:17:46.000   28.281067940  -16.515194138  2223.4087   1   6   0.0035   0.0052   0.1519  -0.0037  -0.0251   0.0197 -14.00  617.7
2024/05/03 15:17:47.000   28.281067941  -16.515194139  2223.4108   1   6   0.0035   0.0052   0.1522  -0.0037  -0.0252   0.0198 -13.00  999.9
2024/05/03 15:17:48.000   28.281067941  -16.515194139  2223.4110   1   6   0.0035   0.0052   0.1522  -0.0037  -0.0252   0.0198 -12.00  999.9
2024/05/03 15:17:49.000   28.281067932  -16.515194124  2223.3717   1   6   0.0034   0.0052   0.1515  -0.0037  -0.0250   0.0196 -11.00   23.3
2024/05/03 15:17:50.000   28.281067935  -16.515194130  2223.3877   1   6   0.0034   0.0052   0.1517  -0.0037  -0.0251   0.0197 -10.00   36.6
2024/05/03 15:17:51.000   28.281067937  -16.515194132  2223.3937   1   6   0.0035   0.0052   0.1520  -0.0037  -0.0251   0.0197  -9.00   19.0
2024/05/03 15:17:52.000   28.281067948  -16.515194150  2223.4419   1   6   0.0035   0.0052   0.1519  -0.0037  -0.0251   0.0197  -8.00    6.7
2024/05/03 15:17:53.000   28.281067941  -16.515194138  2223.4112   1   6   0.0035   0.0052   0.1523  -0.0037  -0.0252   0.0198  -7.00  999.9
2024/05/03 15:17:54.000   28.281067941  -16.515194139  2223.4116   1   6   0.0035   0.0052   0.1524  -0.0037  -0.0252   0.0198  -6.00  999.9
2024/05/03 15:17:55.000   28.281067945  -16.515194144  2223.4274   1   6   0.0034   0.0052   0.1518  -0.0037  -0.0251   0.0197  -5.00  120.3
2024/05/03 15:17:56.000   28.281067933  -16.515194116  2223.3179   2   6   0.0085   0.0102   0.1796   0.0047  -0.0257  -0.0077  -4.00    1.0
2024/05/03 15:17:57.000   28.281067987  -16.515194214  2223.6010   1   6   0.0033   0.0049   0.1480  -0.0034  -0.0239   0.0188  -3.00    3.3
2024/05/03 15:17:58.000   28.281067960  -16.515194168  2223.4869   1   6   0.0034   0.0050   0.1498  -0.0035  -0.0244   0.0192  -2.00    5.3
2024/05/03 15:17:59.000   28.281067954  -16.515194152  2223.4675   1   6   0.0025   0.0039   0.1169  -0.0025  -0.0189   0.0139  -1.00    3.1
2024/05/03 15:18:00.000   28.281067965  -16.515194177  2223.5095   1   6   0.0030   0.0043   0.1444  -0.0030  -0.0223   0.0176   0.00   35.3
2024/05/03 15:18:01.000   28.281067958  -16.515194166  2223.4762   1   6   0.0031   0.0044   0.1460  -0.0030  -0.0227   0.0179   1.00   22.5
2024/05/03 15:18:02.000   28.281067882  -16.515194044  2223.1384   1   6   0.0031   0.0044   0.1450  -0.0030  -0.0224   0.0177   2.00    3.3
2024/05/03 15:18:03.000   28.281067908  -16.515194086  2223.2559   1   6   0.0031   0.0045   0.1464  -0.0031  -0.0228   0.0180   3.00    4.5
2024/05/03 15:18:04.000   28.281067932  -16.515194124  2223.3606   1   6   0.0032   0.0046   0.1477  -0.0031  -0.0231   0.0183   4.00   10.0
2024/05/03 15:18:05.000   28.281067944  -16.515194142  2223.4114   1   6   0.0032   0.0046   0.1489  -0.0032  -0.0234   0.0185   5.00   18.6
2024/05/03 15:18:06.000   28.281067956  -16.515194162  2223.4663   1   6   0.0032   0.0047   0.1494  -0.0032  -0.0235   0.0186   6.00    9.0
2024/05/03 15:18:07.000   28.281067945  -16.515194143  2223.4161   1   6   0.0032   0.0047   0.1499  -0.0033  -0.0237   0.0187   7.00   26.2
2024/05/03 15:18:08.000   28.281067976  -16.515194194  2223.5505   1   6   0.0032   0.0047   0.1497  -0.0033  -0.0236   0.0187   8.00    4.4
2024/05/03 15:18:09.000   28.281067967  -16.515194178  2223.5083   1   6   0.0033   0.0047   0.1503  -0.0033  -0.0238   0.0188   9.00    4.1
2024/05/03 15:18:10.000   28.281067956  -16.515194160  2223.4629   1   6   0.0033   0.0048   0.1508  -0.0033  -0.0240   0.0189  10.00    4.9
2024/05/03 15:18:11.000   28.281067950  -16.515194150  2223.4351   1   6   0.0033   0.0048   0.1513  -0.0033  -0.0241   0.0190  11.00    3.5
2024/05/03 15:18:12.000   28.281067942  -16.515194137  2223.4035   1   6   0.0033   0.0048   0.1517  -0.0034  -0.0242   0.0191  12.00    3.6
2024/05/03 15:18:13.000   28.281067939  -16.515194132  2223.3911   1   6   0.0033   0.0048   0.1519  -0.0034  -0.0243   0.0192  13.00   10.1
2024/05/03 15:18:14.000   28.281067936  -16.515194127  2223.3780   1   6   0.0033   0.0049   0.1522  -0.0034  -0.0244   0.0193  14.00  999.9
2024/05/03 15:18:15.000   28.281067937  -16.515194128  2223.3827   1   6   0.0033   0.0049   0.1522  -0.0034  -0.0244   0.0193  15.00   27.8
2024/05/03 15:18:16.000   28.281067935  -16.515194126  2223.3767   1   6   0.0033   0.0049   0.1525  -0.0034  -0.0244   0.0193 -14.00  999.9
2024/05/03 15:18:17.000   28.281067937  -16.515194128  2223.3829   1   6   0.0033   0.0049   0.1525  -0.0034  -0.0245   0.0193 -13.00   21.8
2024/05/03 15:18:18.000   28.281067934  -16.515194123  2223.3700   1   6   0.0034   0.0049   0.1526  -0.0034  -0.0245   0.0194 -12.00   30.5
2024/05/03 15:18:19.000   28.281067939  -16.515194131  2223.3909   1   6   0.0034   0.0049   0.1526  -0.0034  -0.0245   0.0194 -11.00   38.4
2024/05/03 15:18:20.000   28.281067936  -16.515194126  2223.3796   1   6   0.0034   0.0050   0.1530  -0.0035  -0.0247   0.0195 -10.00   26.8
2024/05/03 15:18:21.000   28.281067928  -16.515194112  2223.3454   1   6   0.0034   0.0050   0.1533  -0.0035  -0.0247   0.0195  -9.00    4.8
2024/05/03 15:18:22.000   28.281067940  -16.515194129  2223.4035   1   6   0.0035   0.0052   0.1544  -0.0037  -0.0254   0.0200  -8.00   21.1
2024/05/03 15:18:23.000   28.281067935  -16.515194121  2223.3842   1   6   0.0035   0.0053   0.1550  -0.0037  -0.0255   0.0201  -7.00    8.6
2024/05/03 15:18:24.000   28.281067924  -16.515194103  2223.3332   1   6   0.0036   0.0055   0.1576  -0.0039  -0.0263   0.0207  -6.00  121.2
2024/05/03 15:18:25.000   28.281067922  -16.515194100  2223.3265   1   6   0.0036   0.0055   0.1583  -0.0039  -0.0265   0.0208  -5.00   31.6
2024/05/03 15:18:26.000   28.281067949  -16.515194144  2223.4431   1   6   0.0036   0.0055   0.1582  -0.0039  -0.0264   0.0208  -4.00    3.7
2024/05/03 15:18:27.000   28.281067954  -16.515194151  2223.4638   1   6   0.0036   0.0055   0.1582  -0.0039  -0.0264   0.0207  -3.00    3.1
2024/05/03 15:18:28.000   28.281067894  -16.515194052  2223.2024   1   6   0.0036   0.0055   0.1581  -0.0039  -0.0264   0.0207  -2.00    3.6
2024/05/03 15:18:29.000   28.281067926  -16.515194105  2223.3404   1   6   0.0037   0.0055   0.1597  -0.0039  -0.0267   0.0210  -1.00  999.9
2024/05/03 15:18:30.000   28.281067861  -16.515194004  2223.0403   1   6   0.0032   0.0045   0.1496  -0.0031  -0.0233   0.0184   0.00    4.8
2024/05/03 15:18:31.000   28.281067889  -16.515194049  2223.1682   1   6   0.0032   0.0046   0.1513  -0.0032  -0.0237   0.0187   1.00    6.1
2024/05/03 15:18:32.000   28.281067918  -16.515194095  2223.3001   1   6   0.0033   0.0047   0.1531  -0.0033  -0.0241   0.0191   2.00   17.5
2024/05/03 15:18:33.000   28.281067946  -16.515194139  2223.4253   1   6   0.0033   0.0048   0.1539  -0.0033  -0.0243   0.0192   3.00    9.5
2024/05/03 15:18:34.000   28.281067930  -16.515194114  2223.3555   1   6   0.0033   0.0049   0.1554  -0.0034  -0.0247   0.0195   4.00  999.9
2024/05/03 15:18:35.000   28.281067924  -16.515194096  2223.3277   1   6   0.0026   0.0042   0.1238  -0.0028  -0.0207   0.0153   5.00    3.2
2024/05/03 15:18:36.000   28.281067923  -16.515194095  2223.3224   1   6   0.0027   0.0043   0.1255  -0.0029  -0.0210   0.0156   6.00    4.1
2024/05/03 15:18:37.000   28.281067928  -16.515194103  2223.3431   1   6   0.0027   0.0043   0.1256  -0.0029  -0.0211   0.0156   7.00    4.2
2024/05/03 15:18:38.000   28.281067926  -16.515194099  2223.3319   1   6   0.0027   0.0043   0.1256  -0.0029  -0.0211   0.0156   8.00    4.2
2024/05/03 15:18:39.000   28.281067930  -16.515194107  2223.3512   1   6   0.0027   0.0043   0.1258  -0.0029  -0.0211   0.0157   9.00    4.2
2024/05/03 15:18:40.000   28.281067935  -16.515194115  2223.3695   1   6   0.0027   0.0043   0.1258  -0.0029  -0.0211   0.0157  10.00    4.2
2024/05/03 15:18:41.000   28.281067934  -16.515194115  2223.3683   1   6   0.0027   0.0043   0.1260  -0.0029  -0.0212   0.0157  11.00    4.1
2024/05/03 15:18:42.000   28.281067934  -16.515194114  2223.3663   1   6   0.0027   0.0042   0.1245  -0.0028  -0.0208   0.0154  12.00    4.3
2024/05/03 15:18:43.000   28.281067935  -16.515194116  2223.3721   1   6   0.0027   0.0042   0.1251  -0.0029  -0.0210   0.0156  13.00    3.1
2024/05/03 15:18:44.000   28.281067936  -16.515194118  2223.3755   1   6   0.0027   0.0043   0.1260  -0.0029  -0.0212   0.0157  14.00    4.2
2024/05/03 15:18:45.000   28.281067933  -16.515194112  2223.3620   1   6   0.0027   0.0043   0.1261  -0.0029  -0.0212   0.0157 -15.00    4.2
2024/05/03 15:18:46.000   28.281067934  -16.515194114  2223.3670   1   6   0.0027   0.0043   0.1252  -0.0029  -0.0210   0.0156 -14.00    3.4
2024/05/03 15:18:47.000   28.281067934  -16.515194114  2223.3659   1   6   0.0027   0.0042   0.1249  -0.0029  -0.0209   0.0155 -13.00    3.7
2024/05/03 15:18:48.000   28.281067932  -16.515194111  2223.3595   1   6   0.0027   0.0043   0.1261  -0.0029  -0.0212   0.0158 -12.00    4.3
2024/05/03 15:18:49.000   28.281067935  -16.515194116  2223.3727   1   6   0.0027   0.0043   0.1261  -0.0029  -0.0212   0.0158 -11.00    4.3
2024/05/03 15:18:50.000   28.281067935  -16.515194116  2223.3722   1   6   0.0027   0.0043   0.1261  -0.0029  -0.0212   0.0158 -10.00    4.3
2024/05/03 15:18:51.000   28.281067935  -16.515194116  2223.3729   1   6   0.0027   0.0043   0.1261  -0.0029  -0.0212   0.0158  -9.00    4.4
2024/05/03 15:18:52.000   28.281067935  -16.515194116  2223.3724   1   6   0.0027   0.0042   0.1246  -0.0029  -0.0209   0.0155  -8.00    3.5
2024/05/03 15:18:53.000   28.281067931  -16.515194109  2223.3537   1   6   0.0027   0.0043   0.1257  -0.0029  -0.0211   0.0157  -7.00    4.4
2024/05/03 15:18:54.000   28.281067941  -16.515194127  2223.3969   1   6   0.0027   0.0043   0.1257  -0.0029  -0.0211   0.0157  -6.00    4.3
2024/05/03 15:18:55.000   28.281067938  -16.515194121  2223.3828   1   6   0.0027   0.0042   0.1241  -0.0028  -0.0207   0.0154  -5.00   18.5
2024/05/03 15:18:56.000   28.281067912  -16.515194075  2223.2699   1   6   0.0026   0.0042   0.1236  -0.0028  -0.0206   0.0153  -4.00   40.3
2024/05/03 15:18:57.000   28.281067924  -16.515194096  2223.3222   1   6   0.0027   0.0042   0.1240  -0.0028  -0.0207   0.0154  -3.00   59.1
2024/05/03 15:18:58.000   28.281067935  -16.515194115  2223.3721   1   6   0.0026   0.0042   0.1230  -0.0028  -0.0205   0.0152  -2.00   79.7
2024/05/03 15:18:59.000   28.281067913  -16.515194077  2223.2735   1   6   0.0026   0.0041   0.1224  -0.0028  -0.0204   0.0151  -1.00    8.6
2024/05/03 15:19:00.000   28.281067915  -16.515194080  2223.2789   1   6   0.0025   0.0038   0.1201  -0.0025  -0.0194   0.0144   0.00    7.2
2024/05/03 15:19:01.000   28.281067952  -16.515194145  2223.4577   1   6   0.0027   0.0043   0.1252  -0.0029  -0.0211   0.0157   1.00    6.3
2024/05/03 15:19:02.000   28.281067916  -16.515194079  2223.2916   1   6   0.0027   0.0043   0.1253  -0.0029  -0.0211   0.0157   2.00   15.9
2024/05/03 15:19:03.000   28.281067941  -16.515194125  2223.4097   1   6   0.0027   0.0043   0.1253  -0.0029  -0.0211   0.0157   3.00    5.8
2024/05/03 15:19:04.000   28.281067947  -16.515194136  2223.4364   1   6   0.0027   0.0043   0.1255  -0.0029  -0.0211   0.0157   4.00    5.1
2024/05/03 15:19:05.000   28.281067957  -16.515194154  2223.4849   1   6   0.0027   0.0043   0.1250  -0.0029  -0.0210   0.0156   5.00    3.8
2024/05/03 15:19:06.000   28.281067938  -16.515194120  2223.3945   1   6   0.0027   0.0043   0.1259  -0.0029  -0.0212   0.0158   6.00   40.8
2024/05/03 15:19:07.000   28.281067932  -16.515194109  2223.3677   1   6   0.0027   0.0043   0.1266  -0.0029  -0.0214   0.0159   7.00  275.0
2024/05/03 15:19:08.000   28.281067938  -16.515194119  2223.3926   1   6   0.0027   0.0043   0.1261  -0.0029  -0.0213   0.0158   8.00   10.6
2024/05/03 15:19:09.000   28.281067927  -16.515194100  2223.3438   1   6   0.0027   0.0043   0.1262  -0.0029  -0.0213   0.0158   9.00    7.5
2024/05/03 15:19:10.000   28.281067939  -16.515194122  2223.3977   1   6   0.0027   0.0043   0.1260  -0.0029  -0.0213   0.0158  10.00   28.0
2024/05/03 15:19:11.000   28.281067939  -16.515194121  2223.3965   1   6   0.0027   0.0043   0.1260  -0.0029  -0.0213   0.0158  11.00   32.8
2024/05/03 15:19:12.000   28.281067939  -16.515194121  2223.3957   1   6   0.0027   0.0043   0.1260  -0.0029  -0.0213   0.0158  12.00   27.4
2024/05/03 15:19:13.000   28.281067937  -16.515194118  2223.3889   1   6   0.0027   0.0043   0.1260  -0.0029  -0.0213   0.0158  13.00   27.7
2024/05/03 15:19:14.000   28.281067930  -16.515194105  2223.3570   1   6   0.0027   0.0043   0.1264  -0.0029  -0.0214   0.0159  14.00  421.5
2024/05/03 15:19:15.000   28.281067930  -16.515194105  2223.3573   1   6   0.0027   0.0043   0.1266  -0.0030  -0.0214   0.0159 -15.00  465.9
2024/05/03 15:19:16.000   28.281067930  -16.515194106  2223.3592   1   6   0.0027   0.0043   0.1263  -0.0029  -0.0214   0.0159 -14.00  181.7
2024/05/03 15:19:17.000   28.281067931  -16.515194106  2223.3606   1   6   0.0027   0.0043   0.1263  -0.0029  -0.0213   0.0159 -13.00   77.6
2024/05/03 15:19:18.000   28.281067927  -16.515194100  2223.3435   1   6   0.0027   0.0043   0.1262  -0.0029  -0.0213   0.0159 -12.00    4.5
2024/05/03 15:19:19.000   28.281067931  -16.515194107  2223.3611   1   6   0.0027   0.0043   0.1261  -0.0029  -0.0213   0.0158 -11.00   81.7
2024/05/03 15:19:20.000   28.281067925  -16.515194095  2223.3323   1   6   0.0027   0.0043   0.1260  -0.0029  -0.0213   0.0158 -10.00    4.5
2024/05/03 15:19:21.000   28.281067923  -16.515194093  2223.3259   1   6   0.0027   0.0043   0.1259  -0.0029  -0.0213   0.0158  -9.00    5.2
2024/05/03 15:19:22.000   28.281067938  -16.515194119  2223.3914   1   6   0.0027   0.0043   0.1258  -0.0029  -0.0212   0.0158  -8.00    6.9
2024/05/03 15:19:23.000   28.281067932  -16.515194109  2223.3648   1   6   0.0027   0.0043   0.1253  -0.0029  -0.0211   0.0157  -7.00  212.8
2024/05/03 15:19:24.000   28.281067931  -16.515194107  2223.3605   1   6   0.0027   0.0043   0.1252  -0.0029  -0.0211   0.0157  -6.00  593.6
2024/05/03 15:19:25.000   28.281067929  -16.515194103  2223.3534   1   6   0.0027   0.0043   0.1260  -0.0029  -0.0213   0.0158  -5.00  991.4
2024/05/03 15:19:26.000   28.281067930  -16.515194106  2223.3583   1   6   0.0027   0.0043   0.1260  -0.0029  -0.0213   0.0158  -4.00  999.9
2024/05/03 15:19:27.000   28.281067930  -16.515194104  2223.3564   1   6   0.0027   0.0043   0.1246  -0.0029  -0.0210   0.0156  -3.00  684.7
2024/05/03 15:19:28.000   28.281067926  -16.515194097  2223.3437   1   6   0.0027   0.0043   0.1248  -0.0029  -0.0210   0.0156  -2.00  999.9
2024/05/03 15:19:29.000   28.281067931  -16.515194108  2223.3736   1   6   0.0027   0.0043   0.1258  -0.0029  -0.0213   0.0158  -1.00  999.9
2024/05/03 15:19:30.000   28.281067924  -16.515194096  2223.3564   1   6   0.0025   0.0039   0.1225  -0.0026  -0.0201   0.0149   0.00  480.1
2024/05/03 15:19:31.000   28.281067900  -16.515194053  2223.2369   1   6   0.0027   0.0043   0.1251  -0.0029  -0.0212   0.0157   1.00    4.7
2024/05/03 15:19:32.000   28.281067932  -16.515194110  2223.3899   1   6   0.0027   0.0043   0.1252  -0.0029  -0.0212   0.0157   2.00  705.0
2024/05/03 15:19:33.000   28.281067934  -16.515194113  2223.3974   1   6   0.0027   0.0044   0.1267  -0.0030  -0.0215   0.0160   3.00  773.2
2024/05/03 15:19:34.000   28.281067935  -16.515194115  2223.4022   1   6   0.0027   0.0044   0.1267  -0.0030  -0.0215   0.0160   4.00  858.2
2024/05/03 15:19:35.000   28.281067945  -16.515194134  2223.4502   1   6   0.0027   0.0043   0.1263  -0.0030  -0.0214   0.0159   5.00  840.9
2024/05/03 15:19:36.000   28.281067947  -16.515194137  2223.4582   1   6   0.0027   0.0043   0.1260  -0.0029  -0.0214   0.0159   6.00    7.6
2024/05/03 15:19:37.000   28.281067923  -16.515194092  2223.3453   1   6   0.0027   0.0043   0.1262  -0.0029  -0.0214   0.0159   7.00    3.9
2024/05/03 15:19:38.000   28.281067931  -16.515194108  2223.3836   1   6   0.0027   0.0043   0.1263  -0.0030  -0.0214   0.0159   8.00   30.4
2024/05/03 15:19:39.000   28.281067947  -16.515194137  2223.4571   1   6   0.0027   0.0043   0.1261  -0.0029  -0.0214   0.0159   9.00  937.7
2024/05/03 15:19:40.000   28.281067941  -16.515194126  2223.4298   1   6   0.0027   0.0043   0.1263  -0.0030  -0.0214   0.0159  10.00  974.7
2024/05/03 15:19:41.000   28.281067937  -16.515194118  2223.4106   1   6   0.0027   0.0043   0.1262  -0.0029  -0.0214   0.0159  11.00  423.4
2024/05/03 15:19:42.000   28.281067934  -16.515194113  2223.3977   1   6   0.0027   0.0043   0.1263  -0.0030  -0.0214   0.0159  12.00  569.3
2024/05/03 15:19:43.000   28.281067947  -16.515194138  2223.4593   1   6   0.0027   0.0043   0.1260  -0.0029  -0.0214   0.0159  13.00    6.8
2024/05/03 15:19:44.000   28.281067947  -16.515194138  2223.4597   1   6   0.0027   0.0043   0.1260  -0.0029  -0.0214   0.0159  14.00   10.3
2024/05/03 15:19:45.000   28.281067933  -16.515194112  2223.3934   1   6   0.0027   0.0044   0.1269  -0.0030  -0.0216   0.0160 -15.00  999.9
2024/05/03 15:19:46.000   28.281067933  -16.515194112  2223.3930   1   6   0.0027   0.0044   0.1268  -0.0030  -0.0216   0.0160 -14.00  999.9
2024/05/03 15:19:47.000   28.281067931  -16.515194107  2223.3806   1   6   0.0027   0.0044   0.1265  -0.0030  -0.0215   0.0160 -13.00   12.9
2024/05/03 15:19:48.000   28.281067931  -16.515194108  2223.3829   1   6   0.0027   0.0044   0.1265  -0.0030  -0.0215   0.0160 -12.00   40.5
2024/05/03 15:19:49.000   28.281067937  -16.515194118  2223.4081   1   6   0.0027   0.0044   0.1265  -0.0030  -0.0215   0.0160 -11.00   16.0
2024/05/03 15:19:50.000   28.281067932  -16.515194109  2223.3857   1   6   0.0027   0.0044   0.1267  -0.0030  -0.0216   0.0160 -10.00  999.9
2024/05/03 15:19:51.000   28.281067920  -16.515194087  2223.3317   1   6   0.0027   0.0043   0.1260  -0.0029  -0.0214   0.0159  -9.00    5.5
2024/05/03 15:19:52.000   28.281067921  -16.515194088  2223.3314   1   6   0.0027   0.0043   0.1259  -0.0029  -0.0214   0.0159  -8.00   10.5
2024/05/03 15:19:53.000   28.281067930  -16.515194104  2223.3733   1   6   0.0027   0.0044   0.1265  -0.0030  -0.0215   0.0160  -7.00  999.9
2024/05/03 15:19:54.000   28.281067928  -16.515194100  2223.3627   1   6   0.0027   0.0043   0.1257  -0.0029  -0.0213   0.0158  -6.00   88.8
2024/05/03 15:19:55.000   28.281067950  -16.515194142  2223.4681   1   6   0.0027   0.0043   0.1255  -0.0029  -0.0213   0.0158  -5.00    5.3
2024/05/03 15:19:56.000   28.281067918  -16.515194083  2223.3171   1   6   0.0027   0.0043   0.1245  -0.0029  -0.0210   0.0156  -4.00   25.6
2024/05/03 15:19:57.000   28.281067920  -16.515194085  2223.3203   1   6   0.0027   0.0043   0.1244  -0.0029  -0.0210   0.0156  -3.00   48.9
2024/05/03 15:19:58.000   28.281067942  -16.515194126  2223.4266   1   6   0.0027   0.0043   0.1245  -0.0029  -0.0211   0.0156  -2.00   54.8
2024/05/03 15:19:59.000   28.281067917  -16.515194081  2223.3087   1   6   0.0027   0.0043   0.1243  -0.0029  -0.0210   0.0156  -1.00   45.3
2024/05/03 15:20:00.000   28.281067949  -16.515194139  2223.4727   1   6   0.0027   0.0043   0.1250  -0.0029  -0.0211   0.0157   0.00    3.5
2024/05/03 15:20:01.000   28.281067915  -16.515194069  2223.3091   1   6   0.0041   0.0067   0.1817  -0.0047  -0.0320   0.0239   1.00  131.0
2024/05/03 15:20:02.000   28.281067993  -16.515194218  2223.6619   1   6   0.0028   0.0046   0.1245  -0.0032  -0.0218   0.0160   2.00   18.5
2024/05/03 15:20:03.000   28.281067991  -16.515194213  2223.6615   1   6   0.0028   0.0046   0.1246  -0.0031  -0.0218   0.0160   3.00    8.6
2024/05/03 15:20:04.000   28.281068001  -16.515194236  2223.6919   1   6   0.0028   0.0047   0.1250  -0.0032  -0.0219   0.0161   4.00    7.9
2024/05/03 15:20:05.000   28.281068003  -16.515194241  2223.6971   1   6   0.0028   0.0045   0.1236  -0.0030  -0.0214   0.0157   5.00   10.8
