% program   : RTKPOST-EX 2.5.0
% inp file  : C:\Users\SallyHenry\Desktop\Sally Internship\GNSS gravi\DATA\Survey Rover Obs\FA03.24o
% inp file  : C:\Users\SallyHenry\Desktop\Sally Internship\GNSS gravi\DATA\BaseStations\IZAN\IZAN00ESP_R_20241240000_01D_30S_MO.rnx
% inp file  : C:\Users\SallyHenry\Desktop\Sally Internship\GNSS gravi\DATA\BaseStations\IZAN\IZAN00ESP_R_20241240000_01D_MN.rnx
% inp file  : C:\Users\SallyHenry\Desktop\Sally Internship\GNSS gravi\DATA\aux_files\Survey\IGS0OPSFIN_20241240000_01D_15M_ORB.SP3
% inp file  : C:\Users\SallyHenry\Desktop\Sally Internship\GNSS gravi\DATA\aux_files\Survey\IGS0OPSFIN_20241240000_01D_30S_CLK.CLK
% obs start : 2024/05/03 15:33:11.0 GPST (week2312 487991.0s)
% obs end   : 2024/05/03 15:38:16.0 GPST (week2312 488296.0s)
% pos mode  : Static
% freqs     : L1+L2/E5b
% solution  : Combined-No Phase Reset
% elev mask : 15.0 deg
% dynamics  : on
% tidecorr  : solid
% ionos opt : Estimate TEC
% tropo opt : Estimate ZTD+Grad
% ephemeris : Precise
% navi sys  : GPS GLONASS Galileo QZSS BDS
% amb res   : Fix and Hold
% amb glo   : Fix and Hold
% amb bds   : on
% val thres : 3.0
% antenna1  :                       ( 0.0000  0.0000  1.8000)
% antenna2  :                       ( 0.0000  0.0000  0.0000)
% ref pos   :  28.308069410  -16.499677180  2417.4044
%
% (lat/lon/height=WGS84/ellipsoidal,Q=1:fix,2:float,3:sbas,4:dgps,5:single,6:ppp,ns=# of satellites)
%  GPST                  latitude(deg) longitude(deg)  height(m)   Q  ns   sdn(m)   sde(m)   sdu(m)  sdne(m)  sdeu(m)  sdun(m) age(s)  ratio
2024/05/03 15:33:11.000   28.281120941  -16.515308496  2223.8862   1   7   0.0019   0.0019   0.0139  -0.0004  -0.0024   0.0033  11.00  113.0
2024/05/03 15:33:12.000   28.281120941  -16.515308496  2223.8861   1   7   0.0019   0.0019   0.0139  -0.0004  -0.0024   0.0033  12.00  109.5
2024/05/03 15:33:13.000   28.281120941  -16.515308496  2223.8861   1   7   0.0019   0.0019   0.0139  -0.0004  -0.0024   0.0033  13.00  106.3
2024/05/03 15:33:14.000   28.281120942  -16.515308496  2223.8860   1   7   0.0019   0.0019   0.0139  -0.0004  -0.0024   0.0033  14.00  103.5
2024/05/03 15:33:15.000   28.281120942  -16.515308496  2223.8860   1   7   0.0019   0.0019   0.0139  -0.0004  -0.0024   0.0033  15.00  101.3
2024/05/03 15:33:16.000   28.281120942  -16.515308496  2223.8861   1   7   0.0019   0.0019   0.0139  -0.0004  -0.0024   0.0033 -14.00   99.4
2024/05/03 15:33:17.000   28.281120942  -16.515308496  2223.8862   1   7   0.0019   0.0019   0.0139  -0.0004  -0.0024   0.0033 -13.00   97.2
2024/05/03 15:33:18.000   28.281120942  -16.515308496  2223.8861   1   7   0.0019   0.0019   0.0139  -0.0004  -0.0024   0.0033 -12.00   94.5
2024/05/03 15:33:19.000   28.281120942  -16.515308496  2223.8861   1   7   0.0019   0.0019   0.0139  -0.0004  -0.0024   0.0033 -11.00   91.5
2024/05/03 15:33:20.000   28.281120943  -16.515308496  2223.8861   1   7   0.0019   0.0019   0.0139  -0.0004  -0.0024   0.0033 -10.00   88.2
2024/05/03 15:33:21.000   28.281120943  -16.515308497  2223.8861   1   7   0.0019   0.0019   0.0139  -0.0004  -0.0024   0.0033  -9.00   84.5
2024/05/03 15:33:22.000   28.281120943  -16.515308497  2223.8861   1   7   0.0019   0.0019   0.0139  -0.0004  -0.0024   0.0033  -8.00   80.4
2024/05/03 15:33:23.000   28.281120943  -16.515308497  2223.8861   1   7   0.0019   0.0019   0.0139  -0.0004  -0.0024   0.0033  -7.00   75.5
2024/05/03 15:33:24.000   28.281120943  -16.515308497  2223.8862   1   7   0.0019   0.0019   0.0139  -0.0005  -0.0024   0.0033  -6.00   69.1
2024/05/03 15:33:25.000   28.281120944  -16.515308497  2223.8863   1   7   0.0019   0.0019   0.0139  -0.0005  -0.0024   0.0033  -5.00   61.6
2024/05/03 15:33:26.000   28.281120944  -16.515308497  2223.8865   1   7   0.0019   0.0019   0.0139  -0.0005  -0.0024   0.0033  -4.00   53.2
2024/05/03 15:33:27.000   28.281120945  -16.515308497  2223.8867   1   7   0.0019   0.0019   0.0139  -0.0005  -0.0024   0.0033  -3.00   43.5
2024/05/03 15:33:28.000   28.281120945  -16.515308498  2223.8869   1   7   0.0019   0.0019   0.0139  -0.0005  -0.0024   0.0034  -2.00   31.7
2024/05/03 15:33:29.000   28.281120946  -16.515308498  2223.8870   1   7   0.0020   0.0019   0.0140  -0.0005  -0.0024   0.0034  -1.00   17.7
2024/05/03 15:33:30.000   28.281120939  -16.515308492  2223.8835   1   7   0.0019   0.0019   0.0139  -0.0004  -0.0023   0.0033   0.00  103.0
2024/05/03 15:33:31.000   28.281120939  -16.515308492  2223.8834   1   7   0.0019   0.0019   0.0139  -0.0004  -0.0023   0.0033   1.00  101.4
2024/05/03 15:33:32.000   28.281120939  -16.515308492  2223.8834   1   7   0.0019   0.0019   0.0139  -0.0004  -0.0023   0.0033   2.00  100.9
2024/05/03 15:33:33.000   28.281120940  -16.515308492  2223.8836   1   7   0.0019   0.0019   0.0140  -0.0004  -0.0023   0.0033   3.00  101.3
2024/05/03 15:33:34.000   28.281120940  -16.515308493  2223.8837   1   7   0.0019   0.0019   0.0140  -0.0004  -0.0024   0.0033   4.00  101.0
2024/05/03 15:33:35.000   28.281120940  -16.515308493  2223.8838   1   7   0.0020   0.0019   0.0140  -0.0004  -0.0024   0.0033   5.00   99.3
2024/05/03 15:33:36.000   28.281120940  -16.515308493  2223.8838   1   7   0.0020   0.0019   0.0140  -0.0004  -0.0024   0.0033   6.00   98.3
2024/05/03 15:33:37.000   28.281120940  -16.515308493  2223.8838   1   7   0.0020   0.0019   0.0140  -0.0004  -0.0024   0.0033   7.00   96.6
2024/05/03 15:33:38.000   28.281120941  -16.515308494  2223.8839   1   7   0.0020   0.0019   0.0141  -0.0004  -0.0024   0.0033   8.00   94.5
2024/05/03 15:33:39.000   28.281120941  -16.515308494  2223.8839   1   7   0.0020   0.0019   0.0141  -0.0004  -0.0024   0.0034   9.00   91.2
2024/05/03 15:33:40.000   28.281120941  -16.515308494  2223.8839   1   7   0.0020   0.0019   0.0141  -0.0004  -0.0024   0.0034  10.00   88.2
2024/05/03 15:33:41.000   28.281120941  -16.515308494  2223.8840   1   7   0.0020   0.0019   0.0141  -0.0004  -0.0024   0.0034  11.00   86.0
2024/05/03 15:33:42.000   28.281120941  -16.515308494  2223.8841   1   7   0.0020   0.0019   0.0141  -0.0004  -0.0024   0.0034  12.00   83.8
2024/05/03 15:33:43.000   28.281120941  -16.515308494  2223.8841   1   7   0.0020   0.0019   0.0141  -0.0004  -0.0024   0.0034  13.00   81.8
2024/05/03 15:33:44.000   28.281120941  -16.515308494  2223.8842   1   7   0.0020   0.0019   0.0141  -0.0004  -0.0024   0.0034  14.00   80.1
2024/05/03 15:33:45.000   28.281120941  -16.515308495  2223.8843   1   7   0.0020   0.0019   0.0141  -0.0004  -0.0024   0.0034  15.00   78.4
2024/05/03 15:33:46.000   28.281120941  -16.515308495  2223.8844   1   7   0.0020   0.0019   0.0141  -0.0004  -0.0024   0.0034 -14.00   76.9
2024/05/03 15:33:47.000   28.281120942  -16.515308495  2223.8844   1   7   0.0020   0.0019   0.0141  -0.0004  -0.0024   0.0034 -13.00   75.0
2024/05/03 15:33:48.000   28.281120942  -16.515308495  2223.8845   1   7   0.0020   0.0019   0.0141  -0.0004  -0.0024   0.0034 -12.00   73.4
2024/05/03 15:33:49.000   28.281120942  -16.515308495  2223.8846   1   7   0.0020   0.0019   0.0141  -0.0004  -0.0024   0.0034 -11.00   71.0
2024/05/03 15:33:50.000   28.281120942  -16.515308496  2223.8847   1   7   0.0020   0.0019   0.0141  -0.0004  -0.0024   0.0034 -10.00   69.3
2024/05/03 15:33:51.000   28.281120942  -16.515308496  2223.8848   1   7   0.0020   0.0019   0.0141  -0.0004  -0.0024   0.0034  -9.00   67.4
2024/05/03 15:33:52.000   28.281120943  -16.515308496  2223.8849   1   7   0.0020   0.0019   0.0141  -0.0004  -0.0024   0.0034  -8.00   64.6
2024/05/03 15:33:53.000   28.281120943  -16.515308497  2223.8850   1   7   0.0020   0.0019   0.0141  -0.0005  -0.0024   0.0034  -7.00   60.3
2024/05/03 15:33:54.000   28.281120943  -16.515308497  2223.8851   1   7   0.0020   0.0019   0.0141  -0.0005  -0.0024   0.0034  -6.00   56.0
2024/05/03 15:33:55.000   28.281120944  -16.515308498  2223.8853   1   7   0.0020   0.0019   0.0141  -0.0005  -0.0024   0.0034  -5.00   50.9
2024/05/03 15:33:56.000   28.281120944  -16.515308498  2223.8854   1   7   0.0020   0.0019   0.0141  -0.0005  -0.0024   0.0034  -4.00   44.9
2024/05/03 15:33:57.000   28.281120945  -16.515308499  2223.8856   1   7   0.0020   0.0019   0.0141  -0.0005  -0.0024   0.0034  -3.00   37.6
2024/05/03 15:33:58.000   28.281120945  -16.515308500  2223.8856   1   7   0.0020   0.0019   0.0142  -0.0005  -0.0024   0.0034  -2.00   27.9
2024/05/03 15:33:59.000   28.281120945  -16.515308501  2223.8856   1   7   0.0020   0.0019   0.0142  -0.0005  -0.0024   0.0034  -1.00   16.0
2024/05/03 15:34:00.000   28.281120935  -16.515308491  2223.8805   1   7   0.0020   0.0019   0.0141  -0.0004  -0.0023   0.0033   0.00   73.1
2024/05/03 15:34:01.000   28.281120935  -16.515308492  2223.8805   1   7   0.0020   0.0019   0.0141  -0.0004  -0.0023   0.0034   1.00   73.7
2024/05/03 15:34:02.000   28.281120935  -16.515308492  2223.8805   1   7   0.0020   0.0019   0.0142  -0.0004  -0.0023   0.0034   2.00   73.8
2024/05/03 15:34:03.000   28.281120935  -16.515308492  2223.8806   1   7   0.0020   0.0019   0.0142  -0.0004  -0.0023   0.0034   3.00   75.1
2024/05/03 15:34:04.000   28.281120935  -16.515308493  2223.8806   1   7   0.0020   0.0019   0.0142  -0.0004  -0.0024   0.0034   4.00   75.3
2024/05/03 15:34:05.000   28.281120935  -16.515308493  2223.8807   1   7   0.0020   0.0019   0.0142  -0.0004  -0.0024   0.0034   5.00   74.9
2024/05/03 15:34:06.000   28.281120935  -16.515308493  2223.8808   1   7   0.0020   0.0019   0.0143  -0.0004  -0.0024   0.0034   6.00   74.2
2024/05/03 15:34:07.000   28.281120936  -16.515308494  2223.8810   1   7   0.0020   0.0019   0.0143  -0.0004  -0.0024   0.0034   7.00   73.3
2024/05/03 15:34:08.000   28.281120936  -16.515308494  2223.8812   1   7   0.0020   0.0019   0.0143  -0.0004  -0.0024   0.0034   8.00   72.7
2024/05/03 15:34:09.000   28.281120936  -16.515308495  2223.8813   1   7   0.0020   0.0019   0.0143  -0.0004  -0.0024   0.0034   9.00   71.4
2024/05/03 15:34:10.000   28.281120937  -16.515308495  2223.8814   1   7   0.0020   0.0019   0.0143  -0.0004  -0.0024   0.0034  10.00   69.7
2024/05/03 15:34:11.000   28.281120937  -16.515308495  2223.8814   1   7   0.0020   0.0019   0.0143  -0.0004  -0.0024   0.0034  11.00   68.4
2024/05/03 15:34:12.000   28.281120937  -16.515308495  2223.8816   1   7   0.0020   0.0019   0.0143  -0.0004  -0.0024   0.0034  12.00   67.7
2024/05/03 15:34:13.000   28.281120938  -16.515308496  2223.8818   1   7   0.0020   0.0019   0.0143  -0.0004  -0.0024   0.0034  13.00   67.6
2024/05/03 15:34:14.000   28.281120938  -16.515308496  2223.8820   1   7   0.0020   0.0019   0.0143  -0.0004  -0.0024   0.0034  14.00   67.2
2024/05/03 15:34:15.000   28.281120938  -16.515308496  2223.8821   1   7   0.0020   0.0019   0.0143  -0.0004  -0.0024   0.0034  15.00   66.7
2024/05/03 15:34:16.000   28.281120938  -16.515308496  2223.8822   1   7   0.0020   0.0019   0.0143  -0.0004  -0.0024   0.0034 -14.00   65.8
2024/05/03 15:34:17.000   28.281120939  -16.515308496  2223.8823   1   7   0.0020   0.0019   0.0143  -0.0004  -0.0024   0.0034 -13.00   64.9
2024/05/03 15:34:18.000   28.281120939  -16.515308497  2223.8825   1   7   0.0020   0.0019   0.0143  -0.0004  -0.0024   0.0034 -12.00   64.1
2024/05/03 15:34:19.000   28.281120939  -16.515308497  2223.8827   1   7   0.0020   0.0019   0.0143  -0.0004  -0.0024   0.0034 -11.00   63.4
2024/05/03 15:34:20.000   28.281120940  -16.515308497  2223.8830   1   7   0.0020   0.0019   0.0143  -0.0004  -0.0024   0.0034 -10.00   63.1
2024/05/03 15:34:21.000   28.281120940  -16.515308498  2223.8832   1   7   0.0020   0.0019   0.0143  -0.0005  -0.0024   0.0034  -9.00   61.7
2024/05/03 15:34:22.000   28.281120941  -16.515308498  2223.8834   1   7   0.0020   0.0019   0.0143  -0.0005  -0.0024   0.0034  -8.00   60.0
2024/05/03 15:34:23.000   28.281120941  -16.515308499  2223.8836   1   7   0.0020   0.0019   0.0143  -0.0005  -0.0024   0.0034  -7.00   57.4
2024/05/03 15:34:24.000   28.281120942  -16.515308499  2223.8840   1   7   0.0020   0.0019   0.0143  -0.0005  -0.0024   0.0034  -6.00   54.1
2024/05/03 15:34:25.000   28.281120942  -16.515308500  2223.8842   1   7   0.0020   0.0020   0.0143  -0.0005  -0.0024   0.0035  -5.00   49.6
2024/05/03 15:34:26.000   28.281120943  -16.515308500  2223.8846   1   7   0.0020   0.0020   0.0144  -0.0005  -0.0024   0.0035  -4.00   44.0
2024/05/03 15:34:27.000   28.281120943  -16.515308501  2223.8850   1   7   0.0020   0.0020   0.0144  -0.0005  -0.0024   0.0035  -3.00   36.7
2024/05/03 15:34:28.000   28.281120944  -16.515308501  2223.8854   1   7   0.0020   0.0020   0.0144  -0.0005  -0.0024   0.0035  -2.00   27.0
2024/05/03 15:34:29.000   28.281120944  -16.515308502  2223.8856   1   7   0.0020   0.0020   0.0144  -0.0005  -0.0024   0.0035  -1.00   15.5
2024/05/03 15:34:30.000   28.281120936  -16.515308495  2223.8819   1   7   0.0020   0.0019   0.0144  -0.0004  -0.0023   0.0034   0.00   99.3
2024/05/03 15:34:31.000   28.281120937  -16.515308495  2223.8823   1   7   0.0020   0.0019   0.0144  -0.0004  -0.0023   0.0034   1.00  101.4
2024/05/03 15:34:32.000   28.281120937  -16.515308495  2223.8828   1   7   0.0020   0.0020   0.0144  -0.0004  -0.0023   0.0034   2.00  103.4
2024/05/03 15:34:33.000   28.281120937  -16.515308496  2223.8831   1   7   0.0020   0.0020   0.0145  -0.0004  -0.0023   0.0034   3.00  104.1
2024/05/03 15:34:34.000   28.281120938  -16.515308497  2223.8835   1   7   0.0020   0.0020   0.0145  -0.0004  -0.0024   0.0035   4.00  105.8
2024/05/03 15:34:35.000   28.281120938  -16.515308498  2223.8838   1   7   0.0020   0.0020   0.0145  -0.0004  -0.0024   0.0035   5.00  107.2
2024/05/03 15:34:36.000   28.281120938  -16.515308498  2223.8841   1   7   0.0020   0.0020   0.0145  -0.0004  -0.0024   0.0035   6.00  108.5
2024/05/03 15:34:37.000   28.281120938  -16.515308499  2223.8844   1   7   0.0020   0.0020   0.0145  -0.0004  -0.0024   0.0035   7.00  109.4
2024/05/03 15:34:38.000   28.281120944  -16.515308500  2223.8868   1   7   0.0018   0.0018   0.0143  -0.0004  -0.0020   0.0033   8.00    3.6
2024/05/03 15:34:39.000   28.281120945  -16.515308500  2223.8871   1   7   0.0018   0.0018   0.0143  -0.0004  -0.0020   0.0033   9.00    3.6
2024/05/03 15:34:40.000   28.281120945  -16.515308500  2223.8873   1   7   0.0018   0.0018   0.0143  -0.0004  -0.0020   0.0033  10.00    3.6
2024/05/03 15:34:41.000   28.281120945  -16.515308500  2223.8874   1   7   0.0018   0.0018   0.0143  -0.0004  -0.0020   0.0033  11.00    3.6
2024/05/03 15:34:42.000   28.281120945  -16.515308500  2223.8876   1   7   0.0018   0.0018   0.0143  -0.0004  -0.0020   0.0033  12.00    3.6
2024/05/03 15:34:43.000   28.281120946  -16.515308500  2223.8877   1   7   0.0018   0.0018   0.0143  -0.0004  -0.0020   0.0033  13.00    3.6
2024/05/03 15:34:44.000   28.281120946  -16.515308501  2223.8879   1   7   0.0018   0.0018   0.0143  -0.0005  -0.0020   0.0033  14.00    3.7
2024/05/03 15:34:45.000   28.281120946  -16.515308501  2223.8880   1   7   0.0018   0.0018   0.0143  -0.0005  -0.0020   0.0033 -15.00    3.7
2024/05/03 15:34:46.000   28.281120946  -16.515308501  2223.8881   1   7   0.0018   0.0018   0.0143  -0.0005  -0.0020   0.0033 -14.00    3.7
2024/05/03 15:34:47.000   28.281120946  -16.515308501  2223.8883   1   7   0.0018   0.0018   0.0143  -0.0005  -0.0020   0.0033 -13.00    3.7
2024/05/03 15:34:48.000   28.281120946  -16.515308501  2223.8884   1   7   0.0018   0.0018   0.0143  -0.0005  -0.0020   0.0033 -12.00    3.7
2024/05/03 15:34:49.000   28.281120947  -16.515308501  2223.8885   1   7   0.0018   0.0018   0.0143  -0.0005  -0.0020   0.0033 -11.00    3.7
2024/05/03 15:34:50.000   28.281120947  -16.515308501  2223.8886   1   7   0.0018   0.0018   0.0143  -0.0005  -0.0020   0.0033 -10.00    3.7
2024/05/03 15:34:51.000   28.281120947  -16.515308501  2223.8888   1   7   0.0018   0.0018   0.0143  -0.0005  -0.0020   0.0033  -9.00    3.7
2024/05/03 15:34:52.000   28.281120947  -16.515308502  2223.8889   1   7   0.0018   0.0018   0.0143  -0.0005  -0.0020   0.0033  -8.00    3.7
2024/05/03 15:34:53.000   28.281120947  -16.515308502  2223.8891   1   7   0.0018   0.0018   0.0143  -0.0005  -0.0020   0.0033  -7.00    3.7
2024/05/03 15:34:54.000   28.281120948  -16.515308502  2223.8893   1   7   0.0018   0.0018   0.0143  -0.0005  -0.0020   0.0033  -6.00    3.8
2024/05/03 15:34:55.000   28.281120948  -16.515308502  2223.8895   1   7   0.0018   0.0018   0.0143  -0.0005  -0.0020   0.0033  -5.00    3.9
2024/05/03 15:34:56.000   28.281120948  -16.515308502  2223.8897   1   7   0.0018   0.0018   0.0143  -0.0005  -0.0020   0.0033  -4.00    3.8
2024/05/03 15:34:57.000   28.281120948  -16.515308502  2223.8900   1   7   0.0018   0.0018   0.0143  -0.0005  -0.0020   0.0033  -3.00    3.8
2024/05/03 15:34:58.000   28.281120949  -16.515308502  2223.8903   1   7   0.0018   0.0018   0.0143  -0.0005  -0.0020   0.0033  -2.00   13.3
2024/05/03 15:34:59.000   28.281120949  -16.515308503  2223.8906   1   7   0.0018   0.0018   0.0144  -0.0005  -0.0020   0.0033  -1.00   24.1
2024/05/03 15:35:00.000   28.281120941  -16.515308489  2223.8925   1   7   0.0018   0.0017   0.0142  -0.0003  -0.0021   0.0033   0.00    5.1
2024/05/03 15:35:01.000   28.281120944  -16.515308494  2223.8927   1   7   0.0018   0.0018   0.0140  -0.0004  -0.0020   0.0032   1.00    3.9
2024/05/03 15:35:02.000   28.281120944  -16.515308494  2223.8930   1   7   0.0018   0.0018   0.0140  -0.0004  -0.0020   0.0032   2.00   11.0
2024/05/03 15:35:03.000   28.281120942  -16.515308495  2223.8847   1   7   0.0018   0.0018   0.0130  -0.0004  -0.0021   0.0031   3.00    5.9
2024/05/03 15:35:04.000   28.281120942  -16.515308495  2223.8847   1   7   0.0018   0.0018   0.0130  -0.0004  -0.0021   0.0031   4.00    8.4
2024/05/03 15:35:05.000   28.281120941  -16.515308495  2223.8846   1   7   0.0018   0.0018   0.0130  -0.0004  -0.0021   0.0031   5.00   10.7
2024/05/03 15:35:06.000   28.281120941  -16.515308495  2223.8846   1   7   0.0018   0.0018   0.0130  -0.0004  -0.0021   0.0031   6.00   13.4
2024/05/03 15:35:07.000   28.281120941  -16.515308495  2223.8845   1   7   0.0018   0.0018   0.0130  -0.0004  -0.0021   0.0031   7.00   16.0
2024/05/03 15:35:08.000   28.281120941  -16.515308494  2223.8844   1   7   0.0018   0.0018   0.0130  -0.0004  -0.0021   0.0031   8.00   18.3
2024/05/03 15:35:09.000   28.281120941  -16.515308494  2223.8843   1   7   0.0018   0.0017   0.0130  -0.0004  -0.0021   0.0031   9.00   20.5
2024/05/03 15:35:10.000   28.281120941  -16.515308494  2223.8843   1   7   0.0018   0.0017   0.0130  -0.0004  -0.0021   0.0031  10.00   22.6
2024/05/03 15:35:11.000   28.281120941  -16.515308494  2223.8843   1   7   0.0018   0.0017   0.0130  -0.0004  -0.0021   0.0031  11.00   25.0
2024/05/03 15:35:12.000   28.281120941  -16.515308494  2223.8844   1   7   0.0018   0.0017   0.0130  -0.0004  -0.0021   0.0031  12.00   27.8
2024/05/03 15:35:13.000   28.281120941  -16.515308494  2223.8843   1   7   0.0018   0.0017   0.0130  -0.0004  -0.0021   0.0031  13.00   30.2
2024/05/03 15:35:14.000   28.281120941  -16.515308494  2223.8843   1   7   0.0018   0.0017   0.0130  -0.0004  -0.0021   0.0031  14.00   32.6
2024/05/03 15:35:15.000   28.281120941  -16.515308494  2223.8843   1   7   0.0018   0.0017   0.0130  -0.0004  -0.0021   0.0031 -15.00   35.2
2024/05/03 15:35:16.000   28.281120941  -16.515308494  2223.8843   1   7   0.0018   0.0017   0.0130  -0.0004  -0.0021   0.0031 -14.00   37.4
2024/05/03 15:35:17.000   28.281120941  -16.515308494  2223.8843   1   7   0.0018   0.0017   0.0130  -0.0004  -0.0021   0.0031 -13.00   39.8
2024/05/03 15:35:18.000   28.281120941  -16.515308493  2223.8842   1   7   0.0018   0.0017   0.0129  -0.0004  -0.0021   0.0031 -12.00   41.7
2024/05/03 15:35:19.000   28.281120941  -16.515308493  2223.8842   1   7   0.0018   0.0017   0.0129  -0.0004  -0.0020   0.0031 -11.00   43.8
2024/05/03 15:35:20.000   28.281120941  -16.515308493  2223.8842   1   7   0.0018   0.0017   0.0129  -0.0004  -0.0020   0.0031 -10.00   45.6
2024/05/03 15:35:21.000   28.281120941  -16.515308493  2223.8842   1   7   0.0018   0.0017   0.0129  -0.0004  -0.0020   0.0031  -9.00   47.3
2024/05/03 15:35:22.000   28.281120941  -16.515308493  2223.8842   1   7   0.0018   0.0017   0.0129  -0.0004  -0.0020   0.0031  -8.00   49.1
2024/05/03 15:35:23.000   28.281120940  -16.515308493  2223.8841   1   7   0.0018   0.0017   0.0129  -0.0004  -0.0020   0.0031  -7.00   50.6
2024/05/03 15:35:24.000   28.281120940  -16.515308493  2223.8841   1   7   0.0018   0.0017   0.0129  -0.0003  -0.0020   0.0031  -6.00   52.5
2024/05/03 15:35:25.000   28.281120940  -16.515308493  2223.8839   1   7   0.0018   0.0017   0.0129  -0.0003  -0.0020   0.0031  -5.00   53.5
2024/05/03 15:35:26.000   28.281120940  -16.515308493  2223.8839   1   7   0.0018   0.0017   0.0129  -0.0003  -0.0020   0.0031  -4.00   54.2
2024/05/03 15:35:27.000   28.281120940  -16.515308492  2223.8839   1   7   0.0018   0.0017   0.0129  -0.0003  -0.0020   0.0031  -3.00   54.8
2024/05/03 15:35:28.000   28.281120940  -16.515308492  2223.8839   1   7   0.0018   0.0017   0.0129  -0.0003  -0.0020   0.0031  -2.00   55.4
2024/05/03 15:35:29.000   28.281120940  -16.515308493  2223.8838   1   7   0.0018   0.0017   0.0129  -0.0003  -0.0020   0.0031  -1.00   55.7
2024/05/03 15:35:30.000   28.281120933  -16.515308486  2223.8805   1   7   0.0018   0.0017   0.0128  -0.0002  -0.0019   0.0030   0.00   56.0
2024/05/03 15:35:31.000   28.281120939  -16.515308492  2223.8842   1   7   0.0018   0.0017   0.0129  -0.0004  -0.0021   0.0031   1.00   17.5
2024/05/03 15:35:32.000   28.281120939  -16.515308492  2223.8840   1   7   0.0018   0.0017   0.0129  -0.0004  -0.0021   0.0031   2.00   26.5
2024/05/03 15:35:33.000   28.281120938  -16.515308491  2223.8838   1   7   0.0018   0.0017   0.0129  -0.0004  -0.0021   0.0031   3.00   33.3
2024/05/03 15:35:34.000   28.281120938  -16.515308491  2223.8837   1   7   0.0018   0.0017   0.0129  -0.0004  -0.0021   0.0031   4.00   40.9
2024/05/03 15:35:35.000   28.281120938  -16.515308491  2223.8835   1   7   0.0018   0.0017   0.0129  -0.0004  -0.0020   0.0031   5.00   43.1
2024/05/03 15:35:36.000   28.281120938  -16.515308491  2223.8835   1   7   0.0018   0.0017   0.0129  -0.0004  -0.0020   0.0031   6.00   46.0
2024/05/03 15:35:37.000   28.281120938  -16.515308490  2223.8833   1   7   0.0018   0.0017   0.0129  -0.0004  -0.0020   0.0031   7.00   46.6
2024/05/03 15:35:38.000   28.281120938  -16.515308490  2223.8832   1   7   0.0018   0.0017   0.0129  -0.0004  -0.0020   0.0031   8.00   46.7
2024/05/03 15:35:39.000   28.281120938  -16.515308490  2223.8832   1   7   0.0018   0.0017   0.0129  -0.0004  -0.0020   0.0031   9.00   47.8
2024/05/03 15:35:40.000   28.281120938  -16.515308490  2223.8832   1   7   0.0018   0.0017   0.0129  -0.0004  -0.0020   0.0031  10.00   49.5
2024/05/03 15:35:41.000   28.281120937  -16.515308490  2223.8831   1   7   0.0018   0.0017   0.0129  -0.0004  -0.0020   0.0031  11.00   50.0
2024/05/03 15:35:42.000   28.281120938  -16.515308490  2223.8831   1   7   0.0018   0.0017   0.0129  -0.0004  -0.0020   0.0031  12.00   51.1
2024/05/03 15:35:43.000   28.281120937  -16.515308490  2223.8831   1   7   0.0018   0.0017   0.0128  -0.0004  -0.0020   0.0031  13.00   52.3
2024/05/03 15:35:44.000   28.281120937  -16.515308490  2223.8831   1   7   0.0018   0.0017   0.0128  -0.0004  -0.0020   0.0031  14.00   53.4
2024/05/03 15:35:45.000   28.281120937  -16.515308490  2223.8831   1   7   0.0018   0.0017   0.0128  -0.0004  -0.0020   0.0031 -15.00   54.7
2024/05/03 15:35:46.000   28.281120937  -16.515308489  2223.8831   1   7   0.0018   0.0017   0.0128  -0.0004  -0.0020   0.0031 -14.00   56.0
2024/05/03 15:35:47.000   28.281120937  -16.515308489  2223.8831   1   7   0.0018   0.0017   0.0128  -0.0004  -0.0020   0.0031 -13.00   56.7
2024/05/03 15:35:48.000   28.281120937  -16.515308489  2223.8831   1   7   0.0018   0.0017   0.0128  -0.0004  -0.0020   0.0031 -12.00   57.2
2024/05/03 15:35:49.000   28.281120937  -16.515308489  2223.8830   1   7   0.0018   0.0017   0.0128  -0.0004  -0.0020   0.0031 -11.00   57.9
2024/05/03 15:35:50.000   28.281120937  -16.515308489  2223.8830   1   7   0.0018   0.0017   0.0128  -0.0004  -0.0020   0.0031 -10.00   57.8
2024/05/03 15:35:51.000   28.281120937  -16.515308489  2223.8830   1   7   0.0018   0.0017   0.0128  -0.0004  -0.0020   0.0031  -9.00   58.6
2024/05/03 15:35:52.000   28.281120937  -16.515308489  2223.8829   1   7   0.0018   0.0017   0.0128  -0.0004  -0.0020   0.0031  -8.00   58.7
2024/05/03 15:35:53.000   28.281120937  -16.515308489  2223.8829   1   7   0.0018   0.0017   0.0128  -0.0004  -0.0020   0.0031  -7.00   59.2
2024/05/03 15:35:54.000   28.281120937  -16.515308489  2223.8827   1   7   0.0018   0.0017   0.0128  -0.0004  -0.0020   0.0030  -6.00   58.8
2024/05/03 15:35:55.000   28.281120937  -16.515308489  2223.8827   1   7   0.0018   0.0017   0.0128  -0.0003  -0.0020   0.0030  -5.00   59.0
2024/05/03 15:35:56.000   28.281120937  -16.515308489  2223.8826   1   7   0.0018   0.0017   0.0128  -0.0003  -0.0020   0.0030  -4.00   59.3
2024/05/03 15:35:57.000   28.281120937  -16.515308489  2223.8825   1   7   0.0018   0.0017   0.0128  -0.0003  -0.0020   0.0030  -3.00   59.3
2024/05/03 15:35:58.000   28.281120936  -16.515308489  2223.8824   1   7   0.0018   0.0017   0.0128  -0.0003  -0.0020   0.0030  -2.00   58.8
2024/05/03 15:35:59.000   28.281120936  -16.515308489  2223.8825   1   7   0.0018   0.0017   0.0127  -0.0003  -0.0020   0.0030  -1.00   58.3
2024/05/03 15:36:00.000   28.281120930  -16.515308482  2223.8797   1   7   0.0017   0.0017   0.0127  -0.0002  -0.0019   0.0030   0.00   57.4
2024/05/03 15:36:01.000   28.281120940  -16.515308493  2223.8852   1   7   0.0018   0.0017   0.0128  -0.0004  -0.0020   0.0031   1.00   17.1
2024/05/03 15:36:02.000   28.281120940  -16.515308493  2223.8850   1   7   0.0018   0.0017   0.0128  -0.0004  -0.0020   0.0031   2.00   28.1
2024/05/03 15:36:03.000   28.281120939  -16.515308492  2223.8848   1   7   0.0018   0.0017   0.0128  -0.0004  -0.0020   0.0031   3.00   34.2
2024/05/03 15:36:04.000   28.281120939  -16.515308492  2223.8847   1   7   0.0018   0.0017   0.0128  -0.0004  -0.0020   0.0031   4.00   38.0
2024/05/03 15:36:05.000   28.281120939  -16.515308492  2223.8846   1   7   0.0018   0.0017   0.0128  -0.0004  -0.0020   0.0031   5.00   43.9
2024/05/03 15:36:06.000   28.281120939  -16.515308492  2223.8845   1   7   0.0018   0.0017   0.0128  -0.0004  -0.0020   0.0031   6.00   49.3
2024/05/03 15:36:07.000   28.281120939  -16.515308492  2223.8844   1   7   0.0018   0.0017   0.0128  -0.0004  -0.0020   0.0031   7.00   54.4
2024/05/03 15:36:08.000   28.281120939  -16.515308491  2223.8843   1   7   0.0018   0.0017   0.0128  -0.0004  -0.0020   0.0031   8.00   57.3
2024/05/03 15:36:09.000   28.281120939  -16.515308491  2223.8842   1   7   0.0018   0.0017   0.0128  -0.0004  -0.0020   0.0031   9.00   59.6
2024/05/03 15:36:10.000   28.281120939  -16.515308491  2223.8841   1   7   0.0018   0.0017   0.0128  -0.0004  -0.0020   0.0031  10.00   61.6
2024/05/03 15:36:11.000   28.281120939  -16.515308491  2223.8841   1   7   0.0018   0.0017   0.0128  -0.0004  -0.0020   0.0031  11.00   62.4
2024/05/03 15:36:12.000   28.281120939  -16.515308491  2223.8841   1   7   0.0018   0.0017   0.0127  -0.0004  -0.0020   0.0030  12.00   63.5
2024/05/03 15:36:13.000   28.281120939  -16.515308491  2223.8841   1   7   0.0018   0.0017   0.0127  -0.0004  -0.0020   0.0030  13.00   64.7
2024/05/03 15:36:14.000   28.281120939  -16.515308491  2223.8840   1   7   0.0018   0.0017   0.0127  -0.0004  -0.0020   0.0030  14.00   65.9
2024/05/03 15:36:15.000   28.281120939  -16.515308491  2223.8840   1   7   0.0018   0.0017   0.0127  -0.0004  -0.0020   0.0030 -15.00   67.1
2024/05/03 15:36:16.000   28.281120939  -16.515308491  2223.8840   1   7   0.0018   0.0017   0.0127  -0.0004  -0.0020   0.0030 -14.00   68.6
2024/05/03 15:36:17.000   28.281120938  -16.515308491  2223.8840   1   7   0.0018   0.0017   0.0127  -0.0004  -0.0020   0.0030 -13.00   69.9
2024/05/03 15:36:18.000   28.281120938  -16.515308491  2223.8840   1   7   0.0018   0.0017   0.0127  -0.0004  -0.0020   0.0030 -12.00   71.4
2024/05/03 15:36:19.000   28.281120938  -16.515308490  2223.8839   1   7   0.0018   0.0017   0.0127  -0.0004  -0.0020   0.0030 -11.00   73.2
2024/05/03 15:36:20.000   28.281120938  -16.515308490  2223.8838   1   7   0.0018   0.0017   0.0127  -0.0004  -0.0020   0.0030 -10.00   74.4
2024/05/03 15:36:21.000   28.281120938  -16.515308490  2223.8837   1   7   0.0018   0.0017   0.0127  -0.0004  -0.0020   0.0030  -9.00   74.8
2024/05/03 15:36:22.000   28.281120938  -16.515308490  2223.8838   1   7   0.0018   0.0017   0.0127  -0.0004  -0.0020   0.0030  -8.00   75.6
2024/05/03 15:36:23.000   28.281120938  -16.515308490  2223.8837   1   7   0.0018   0.0017   0.0127  -0.0004  -0.0020   0.0030  -7.00   76.6
2024/05/03 15:36:24.000   28.281120938  -16.515308490  2223.8837   1   7   0.0018   0.0017   0.0127  -0.0004  -0.0020   0.0030  -6.00   78.1
2024/05/03 15:36:25.000   28.281120938  -16.515308490  2223.8837   1   7   0.0018   0.0017   0.0127  -0.0004  -0.0020   0.0030  -5.00   79.4
2024/05/03 15:36:26.000   28.281120938  -16.515308490  2223.8836   1   7   0.0018   0.0017   0.0127  -0.0004  -0.0020   0.0030  -4.00   79.5
2024/05/03 15:36:27.000   28.281120938  -16.515308490  2223.8835   1   7   0.0018   0.0017   0.0127  -0.0004  -0.0020   0.0030  -3.00   79.2
2024/05/03 15:36:28.000   28.281120938  -16.515308490  2223.8836   1   7   0.0017   0.0017   0.0127  -0.0004  -0.0019   0.0030  -2.00   79.2
2024/05/03 15:36:29.000   28.281120938  -16.515308490  2223.8836   1   7   0.0017   0.0017   0.0127  -0.0004  -0.0019   0.0030  -1.00   79.3
2024/05/03 15:36:30.000   28.281120933  -16.515308486  2223.8818   1   7   0.0017   0.0017   0.0126  -0.0002  -0.0019   0.0030   0.00   78.5
2024/05/03 15:36:31.000   28.281120943  -16.515308497  2223.8870   1   7   0.0018   0.0017   0.0127  -0.0004  -0.0020   0.0030   1.00   19.1
2024/05/03 15:36:32.000   28.281120944  -16.515308496  2223.8870   1   7   0.0018   0.0017   0.0127  -0.0004  -0.0020   0.0030   2.00   32.1
2024/05/03 15:36:33.000   28.281120944  -16.515308497  2223.8870   1   7   0.0018   0.0017   0.0127  -0.0004  -0.0020   0.0030   3.00   49.5
2024/05/03 15:36:34.000   28.281120943  -16.515308497  2223.8867   1   7   0.0018   0.0017   0.0127  -0.0004  -0.0020   0.0030   4.00   61.3
2024/05/03 15:36:35.000   28.281120943  -16.515308496  2223.8865   1   7   0.0018   0.0017   0.0127  -0.0004  -0.0020   0.0030   5.00   68.3
2024/05/03 15:36:36.000   28.281120943  -16.515308495  2223.8863   1   7   0.0018   0.0017   0.0127  -0.0004  -0.0020   0.0030   6.00   73.6
2024/05/03 15:36:37.000   28.281120942  -16.515308495  2223.8862   1   7   0.0018   0.0017   0.0127  -0.0004  -0.0020   0.0030   7.00   77.9
2024/05/03 15:36:38.000   28.281120943  -16.515308495  2223.8862   1   7   0.0018   0.0017   0.0127  -0.0004  -0.0020   0.0030   8.00   81.5
2024/05/03 15:36:39.000   28.281120942  -16.515308495  2223.8861   1   7   0.0018   0.0017   0.0127  -0.0004  -0.0020   0.0030   9.00   84.7
2024/05/03 15:36:40.000   28.281120942  -16.515308495  2223.8860   1   7   0.0018   0.0017   0.0127  -0.0004  -0.0020   0.0030  10.00   88.2
2024/05/03 15:36:41.000   28.281120942  -16.515308495  2223.8859   1   7   0.0018   0.0017   0.0127  -0.0004  -0.0020   0.0030  11.00   90.8
2024/05/03 15:36:42.000   28.281120942  -16.515308495  2223.8859   1   7   0.0017   0.0017   0.0127  -0.0004  -0.0020   0.0030  12.00   93.2
2024/05/03 15:36:43.000   28.281120942  -16.515308495  2223.8859   1   7   0.0017   0.0017   0.0127  -0.0004  -0.0020   0.0030  13.00   95.4
2024/05/03 15:36:44.000   28.281120942  -16.515308495  2223.8859   1   7   0.0017   0.0017   0.0127  -0.0004  -0.0020   0.0030  14.00   97.2
2024/05/03 15:36:45.000   28.281120942  -16.515308494  2223.8858   1   7   0.0017   0.0017   0.0127  -0.0004  -0.0020   0.0030 -15.00   99.0
2024/05/03 15:36:46.000   28.281120942  -16.515308494  2223.8858   1   7   0.0017   0.0017   0.0127  -0.0004  -0.0020   0.0030 -14.00  101.5
2024/05/03 15:36:47.000   28.281120942  -16.515308494  2223.8857   1   7   0.0017   0.0017   0.0127  -0.0004  -0.0020   0.0030 -13.00  102.6
2024/05/03 15:36:48.000   28.281120942  -16.515308494  2223.8857   1   7   0.0017   0.0017   0.0126  -0.0004  -0.0020   0.0030 -12.00  104.1
2024/05/03 15:36:49.000   28.281120942  -16.515308494  2223.8857   1   7   0.0017   0.0017   0.0126  -0.0004  -0.0020   0.0030 -11.00  107.2
2024/05/03 15:36:50.000   28.281120942  -16.515308494  2223.8857   1   7   0.0017   0.0017   0.0126  -0.0004  -0.0020   0.0030 -10.00  110.0
2024/05/03 15:36:51.000   28.281120942  -16.515308494  2223.8856   1   7   0.0017   0.0017   0.0126  -0.0004  -0.0019   0.0030  -9.00  112.1
2024/05/03 15:36:52.000   28.281120942  -16.515308494  2223.8855   1   7   0.0017   0.0017   0.0126  -0.0004  -0.0019   0.0030  -8.00  114.2
2024/05/03 15:36:53.000   28.281120941  -16.515308494  2223.8854   1   7   0.0017   0.0017   0.0126  -0.0004  -0.0019   0.0030  -7.00  115.1
2024/05/03 15:36:54.000   28.281120941  -16.515308494  2223.8853   1   7   0.0017   0.0017   0.0126  -0.0004  -0.0019   0.0030  -6.00  116.4
2024/05/03 15:36:55.000   28.281120941  -16.515308493  2223.8852   1   7   0.0017   0.0017   0.0126  -0.0004  -0.0019   0.0030  -5.00  117.4
2024/05/03 15:36:56.000   28.281120941  -16.515308493  2223.8850   1   7   0.0017   0.0017   0.0126  -0.0004  -0.0019   0.0030  -4.00  118.9
2024/05/03 15:36:57.000   28.281120941  -16.515308493  2223.8849   1   7   0.0017   0.0017   0.0126  -0.0004  -0.0019   0.0030  -3.00  119.8
2024/05/03 15:36:58.000   28.281120941  -16.515308493  2223.8848   1   7   0.0017   0.0017   0.0126  -0.0004  -0.0019   0.0030  -2.00  119.6
2024/05/03 15:36:59.000   28.281120941  -16.515308493  2223.8846   1   7   0.0017   0.0017   0.0126  -0.0004  -0.0019   0.0030  -1.00  119.1
2024/05/03 15:37:00.000   28.281120934  -16.515308487  2223.8816   1   7   0.0017   0.0017   0.0125  -0.0002  -0.0019   0.0030   0.00  117.4
2024/05/03 15:37:01.000   28.281120941  -16.515308494  2223.8851   1   7   0.0017   0.0017   0.0126  -0.0004  -0.0020   0.0030   1.00   18.2
2024/05/03 15:37:02.000   28.281120940  -16.515308494  2223.8848   1   7   0.0017   0.0017   0.0126  -0.0004  -0.0020   0.0030   2.00   29.5
2024/05/03 15:37:03.000   28.281120940  -16.515308494  2223.8846   1   7   0.0017   0.0017   0.0126  -0.0004  -0.0020   0.0030   3.00   40.1
2024/05/03 15:37:04.000   28.281120940  -16.515308493  2223.8844   1   7   0.0017   0.0017   0.0126  -0.0004  -0.0020   0.0030   4.00   45.8
2024/05/03 15:37:05.000   28.281120939  -16.515308493  2223.8842   1   7   0.0017   0.0017   0.0126  -0.0004  -0.0020   0.0030   5.00   49.2
2024/05/03 15:37:06.000   28.281120939  -16.515308492  2223.8842   1   7   0.0017   0.0017   0.0126  -0.0004  -0.0020   0.0030   6.00   53.9
2024/05/03 15:37:07.000   28.281120939  -16.515308492  2223.8841   1   7   0.0017   0.0017   0.0126  -0.0004  -0.0019   0.0030   7.00   58.1
2024/05/03 15:37:08.000   28.281120939  -16.515308492  2223.8840   1   7   0.0017   0.0017   0.0126  -0.0004  -0.0019   0.0030   8.00   60.5
2024/05/03 15:37:09.000   28.281120939  -16.515308492  2223.8839   1   7   0.0017   0.0017   0.0126  -0.0004  -0.0019   0.0030   9.00   59.7
2024/05/03 15:37:10.000   28.281120939  -16.515308492  2223.8839   1   7   0.0017   0.0017   0.0126  -0.0004  -0.0019   0.0030  10.00   61.0
2024/05/03 15:37:11.000   28.281120939  -16.515308492  2223.8839   1   7   0.0017   0.0017   0.0126  -0.0004  -0.0019   0.0030  11.00   62.5
2024/05/03 15:37:12.000   28.281120939  -16.515308491  2223.8839   1   7   0.0017   0.0017   0.0126  -0.0004  -0.0019   0.0030  12.00   63.4
2024/05/03 15:37:13.000   28.281120939  -16.515308491  2223.8839   1   7   0.0017   0.0017   0.0126  -0.0004  -0.0019   0.0030  13.00   63.3
2024/05/03 15:37:14.000   28.281120939  -16.515308491  2223.8839   1   7   0.0017   0.0017   0.0126  -0.0004  -0.0019   0.0030  14.00   64.0
2024/05/03 15:37:15.000   28.281120939  -16.515308491  2223.8839   1   7   0.0017   0.0017   0.0126  -0.0004  -0.0019   0.0030 -15.00   65.1
2024/05/03 15:37:16.000   28.281120939  -16.515308491  2223.8839   1   7   0.0017   0.0017   0.0126  -0.0004  -0.0019   0.0030 -14.00   65.3
2024/05/03 15:37:17.000   28.281120939  -16.515308491  2223.8839   1   7   0.0017   0.0017   0.0126  -0.0004  -0.0019   0.0030 -13.00   66.3
2024/05/03 15:37:18.000   28.281120938  -16.515308491  2223.8838   1   7   0.0017   0.0017   0.0126  -0.0004  -0.0019   0.0030 -12.00   66.8
2024/05/03 15:37:19.000   28.281120938  -16.515308491  2223.8838   1   7   0.0017   0.0017   0.0126  -0.0004  -0.0019   0.0030 -11.00   67.2
2024/05/03 15:37:20.000   28.281120938  -16.515308491  2223.8838   1   7   0.0017   0.0017   0.0126  -0.0004  -0.0019   0.0030 -10.00   67.9
2024/05/03 15:37:21.000   28.281120938  -16.515308491  2223.8837   1   7   0.0017   0.0017   0.0126  -0.0004  -0.0019   0.0030  -9.00   68.2
2024/05/03 15:37:22.000   28.281120938  -16.515308491  2223.8837   1   7   0.0017   0.0017   0.0126  -0.0004  -0.0019   0.0030  -8.00   68.9
2024/05/03 15:37:23.000   28.281120938  -16.515308490  2223.8836   1   7   0.0017   0.0017   0.0126  -0.0004  -0.0019   0.0030  -7.00   68.6
2024/05/03 15:37:24.000   28.281120938  -16.515308490  2223.8836   1   7   0.0017   0.0017   0.0126  -0.0004  -0.0019   0.0030  -6.00   68.5
2024/05/03 15:37:25.000   28.281120938  -16.515308490  2223.8836   1   7   0.0017   0.0017   0.0126  -0.0004  -0.0019   0.0030  -5.00   68.3
2024/05/03 15:37:26.000   28.281120938  -16.515308490  2223.8836   1   7   0.0017   0.0017   0.0126  -0.0004  -0.0019   0.0030  -4.00   68.0
2024/05/03 15:37:27.000   28.281120938  -16.515308490  2223.8836   1   7   0.0017   0.0017   0.0126  -0.0004  -0.0019   0.0030  -3.00   67.0
2024/05/03 15:37:28.000   28.281120938  -16.515308490  2223.8836   1   7   0.0017   0.0017   0.0126  -0.0004  -0.0019   0.0030  -2.00   66.0
2024/05/03 15:37:29.000   28.281120938  -16.515308490  2223.8835   1   7   0.0017   0.0017   0.0126  -0.0004  -0.0019   0.0030  -1.00   65.3
2024/05/03 15:37:30.000   28.281120933  -16.515308485  2223.8814   1   7   0.0017   0.0017   0.0125  -0.0003  -0.0018   0.0030   0.00   65.0
2024/05/03 15:37:31.000   28.281120943  -16.515308496  2223.8860   1   7   0.0017   0.0017   0.0126  -0.0004  -0.0019   0.0030   1.00   19.5
2024/05/03 15:37:32.000   28.281120943  -16.515308496  2223.8858   1   7   0.0017   0.0017   0.0126  -0.0004  -0.0019   0.0030   2.00   31.5
2024/05/03 15:37:33.000   28.281120943  -16.515308496  2223.8858   1   7   0.0017   0.0017   0.0126  -0.0004  -0.0019   0.0030   3.00   40.1
2024/05/03 15:37:34.000   28.281120942  -16.515308495  2223.8857   1   7   0.0017   0.0017   0.0126  -0.0004  -0.0019   0.0030   4.00   46.7
2024/05/03 15:37:35.000   28.281120942  -16.515308495  2223.8856   1   7   0.0017   0.0017   0.0126  -0.0004  -0.0019   0.0030   5.00   50.7
2024/05/03 15:37:36.000   28.281120942  -16.515308495  2223.8856   1   7   0.0017   0.0017   0.0126  -0.0004  -0.0019   0.0030   6.00   55.3
2024/05/03 15:37:37.000   28.281120942  -16.515308495  2223.8856   1   7   0.0017   0.0017   0.0126  -0.0004  -0.0019   0.0030   7.00   61.6
2024/05/03 15:37:38.000   28.281120942  -16.515308494  2223.8854   1   7   0.0017   0.0017   0.0126  -0.0004  -0.0019   0.0030   8.00   64.1
2024/05/03 15:37:39.000   28.281120942  -16.515308494  2223.8854   1   7   0.0017   0.0017   0.0126  -0.0004  -0.0019   0.0030   9.00   65.8
2024/05/03 15:37:40.000   28.281120942  -16.515308494  2223.8855   1   7   0.0017   0.0017   0.0126  -0.0004  -0.0019   0.0030  10.00   67.8
2024/05/03 15:37:41.000   28.281120942  -16.515308494  2223.8854   1   7   0.0017   0.0017   0.0126  -0.0004  -0.0019   0.0030  11.00   70.3
2024/05/03 15:37:42.000   28.281120942  -16.515308494  2223.8854   1   7   0.0017   0.0017   0.0126  -0.0004  -0.0019   0.0030  12.00   71.6
2024/05/03 15:37:43.000   28.281120942  -16.515308494  2223.8854   1   7   0.0017   0.0017   0.0126  -0.0004  -0.0019   0.0030  13.00   72.4
2024/05/03 15:37:44.000   28.281120942  -16.515308494  2223.8854   1   7   0.0017   0.0017   0.0126  -0.0004  -0.0019   0.0030  14.00   73.4
2024/05/03 15:37:45.000   28.281120942  -16.515308494  2223.8854   1   7   0.0017   0.0017   0.0126  -0.0004  -0.0019   0.0030 -15.00   74.2
2024/05/03 15:37:46.000   28.281120942  -16.515308494  2223.8854   1   7   0.0017   0.0017   0.0126  -0.0004  -0.0019   0.0030 -14.00   75.6
2024/05/03 15:37:47.000   28.281120942  -16.515308494  2223.8853   1   7   0.0017   0.0017   0.0126  -0.0004  -0.0019   0.0030 -13.00   76.7
2024/05/03 15:37:48.000   28.281120941  -16.515308494  2223.8854   1   7   0.0017   0.0017   0.0126  -0.0004  -0.0019   0.0030 -12.00   78.0
2024/05/03 15:37:49.000   28.281120941  -16.515308494  2223.8853   1   7   0.0017   0.0017   0.0126  -0.0004  -0.0019   0.0030 -11.00   79.7
2024/05/03 15:37:50.000   28.281120941  -16.515308494  2223.8853   1   7   0.0017   0.0017   0.0126  -0.0004  -0.0019   0.0030 -10.00   81.5
2024/05/03 15:37:51.000   28.281120941  -16.515308494  2223.8852   1   7   0.0017   0.0017   0.0126  -0.0004  -0.0019   0.0030  -9.00   83.8
2024/05/03 15:37:52.000   28.281120941  -16.515308494  2223.8852   1   7   0.0017   0.0017   0.0126  -0.0004  -0.0019   0.0030  -8.00   85.4
2024/05/03 15:37:53.000   28.281120941  -16.515308494  2223.8852   1   7   0.0017   0.0017   0.0125  -0.0004  -0.0019   0.0030  -7.00   86.7
2024/05/03 15:37:54.000   28.281120941  -16.515308494  2223.8852   1   7   0.0017   0.0017   0.0125  -0.0004  -0.0019   0.0030  -6.00   88.0
2024/05/03 15:37:55.000   28.281120941  -16.515308494  2223.8851   1   7   0.0017   0.0017   0.0125  -0.0004  -0.0019   0.0030  -5.00   89.4
2024/05/03 15:37:56.000   28.281120941  -16.515308494  2223.8851   1   7   0.0017   0.0017   0.0125  -0.0004  -0.0019   0.0030  -4.00   90.4
2024/05/03 15:37:57.000   28.281120941  -16.515308494  2223.8852   1   7   0.0017   0.0017   0.0125  -0.0004  -0.0019   0.0030  -3.00   90.4
2024/05/03 15:37:58.000   28.281120941  -16.515308494  2223.8852   1   7   0.0017   0.0017   0.0125  -0.0004  -0.0019   0.0030  -2.00   91.4
2024/05/03 15:37:59.000   28.281120941  -16.515308494  2223.8852   1   7   0.0017   0.0017   0.0125  -0.0004  -0.0019   0.0030  -1.00   92.2
2024/05/03 15:38:00.000   28.281120940  -16.515308493  2223.8850   1   7   0.0017   0.0017   0.0125  -0.0003  -0.0019   0.0030   0.00   92.7
2024/05/03 15:38:01.000   28.281120948  -16.515308501  2223.8884   1   7   0.0017   0.0017   0.0126  -0.0004  -0.0020   0.0030   1.00   18.5
2024/05/03 15:38:02.000   28.281120948  -16.515308501  2223.8883   1   7   0.0017   0.0017   0.0126  -0.0004  -0.0020   0.0030   2.00   35.0
2024/05/03 15:38:03.000   28.281120948  -16.515308500  2223.8880   1   7   0.0017   0.0017   0.0126  -0.0004  -0.0020   0.0030   3.00   45.5
2024/05/03 15:38:04.000   28.281120947  -16.515308500  2223.8880   1   7   0.0017   0.0017   0.0126  -0.0004  -0.0020   0.0030   4.00   55.4
2024/05/03 15:38:05.000   28.281120947  -16.515308500  2223.8880   1   7   0.0017   0.0017   0.0126  -0.0004  -0.0020   0.0030   5.00   64.2
2024/05/03 15:38:06.000   28.281120947  -16.515308500  2223.8880   1   7   0.0017   0.0017   0.0126  -0.0004  -0.0020   0.0030   6.00   71.2
2024/05/03 15:38:07.000   28.281120947  -16.515308499  2223.8881   1   7   0.0017   0.0017   0.0126  -0.0004  -0.0020   0.0030   7.00   76.7
2024/05/03 15:38:08.000   28.281120947  -16.515308499  2223.8880   1   7   0.0017   0.0017   0.0126  -0.0004  -0.0020   0.0030   8.00   81.6
2024/05/03 15:38:09.000   28.281120946  -16.515308498  2223.8870   1   7   0.0017   0.0017   0.0126  -0.0004  -0.0020   0.0030   9.00   87.0
2024/05/03 15:38:10.000   28.281120946  -16.515308497  2223.8869   1   7   0.0017   0.0017   0.0126  -0.0004  -0.0020   0.0030  10.00   89.1
2024/05/03 15:38:11.000   28.281120946  -16.515308497  2223.8869   1   7   0.0017   0.0017   0.0126  -0.0004  -0.0020   0.0030  11.00   90.6
2024/05/03 15:38:12.000   28.281120946  -16.515308497  2223.8868   1   7   0.0017   0.0017   0.0126  -0.0004  -0.0020   0.0030  12.00   92.4
2024/05/03 15:38:13.000   28.281120946  -16.515308496  2223.8867   1   7   0.0017   0.0017   0.0126  -0.0004  -0.0020   0.0030  13.00   93.1
2024/05/03 15:38:14.000   28.281120945  -16.515308496  2223.8867   1   7   0.0017   0.0017   0.0126  -0.0004  -0.0020   0.0030  14.00   95.1
2024/05/03 15:38:15.000   28.281120945  -16.515308496  2223.8867   1   7   0.0017   0.0017   0.0126  -0.0004  -0.0020   0.0030 -15.00   97.1
2024/05/03 15:38:16.000   28.281120945  -16.515308496  2223.8866   1   7   0.0017   0.0017   0.0126  -0.0004  -0.0020   0.0030 -14.00   99.3
