% program   : RTKPOST-EX 2.5.0
% inp file  : C:\Users\SallyHenry\Desktop\Sally Internship\GNSS gravi\DATA\Survey Rover Obs\FA04.24o
% inp file  : C:\Users\SallyHenry\Desktop\Sally Internship\GNSS gravi\DATA\BaseStations\IZAN\IZAN00ESP_R_20241240000_01D_30S_MO.rnx
% inp file  : C:\Users\SallyHenry\Desktop\Sally Internship\GNSS gravi\DATA\BaseStations\IZAN\IZAN00ESP_R_20241240000_01D_MN.rnx
% inp file  : C:\Users\SallyHenry\Desktop\Sally Internship\GNSS gravi\DATA\aux_files\Survey\IGS0OPSFIN_20241240000_01D_15M_ORB.SP3
% inp file  : C:\Users\SallyHenry\Desktop\Sally Internship\GNSS gravi\DATA\aux_files\Survey\IGS0OPSFIN_20241240000_01D_30S_CLK.CLK
% obs start : 2024/05/03 15:47:15.0 GPST (week2312 488835.0s)
% obs end   : 2024/05/03 15:52:19.0 GPST (week2312 489139.0s)
% pos mode  : Static
% freqs     : L1+L2/E5b
% solution  : Combined-No Phase Reset
% elev mask : 15.0 deg
% dynamics  : on
% tidecorr  : solid
% ionos opt : Estimate TEC
% tropo opt : Estimate ZTD+Grad
% ephemeris : Precise
% navi sys  : GPS GLONASS Galileo QZSS BDS
% amb res   : Fix and Hold
% amb glo   : Fix and Hold
% amb bds   : on
% val thres : 3.0
% antenna1  :                       ( 0.0000  0.0000  1.8000)
% antenna2  :                       ( 0.0000  0.0000  0.0000)
% ref pos   :  28.308069410  -16.499677180  2417.4044
%
% (lat/lon/height=WGS84/ellipsoidal,Q=1:fix,2:float,3:sbas,4:dgps,5:single,6:ppp,ns=# of satellites)
%  GPST                  latitude(deg) longitude(deg)  height(m)   Q  ns   sdn(m)   sde(m)   sdu(m)  sdne(m)  sdeu(m)  sdun(m) age(s)  ratio
2024/05/03 15:47:15.000   28.281190459  -16.515460609  2225.2558   1   7   0.0026   0.0029   0.0261   0.0020  -0.0070  -0.0054  15.00   24.7
2024/05/03 15:47:16.000   28.281190459  -16.515460609  2225.2559   1   7   0.0026   0.0029   0.0261   0.0020  -0.0070  -0.0054 -14.00   22.1
2024/05/03 15:47:17.000   28.281190460  -16.515460609  2225.2553   1   7   0.0026   0.0029   0.0260   0.0020  -0.0070  -0.0054 -13.00    7.6
2024/05/03 15:47:18.000   28.281190459  -16.515460609  2225.2561   1   7   0.0026   0.0029   0.0261   0.0020  -0.0070  -0.0054 -12.00   16.8
2024/05/03 15:47:19.000   28.281190459  -16.515460609  2225.2562   1   7   0.0026   0.0029   0.0261   0.0020  -0.0070  -0.0054 -11.00   14.2
2024/05/03 15:47:20.000   28.281190461  -16.515460607  2225.2542   1   7   0.0026   0.0029   0.0260   0.0020  -0.0069  -0.0054 -10.00   10.1
2024/05/03 15:47:21.000   28.281190455  -16.515460616  2225.2633   1   7   0.0026   0.0029   0.0259   0.0020  -0.0069  -0.0054  -9.00    4.6
2024/05/03 15:47:22.000   28.281190459  -16.515460609  2225.2566   1   7   0.0026   0.0029   0.0262   0.0020  -0.0070  -0.0055  -8.00    6.9
2024/05/03 15:47:23.000   28.281190459  -16.515460609  2225.2569   1   7   0.0026   0.0028   0.0258   0.0020  -0.0068  -0.0053  -7.00    5.7
2024/05/03 15:47:24.000   28.281190456  -16.515460613  2225.2616   1   7   0.0026   0.0029   0.0260   0.0020  -0.0069  -0.0054  -6.00   18.8
2024/05/03 15:47:25.000   28.281190496  -16.515460551  2225.1994   1   7   0.0026   0.0028   0.0252   0.0019  -0.0066  -0.0051  -5.00    5.4
2024/05/03 15:47:26.000   28.281190482  -16.515460573  2225.2218   1   7   0.0026   0.0028   0.0255   0.0019  -0.0067  -0.0052  -4.00    9.3
2024/05/03 15:47:27.000   28.281190469  -16.515460593  2225.2410   1   7   0.0026   0.0028   0.0258   0.0020  -0.0068  -0.0053  -3.00   14.3
2024/05/03 15:47:28.000   28.281190451  -16.515460621  2225.2694   1   7   0.0026   0.0028   0.0258   0.0020  -0.0068  -0.0053  -2.00   31.2
2024/05/03 15:47:29.000   28.281190458  -16.515460610  2225.2583   1   7   0.0027   0.0029   0.0263   0.0020  -0.0070  -0.0055  -1.00  690.7
2024/05/03 15:47:30.000   28.281190467  -16.515460616  2225.1786   1   8   0.0026   0.0028   0.0222   0.0019  -0.0065  -0.0048   0.00    3.6
2024/05/03 15:47:31.000   28.281190486  -16.515460583  2225.1506   1   8   0.0026   0.0029   0.0227   0.0020  -0.0067  -0.0050   1.00   86.8
2024/05/03 15:47:32.000   28.281190488  -16.515460580  2225.1471   1   8   0.0026   0.0028   0.0225   0.0019  -0.0066  -0.0049   2.00   12.9
2024/05/03 15:47:33.000   28.281190485  -16.515460583  2225.1494   1   8   0.0026   0.0029   0.0228   0.0020  -0.0067  -0.0050   3.00   86.4
2024/05/03 15:47:34.000   28.281190485  -16.515460583  2225.1490   1   8   0.0026   0.0029   0.0228   0.0020  -0.0067  -0.0050   4.00   86.4
2024/05/03 15:47:35.000   28.281190475  -16.515460599  2225.1628   1   8   0.0026   0.0028   0.0224   0.0019  -0.0066  -0.0049   5.00    5.5
2024/05/03 15:47:36.000   28.281190480  -16.515460591  2225.1557   1   8   0.0026   0.0029   0.0227   0.0020  -0.0067  -0.0050   6.00    3.4
2024/05/03 15:47:37.000   28.281190484  -16.515460582  2225.1483   1   8   0.0026   0.0029   0.0227   0.0020  -0.0067  -0.0050   7.00    6.6
2024/05/03 15:47:38.000   28.281190485  -16.515460581  2225.1472   1   8   0.0027   0.0029   0.0229   0.0020  -0.0067  -0.0051   8.00   86.3
2024/05/03 15:47:39.000   28.281190485  -16.515460581  2225.1470   1   8   0.0027   0.0029   0.0229   0.0020  -0.0067  -0.0051   9.00   86.3
2024/05/03 15:47:40.000   28.281190486  -16.515460581  2225.1469   1   8   0.0027   0.0029   0.0229   0.0020  -0.0067  -0.0051  10.00   86.3
2024/05/03 15:47:41.000   28.281190486  -16.515460581  2225.1468   1   8   0.0027   0.0029   0.0229   0.0020  -0.0067  -0.0051  11.00   86.4
2024/05/03 15:47:42.000   28.281190486  -16.515460580  2225.1467   1   8   0.0027   0.0029   0.0229   0.0020  -0.0067  -0.0051  12.00   86.5
2024/05/03 15:47:43.000   28.281190486  -16.515460580  2225.1467   1   8   0.0027   0.0029   0.0229   0.0020  -0.0067  -0.0051  13.00   86.5
2024/05/03 15:47:44.000   28.281190486  -16.515460580  2225.1467   1   8   0.0027   0.0029   0.0229   0.0020  -0.0067  -0.0051  14.00   86.5
2024/05/03 15:47:45.000   28.281190486  -16.515460580  2225.1468   1   8   0.0027   0.0029   0.0229   0.0020  -0.0067  -0.0051  15.00   86.4
2024/05/03 15:47:46.000   28.281190486  -16.515460580  2225.1469   1   8   0.0027   0.0029   0.0229   0.0020  -0.0067  -0.0051 -14.00   86.4
2024/05/03 15:47:47.000   28.281190486  -16.515460580  2225.1470   1   8   0.0027   0.0029   0.0229   0.0020  -0.0067  -0.0051 -13.00   86.4
2024/05/03 15:47:48.000   28.281190486  -16.515460580  2225.1469   1   8   0.0026   0.0029   0.0229   0.0020  -0.0067  -0.0051 -12.00   86.4
2024/05/03 15:47:49.000   28.281190485  -16.515460582  2225.1480   1   8   0.0026   0.0029   0.0228   0.0020  -0.0067  -0.0050 -11.00    5.1
2024/05/03 15:47:50.000   28.281190486  -16.515460580  2225.1471   1   8   0.0026   0.0029   0.0229   0.0020  -0.0067  -0.0051 -10.00   86.5
2024/05/03 15:47:51.000   28.281190486  -16.515460580  2225.1471   1   8   0.0026   0.0029   0.0229   0.0020  -0.0067  -0.0051  -9.00   86.6
2024/05/03 15:47:52.000   28.281190486  -16.515460581  2225.1472   1   8   0.0026   0.0029   0.0229   0.0020  -0.0067  -0.0051  -8.00   86.7
2024/05/03 15:47:53.000   28.281190486  -16.515460580  2225.1472   1   8   0.0026   0.0029   0.0229   0.0020  -0.0067  -0.0051  -7.00   87.0
2024/05/03 15:47:54.000   28.281190488  -16.515460578  2225.1451   1   8   0.0026   0.0029   0.0227   0.0020  -0.0067  -0.0050  -6.00    4.3
2024/05/03 15:47:55.000   28.281190486  -16.515460580  2225.1472   1   8   0.0027   0.0029   0.0229   0.0020  -0.0067  -0.0051  -5.00   87.7
2024/05/03 15:47:56.000   28.281190486  -16.515460580  2225.1471   1   8   0.0027   0.0029   0.0229   0.0020  -0.0067  -0.0051  -4.00   88.0
2024/05/03 15:47:57.000   28.281190486  -16.515460580  2225.1469   1   8   0.0027   0.0029   0.0230   0.0020  -0.0067  -0.0051  -3.00   88.5
2024/05/03 15:47:58.000   28.281190469  -16.515460608  2225.1705   1   8   0.0026   0.0028   0.0217   0.0018  -0.0062  -0.0046  -2.00   14.1
2024/05/03 15:47:59.000   28.281190465  -16.515460615  2225.1758   1   8   0.0026   0.0028   0.0221   0.0019  -0.0064  -0.0047  -1.00    8.3
2024/05/03 15:48:00.000   28.281190474  -16.515460601  2225.1641   1   8   0.0026   0.0028   0.0226   0.0019  -0.0066  -0.0049   0.00    6.0
2024/05/03 15:48:01.000   28.281190486  -16.515460580  2225.1458   1   8   0.0027   0.0029   0.0231   0.0020  -0.0068  -0.0051   1.00   90.2
2024/05/03 15:48:02.000   28.281190485  -16.515460580  2225.1458   1   8   0.0027   0.0029   0.0232   0.0020  -0.0068  -0.0051   2.00   90.6
2024/05/03 15:48:03.000   28.281190485  -16.515460580  2225.1457   1   8   0.0027   0.0029   0.0232   0.0020  -0.0068  -0.0051   3.00   90.9
2024/05/03 15:48:04.000   28.281190484  -16.515460580  2225.1455   1   8   0.0027   0.0029   0.0232   0.0020  -0.0068  -0.0051   4.00   91.2
2024/05/03 15:48:05.000   28.281190480  -16.515460586  2225.1508   1   8   0.0027   0.0029   0.0228   0.0020  -0.0066  -0.0050   5.00    8.0
2024/05/03 15:48:06.000   28.281190484  -16.515460581  2225.1460   1   8   0.0027   0.0029   0.0231   0.0020  -0.0067  -0.0051   6.00    4.4
2024/05/03 15:48:07.000   28.281190485  -16.515460581  2225.1459   1   8   0.0027   0.0029   0.0233   0.0020  -0.0068  -0.0051   7.00   92.2
2024/05/03 15:48:08.000   28.281190485  -16.515460581  2225.1460   1   8   0.0027   0.0029   0.0233   0.0020  -0.0068  -0.0051   8.00   92.5
2024/05/03 15:48:09.000   28.281190485  -16.515460581  2225.1462   1   8   0.0027   0.0029   0.0233   0.0020  -0.0068  -0.0051   9.00   92.7
2024/05/03 15:48:10.000   28.281190485  -16.515460581  2225.1463   1   8   0.0027   0.0029   0.0233   0.0020  -0.0068  -0.0051  10.00   92.9
2024/05/03 15:48:11.000   28.281190485  -16.515460581  2225.1465   1   8   0.0027   0.0029   0.0233   0.0020  -0.0068  -0.0051  11.00   93.0
2024/05/03 15:48:12.000   28.281190485  -16.515460582  2225.1467   1   8   0.0027   0.0029   0.0233   0.0020  -0.0068  -0.0051  12.00   93.1
2024/05/03 15:48:13.000   28.281190485  -16.515460582  2225.1468   1   8   0.0027   0.0029   0.0233   0.0020  -0.0068  -0.0051  13.00   93.2
2024/05/03 15:48:14.000   28.281190485  -16.515460582  2225.1470   1   8   0.0027   0.0029   0.0233   0.0020  -0.0068  -0.0051  14.00   93.3
2024/05/03 15:48:15.000   28.281190485  -16.515460582  2225.1472   1   8   0.0027   0.0029   0.0233   0.0020  -0.0068  -0.0051  15.00   93.3
2024/05/03 15:48:16.000   28.281190485  -16.515460582  2225.1473   1   8   0.0027   0.0029   0.0233   0.0020  -0.0068  -0.0051 -14.00   93.4
2024/05/03 15:48:17.000   28.281190485  -16.515460582  2225.1474   1   8   0.0027   0.0029   0.0233   0.0020  -0.0068  -0.0051 -13.00   93.5
2024/05/03 15:48:18.000   28.281190485  -16.515460582  2225.1475   1   8   0.0027   0.0029   0.0233   0.0020  -0.0068  -0.0051 -12.00   93.6
2024/05/03 15:48:19.000   28.281190485  -16.515460582  2225.1476   1   8   0.0027   0.0029   0.0233   0.0020  -0.0068  -0.0051 -11.00   93.8
2024/05/03 15:48:20.000   28.281190485  -16.515460582  2225.1477   1   8   0.0027   0.0029   0.0233   0.0020  -0.0068  -0.0051 -10.00   93.9
2024/05/03 15:48:21.000   28.281190485  -16.515460582  2225.1477   1   8   0.0027   0.0029   0.0233   0.0020  -0.0068  -0.0051  -9.00   94.1
2024/05/03 15:48:22.000   28.281190485  -16.515460582  2225.1479   1   8   0.0027   0.0029   0.0233   0.0020  -0.0068  -0.0051  -8.00   94.3
2024/05/03 15:48:23.000   28.281190485  -16.515460582  2225.1481   1   8   0.0027   0.0029   0.0233   0.0020  -0.0068  -0.0051  -7.00   94.6
2024/05/03 15:48:24.000   28.281190491  -16.515460573  2225.1405   1   8   0.0027   0.0029   0.0231   0.0020  -0.0067  -0.0051  -6.00    4.0
2024/05/03 15:48:25.000   28.281190485  -16.515460583  2225.1487   1   8   0.0027   0.0029   0.0233   0.0020  -0.0068  -0.0052  -5.00   95.1
2024/05/03 15:48:26.000   28.281190490  -16.515460576  2225.1434   1   8   0.0026   0.0029   0.0228   0.0019  -0.0066  -0.0049  -4.00   25.7
2024/05/03 15:48:27.000   28.281190490  -16.515460576  2225.1438   1   8   0.0027   0.0029   0.0228   0.0020  -0.0066  -0.0049  -3.00   24.7
2024/05/03 15:48:28.000   28.281190490  -16.515460576  2225.1440   1   8   0.0027   0.0029   0.0229   0.0020  -0.0066  -0.0049  -2.00   23.3
2024/05/03 15:48:29.000   28.281190489  -16.515460577  2225.1448   1   8   0.0027   0.0029   0.0230   0.0020  -0.0066  -0.0050  -1.00   21.5
2024/05/03 15:48:30.000   28.281190488  -16.515460579  2225.1465   1   8   0.0027   0.0029   0.0231   0.0020  -0.0067  -0.0050   0.00   19.0
2024/05/03 15:48:31.000   28.281190485  -16.515460583  2225.1503   1   8   0.0027   0.0029   0.0236   0.0020  -0.0069  -0.0052   1.00   97.5
2024/05/03 15:48:32.000   28.281190484  -16.515460584  2225.1506   1   8   0.0027   0.0030   0.0236   0.0020  -0.0069  -0.0052   2.00   98.1
2024/05/03 15:48:33.000   28.281190478  -16.515460594  2225.1600   1   8   0.0027   0.0029   0.0232   0.0020  -0.0067  -0.0051   3.00    7.2
2024/05/03 15:48:34.000   28.281190491  -16.515460572  2225.1406   1   8   0.0027   0.0029   0.0234   0.0020  -0.0068  -0.0051   4.00    5.7
2024/05/03 15:48:35.000   28.281190483  -16.515460584  2225.1514   1   8   0.0027   0.0030   0.0237   0.0020  -0.0069  -0.0052   5.00   98.6
2024/05/03 15:48:36.000   28.281190483  -16.515460584  2225.1518   1   8   0.0027   0.0030   0.0237   0.0020  -0.0069  -0.0052   6.00   98.7
2024/05/03 15:48:37.000   28.281190484  -16.515460585  2225.1523   1   8   0.0027   0.0030   0.0237   0.0021  -0.0069  -0.0052   7.00   98.8
2024/05/03 15:48:38.000   28.281190484  -16.515460584  2225.1518   1   8   0.0027   0.0030   0.0236   0.0020  -0.0069  -0.0052   8.00    7.2
2024/05/03 15:48:39.000   28.281190484  -16.515460585  2225.1528   1   8   0.0027   0.0030   0.0238   0.0021  -0.0069  -0.0052   9.00   98.6
2024/05/03 15:48:40.000   28.281190484  -16.515460586  2225.1531   1   8   0.0027   0.0030   0.0238   0.0021  -0.0069  -0.0052  10.00   98.5
2024/05/03 15:48:41.000   28.281190484  -16.515460586  2225.1532   1   8   0.0027   0.0030   0.0238   0.0021  -0.0069  -0.0052  11.00   98.3
2024/05/03 15:48:42.000   28.281190484  -16.515460586  2225.1533   1   8   0.0027   0.0030   0.0238   0.0021  -0.0069  -0.0052  12.00   98.1
2024/05/03 15:48:43.000   28.281190483  -16.515460586  2225.1533   1   8   0.0027   0.0030   0.0238   0.0021  -0.0069  -0.0052  13.00   98.0
2024/05/03 15:48:44.000   28.281190484  -16.515460584  2225.1521   1   8   0.0027   0.0029   0.0235   0.0020  -0.0068  -0.0052  14.00   11.3
2024/05/03 15:48:45.000   28.281190484  -16.515460584  2225.1522   1   8   0.0027   0.0029   0.0236   0.0020  -0.0068  -0.0052  15.00   10.4
2024/05/03 15:48:46.000   28.281190484  -16.515460584  2225.1523   1   8   0.0027   0.0029   0.0236   0.0020  -0.0068  -0.0052 -14.00    9.6
2024/05/03 15:48:47.000   28.281190484  -16.515460584  2225.1524   1   8   0.0027   0.0029   0.0236   0.0020  -0.0069  -0.0052 -13.00    8.6
2024/05/03 15:48:48.000   28.281190484  -16.515460585  2225.1526   1   8   0.0027   0.0030   0.0236   0.0020  -0.0069  -0.0052 -12.00    7.5
2024/05/03 15:48:49.000   28.281190484  -16.515460585  2225.1529   1   8   0.0027   0.0030   0.0236   0.0020  -0.0069  -0.0052 -11.00    6.3
2024/05/03 15:48:50.000   28.281190483  -16.515460586  2225.1538   1   8   0.0027   0.0030   0.0238   0.0021  -0.0069  -0.0053 -10.00   96.4
2024/05/03 15:48:51.000   28.281190483  -16.515460586  2225.1539   1   8   0.0027   0.0030   0.0238   0.0021  -0.0069  -0.0053  -9.00   96.1
2024/05/03 15:48:52.000   28.281190484  -16.515460585  2225.1533   1   8   0.0027   0.0030   0.0237   0.0020  -0.0069  -0.0052  -8.00    3.6
2024/05/03 15:48:53.000   28.281190483  -16.515460586  2225.1539   1   8   0.0027   0.0030   0.0238   0.0021  -0.0069  -0.0053  -7.00   95.7
2024/05/03 15:48:54.000   28.281190468  -16.515460611  2225.1755   1   8   0.0027   0.0029   0.0227   0.0019  -0.0065  -0.0048  -6.00   12.8
2024/05/03 15:48:55.000   28.281190471  -16.515460605  2225.1709   1   8   0.0027   0.0029   0.0229   0.0020  -0.0066  -0.0049  -5.00   12.1
2024/05/03 15:48:56.000   28.281190475  -16.515460600  2225.1658   1   8   0.0027   0.0029   0.0232   0.0020  -0.0067  -0.0050  -4.00   10.7
2024/05/03 15:48:57.000   28.281190482  -16.515460588  2225.1557   1   8   0.0027   0.0029   0.0235   0.0020  -0.0068  -0.0051  -3.00    7.9
2024/05/03 15:48:58.000   28.281190501  -16.515460558  2225.1290   1   8   0.0027   0.0029   0.0234   0.0020  -0.0068  -0.0051  -2.00    4.3
2024/05/03 15:48:59.000   28.281190483  -16.515460587  2225.1536   1   8   0.0028   0.0030   0.0240   0.0021  -0.0070  -0.0053  -1.00   95.3
2024/05/03 15:49:00.000   28.281190483  -16.515460587  2225.1534   1   8   0.0028   0.0030   0.0240   0.0021  -0.0070  -0.0053   0.00   95.5
2024/05/03 15:49:01.000   28.281190484  -16.515460588  2225.1531   1   7   0.0028   0.0030   0.0241   0.0021  -0.0070  -0.0053   1.00   95.8
2024/05/03 15:49:02.000   28.281190515  -16.515460540  2225.1114   1   7   0.0027   0.0029   0.0230   0.0019  -0.0066  -0.0049   2.00    8.3
2024/05/03 15:49:03.000   28.281190502  -16.515460562  2225.1299   1   7   0.0027   0.0029   0.0234   0.0020  -0.0067  -0.0051   3.00    8.8
2024/05/03 15:49:04.000   28.281190487  -16.515460581  2225.1653   1   7   0.0025   0.0027   0.0221   0.0019  -0.0063  -0.0049   4.00    3.4
2024/05/03 15:49:05.000   28.281190480  -16.515460593  2225.1760   1   7   0.0025   0.0027   0.0224   0.0019  -0.0064  -0.0050   5.00    3.6
2024/05/03 15:49:06.000   28.281190485  -16.515460584  2225.1685   1   7   0.0025   0.0027   0.0222   0.0019  -0.0064  -0.0049   6.00    4.0
2024/05/03 15:49:07.000   28.281190477  -16.515460598  2225.1804   1   7   0.0024   0.0026   0.0216   0.0018  -0.0061  -0.0047   7.00    3.4
2024/05/03 15:49:08.000   28.281190477  -16.515460597  2225.1796   1   7   0.0024   0.0026   0.0215   0.0018  -0.0061  -0.0046   8.00    3.8
2024/05/03 15:49:09.000   28.281190480  -16.515460592  2225.1752   1   7   0.0025   0.0027   0.0224   0.0019  -0.0064  -0.0050   9.00    5.4
2024/05/03 15:49:10.000   28.281190478  -16.515460595  2225.1773   1   7   0.0024   0.0027   0.0219   0.0018  -0.0062  -0.0048  10.00    5.0
2024/05/03 15:49:11.000   28.281190481  -16.515460591  2225.1741   1   7   0.0025   0.0027   0.0223   0.0019  -0.0064  -0.0049  11.00    5.9
2024/05/03 15:49:12.000   28.281190480  -16.515460592  2225.1743   1   7   0.0025   0.0027   0.0223   0.0019  -0.0064  -0.0049  12.00    6.1
2024/05/03 15:49:13.000   28.281190477  -16.515460597  2225.1784   1   7   0.0024   0.0026   0.0217   0.0018  -0.0062  -0.0047  13.00    6.0
2024/05/03 15:49:14.000   28.281190477  -16.515460597  2225.1792   1   7   0.0024   0.0026   0.0217   0.0018  -0.0061  -0.0047  14.00    6.1
2024/05/03 15:49:15.000   28.281190478  -16.515460595  2225.1764   1   7   0.0025   0.0027   0.0220   0.0019  -0.0063  -0.0048 -15.00    5.1
2024/05/03 15:49:16.000   28.281190478  -16.515460596  2225.1773   1   7   0.0024   0.0027   0.0218   0.0018  -0.0062  -0.0048 -14.00    4.9
2024/05/03 15:49:17.000   28.281190480  -16.515460592  2225.1742   1   7   0.0025   0.0027   0.0223   0.0019  -0.0064  -0.0050 -13.00    5.2
2024/05/03 15:49:18.000   28.281190481  -16.515460591  2225.1731   1   7   0.0025   0.0027   0.0222   0.0019  -0.0064  -0.0049 -12.00    5.2
2024/05/03 15:49:19.000   28.281190480  -16.515460592  2225.1741   1   7   0.0025   0.0027   0.0223   0.0019  -0.0064  -0.0050 -11.00    5.3
2024/05/03 15:49:20.000   28.281190477  -16.515460597  2225.1782   1   7   0.0024   0.0026   0.0216   0.0018  -0.0061  -0.0047 -10.00    5.4
2024/05/03 15:49:21.000   28.281190482  -16.515460590  2225.1721   1   7   0.0024   0.0027   0.0219   0.0019  -0.0063  -0.0048  -9.00    5.5
2024/05/03 15:49:22.000   28.281190479  -16.515460593  2225.1752   1   7   0.0025   0.0027   0.0220   0.0019  -0.0063  -0.0049  -8.00    5.5
2024/05/03 15:49:23.000   28.281190479  -16.515460594  2225.1759   1   7   0.0025   0.0027   0.0221   0.0019  -0.0064  -0.0049  -7.00    5.6
2024/05/03 15:49:24.000   28.281190475  -16.515460600  2225.1804   1   7   0.0024   0.0026   0.0216   0.0018  -0.0062  -0.0047  -6.00    3.1
2024/05/03 15:49:25.000   28.281190479  -16.515460593  2225.1752   1   7   0.0025   0.0027   0.0222   0.0019  -0.0064  -0.0049  -5.00   23.6
2024/05/03 15:49:26.000   28.281190494  -16.515460569  2225.1524   1   7   0.0024   0.0025   0.0207   0.0017  -0.0058  -0.0044  -4.00    3.2
2024/05/03 15:49:27.000   28.281190492  -16.515460573  2225.1566   1   7   0.0024   0.0025   0.0206   0.0017  -0.0058  -0.0043  -3.00    3.9
2024/05/03 15:49:28.000   28.281190493  -16.515460572  2225.1563   1   7   0.0024   0.0025   0.0206   0.0017  -0.0057  -0.0043  -2.00    4.4
2024/05/03 15:49:29.000   28.281190502  -16.515460557  2225.1427   1   7   0.0024   0.0026   0.0212   0.0018  -0.0060  -0.0046  -1.00   45.0
2024/05/03 15:49:30.000   28.281190487  -16.515460581  2225.1639   1   7   0.0024   0.0025   0.0209   0.0017  -0.0059  -0.0044   0.00   11.8
2024/05/03 15:49:31.000   28.281190494  -16.515460573  2225.1559   1   7   0.0023   0.0025   0.0204   0.0017  -0.0056  -0.0042   1.00   21.9
2024/05/03 15:49:32.000   28.281190493  -16.515460573  2225.1567   1   7   0.0023   0.0025   0.0205   0.0017  -0.0057  -0.0043   2.00   16.8
2024/05/03 15:49:33.000   28.281190492  -16.515460574  2225.1579   1   7   0.0023   0.0025   0.0205   0.0017  -0.0057  -0.0043   3.00   12.9
2024/05/03 15:49:34.000   28.281190478  -16.515460595  2225.1764   1   7   0.0024   0.0026   0.0217   0.0018  -0.0062  -0.0047   4.00   86.2
2024/05/03 15:49:35.000   28.281190482  -16.515460591  2225.1577   1   7   0.0024   0.0027   0.0211   0.0018  -0.0062  -0.0047   5.00    8.1
2024/05/03 15:49:36.000   28.281190482  -16.515460593  2225.1588   1   7   0.0024   0.0026   0.0204   0.0018  -0.0059  -0.0045   6.00    9.2
2024/05/03 15:49:37.000   28.281190485  -16.515460587  2225.1544   1   7   0.0024   0.0026   0.0205   0.0018  -0.0060  -0.0045   7.00    6.5
2024/05/03 15:49:38.000   28.281190483  -16.515460590  2225.1563   1   7   0.0024   0.0026   0.0205   0.0018  -0.0060  -0.0045   8.00   10.4
2024/05/03 15:49:39.000   28.281190482  -16.515460592  2225.1582   1   7   0.0024   0.0026   0.0210   0.0018  -0.0062  -0.0047   9.00   11.7
2024/05/03 15:49:40.000   28.281190483  -16.515460590  2225.1572   1   7   0.0024   0.0026   0.0208   0.0018  -0.0061  -0.0046  10.00    5.0
2024/05/03 15:49:41.000   28.281190482  -16.515460591  2225.1577   1   7   0.0024   0.0026   0.0208   0.0018  -0.0061  -0.0046  11.00    4.6
2024/05/03 15:49:42.000   28.281190483  -16.515460591  2225.1576   1   7   0.0024   0.0026   0.0207   0.0018  -0.0061  -0.0046  12.00    7.4
2024/05/03 15:49:43.000   28.281190482  -16.515460591  2225.1581   1   7   0.0024   0.0026   0.0209   0.0018  -0.0061  -0.0047  13.00   15.3
2024/05/03 15:49:44.000   28.281190483  -16.515460591  2225.1573   1   7   0.0024   0.0026   0.0208   0.0018  -0.0061  -0.0046  14.00    3.3
2024/05/03 15:49:45.000   28.281190482  -16.515460591  2225.1580   1   7   0.0024   0.0026   0.0209   0.0018  -0.0061  -0.0047 -15.00   17.1
2024/05/03 15:49:46.000   28.281190482  -16.515460591  2225.1580   1   7   0.0024   0.0026   0.0209   0.0018  -0.0061  -0.0047 -14.00   18.0
2024/05/03 15:49:47.000   28.281190483  -16.515460590  2225.1571   1   7   0.0024   0.0026   0.0208   0.0018  -0.0061  -0.0046 -13.00    3.7
2024/05/03 15:49:48.000   28.281190482  -16.515460591  2225.1578   1   7   0.0024   0.0026   0.0209   0.0018  -0.0061  -0.0046 -12.00   19.7
2024/05/03 15:49:49.000   28.281190482  -16.515460591  2225.1579   1   7   0.0024   0.0026   0.0209   0.0018  -0.0061  -0.0046 -11.00   20.6
2024/05/03 15:49:50.000   28.281190482  -16.515460591  2225.1579   1   7   0.0024   0.0026   0.0209   0.0018  -0.0061  -0.0046 -10.00   21.4
2024/05/03 15:49:51.000   28.281190483  -16.515460590  2225.1571   1   7   0.0024   0.0026   0.0207   0.0018  -0.0060  -0.0046  -9.00    3.3
2024/05/03 15:49:52.000   28.281190482  -16.515460590  2225.1575   1   7   0.0024   0.0026   0.0208   0.0018  -0.0061  -0.0046  -8.00   23.2
2024/05/03 15:49:53.000   28.281190483  -16.515460590  2225.1573   1   7   0.0024   0.0026   0.0204   0.0018  -0.0059  -0.0045  -7.00    7.3
2024/05/03 15:49:54.000   28.281190481  -16.515460593  2225.1597   1   7   0.0024   0.0026   0.0203   0.0018  -0.0059  -0.0044  -6.00   15.1
2024/05/03 15:49:55.000   28.281190487  -16.515460582  2225.1501   1   7   0.0024   0.0026   0.0203   0.0018  -0.0059  -0.0045  -5.00    4.5
2024/05/03 15:49:56.000   28.281190476  -16.515460601  2225.1666   1   7   0.0024   0.0026   0.0202   0.0018  -0.0059  -0.0044  -4.00    8.3
2024/05/03 15:49:57.000   28.281190485  -16.515460586  2225.1534   1   7   0.0024   0.0025   0.0201   0.0017  -0.0058  -0.0044  -3.00   14.4
2024/05/03 15:49:58.000   28.281190482  -16.515460591  2225.1581   1   7   0.0024   0.0026   0.0207   0.0018  -0.0061  -0.0046  -2.00   28.1
2024/05/03 15:49:59.000   28.281190483  -16.515460589  2225.1568   1   7   0.0023   0.0025   0.0199   0.0017  -0.0057  -0.0043  -1.00   18.6
2024/05/03 15:50:00.000   28.281190481  -16.515460591  2225.1584   1   7   0.0024   0.0026   0.0207   0.0018  -0.0061  -0.0046   0.00   29.3
2024/05/03 15:50:01.000   28.281190464  -16.515460620  2225.1824   1   7   0.0023   0.0025   0.0196   0.0017  -0.0056  -0.0042   1.00    8.7
2024/05/03 15:50:02.000   28.281190469  -16.515460612  2225.1756   1   7   0.0023   0.0025   0.0196   0.0017  -0.0056  -0.0042   2.00   13.3
2024/05/03 15:50:03.000   28.281190501  -16.515460561  2225.1326   1   7   0.0023   0.0025   0.0199   0.0017  -0.0057  -0.0043   3.00    4.0
2024/05/03 15:50:04.000   28.281190497  -16.515460568  2225.1384   1   7   0.0023   0.0025   0.0199   0.0017  -0.0057  -0.0043   4.00    6.5
2024/05/03 15:50:05.000   28.281190481  -16.515460592  2225.1592   1   7   0.0024   0.0026   0.0207   0.0018  -0.0060  -0.0046   5.00   30.8
2024/05/03 15:50:06.000   28.281190484  -16.515460587  2225.1546   1   7   0.0024   0.0026   0.0203   0.0018  -0.0059  -0.0045   6.00    7.0
2024/05/03 15:50:07.000   28.281190481  -16.515460593  2225.1593   1   7   0.0024   0.0026   0.0207   0.0018  -0.0060  -0.0046   7.00   31.8
2024/05/03 15:50:08.000   28.281190481  -16.515460593  2225.1593   1   7   0.0024   0.0026   0.0207   0.0018  -0.0060  -0.0046   8.00   32.3
2024/05/03 15:50:09.000   28.281190481  -16.515460593  2225.1590   1   7   0.0024   0.0026   0.0205   0.0018  -0.0060  -0.0045   9.00    3.4
2024/05/03 15:50:10.000   28.281190480  -16.515460594  2225.1601   1   7   0.0024   0.0026   0.0206   0.0018  -0.0060  -0.0046  10.00    4.0
2024/05/03 15:50:11.000   28.281190479  -16.515460595  2225.1611   1   7   0.0024   0.0026   0.0205   0.0018  -0.0060  -0.0045  11.00    5.9
2024/05/03 15:50:12.000   28.281190481  -16.515460593  2225.1594   1   7   0.0024   0.0026   0.0206   0.0018  -0.0060  -0.0046  12.00   34.2
2024/05/03 15:50:13.000   28.281190481  -16.515460593  2225.1594   1   7   0.0024   0.0026   0.0206   0.0018  -0.0060  -0.0046  13.00    3.2
2024/05/03 15:50:14.000   28.281190480  -16.515460594  2225.1601   1   7   0.0024   0.0026   0.0205   0.0018  -0.0060  -0.0045  14.00    5.2
2024/05/03 15:50:15.000   28.281190481  -16.515460593  2225.1594   1   7   0.0024   0.0026   0.0206   0.0018  -0.0060  -0.0046 -15.00   35.9
2024/05/03 15:50:16.000   28.281190481  -16.515460593  2225.1594   1   7   0.0024   0.0026   0.0206   0.0018  -0.0060  -0.0046 -14.00   36.5
2024/05/03 15:50:17.000   28.281190481  -16.515460593  2225.1593   1   7   0.0024   0.0026   0.0205   0.0018  -0.0060  -0.0045 -13.00    3.3
2024/05/03 15:50:18.000   28.281190488  -16.515460582  2225.1496   1   7   0.0024   0.0026   0.0204   0.0018  -0.0059  -0.0045 -12.00   37.4
2024/05/03 15:50:19.000   28.281190486  -16.515460584  2225.1520   1   7   0.0024   0.0026   0.0204   0.0018  -0.0059  -0.0045 -11.00   37.9
2024/05/03 15:50:20.000   28.281190484  -16.515460588  2225.1547   1   7   0.0024   0.0026   0.0203   0.0018  -0.0059  -0.0044 -10.00    8.5
2024/05/03 15:50:21.000   28.281190482  -16.515460591  2225.1575   1   7   0.0024   0.0026   0.0202   0.0018  -0.0059  -0.0044  -9.00   11.1
2024/05/03 15:50:22.000   28.281190477  -16.515460598  2225.1634   1   7   0.0024   0.0026   0.0204   0.0018  -0.0059  -0.0045  -8.00    4.9
2024/05/03 15:50:23.000   28.281190483  -16.515460589  2225.1559   1   7   0.0024   0.0026   0.0203   0.0018  -0.0059  -0.0045  -7.00    5.7
2024/05/03 15:50:24.000   28.281190480  -16.515460594  2225.1598   1   7   0.0024   0.0026   0.0205   0.0018  -0.0060  -0.0046  -6.00   39.1
2024/05/03 15:50:25.000   28.281190480  -16.515460594  2225.1598   1   7   0.0024   0.0026   0.0205   0.0018  -0.0060  -0.0046  -5.00   39.2
2024/05/03 15:50:26.000   28.281190477  -16.515460599  2225.1641   1   7   0.0023   0.0025   0.0201   0.0017  -0.0058  -0.0044  -4.00    9.8
2024/05/03 15:50:27.000   28.281190480  -16.515460593  2225.1597   1   7   0.0024   0.0026   0.0205   0.0018  -0.0060  -0.0046  -3.00   39.6
2024/05/03 15:50:28.000   28.281190475  -16.515460602  2225.1664   1   7   0.0023   0.0025   0.0201   0.0017  -0.0058  -0.0044  -2.00    9.1
2024/05/03 15:50:29.000   28.281190461  -16.515460624  2225.1851   1   7   0.0023   0.0025   0.0198   0.0017  -0.0057  -0.0043  -1.00    5.6
2024/05/03 15:50:30.000   28.281190490  -16.515460579  2225.1472   1   7   0.0023   0.0025   0.0197   0.0017  -0.0057  -0.0042   0.00   12.9
2024/05/03 15:50:31.000   28.281190480  -16.515460594  2225.1595   1   7   0.0024   0.0026   0.0205   0.0018  -0.0060  -0.0045   1.00   39.9
2024/05/03 15:50:32.000   28.281190494  -16.515460572  2225.1411   1   7   0.0023   0.0025   0.0198   0.0017  -0.0057  -0.0043   2.00    7.3
2024/05/03 15:50:33.000   28.281190480  -16.515460594  2225.1595   1   7   0.0024   0.0026   0.0205   0.0018  -0.0060  -0.0045   3.00   40.1
2024/05/03 15:50:34.000   28.281190468  -16.515460612  2225.1756   1   7   0.0023   0.0025   0.0200   0.0017  -0.0058  -0.0044   4.00    4.6
2024/05/03 15:50:35.000   28.281190480  -16.515460593  2225.1593   1   7   0.0024   0.0026   0.0205   0.0018  -0.0060  -0.0045   5.00   40.3
2024/05/03 15:50:36.000   28.281190480  -16.515460593  2225.1593   1   7   0.0024   0.0026   0.0205   0.0018  -0.0060  -0.0045   6.00   40.3
2024/05/03 15:50:37.000   28.281190483  -16.515460588  2225.1552   1   7   0.0023   0.0025   0.0202   0.0018  -0.0059  -0.0045   7.00    4.5
2024/05/03 15:50:38.000   28.281190480  -16.515460593  2225.1594   1   7   0.0024   0.0026   0.0205   0.0018  -0.0060  -0.0045   8.00   40.6
2024/05/03 15:50:39.000   28.281190479  -16.515460593  2225.1595   1   7   0.0024   0.0026   0.0205   0.0018  -0.0060  -0.0045   9.00   40.9
2024/05/03 15:50:40.000   28.281190481  -16.515460591  2225.1578   1   7   0.0024   0.0026   0.0203   0.0018  -0.0059  -0.0045  10.00    3.6
2024/05/03 15:50:41.000   28.281190479  -16.515460593  2225.1596   1   7   0.0024   0.0026   0.0205   0.0018  -0.0060  -0.0045  11.00   41.7
2024/05/03 15:50:42.000   28.281190479  -16.515460593  2225.1596   1   7   0.0024   0.0026   0.0205   0.0018  -0.0060  -0.0045  12.00   42.0
2024/05/03 15:50:43.000   28.281190479  -16.515460593  2225.1594   1   7   0.0024   0.0026   0.0204   0.0018  -0.0059  -0.0045  13.00   42.5
2024/05/03 15:50:44.000   28.281190479  -16.515460594  2225.1597   1   7   0.0024   0.0026   0.0205   0.0018  -0.0060  -0.0045  14.00   42.9
2024/05/03 15:50:45.000   28.281190479  -16.515460594  2225.1598   1   7   0.0024   0.0026   0.0203   0.0018  -0.0059  -0.0045 -15.00    5.3
2024/05/03 15:50:46.000   28.281190479  -16.515460594  2225.1597   1   7   0.0024   0.0026   0.0204   0.0018  -0.0060  -0.0045 -14.00   43.7
2024/05/03 15:50:47.000   28.281190479  -16.515460594  2225.1597   1   7   0.0024   0.0026   0.0204   0.0018  -0.0060  -0.0045 -13.00   44.1
2024/05/03 15:50:48.000   28.281190479  -16.515460593  2225.1597   1   7   0.0024   0.0026   0.0204   0.0018  -0.0060  -0.0045 -12.00   44.5
2024/05/03 15:50:49.000   28.281190479  -16.515460594  2225.1597   1   7   0.0024   0.0026   0.0204   0.0018  -0.0060  -0.0045 -11.00   44.8
2024/05/03 15:50:50.000   28.281190479  -16.515460594  2225.1598   1   7   0.0024   0.0026   0.0204   0.0018  -0.0060  -0.0045 -10.00   45.2
2024/05/03 15:50:51.000   28.281190479  -16.515460594  2225.1598   1   7   0.0024   0.0026   0.0204   0.0018  -0.0060  -0.0045  -9.00   45.7
2024/05/03 15:50:52.000   28.281190480  -16.515460592  2225.1581   1   7   0.0023   0.0025   0.0202   0.0018  -0.0059  -0.0045  -8.00    4.4
2024/05/03 15:50:53.000   28.281190479  -16.515460594  2225.1599   1   7   0.0024   0.0026   0.0204   0.0018  -0.0059  -0.0045  -7.00   46.8
2024/05/03 15:50:54.000   28.281190480  -16.515460592  2225.1586   1   7   0.0023   0.0025   0.0200   0.0017  -0.0058  -0.0044  -6.00    5.9
2024/05/03 15:50:55.000   28.281190478  -16.515460595  2225.1611   1   7   0.0023   0.0025   0.0199   0.0017  -0.0058  -0.0044  -5.00   12.1
2024/05/03 15:50:56.000   28.281190478  -16.515460594  2225.1600   1   7   0.0024   0.0026   0.0204   0.0018  -0.0059  -0.0045  -4.00   48.3
2024/05/03 15:50:57.000   28.281190490  -16.515460577  2225.1455   1   7   0.0023   0.0025   0.0198   0.0017  -0.0057  -0.0043  -3.00    6.5
2024/05/03 15:50:58.000   28.281190469  -16.515460609  2225.1725   1   7   0.0023   0.0025   0.0197   0.0017  -0.0057  -0.0043  -2.00    9.7
2024/05/03 15:50:59.000   28.281190501  -16.515460560  2225.1310   1   7   0.0023   0.0025   0.0196   0.0017  -0.0056  -0.0042  -1.00    3.7
2024/05/03 15:51:00.000   28.281190479  -16.515460595  2225.1600   1   8   0.0023   0.0026   0.0204   0.0018  -0.0059  -0.0045   0.00   49.7
2024/05/03 15:51:01.000   28.281190452  -16.515460635  2225.1949   1   8   0.0023   0.0025   0.0197   0.0017  -0.0057  -0.0043   1.00   49.8
2024/05/03 15:51:02.000   28.281190466  -16.515460612  2225.1757   1   8   0.0023   0.0025   0.0200   0.0017  -0.0058  -0.0044   2.00   49.8
2024/05/03 15:51:03.000   28.281190478  -16.515460594  2225.1597   1   8   0.0023   0.0026   0.0204   0.0018  -0.0059  -0.0045   3.00   50.3
2024/05/03 15:51:04.000   28.281190483  -16.515460585  2225.1528   1   8   0.0023   0.0025   0.0199   0.0017  -0.0058  -0.0044   4.00    4.9
2024/05/03 15:51:05.000   28.281190467  -16.515460610  2225.1738   1   8   0.0023   0.0025   0.0200   0.0017  -0.0058  -0.0044   5.00    4.6
2024/05/03 15:51:06.000   28.281190478  -16.515460594  2225.1597   1   8   0.0023   0.0026   0.0204   0.0018  -0.0059  -0.0045   6.00   52.0
2024/05/03 15:51:07.000   28.281190478  -16.515460594  2225.1596   1   8   0.0023   0.0026   0.0204   0.0018  -0.0059  -0.0045   7.00   52.6
2024/05/03 15:51:08.000   28.281190477  -16.515460595  2225.1607   1   8   0.0023   0.0025   0.0203   0.0018  -0.0059  -0.0045   8.00    4.3
2024/05/03 15:51:09.000   28.281190476  -16.515460597  2225.1624   1   8   0.0023   0.0025   0.0202   0.0018  -0.0059  -0.0045   9.00    6.8
2024/05/03 15:51:10.000   28.281190478  -16.515460593  2225.1597   1   8   0.0023   0.0026   0.0204   0.0018  -0.0059  -0.0045  10.00   54.1
2024/05/03 15:51:11.000   28.281190477  -16.515460594  2225.1605   1   8   0.0023   0.0025   0.0203   0.0018  -0.0059  -0.0045  11.00   54.6
2024/05/03 15:51:12.000   28.281190478  -16.515460594  2225.1597   1   8   0.0023   0.0026   0.0204   0.0018  -0.0059  -0.0045  12.00   55.2
2024/05/03 15:51:13.000   28.281190478  -16.515460594  2225.1597   1   8   0.0023   0.0026   0.0204   0.0018  -0.0059  -0.0045  13.00   55.5
2024/05/03 15:51:14.000   28.281190478  -16.515460594  2225.1597   1   8   0.0023   0.0026   0.0204   0.0018  -0.0059  -0.0045  14.00   55.8
2024/05/03 15:51:15.000   28.281190478  -16.515460594  2225.1597   1   8   0.0023   0.0026   0.0203   0.0018  -0.0059  -0.0045 -15.00   56.1
2024/05/03 15:51:16.000   28.281190478  -16.515460594  2225.1596   1   8   0.0023   0.0026   0.0203   0.0018  -0.0059  -0.0045 -14.00   56.4
2024/05/03 15:51:17.000   28.281190478  -16.515460594  2225.1597   1   8   0.0023   0.0026   0.0203   0.0018  -0.0059  -0.0045 -13.00   56.8
2024/05/03 15:51:18.000   28.281190478  -16.515460594  2225.1597   1   8   0.0023   0.0026   0.0203   0.0018  -0.0059  -0.0045 -12.00   57.1
2024/05/03 15:51:19.000   28.281190478  -16.515460594  2225.1597   1   8   0.0023   0.0026   0.0203   0.0018  -0.0059  -0.0045 -11.00   57.4
2024/05/03 15:51:20.000   28.281190478  -16.515460594  2225.1596   1   8   0.0023   0.0026   0.0203   0.0018  -0.0059  -0.0045 -10.00   57.7
2024/05/03 15:51:21.000   28.281190478  -16.515460594  2225.1595   1   8   0.0023   0.0026   0.0203   0.0018  -0.0059  -0.0045  -9.00   58.0
2024/05/03 15:51:22.000   28.281190476  -16.515460597  2225.1624   1   8   0.0023   0.0025   0.0201   0.0017  -0.0058  -0.0044  -8.00   58.4
2024/05/03 15:51:23.000   28.281190478  -16.515460594  2225.1594   1   8   0.0023   0.0026   0.0203   0.0018  -0.0059  -0.0045  -7.00   58.8
2024/05/03 15:51:24.000   28.281190475  -16.515460598  2225.1632   1   8   0.0023   0.0025   0.0200   0.0017  -0.0058  -0.0044  -6.00   10.1
2024/05/03 15:51:25.000   28.281190476  -16.515460596  2225.1615   1   8   0.0023   0.0025   0.0201   0.0017  -0.0058  -0.0044  -5.00    7.2
2024/05/03 15:51:26.000   28.281190478  -16.515460594  2225.1597   1   8   0.0023   0.0025   0.0203   0.0018  -0.0059  -0.0045  -4.00   60.1
2024/05/03 15:51:27.000   28.281190478  -16.515460594  2225.1596   1   8   0.0023   0.0025   0.0203   0.0018  -0.0059  -0.0045  -3.00   60.4
2024/05/03 15:51:28.000   28.281190467  -16.515460610  2225.1731   1   8   0.0023   0.0025   0.0195   0.0017  -0.0056  -0.0042  -2.00    3.6
2024/05/03 15:51:29.000   28.281190456  -16.515460629  2225.1885   1   8   0.0023   0.0025   0.0196   0.0017  -0.0056  -0.0043  -1.00    4.7
2024/05/03 15:51:30.000   28.281190442  -16.515460651  2225.2075   1   8   0.0023   0.0024   0.0192   0.0016  -0.0055  -0.0041   0.00    4.5
2024/05/03 15:51:31.000   28.281190481  -16.515460591  2225.1565   1   8   0.0023   0.0025   0.0196   0.0017  -0.0056  -0.0043   1.00   61.8
2024/05/03 15:51:32.000   28.281190477  -16.515460598  2225.1615   1   8   0.0023   0.0025   0.0200   0.0017  -0.0058  -0.0044   2.00   62.2
2024/05/03 15:51:33.000   28.281190479  -16.515460595  2225.1593   1   8   0.0023   0.0025   0.0203   0.0018  -0.0059  -0.0045   3.00   62.3
2024/05/03 15:51:34.000   28.281190477  -16.515460599  2225.1625   1   8   0.0023   0.0025   0.0196   0.0017  -0.0056  -0.0042   4.00    8.3
2024/05/03 15:51:35.000   28.281190472  -16.515460605  2225.1686   1   8   0.0023   0.0025   0.0196   0.0017  -0.0056  -0.0043   5.00   14.1
2024/05/03 15:51:36.000   28.281190472  -16.515460605  2225.1683   1   8   0.0023   0.0025   0.0196   0.0017  -0.0057  -0.0043   6.00   16.8
2024/05/03 15:51:37.000   28.281190478  -16.515460594  2225.1588   1   8   0.0023   0.0025   0.0202   0.0018  -0.0059  -0.0045   7.00   63.1
2024/05/03 15:51:38.000   28.281190478  -16.515460594  2225.1592   1   8   0.0023   0.0025   0.0203   0.0018  -0.0059  -0.0045   8.00   63.3
2024/05/03 15:51:39.000   28.281190478  -16.515460594  2225.1593   1   8   0.0023   0.0025   0.0203   0.0018  -0.0059  -0.0045   9.00   63.7
2024/05/03 15:51:40.000   28.281190478  -16.515460594  2225.1593   1   8   0.0023   0.0025   0.0203   0.0018  -0.0059  -0.0045  10.00   64.1
2024/05/03 15:51:41.000   28.281190477  -16.515460596  2225.1606   1   8   0.0023   0.0025   0.0202   0.0018  -0.0059  -0.0045  11.00    3.0
2024/05/03 15:51:42.000   28.281190478  -16.515460595  2225.1597   1   8   0.0023   0.0025   0.0202   0.0018  -0.0059  -0.0045  12.00   65.0
2024/05/03 15:51:43.000   28.281190478  -16.515460594  2225.1594   1   8   0.0023   0.0025   0.0203   0.0018  -0.0059  -0.0045  13.00   65.4
2024/05/03 15:51:44.000   28.281190478  -16.515460595  2225.1600   1   8   0.0023   0.0025   0.0202   0.0018  -0.0059  -0.0045  14.00    5.8
2024/05/03 15:51:45.000   28.281190477  -16.515460596  2225.1613   1   8   0.0023   0.0025   0.0202   0.0018  -0.0059  -0.0045 -15.00   66.3
2024/05/03 15:51:46.000   28.281190477  -16.515460596  2225.1612   1   8   0.0023   0.0025   0.0202   0.0018  -0.0059  -0.0045 -14.00   66.6
2024/05/03 15:51:47.000   28.281190477  -16.515460596  2225.1610   1   8   0.0023   0.0025   0.0202   0.0018  -0.0059  -0.0045 -13.00    4.9
2024/05/03 15:51:48.000   28.281190476  -16.515460597  2225.1616   1   8   0.0023   0.0025   0.0201   0.0017  -0.0059  -0.0045 -12.00    6.4
2024/05/03 15:51:49.000   28.281190478  -16.515460594  2225.1595   1   8   0.0023   0.0025   0.0203   0.0018  -0.0059  -0.0045 -11.00   67.2
2024/05/03 15:51:50.000   28.281190475  -16.515460600  2225.1641   1   8   0.0023   0.0025   0.0200   0.0017  -0.0058  -0.0044 -10.00    3.4
2024/05/03 15:51:51.000   28.281190474  -16.515460599  2225.1638   1   8   0.0023   0.0025   0.0201   0.0017  -0.0058  -0.0045  -9.00    5.3
2024/05/03 15:51:52.000   28.281190471  -16.515460604  2225.1679   1   8   0.0023   0.0025   0.0200   0.0017  -0.0058  -0.0044  -8.00    6.4
2024/05/03 15:51:53.000   28.281190482  -16.515460588  2225.1543   1   8   0.0023   0.0025   0.0200   0.0017  -0.0058  -0.0044  -7.00   67.6
2024/05/03 15:51:54.000   28.281190480  -16.515460590  2225.1559   1   8   0.0023   0.0025   0.0201   0.0017  -0.0058  -0.0045  -6.00   67.6
2024/05/03 15:51:55.000   28.281190478  -16.515460594  2225.1597   1   8   0.0023   0.0025   0.0203   0.0018  -0.0059  -0.0045  -5.00   67.7
2024/05/03 15:51:56.000   28.281190479  -16.515460593  2225.1588   1   8   0.0023   0.0025   0.0198   0.0017  -0.0057  -0.0043  -4.00    8.7
2024/05/03 15:51:57.000   28.281190459  -16.515460623  2225.1838   1   8   0.0023   0.0025   0.0197   0.0017  -0.0057  -0.0043  -3.00    4.6
2024/05/03 15:51:58.000   28.281190475  -16.515460599  2225.1635   1   8   0.0023   0.0025   0.0199   0.0017  -0.0058  -0.0044  -2.00   10.7
2024/05/03 15:51:59.000   28.281190464  -16.515460614  2225.1768   1   8   0.0023   0.0025   0.0195   0.0017  -0.0056  -0.0042  -1.00   15.3
2024/05/03 15:52:00.000   28.281190482  -16.515460587  2225.1544   1   8   0.0023   0.0025   0.0195   0.0017  -0.0056  -0.0042   0.00   12.7
2024/05/03 15:52:01.000   28.281190477  -16.515460595  2225.1603   1   8   0.0023   0.0025   0.0202   0.0018  -0.0059  -0.0045   1.00   68.9
2024/05/03 15:52:02.000   28.281190471  -16.515460606  2225.1683   1   8   0.0023   0.0025   0.0196   0.0017  -0.0056  -0.0043   2.00   11.2
2024/05/03 15:52:03.000   28.281190475  -16.515460598  2225.1619   1   8   0.0023   0.0025   0.0199   0.0017  -0.0057  -0.0044   3.00   68.8
2024/05/03 15:52:04.000   28.281190476  -16.515460595  2225.1596   1   8   0.0023   0.0025   0.0202   0.0018  -0.0059  -0.0045   4.00   68.6
2024/05/03 15:52:05.000   28.281190473  -16.515460600  2225.1643   1   8   0.0023   0.0025   0.0199   0.0017  -0.0057  -0.0044   5.00   15.1
2024/05/03 15:52:06.000   28.281190476  -16.515460595  2225.1593   1   8   0.0023   0.0025   0.0202   0.0018  -0.0059  -0.0045   6.00   68.2
2024/05/03 15:52:07.000   28.281190474  -16.515460597  2225.1613   1   8   0.0023   0.0025   0.0200   0.0017  -0.0058  -0.0044   7.00   68.1
2024/05/03 15:52:08.000   28.281190475  -16.515460596  2225.1600   1   8   0.0023   0.0025   0.0202   0.0017  -0.0059  -0.0045   8.00   67.9
2024/05/03 15:52:09.000   28.281190478  -16.515460591  2225.1562   1   8   0.0023   0.0025   0.0202   0.0018  -0.0059  -0.0045   9.00   67.8
2024/05/03 15:52:10.000   28.281190475  -16.515460596  2225.1606   1   8   0.0023   0.0025   0.0202   0.0018  -0.0059  -0.0045  10.00    3.1
2024/05/03 15:52:11.000   28.281190476  -16.515460595  2225.1589   1   8   0.0023   0.0025   0.0203   0.0018  -0.0059  -0.0045  11.00   67.8
2024/05/03 15:52:12.000   28.281190476  -16.515460594  2225.1589   1   8   0.0023   0.0025   0.0203   0.0018  -0.0059  -0.0045  12.00   67.9
2024/05/03 15:52:13.000   28.281190476  -16.515460594  2225.1588   1   8   0.0023   0.0025   0.0203   0.0018  -0.0059  -0.0045  13.00   68.0
2024/05/03 15:52:14.000   28.281190476  -16.515460594  2225.1588   1   8   0.0023   0.0025   0.0203   0.0018  -0.0059  -0.0045  14.00   68.2
2024/05/03 15:52:15.000   28.281190476  -16.515460594  2225.1588   1   8   0.0023   0.0025   0.0203   0.0018  -0.0059  -0.0045 -15.00   68.3
2024/05/03 15:52:16.000   28.281190476  -16.515460594  2225.1587   1   8   0.0023   0.0025   0.0202   0.0018  -0.0059  -0.0045 -14.00    4.9
2024/05/03 15:52:17.000   28.281190476  -16.515460594  2225.1587   1   8   0.0023   0.0025   0.0201   0.0017  -0.0059  -0.0045 -13.00    6.4
2024/05/03 15:52:18.000   28.281190476  -16.515460594  2225.1588   1   8   0.0023   0.0025   0.0202   0.0018  -0.0059  -0.0045 -12.00   69.2
2024/05/03 15:52:19.000   28.281190476  -16.515460594  2225.1587   1   8   0.0023   0.0025   0.0202   0.0018  -0.0059  -0.0045 -11.00   69.5
