% program   : RTKPOST-EX 2.5.0
% inp file  : C:\Users\SallyHenry\Desktop\Sally Internship\GNSS gravi\DATA\Survey Rover Obs\FA05.24o
% inp file  : C:\Users\SallyHenry\Desktop\Sally Internship\GNSS gravi\DATA\BaseStations\IZAN\IZAN00ESP_R_20241240000_01D_30S_MO.rnx
% inp file  : C:\Users\SallyHenry\Desktop\Sally Internship\GNSS gravi\DATA\BaseStations\IZAN\IZAN00ESP_R_20241240000_01D_MN.rnx
% inp file  : C:\Users\SallyHenry\Desktop\Sally Internship\GNSS gravi\DATA\aux_files\Survey\IGS0OPSFIN_20241240000_01D_15M_ORB.SP3
% inp file  : C:\Users\SallyHenry\Desktop\Sally Internship\GNSS gravi\DATA\aux_files\Survey\IGS0OPSFIN_20241240000_01D_30S_CLK.CLK
% obs start : 2024/05/03 15:59:57.0 GPST (week2312 489597.0s)
% obs end   : 2024/05/03 16:04:59.0 GPST (week2312 489899.0s)
% pos mode  : Static
% freqs     : L1+L2/E5b
% solution  : Combined-No Phase Reset
% elev mask : 15.0 deg
% dynamics  : on
% tidecorr  : solid
% ionos opt : Estimate TEC
% tropo opt : Estimate ZTD+Grad
% ephemeris : Precise
% navi sys  : GPS GLONASS Galileo QZSS BDS
% amb res   : Fix and Hold
% amb glo   : Fix and Hold
% amb bds   : on
% val thres : 3.0
% antenna1  :                       ( 0.0000  0.0000  1.8000)
% antenna2  :                       ( 0.0000  0.0000  0.0000)
% ref pos   :  28.308069410  -16.499677180  2417.4044
%
% (lat/lon/height=WGS84/ellipsoidal,Q=1:fix,2:float,3:sbas,4:dgps,5:single,6:ppp,ns=# of satellites)
%  GPST                  latitude(deg) longitude(deg)  height(m)   Q  ns   sdn(m)   sde(m)   sdu(m)  sdne(m)  sdeu(m)  sdun(m) age(s)  ratio
2024/05/03 15:59:57.000   28.281204148  -16.515550541  2225.2724   1   8   0.0024   0.0022   0.0272   0.0015  -0.0055  -0.0057  -3.00    4.3
2024/05/03 15:59:58.000   28.281204135  -16.515550556  2225.2977   1   8   0.0024   0.0022   0.0271   0.0015  -0.0055  -0.0057  -2.00   13.5
2024/05/03 15:59:59.000   28.281204130  -16.515550562  2225.3074   1   8   0.0024   0.0022   0.0278   0.0016  -0.0057  -0.0059  -1.00  263.4
2024/05/03 16:00:00.000   28.281204151  -16.515550544  2225.2720   1   8   0.0023   0.0022   0.0263   0.0015  -0.0054  -0.0053   0.00   10.6
2024/05/03 16:00:01.000   28.281204134  -16.515550565  2225.3072   1   8   0.0023   0.0021   0.0259   0.0015  -0.0053  -0.0052   1.00   27.1
2024/05/03 16:00:02.000   28.281204137  -16.515550560  2225.3012   1   8   0.0023   0.0022   0.0266   0.0015  -0.0055  -0.0054   2.00   15.3
2024/05/03 16:00:03.000   28.281204113  -16.515550590  2225.3494   1   8   0.0023   0.0022   0.0264   0.0015  -0.0054  -0.0054   3.00    3.6
2024/05/03 16:00:04.000   28.281204125  -16.515550573  2225.3236   1   8   0.0023   0.0022   0.0270   0.0016  -0.0056  -0.0055   4.00    3.9
2024/05/03 16:00:05.000   28.281204139  -16.515550553  2225.2937   1   8   0.0023   0.0022   0.0271   0.0016  -0.0056  -0.0056   5.00    8.3
2024/05/03 16:00:06.000   28.281204134  -16.515550559  2225.3035   1   8   0.0023   0.0022   0.0275   0.0016  -0.0057  -0.0057   6.00   42.4
2024/05/03 16:00:07.000   28.281204134  -16.515550559  2225.3034   1   8   0.0023   0.0022   0.0273   0.0016  -0.0056  -0.0056   7.00    7.3
2024/05/03 16:00:08.000   28.281204133  -16.515550560  2225.3058   1   8   0.0023   0.0022   0.0274   0.0016  -0.0056  -0.0057   8.00    5.9
2024/05/03 16:00:09.000   28.281204135  -16.515550558  2225.3032   1   8   0.0024   0.0022   0.0275   0.0016  -0.0057  -0.0057   9.00   11.6
2024/05/03 16:00:10.000   28.281204134  -16.515550559  2225.3044   1   8   0.0024   0.0022   0.0277   0.0016  -0.0057  -0.0057  10.00   39.8
2024/05/03 16:00:11.000   28.281204134  -16.515550559  2225.3046   1   8   0.0024   0.0022   0.0277   0.0016  -0.0057  -0.0057  11.00   38.9
2024/05/03 16:00:12.000   28.281204135  -16.515550557  2225.3019   1   8   0.0024   0.0022   0.0276   0.0016  -0.0057  -0.0057  12.00    3.5
2024/05/03 16:00:13.000   28.281204133  -16.515550559  2225.3055   1   8   0.0024   0.0022   0.0277   0.0016  -0.0057  -0.0058  13.00   37.1
2024/05/03 16:00:14.000   28.281204134  -16.515550558  2225.3036   1   8   0.0024   0.0022   0.0276   0.0016  -0.0057  -0.0057  14.00    8.8
2024/05/03 16:00:15.000   28.281204134  -16.515550558  2225.3040   1   8   0.0024   0.0022   0.0277   0.0016  -0.0057  -0.0057  15.00    6.6
2024/05/03 16:00:16.000   28.281204133  -16.515550559  2225.3062   1   8   0.0024   0.0022   0.0278   0.0016  -0.0057  -0.0058 -14.00   34.4
2024/05/03 16:00:17.000   28.281204133  -16.515550559  2225.3066   1   8   0.0024   0.0022   0.0278   0.0016  -0.0057  -0.0058 -13.00   33.5
2024/05/03 16:00:18.000   28.281204132  -16.515550559  2225.3070   1   8   0.0024   0.0022   0.0278   0.0016  -0.0057  -0.0058 -12.00   32.5
2024/05/03 16:00:19.000   28.281204132  -16.515550559  2225.3073   1   8   0.0024   0.0022   0.0278   0.0016  -0.0057  -0.0058 -11.00   31.4
2024/05/03 16:00:20.000   28.281204131  -16.515550561  2225.3106   1   8   0.0024   0.0022   0.0277   0.0016  -0.0057  -0.0058 -10.00    4.6
2024/05/03 16:00:21.000   28.281204133  -16.515550557  2225.3050   1   8   0.0024   0.0022   0.0277   0.0016  -0.0057  -0.0058  -9.00    5.4
2024/05/03 16:00:22.000   28.281204125  -16.515550568  2225.3222   1   8   0.0024   0.0022   0.0272   0.0015  -0.0055  -0.0057  -8.00   14.3
2024/05/03 16:00:23.000   28.281204125  -16.515550567  2225.3210   1   8   0.0024   0.0022   0.0274   0.0016  -0.0056  -0.0057  -7.00   10.6
2024/05/03 16:00:24.000   28.281204129  -16.515550562  2225.3127   1   8   0.0024   0.0022   0.0277   0.0016  -0.0056  -0.0058  -6.00    8.2
2024/05/03 16:00:25.000   28.281204122  -16.515550571  2225.3282   1   8   0.0024   0.0022   0.0277   0.0016  -0.0056  -0.0058  -5.00    3.5
2024/05/03 16:00:26.000   28.281204129  -16.515550560  2225.3108   1   8   0.0024   0.0022   0.0282   0.0016  -0.0057  -0.0060  -4.00   16.5
2024/05/03 16:00:27.000   28.281204146  -16.515550540  2225.2776   1   8   0.0024   0.0022   0.0277   0.0016  -0.0056  -0.0058  -3.00    4.2
2024/05/03 16:00:28.000   28.281204089  -16.515550605  2225.3881   1   8   0.0023   0.0021   0.0262   0.0015  -0.0051  -0.0054  -2.00    7.6
2024/05/03 16:00:29.000   28.281204095  -16.515550599  2225.3777   1   8   0.0024   0.0021   0.0268   0.0015  -0.0053  -0.0056  -1.00    6.0
2024/05/03 16:00:30.000   28.281204112  -16.515550582  2225.3464   1   8   0.0023   0.0022   0.0268   0.0015  -0.0055  -0.0054   0.00    5.8
2024/05/03 16:00:31.000   28.281204131  -16.515550557  2225.3075   1   8   0.0023   0.0022   0.0271   0.0016  -0.0055  -0.0055   1.00   41.6
2024/05/03 16:00:32.000   28.281204129  -16.515550560  2225.3124   1   8   0.0024   0.0022   0.0278   0.0016  -0.0058  -0.0057   2.00   48.2
2024/05/03 16:00:33.000   28.281204129  -16.515550560  2225.3125   1   8   0.0024   0.0022   0.0279   0.0016  -0.0058  -0.0057   3.00   47.5
2024/05/03 16:00:34.000   28.281204124  -16.515550565  2225.3211   1   8   0.0024   0.0022   0.0275   0.0016  -0.0056  -0.0056   4.00   12.0
2024/05/03 16:00:35.000   28.281204128  -16.515550560  2225.3139   1   8   0.0024   0.0022   0.0280   0.0016  -0.0058  -0.0058   5.00   46.1
2024/05/03 16:00:36.000   28.281204127  -16.515550560  2225.3147   1   8   0.0024   0.0022   0.0281   0.0016  -0.0058  -0.0058   6.00   45.3
2024/05/03 16:00:37.000   28.281204122  -16.515550566  2225.3258   1   8   0.0024   0.0022   0.0279   0.0016  -0.0057  -0.0058   7.00    4.3
2024/05/03 16:00:38.000   28.281204127  -16.515550559  2225.3154   1   8   0.0024   0.0022   0.0278   0.0016  -0.0057  -0.0057   8.00   11.7
2024/05/03 16:00:39.000   28.281204126  -16.515550560  2225.3172   1   8   0.0024   0.0022   0.0280   0.0016  -0.0057  -0.0058   9.00    5.6
2024/05/03 16:00:40.000   28.281204126  -16.515550560  2225.3167   1   8   0.0024   0.0022   0.0282   0.0016  -0.0058  -0.0059  10.00   41.4
2024/05/03 16:00:41.000   28.281204126  -16.515550559  2225.3167   1   8   0.0024   0.0022   0.0281   0.0016  -0.0058  -0.0058  11.00    4.6
2024/05/03 16:00:42.000   28.281204127  -16.515550557  2225.3129   1   8   0.0024   0.0022   0.0282   0.0016  -0.0058  -0.0059  12.00    3.2
2024/05/03 16:00:43.000   28.281204125  -16.515550560  2225.3181   1   8   0.0024   0.0022   0.0283   0.0016  -0.0058  -0.0059  13.00   38.6
2024/05/03 16:00:44.000   28.281204125  -16.515550560  2225.3183   1   8   0.0024   0.0022   0.0283   0.0016  -0.0058  -0.0059  14.00   37.6
2024/05/03 16:00:45.000   28.281204125  -16.515550560  2225.3184   1   8   0.0024   0.0022   0.0283   0.0016  -0.0058  -0.0059  15.00   36.6
2024/05/03 16:00:46.000   28.281204125  -16.515550560  2225.3186   1   8   0.0024   0.0022   0.0283   0.0016  -0.0058  -0.0059 -14.00   35.6
2024/05/03 16:00:47.000   28.281204124  -16.515550560  2225.3187   1   8   0.0024   0.0022   0.0283   0.0016  -0.0058  -0.0059 -13.00   34.6
2024/05/03 16:00:48.000   28.281204126  -16.515550558  2225.3155   1   8   0.0024   0.0022   0.0283   0.0016  -0.0058  -0.0059 -12.00    3.6
2024/05/03 16:00:49.000   28.281204124  -16.515550560  2225.3193   1   8   0.0024   0.0022   0.0284   0.0016  -0.0058  -0.0059 -11.00   32.6
2024/05/03 16:00:50.000   28.281204127  -16.515550556  2225.3126   1   8   0.0024   0.0022   0.0283   0.0016  -0.0058  -0.0059 -10.00    3.3
2024/05/03 16:00:51.000   28.281204121  -16.515550564  2225.3260   1   8   0.0024   0.0022   0.0279   0.0016  -0.0056  -0.0058  -9.00   17.1
2024/05/03 16:00:52.000   28.281204121  -16.515550565  2225.3269   1   8   0.0024   0.0022   0.0283   0.0016  -0.0057  -0.0060  -8.00   11.5
2024/05/03 16:00:53.000   28.281204121  -16.515550564  2225.3266   1   8   0.0024   0.0022   0.0285   0.0016  -0.0057  -0.0060  -7.00    5.6
2024/05/03 16:00:54.000   28.281204126  -16.515550559  2225.3177   1   8   0.0025   0.0022   0.0289   0.0016  -0.0058  -0.0062  -6.00  273.7
2024/05/03 16:00:55.000   28.281204126  -16.515550558  2225.3176   1   8   0.0025   0.0022   0.0289   0.0016  -0.0058  -0.0062  -5.00  273.5
2024/05/03 16:00:56.000   28.281204122  -16.515550562  2225.3250   1   8   0.0024   0.0022   0.0278   0.0016  -0.0055  -0.0059  -4.00   25.8
2024/05/03 16:00:57.000   28.281204119  -16.515550566  2225.3315   1   8   0.0024   0.0022   0.0283   0.0016  -0.0056  -0.0060  -3.00   11.9
2024/05/03 16:00:58.000   28.281204126  -16.515550557  2225.3174   1   8   0.0025   0.0022   0.0290   0.0016  -0.0058  -0.0062  -2.00  272.7
2024/05/03 16:00:59.000   28.281204126  -16.515550557  2225.3174   1   8   0.0025   0.0022   0.0290   0.0016  -0.0058  -0.0062  -1.00  273.4
2024/05/03 16:01:00.000   28.281204114  -16.515550566  2225.3382   1   8   0.0023   0.0022   0.0261   0.0015  -0.0052  -0.0052   0.00   39.8
2024/05/03 16:01:01.000   28.281204112  -16.515550569  2225.3438   1   8   0.0023   0.0022   0.0269   0.0015  -0.0054  -0.0054   1.00   23.0
2024/05/03 16:01:02.000   28.281204111  -16.515550571  2225.3467   1   8   0.0024   0.0022   0.0277   0.0016  -0.0056  -0.0057   2.00    7.8
2024/05/03 16:01:03.000   28.281204130  -16.515550546  2225.3066   1   8   0.0024   0.0022   0.0279   0.0016  -0.0057  -0.0057   3.00   11.0
2024/05/03 16:01:04.000   28.281204122  -16.515550557  2225.3244   1   8   0.0024   0.0022   0.0277   0.0016  -0.0056  -0.0057   4.00   23.9
2024/05/03 16:01:05.000   28.281204126  -16.515550552  2225.3161   1   8   0.0024   0.0023   0.0283   0.0016  -0.0058  -0.0058   5.00   10.4
2024/05/03 16:01:06.000   28.281204123  -16.515550557  2225.3233   1   8   0.0024   0.0023   0.0287   0.0016  -0.0059  -0.0059   6.00   47.4
2024/05/03 16:01:07.000   28.281204121  -16.515550559  2225.3276   1   8   0.0024   0.0023   0.0285   0.0016  -0.0058  -0.0059   7.00    7.6
2024/05/03 16:01:08.000   28.281204123  -16.515550556  2225.3228   1   8   0.0024   0.0023   0.0288   0.0016  -0.0059  -0.0060   8.00   45.8
2024/05/03 16:01:09.000   28.281204126  -16.515550552  2225.3158   1   8   0.0024   0.0023   0.0285   0.0016  -0.0058  -0.0059   9.00    8.9
2024/05/03 16:01:10.000   28.281204123  -16.515550556  2225.3223   1   8   0.0024   0.0023   0.0287   0.0016  -0.0059  -0.0060  10.00    5.3
2024/05/03 16:01:11.000   28.281204124  -16.515550555  2225.3202   1   8   0.0024   0.0023   0.0288   0.0016  -0.0059  -0.0060  11.00    4.5
2024/05/03 16:01:12.000   28.281204123  -16.515550557  2225.3226   1   8   0.0024   0.0023   0.0289   0.0016  -0.0059  -0.0060  12.00   42.3
2024/05/03 16:01:13.000   28.281204123  -16.515550557  2225.3224   1   8   0.0024   0.0023   0.0289   0.0016  -0.0059  -0.0060  13.00    3.8
2024/05/03 16:01:14.000   28.281204124  -16.515550557  2225.3222   1   8   0.0025   0.0023   0.0290   0.0016  -0.0059  -0.0061  14.00   40.6
2024/05/03 16:01:15.000   28.281204124  -16.515550557  2225.3220   1   8   0.0025   0.0023   0.0290   0.0016  -0.0059  -0.0061  15.00   39.8
2024/05/03 16:01:16.000   28.281204124  -16.515550556  2225.3215   1   8   0.0024   0.0023   0.0289   0.0016  -0.0059  -0.0060 -14.00    9.3
2024/05/03 16:01:17.000   28.281204124  -16.515550557  2225.3216   1   8   0.0025   0.0023   0.0290   0.0016  -0.0059  -0.0061 -13.00   38.1
2024/05/03 16:01:18.000   28.281204124  -16.515550556  2225.3214   1   8   0.0025   0.0023   0.0290   0.0016  -0.0059  -0.0061 -12.00   37.2
2024/05/03 16:01:19.000   28.281204125  -16.515550556  2225.3198   1   8   0.0025   0.0023   0.0289   0.0016  -0.0059  -0.0061 -11.00    4.8
2024/05/03 16:01:20.000   28.281204125  -16.515550556  2225.3206   1   8   0.0025   0.0023   0.0291   0.0016  -0.0059  -0.0061 -10.00   35.5
2024/05/03 16:01:21.000   28.281204125  -16.515550556  2225.3200   1   8   0.0025   0.0023   0.0291   0.0016  -0.0059  -0.0061  -9.00   34.2
2024/05/03 16:01:22.000   28.281204134  -16.515550545  2225.3016   1   8   0.0025   0.0023   0.0287   0.0016  -0.0058  -0.0060  -8.00    7.6
2024/05/03 16:01:23.000   28.281204130  -16.515550551  2225.3108   1   8   0.0025   0.0023   0.0289   0.0016  -0.0058  -0.0061  -7.00    6.5
2024/05/03 16:01:24.000   28.281204126  -16.515550557  2225.3188   1   8   0.0025   0.0023   0.0292   0.0016  -0.0059  -0.0062  -6.00   28.9
2024/05/03 16:01:25.000   28.281204124  -16.515550561  2225.3241   1   8   0.0024   0.0022   0.0272   0.0015  -0.0053  -0.0056  -5.00   22.7
2024/05/03 16:01:26.000   28.281204119  -16.515550567  2225.3336   1   8   0.0024   0.0022   0.0276   0.0015  -0.0054  -0.0057  -4.00   16.3
2024/05/03 16:01:27.000   28.281204119  -16.515550567  2225.3327   1   8   0.0024   0.0022   0.0281   0.0016  -0.0055  -0.0059  -3.00   12.9
2024/05/03 16:01:28.000   28.281204126  -16.515550559  2225.3189   1   8   0.0025   0.0022   0.0288   0.0016  -0.0057  -0.0061  -2.00   12.3
2024/05/03 16:01:29.000   28.281204130  -16.515550555  2225.3103   1   8   0.0025   0.0022   0.0287   0.0016  -0.0057  -0.0061  -1.00    7.7
2024/05/03 16:01:30.000   28.281204117  -16.515550559  2225.3265   1   8   0.0024   0.0023   0.0289   0.0017  -0.0059  -0.0059   0.00   47.5
2024/05/03 16:01:31.000   28.281204117  -16.515550559  2225.3256   1   8   0.0024   0.0023   0.0290   0.0017  -0.0059  -0.0060   1.00   47.3
2024/05/03 16:01:32.000   28.281204117  -16.515550559  2225.3247   1   8   0.0024   0.0023   0.0290   0.0017  -0.0060  -0.0060   2.00   46.9
2024/05/03 16:01:33.000   28.281204118  -16.515550558  2225.3231   1   8   0.0024   0.0023   0.0285   0.0016  -0.0058  -0.0058   3.00   18.5
2024/05/03 16:01:34.000   28.281204137  -16.515550545  2225.2918   1   8   0.0025   0.0023   0.0292   0.0016  -0.0058  -0.0062   4.00    7.9
2024/05/03 16:01:35.000   28.281204126  -16.515550558  2225.3137   1   8   0.0025   0.0023   0.0298   0.0017  -0.0060  -0.0063   5.00   48.0
2024/05/03 16:01:36.000   28.281204126  -16.515550558  2225.3134   1   8   0.0025   0.0023   0.0299   0.0017  -0.0060  -0.0064   6.00   47.5
2024/05/03 16:01:37.000   28.281204125  -16.515550558  2225.3133   1   8   0.0025   0.0023   0.0299   0.0017  -0.0060  -0.0064   7.00   46.7
2024/05/03 16:01:38.000   28.281204125  -16.515550558  2225.3130   1   8   0.0025   0.0023   0.0297   0.0017  -0.0059  -0.0063   8.00    8.7
2024/05/03 16:01:39.000   28.281204125  -16.515550559  2225.3128   1   8   0.0025   0.0023   0.0299   0.0017  -0.0060  -0.0064   9.00   45.0
2024/05/03 16:01:40.000   28.281204134  -16.515550548  2225.2945   1   8   0.0025   0.0023   0.0295   0.0017  -0.0059  -0.0063  10.00    6.7
2024/05/03 16:01:41.000   28.281204132  -16.515550551  2225.2993   1   8   0.0025   0.0023   0.0297   0.0017  -0.0059  -0.0063  11.00    4.5
2024/05/03 16:01:42.000   28.281204128  -16.515550556  2225.3069   1   8   0.0025   0.0023   0.0298   0.0017  -0.0060  -0.0063  12.00    3.5
2024/05/03 16:01:43.000   28.281204125  -16.515550559  2225.3127   1   8   0.0025   0.0023   0.0300   0.0017  -0.0060  -0.0064  13.00   41.1
2024/05/03 16:01:44.000   28.281204124  -16.515550560  2225.3142   1   8   0.0025   0.0023   0.0299   0.0017  -0.0060  -0.0064  14.00    4.0
2024/05/03 16:01:45.000   28.281204125  -16.515550559  2225.3120   1   8   0.0025   0.0023   0.0300   0.0017  -0.0060  -0.0064  15.00   39.0
2024/05/03 16:01:46.000   28.281204120  -16.515550553  2225.3268   1   8   0.0022   0.0022   0.0266   0.0015  -0.0051  -0.0055 -14.00    3.3
2024/05/03 16:01:47.000   28.281204121  -16.515550551  2225.3241   1   8   0.0022   0.0022   0.0273   0.0016  -0.0053  -0.0057 -13.00    4.3
2024/05/03 16:01:48.000   28.281204121  -16.515550550  2225.3241   1   8   0.0022   0.0021   0.0265   0.0015  -0.0050  -0.0054 -12.00    3.4
2024/05/03 16:01:49.000   28.281204121  -16.515550550  2225.3233   1   8   0.0022   0.0022   0.0271   0.0016  -0.0052  -0.0056 -11.00    4.3
2024/05/03 16:01:50.000   28.281204120  -16.515550551  2225.3247   1   8   0.0022   0.0022   0.0272   0.0016  -0.0053  -0.0057 -10.00    4.4
2024/05/03 16:01:51.000   28.281204119  -16.515550552  2225.3267   1   8   0.0022   0.0021   0.0260   0.0015  -0.0049  -0.0053  -9.00    4.3
2024/05/03 16:01:52.000   28.281204125  -16.515550544  2225.3145   1   8   0.0022   0.0022   0.0270   0.0016  -0.0052  -0.0056  -8.00    4.4
2024/05/03 16:01:53.000   28.281204113  -16.515550557  2225.3371   1   8   0.0022   0.0022   0.0270   0.0016  -0.0052  -0.0056  -7.00    4.5
2024/05/03 16:01:54.000   28.281204124  -16.515550545  2225.3158   1   8   0.0022   0.0022   0.0270   0.0016  -0.0052  -0.0056  -6.00    4.4
2024/05/03 16:01:55.000   28.281204118  -16.515550551  2225.3260   1   8   0.0022   0.0022   0.0273   0.0016  -0.0053  -0.0057  -5.00    4.4
2024/05/03 16:01:56.000   28.281204118  -16.515550551  2225.3266   1   8   0.0022   0.0022   0.0272   0.0016  -0.0053  -0.0056  -4.00    4.4
2024/05/03 16:01:57.000   28.281204107  -16.515550562  2225.3471   1   8   0.0021   0.0021   0.0249   0.0014  -0.0045  -0.0050  -3.00    4.5
2024/05/03 16:01:58.000   28.281204116  -16.515550571  2225.3295   1   8   0.0025   0.0023   0.0294   0.0016  -0.0058  -0.0063  -2.00    8.2
2024/05/03 16:01:59.000   28.281204129  -16.515550556  2225.3017   1   8   0.0026   0.0023   0.0304   0.0017  -0.0061  -0.0065  -1.00  349.9
2024/05/03 16:02:00.000   28.281204109  -16.515550557  2225.3223   1   8   0.0025   0.0023   0.0295   0.0017  -0.0060  -0.0061   0.00   51.5
2024/05/03 16:02:01.000   28.281204109  -16.515550557  2225.3215   1   8   0.0025   0.0023   0.0296   0.0017  -0.0061  -0.0061   1.00   51.0
2024/05/03 16:02:02.000   28.281204121  -16.515550541  2225.2954   1   8   0.0025   0.0023   0.0289   0.0016  -0.0058  -0.0059   2.00   10.8
2024/05/03 16:02:03.000   28.281204102  -16.515550567  2225.3363   1   8   0.0025   0.0023   0.0291   0.0017  -0.0059  -0.0060   3.00    8.8
2024/05/03 16:02:04.000   28.281204110  -16.515550557  2225.3196   1   8   0.0025   0.0023   0.0299   0.0017  -0.0061  -0.0062   4.00   49.2
2024/05/03 16:02:05.000   28.281204101  -16.515550568  2225.3371   1   8   0.0025   0.0023   0.0295   0.0017  -0.0060  -0.0061   5.00    3.8
2024/05/03 16:02:06.000   28.281204115  -16.515550550  2225.3076   1   8   0.0025   0.0023   0.0297   0.0017  -0.0060  -0.0062   6.00    7.3
2024/05/03 16:02:07.000   28.281204113  -16.515550553  2225.3119   1   8   0.0025   0.0023   0.0296   0.0017  -0.0060  -0.0061   7.00   21.6
2024/05/03 16:02:08.000   28.281204113  -16.515550554  2225.3132   1   8   0.0025   0.0023   0.0298   0.0017  -0.0060  -0.0062   8.00   16.9
2024/05/03 16:02:09.000   28.281204112  -16.515550555  2225.3140   1   8   0.0025   0.0023   0.0299   0.0017  -0.0060  -0.0062   9.00   12.4
2024/05/03 16:02:10.000   28.281204111  -16.515550556  2225.3164   1   8   0.0025   0.0024   0.0302   0.0017  -0.0061  -0.0063  10.00   41.5
2024/05/03 16:02:11.000   28.281204114  -16.515550549  2225.3311   1   8   0.0022   0.0022   0.0271   0.0016  -0.0052  -0.0056  11.00    3.7
2024/05/03 16:02:12.000   28.281204112  -16.515550550  2225.3334   1   8   0.0022   0.0022   0.0263   0.0015  -0.0050  -0.0054  12.00    3.0
2024/05/03 16:02:13.000   28.281204114  -16.515550548  2225.3303   1   8   0.0022   0.0022   0.0263   0.0015  -0.0050  -0.0054  13.00    3.7
2024/05/03 16:02:14.000   28.281204114  -16.515550549  2225.3311   1   8   0.0022   0.0022   0.0262   0.0015  -0.0049  -0.0053  14.00    3.7
2024/05/03 16:02:15.000   28.281204114  -16.515550549  2225.3310   1   8   0.0022   0.0022   0.0271   0.0016  -0.0052  -0.0056 -15.00    3.7
2024/05/03 16:02:16.000   28.281204114  -16.515550549  2225.3310   1   8   0.0022   0.0022   0.0271   0.0016  -0.0052  -0.0056 -14.00    3.7
2024/05/03 16:02:17.000   28.281204113  -16.515550549  2225.3310   1   8   0.0022   0.0022   0.0271   0.0016  -0.0052  -0.0056 -13.00    3.8
2024/05/03 16:02:18.000   28.281204114  -16.515550549  2225.3309   1   8   0.0022   0.0022   0.0271   0.0016  -0.0052  -0.0056 -12.00    3.8
2024/05/03 16:02:19.000   28.281204113  -16.515550549  2225.3309   1   8   0.0022   0.0022   0.0271   0.0016  -0.0052  -0.0056 -11.00    3.9
2024/05/03 16:02:20.000   28.281204116  -16.515550545  2225.3250   1   8   0.0022   0.0022   0.0270   0.0016  -0.0052  -0.0055 -10.00    4.0
2024/05/03 16:02:21.000   28.281204114  -16.515550548  2225.3301   1   8   0.0022   0.0021   0.0261   0.0015  -0.0049  -0.0053  -9.00    3.3
2024/05/03 16:02:22.000   28.281204113  -16.515550549  2225.3315   1   8   0.0022   0.0021   0.0261   0.0015  -0.0049  -0.0053  -8.00    3.1
2024/05/03 16:02:23.000   28.281204118  -16.515550543  2225.3213   1   8   0.0022   0.0022   0.0266   0.0015  -0.0051  -0.0054  -7.00    4.3
2024/05/03 16:02:24.000   28.281204117  -16.515550543  2225.3228   1   8   0.0022   0.0022   0.0267   0.0015  -0.0051  -0.0055  -6.00    4.4
2024/05/03 16:02:25.000   28.281204113  -16.515550548  2225.3296   1   8   0.0021   0.0021   0.0256   0.0015  -0.0047  -0.0052  -5.00    4.8
2024/05/03 16:02:26.000   28.281204113  -16.515550548  2225.3294   1   8   0.0021   0.0021   0.0255   0.0015  -0.0047  -0.0051  -4.00    4.9
2024/05/03 16:02:27.000   28.281204107  -16.515550554  2225.3411   1   8   0.0021   0.0021   0.0254   0.0015  -0.0046  -0.0051  -3.00    3.6
2024/05/03 16:02:28.000   28.281204123  -16.515550535  2225.3097   1   8   0.0022   0.0021   0.0259   0.0015  -0.0048  -0.0053  -2.00    4.7
2024/05/03 16:02:29.000   28.281204116  -16.515550542  2225.3212   1   8   0.0022   0.0022   0.0265   0.0015  -0.0050  -0.0054  -1.00    4.7
2024/05/03 16:02:30.000   28.281204119  -16.515550536  2225.3132   1   8   0.0022   0.0022   0.0263   0.0015  -0.0049  -0.0053   0.00    4.5
2024/05/03 16:02:31.000   28.281204131  -16.515550548  2225.3130   1   8   0.0023   0.0022   0.0277   0.0016  -0.0052  -0.0059   1.00    9.6
2024/05/03 16:02:32.000   28.281204137  -16.515550542  2225.3025   1   8   0.0022   0.0021   0.0256   0.0014  -0.0045  -0.0053   2.00    8.0
2024/05/03 16:02:33.000   28.281204126  -16.515550554  2225.3224   1   8   0.0022   0.0021   0.0262   0.0015  -0.0047  -0.0054   3.00    3.5
2024/05/03 16:02:34.000   28.281204131  -16.515550548  2225.3134   1   8   0.0023   0.0022   0.0274   0.0016  -0.0051  -0.0058   4.00   21.1
2024/05/03 16:02:35.000   28.281204131  -16.515550548  2225.3133   1   8   0.0023   0.0022   0.0274   0.0016  -0.0051  -0.0058   5.00   24.6
2024/05/03 16:02:36.000   28.281204126  -16.515550553  2225.3223   1   8   0.0023   0.0022   0.0272   0.0015  -0.0050  -0.0057   6.00   27.8
2024/05/03 16:02:37.000   28.281204130  -16.515550547  2225.3129   1   8   0.0022   0.0022   0.0263   0.0015  -0.0047  -0.0054   7.00    3.8
2024/05/03 16:02:38.000   28.281204127  -16.515550549  2225.3182   1   8   0.0022   0.0021   0.0262   0.0015  -0.0047  -0.0054   8.00    5.7
2024/05/03 16:02:39.000   28.281204127  -16.515550549  2225.3178   1   8   0.0023   0.0022   0.0273   0.0016  -0.0050  -0.0057   9.00   15.5
2024/05/03 16:02:40.000   28.281204128  -16.515550549  2225.3155   1   8   0.0022   0.0022   0.0264   0.0015  -0.0048  -0.0055  10.00    3.3
2024/05/03 16:02:41.000   28.281204128  -16.515550550  2225.3157   1   8   0.0022   0.0022   0.0264   0.0015  -0.0048  -0.0055  11.00    4.1
2024/05/03 16:02:42.000   28.281204126  -16.515550551  2225.3190   1   8   0.0022   0.0022   0.0270   0.0015  -0.0050  -0.0057  12.00    4.8
2024/05/03 16:02:43.000   28.281204127  -16.515550550  2225.3169   1   8   0.0022   0.0022   0.0267   0.0015  -0.0049  -0.0056  13.00    4.8
2024/05/03 16:02:44.000   28.281204127  -16.515550551  2225.3177   1   8   0.0022   0.0022   0.0267   0.0015  -0.0049  -0.0056  14.00    3.1
2024/05/03 16:02:45.000   28.281204127  -16.515550550  2225.3169   1   8   0.0022   0.0022   0.0270   0.0015  -0.0050  -0.0057 -15.00    7.1
2024/05/03 16:02:46.000   28.281204127  -16.515550551  2225.3179   1   8   0.0022   0.0022   0.0267   0.0015  -0.0049  -0.0056 -14.00    3.1
2024/05/03 16:02:47.000   28.281204127  -16.515550551  2225.3175   1   8   0.0022   0.0022   0.0269   0.0015  -0.0050  -0.0057 -13.00    8.6
2024/05/03 16:02:48.000   28.281204127  -16.515550550  2225.3166   1   8   0.0022   0.0022   0.0267   0.0015  -0.0049  -0.0056 -12.00    9.3
2024/05/03 16:02:49.000   28.281204127  -16.515550550  2225.3164   1   8   0.0022   0.0022   0.0267   0.0015  -0.0049  -0.0056 -11.00   10.0
2024/05/03 16:02:50.000   28.281204126  -16.515550551  2225.3178   1   8   0.0022   0.0022   0.0263   0.0015  -0.0047  -0.0055 -10.00   10.8
2024/05/03 16:02:51.000   28.281204113  -16.515550550  2225.3300   1   8   0.0022   0.0021   0.0259   0.0015  -0.0047  -0.0053  -9.00    9.1
2024/05/03 16:02:52.000   28.281204108  -16.515550554  2225.3385   1   8   0.0022   0.0021   0.0258   0.0015  -0.0047  -0.0053  -8.00    4.9
2024/05/03 16:02:53.000   28.281204109  -16.515550553  2225.3358   1   8   0.0022   0.0021   0.0257   0.0015  -0.0047  -0.0052  -7.00    7.4
2024/05/03 16:02:54.000   28.281204105  -16.515550569  2225.3294   1   8   0.0022   0.0020   0.0253   0.0014  -0.0051  -0.0054  -6.00    3.3
2024/05/03 16:02:55.000   28.281204110  -16.515550563  2225.3197   1   8   0.0021   0.0020   0.0251   0.0014  -0.0051  -0.0053  -5.00    5.5
2024/05/03 16:02:56.000   28.281204115  -16.515550555  2225.3071   1   8   0.0021   0.0020   0.0250   0.0014  -0.0050  -0.0052  -4.00    4.6
2024/05/03 16:02:57.000   28.281204107  -16.515550564  2225.3223   1   8   0.0022   0.0020   0.0259   0.0015  -0.0053  -0.0055  -3.00    6.5
2024/05/03 16:02:58.000   28.281204112  -16.515550556  2225.3107   1   8   0.0021   0.0020   0.0245   0.0014  -0.0049  -0.0051  -2.00    6.3
2024/05/03 16:02:59.000   28.281204105  -16.515550564  2225.3242   1   8   0.0022   0.0020   0.0258   0.0015  -0.0053  -0.0055  -1.00    7.3
2024/05/03 16:03:00.000   28.281204112  -16.515550546  2225.3028   1   8   0.0020   0.0019   0.0234   0.0014  -0.0047  -0.0047   0.00    6.8
2024/05/03 16:03:01.000   28.281204131  -16.515550548  2225.2880   1   8   0.0021   0.0019   0.0237   0.0014  -0.0047  -0.0049   1.00    4.6
2024/05/03 16:03:02.000   28.281204132  -16.515550545  2225.2831   1   8   0.0021   0.0020   0.0251   0.0014  -0.0051  -0.0053   2.00    9.3
2024/05/03 16:03:03.000   28.281204140  -16.515550535  2225.2679   1   8   0.0021   0.0019   0.0239   0.0014  -0.0047  -0.0050   3.00    7.6
2024/05/03 16:03:04.000   28.281204142  -16.515550533  2225.2641   1   8   0.0021   0.0019   0.0240   0.0014  -0.0047  -0.0050   4.00    5.8
2024/05/03 16:03:05.000   28.281204136  -16.515550539  2225.2740   1   8   0.0021   0.0019   0.0240   0.0014  -0.0048  -0.0050   5.00    6.9
2024/05/03 16:03:06.000   28.281204137  -16.515550538  2225.2735   1   8   0.0021   0.0019   0.0241   0.0014  -0.0048  -0.0050   6.00    6.9
2024/05/03 16:03:07.000   28.281204115  -16.515550566  2225.3179   1   8   0.0021   0.0020   0.0252   0.0014  -0.0051  -0.0053   7.00    4.7
2024/05/03 16:03:08.000   28.281204126  -16.515550551  2225.2944   1   8   0.0021   0.0020   0.0250   0.0014  -0.0050  -0.0052   8.00    3.7
2024/05/03 16:03:09.000   28.281204124  -16.515550553  2225.2977   1   8   0.0021   0.0020   0.0250   0.0014  -0.0050  -0.0052   9.00    4.8
2024/05/03 16:03:10.000   28.281204123  -16.515550554  2225.2993   1   8   0.0021   0.0020   0.0250   0.0014  -0.0050  -0.0052  10.00    5.0
2024/05/03 16:03:11.000   28.281204122  -16.515550555  2225.3016   1   8   0.0021   0.0020   0.0250   0.0014  -0.0050  -0.0052  11.00    5.4
2024/05/03 16:03:12.000   28.281204115  -16.515550565  2225.3163   1   8   0.0021   0.0020   0.0254   0.0015  -0.0052  -0.0054  12.00    3.3
2024/05/03 16:03:13.000   28.281204114  -16.515550565  2225.3175   1   8   0.0021   0.0020   0.0256   0.0015  -0.0052  -0.0054  13.00   19.2
2024/05/03 16:03:14.000   28.281204113  -16.515550567  2225.3201   1   8   0.0021   0.0020   0.0254   0.0015  -0.0052  -0.0054  14.00   19.9
2024/05/03 16:03:15.000   28.281204113  -16.515550567  2225.3194   1   8   0.0021   0.0020   0.0255   0.0015  -0.0052  -0.0054 -15.00   20.5
2024/05/03 16:03:16.000   28.281204114  -16.515550565  2225.3177   1   8   0.0021   0.0020   0.0253   0.0015  -0.0051  -0.0053 -14.00    5.3
2024/05/03 16:03:17.000   28.281204114  -16.515550565  2225.3172   1   8   0.0021   0.0020   0.0256   0.0015  -0.0052  -0.0054 -13.00   21.6
2024/05/03 16:03:18.000   28.281204114  -16.515550565  2225.3172   1   8   0.0021   0.0020   0.0256   0.0015  -0.0052  -0.0054 -12.00   22.3
2024/05/03 16:03:19.000   28.281204114  -16.515550565  2225.3172   1   8   0.0021   0.0020   0.0256   0.0015  -0.0052  -0.0054 -11.00   22.9
2024/05/03 16:03:20.000   28.281204116  -16.515550562  2225.3127   1   8   0.0021   0.0020   0.0253   0.0015  -0.0051  -0.0053 -10.00    3.4
2024/05/03 16:03:21.000   28.281204112  -16.515550568  2225.3221   1   8   0.0021   0.0020   0.0254   0.0015  -0.0052  -0.0054  -9.00   24.1
2024/05/03 16:03:22.000   28.281204114  -16.515550565  2225.3173   1   8   0.0021   0.0020   0.0255   0.0015  -0.0052  -0.0054  -8.00   24.8
2024/05/03 16:03:23.000   28.281204114  -16.515550565  2225.3177   1   8   0.0021   0.0020   0.0249   0.0014  -0.0050  -0.0052  -7.00    5.5
2024/05/03 16:03:24.000   28.281204115  -16.515550563  2225.3139   1   8   0.0021   0.0020   0.0248   0.0014  -0.0050  -0.0052  -6.00   10.9
2024/05/03 16:03:25.000   28.281204121  -16.515550556  2225.3031   1   8   0.0021   0.0020   0.0249   0.0014  -0.0050  -0.0052  -5.00    6.0
2024/05/03 16:03:26.000   28.281204117  -16.515550565  2225.3142   1   8   0.0021   0.0020   0.0256   0.0015  -0.0052  -0.0054  -4.00   27.4
2024/05/03 16:03:27.000   28.281204122  -16.515550558  2225.3035   1   8   0.0021   0.0019   0.0241   0.0014  -0.0048  -0.0050  -3.00   10.0
2024/05/03 16:03:28.000   28.281204118  -16.515550561  2225.3093   1   8   0.0021   0.0019   0.0240   0.0014  -0.0047  -0.0050  -2.00   18.4
2024/05/03 16:03:29.000   28.281204087  -16.515550596  2225.3685   1   8   0.0021   0.0019   0.0237   0.0014  -0.0047  -0.0049  -1.00    3.4
2024/05/03 16:03:30.000   28.281204094  -16.515550588  2225.3553   1   8   0.0020   0.0019   0.0233   0.0014  -0.0047  -0.0047   0.00    7.3
2024/05/03 16:03:31.000   28.281204153  -16.515550528  2225.2488   1   8   0.0021   0.0019   0.0244   0.0014  -0.0049  -0.0051   1.00   33.6
2024/05/03 16:03:32.000   28.281204134  -16.515550552  2225.2875   1   8   0.0021   0.0020   0.0250   0.0014  -0.0050  -0.0053   2.00   34.3
2024/05/03 16:03:33.000   28.281204127  -16.515550560  2225.3006   1   8   0.0021   0.0019   0.0243   0.0014  -0.0048  -0.0051   3.00   14.1
2024/05/03 16:03:34.000   28.281204131  -16.515550556  2225.2940   1   8   0.0021   0.0019   0.0244   0.0014  -0.0048  -0.0051   4.00   19.8
2024/05/03 16:03:35.000   28.281204125  -16.515550564  2225.3067   1   8   0.0022   0.0020   0.0256   0.0015  -0.0052  -0.0054   5.00   37.1
2024/05/03 16:03:36.000   28.281204122  -16.515550568  2225.3120   1   8   0.0021   0.0020   0.0251   0.0014  -0.0051  -0.0053   6.00    7.1
2024/05/03 16:03:37.000   28.281204126  -16.515550562  2225.3032   1   8   0.0021   0.0020   0.0252   0.0014  -0.0051  -0.0053   7.00    6.3
2024/05/03 16:03:38.000   28.281204125  -16.515550563  2225.3049   1   8   0.0021   0.0020   0.0254   0.0014  -0.0051  -0.0054   8.00   17.4
2024/05/03 16:03:39.000   28.281204122  -16.515550565  2225.3092   1   8   0.0021   0.0020   0.0254   0.0015  -0.0052  -0.0054   9.00   21.2
2024/05/03 16:03:40.000   28.281204122  -16.515550563  2225.3073   1   8   0.0021   0.0020   0.0251   0.0014  -0.0051  -0.0053  10.00   10.3
2024/05/03 16:03:41.000   28.281204123  -16.515550563  2225.3061   1   8   0.0021   0.0020   0.0251   0.0014  -0.0051  -0.0053  11.00    4.0
2024/05/03 16:03:42.000   28.281204123  -16.515550562  2225.3057   1   8   0.0021   0.0020   0.0251   0.0014  -0.0051  -0.0053  12.00    6.1
2024/05/03 16:03:43.000   28.281204122  -16.515550563  2225.3074   1   8   0.0021   0.0020   0.0251   0.0014  -0.0051  -0.0053  13.00    8.3
2024/05/03 16:03:44.000   28.281204122  -16.515550564  2225.3089   1   8   0.0021   0.0020   0.0254   0.0015  -0.0052  -0.0054  14.00   25.9
2024/05/03 16:03:45.000   28.281204122  -16.515550564  2225.3087   1   8   0.0021   0.0020   0.0253   0.0015  -0.0051  -0.0053 -15.00   26.8
2024/05/03 16:03:46.000   28.281204121  -16.515550565  2225.3096   1   8   0.0021   0.0020   0.0253   0.0015  -0.0052  -0.0053 -14.00   27.7
2024/05/03 16:03:47.000   28.281204122  -16.515550564  2225.3078   1   8   0.0021   0.0020   0.0252   0.0014  -0.0051  -0.0053 -13.00    6.3
2024/05/03 16:03:48.000   28.281204116  -16.515550567  2225.3162   1   8   0.0022   0.0020   0.0255   0.0015  -0.0051  -0.0054 -12.00   29.5
2024/05/03 16:03:49.000   28.281204119  -16.515550565  2225.3124   1   8   0.0022   0.0020   0.0256   0.0015  -0.0052  -0.0055 -11.00   30.6
2024/05/03 16:03:50.000   28.281204124  -16.515550559  2225.3017   1   8   0.0021   0.0020   0.0253   0.0014  -0.0051  -0.0054 -10.00    3.9
2024/05/03 16:03:51.000   28.281204124  -16.515550559  2225.3019   1   8   0.0021   0.0020   0.0252   0.0014  -0.0051  -0.0054  -9.00    5.9
2024/05/03 16:03:52.000   28.281204121  -16.515550565  2225.3091   1   8   0.0022   0.0020   0.0256   0.0015  -0.0052  -0.0055  -8.00   33.7
2024/05/03 16:03:53.000   28.281204121  -16.515550564  2225.3089   1   8   0.0022   0.0020   0.0256   0.0015  -0.0052  -0.0055  -7.00   34.6
2024/05/03 16:03:54.000   28.281204121  -16.515550564  2225.3089   1   8   0.0022   0.0020   0.0256   0.0015  -0.0052  -0.0055  -6.00   35.6
2024/05/03 16:03:55.000   28.281204133  -16.515550551  2225.2856   1   8   0.0021   0.0019   0.0242   0.0014  -0.0048  -0.0051  -5.00    9.1
2024/05/03 16:03:56.000   28.281204134  -16.515550550  2225.2844   1   8   0.0021   0.0019   0.0241   0.0014  -0.0048  -0.0050  -4.00   15.2
2024/05/03 16:03:57.000   28.281204137  -16.515550547  2225.2792   1   8   0.0021   0.0019   0.0240   0.0014  -0.0047  -0.0050  -3.00   16.1
2024/05/03 16:03:58.000   28.281204122  -16.515550565  2225.3081   1   8   0.0021   0.0020   0.0255   0.0015  -0.0052  -0.0054  -2.00   40.5
2024/05/03 16:03:59.000   28.281204122  -16.515550565  2225.3078   1   8   0.0021   0.0020   0.0254   0.0015  -0.0052  -0.0054  -1.00   41.6
2024/05/03 16:04:00.000   28.281204130  -16.515550560  2225.2958   1   8   0.0020   0.0019   0.0241   0.0014  -0.0049  -0.0049   0.00   43.0
2024/05/03 16:04:01.000   28.281204134  -16.515550560  2225.2925   1   8   0.0021   0.0019   0.0245   0.0014  -0.0049  -0.0051   1.00    7.1
2024/05/03 16:04:02.000   28.281204135  -16.515550559  2225.2908   1   8   0.0021   0.0019   0.0238   0.0014  -0.0047  -0.0050   2.00   12.7
2024/05/03 16:04:03.000   28.281204134  -16.515550559  2225.2920   1   8   0.0021   0.0019   0.0238   0.0014  -0.0047  -0.0050   3.00   18.3
2024/05/03 16:04:04.000   28.281204134  -16.515550560  2225.2925   1   8   0.0021   0.0019   0.0239   0.0014  -0.0047  -0.0050   4.00   22.9
2024/05/03 16:04:05.000   28.281204134  -16.515550560  2225.2930   1   8   0.0021   0.0019   0.0240   0.0014  -0.0048  -0.0050   5.00   26.0
2024/05/03 16:04:06.000   28.281204133  -16.515550560  2225.2942   1   8   0.0021   0.0019   0.0240   0.0014  -0.0048  -0.0050   6.00   28.6
2024/05/03 16:04:07.000   28.281204132  -16.515550561  2225.2951   1   8   0.0021   0.0019   0.0241   0.0014  -0.0048  -0.0050   7.00   30.8
2024/05/03 16:04:08.000   28.281204131  -16.515550562  2225.2972   1   8   0.0021   0.0019   0.0244   0.0014  -0.0049  -0.0051   8.00   32.2
2024/05/03 16:04:09.000   28.281204131  -16.515550562  2225.2974   1   8   0.0021   0.0019   0.0244   0.0014  -0.0049  -0.0051   9.00   33.3
2024/05/03 16:04:10.000   28.281204130  -16.515550563  2225.2992   1   8   0.0021   0.0020   0.0253   0.0015  -0.0051  -0.0053  10.00    3.4
2024/05/03 16:04:11.000   28.281204132  -16.515550560  2225.2956   1   8   0.0021   0.0020   0.0252   0.0014  -0.0051  -0.0053  11.00    3.4
2024/05/03 16:04:12.000   28.281204129  -16.515550564  2225.3007   1   8   0.0021   0.0020   0.0252   0.0014  -0.0051  -0.0053  12.00   37.1
2024/05/03 16:04:13.000   28.281204128  -16.515550564  2225.3019   1   8   0.0021   0.0020   0.0254   0.0015  -0.0052  -0.0054  13.00   38.3
2024/05/03 16:04:14.000   28.281204129  -16.515550564  2225.3008   1   8   0.0021   0.0020   0.0252   0.0014  -0.0051  -0.0053  14.00    8.0
2024/05/03 16:04:15.000   28.281204128  -16.515550564  2225.3020   1   8   0.0021   0.0020   0.0254   0.0015  -0.0052  -0.0054 -15.00   40.3
2024/05/03 16:04:16.000   28.281204128  -16.515550564  2225.3020   1   8   0.0021   0.0020   0.0254   0.0015  -0.0052  -0.0054 -14.00   41.3
2024/05/03 16:04:17.000   28.281204128  -16.515550565  2225.3028   1   8   0.0021   0.0020   0.0252   0.0014  -0.0051  -0.0053 -13.00    3.7
2024/05/03 16:04:18.000   28.281204127  -16.515550566  2225.3039   1   8   0.0021   0.0020   0.0251   0.0014  -0.0051  -0.0053 -12.00    6.9
2024/05/03 16:04:19.000   28.281204135  -16.515550556  2225.2886   1   8   0.0021   0.0020   0.0248   0.0014  -0.0050  -0.0052 -11.00    4.3
2024/05/03 16:04:20.000   28.281204135  -16.515550556  2225.2877   1   8   0.0021   0.0020   0.0248   0.0014  -0.0050  -0.0052 -10.00    6.4
2024/05/03 16:04:21.000   28.281204135  -16.515550556  2225.2888   1   8   0.0021   0.0020   0.0248   0.0014  -0.0050  -0.0052  -9.00    8.8
2024/05/03 16:04:22.000   28.281204139  -16.515550555  2225.2838   1   8   0.0021   0.0020   0.0249   0.0014  -0.0050  -0.0053  -8.00    8.3
2024/05/03 16:04:23.000   28.281204127  -16.515550568  2225.3055   1   8   0.0021   0.0020   0.0251   0.0014  -0.0051  -0.0053  -7.00    6.7
2024/05/03 16:04:24.000   28.281204127  -16.515550565  2225.3026   1   8   0.0021   0.0020   0.0255   0.0015  -0.0052  -0.0054  -6.00   50.5
2024/05/03 16:04:25.000   28.281204128  -16.515550565  2225.3020   1   8   0.0021   0.0020   0.0254   0.0015  -0.0052  -0.0054  -5.00   51.8
2024/05/03 16:04:26.000   28.281204139  -16.515550552  2225.2815   1   8   0.0021   0.0019   0.0247   0.0014  -0.0049  -0.0052  -4.00    6.7
2024/05/03 16:04:27.000   28.281204118  -16.515550576  2225.3203   1   8   0.0021   0.0019   0.0245   0.0014  -0.0049  -0.0052  -3.00    7.8
2024/05/03 16:04:28.000   28.281204131  -16.515550560  2225.2942   1   8   0.0021   0.0019   0.0243   0.0014  -0.0048  -0.0051  -2.00   19.5
2024/05/03 16:04:29.000   28.281204128  -16.515550564  2225.3009   1   8   0.0021   0.0020   0.0253   0.0015  -0.0052  -0.0054  -1.00   57.7
2024/05/03 16:04:30.000   28.281204134  -16.515550558  2225.2906   1   8   0.0021   0.0019   0.0240   0.0014  -0.0048  -0.0050   0.00   22.6
2024/05/03 16:04:31.000   28.281204142  -16.515550546  2225.2723   1   8   0.0022   0.0019   0.0251   0.0014  -0.0050  -0.0054   1.00   97.3
2024/05/03 16:04:32.000   28.281204130  -16.515550558  2225.2939   1   8   0.0022   0.0020   0.0252   0.0014  -0.0050  -0.0054   2.00   16.5
2024/05/03 16:04:33.000   28.281204137  -16.515550550  2225.2806   1   8   0.0022   0.0019   0.0247   0.0014  -0.0049  -0.0053   3.00   17.5
2024/05/03 16:04:34.000   28.281204120  -16.515550568  2225.3116   1   8   0.0022   0.0020   0.0253   0.0014  -0.0050  -0.0055   4.00    5.6
2024/05/03 16:04:35.000   28.281204115  -16.515550573  2225.3212   1   8   0.0022   0.0019   0.0251   0.0014  -0.0050  -0.0054   5.00    6.0
2024/05/03 16:04:36.000   28.281204125  -16.515550562  2225.3031   1   8   0.0022   0.0020   0.0257   0.0015  -0.0052  -0.0056   6.00  110.3
2024/05/03 16:04:37.000   28.281204126  -16.515550562  2225.3024   1   8   0.0022   0.0020   0.0257   0.0015  -0.0052  -0.0056   7.00   27.8
2024/05/03 16:04:38.000   28.281204130  -16.515550558  2225.2944   1   8   0.0022   0.0020   0.0255   0.0014  -0.0051  -0.0055   8.00   29.6
2024/05/03 16:04:39.000   28.281204126  -16.515550562  2225.3027   1   8   0.0022   0.0020   0.0257   0.0015  -0.0052  -0.0056   9.00   31.9
2024/05/03 16:04:40.000   28.281204127  -16.515550560  2225.3002   1   8   0.0022   0.0020   0.0255   0.0014  -0.0051  -0.0055  10.00    6.0
2024/05/03 16:04:41.000   28.281204124  -16.515550563  2225.3058   1   8   0.0022   0.0020   0.0256   0.0014  -0.0051  -0.0056  11.00    3.4
2024/05/03 16:04:42.000   28.281204127  -16.515550560  2225.3001   1   8   0.0022   0.0020   0.0256   0.0014  -0.0051  -0.0056  12.00   37.0
2024/05/03 16:04:43.000   28.281204127  -16.515550560  2225.3011   1   8   0.0022   0.0020   0.0257   0.0015  -0.0051  -0.0056  13.00   38.2
2024/05/03 16:04:44.000   28.281204125  -16.515550562  2225.3043   1   8   0.0022   0.0020   0.0257   0.0015  -0.0052  -0.0056  14.00   39.3
2024/05/03 16:04:45.000   28.281204125  -16.515550562  2225.3043   1   8   0.0022   0.0020   0.0257   0.0015  -0.0052  -0.0056 -15.00   40.4
2024/05/03 16:04:46.000   28.281204125  -16.515550562  2225.3044   1   8   0.0022   0.0020   0.0257   0.0015  -0.0052  -0.0056 -14.00   41.5
2024/05/03 16:04:47.000   28.281204125  -16.515550562  2225.3044   1   8   0.0022   0.0020   0.0257   0.0015  -0.0052  -0.0056 -13.00   42.8
2024/05/03 16:04:48.000   28.281204125  -16.515550561  2225.3043   1   8   0.0022   0.0020   0.0256   0.0014  -0.0051  -0.0056 -12.00    5.1
2024/05/03 16:04:49.000   28.281204124  -16.515550562  2225.3054   1   8   0.0022   0.0020   0.0255   0.0014  -0.0051  -0.0055 -11.00    9.6
2024/05/03 16:04:50.000   28.281204125  -16.515550561  2225.3047   1   8   0.0022   0.0020   0.0257   0.0015  -0.0052  -0.0056 -10.00   47.1
2024/05/03 16:04:51.000   28.281204131  -16.515550561  2225.2988   1   8   0.0021   0.0020   0.0253   0.0014  -0.0051  -0.0054  -9.00    7.0
2024/05/03 16:04:52.000   28.281204128  -16.515550564  2225.3036   1   8   0.0021   0.0020   0.0252   0.0014  -0.0051  -0.0054  -8.00    3.3
2024/05/03 16:04:53.000   28.281204125  -16.515550561  2225.3031   1   8   0.0031   0.0028   0.0362   0.0020  -0.0072  -0.0079  23.00  164.0
2024/05/03 16:04:54.000   28.281204125  -16.515550560  2225.3033   1   8   0.0022   0.0020   0.0254   0.0014  -0.0051  -0.0055  -6.00   12.4
2024/05/03 16:04:55.000   28.281204131  -16.515550554  2225.2929   1   8   0.0022   0.0020   0.0253   0.0014  -0.0050  -0.0055  -5.00    4.9
2024/05/03 16:04:56.000   28.281204143  -16.515550542  2225.2718   1   8   0.0022   0.0019   0.0249   0.0014  -0.0049  -0.0054  -4.00    3.3
2024/05/03 16:04:57.000   28.281204128  -16.515550557  2225.2984   1   8   0.0022   0.0019   0.0251   0.0014  -0.0050  -0.0054  -3.00   19.6
2024/05/03 16:04:58.000   28.281204125  -16.515550561  2225.3047   1   8   0.0022   0.0020   0.0256   0.0014  -0.0051  -0.0056  -2.00  156.6
2024/05/03 16:04:59.000   28.281204125  -16.515550561  2225.3043   1   8   0.0022   0.0020   0.0255   0.0014  -0.0051  -0.0056  -1.00  158.5
