% program   : RTKPOST-EX 2.5.0
% inp file  : C:\Users\SallyHenry\Desktop\Sally Internship\GNSS gravi\DATA\Survey Rover Obs\FA06.24o
% inp file  : C:\Users\SallyHenry\Desktop\Sally Internship\GNSS gravi\DATA\BaseStations\IZAN\IZAN00ESP_R_20241240000_01D_30S_MO.rnx
% inp file  : C:\Users\SallyHenry\Desktop\Sally Internship\GNSS gravi\DATA\BaseStations\IZAN\IZAN00ESP_R_20241240000_01D_MN.rnx
% inp file  : C:\Users\SallyHenry\Desktop\Sally Internship\GNSS gravi\DATA\aux_files\Survey\IGS0OPSFIN_20241240000_01D_15M_ORB.SP3
% inp file  : C:\Users\SallyHenry\Desktop\Sally Internship\GNSS gravi\DATA\aux_files\Survey\IGS0OPSFIN_20241240000_01D_30S_CLK.CLK
% obs start : 2024/05/03 16:21:38.0 GPST (week2312 490898.0s)
% obs end   : 2024/05/03 16:26:38.0 GPST (week2312 491198.0s)
% pos mode  : Static
% freqs     : L1+L2/E5b
% solution  : Combined-No Phase Reset
% elev mask : 15.0 deg
% dynamics  : on
% tidecorr  : solid
% ionos opt : Estimate TEC
% tropo opt : Estimate ZTD+Grad
% ephemeris : Precise
% navi sys  : GPS GLONASS Galileo QZSS BDS
% amb res   : Fix and Hold
% amb glo   : Fix and Hold
% amb bds   : on
% val thres : 3.0
% antenna1  :                       ( 0.0000  0.0000  1.8000)
% antenna2  :                       ( 0.0000  0.0000  0.0000)
% ref pos   :  28.308069410  -16.499677180  2417.4044
%
% (lat/lon/height=WGS84/ellipsoidal,Q=1:fix,2:float,3:sbas,4:dgps,5:single,6:ppp,ns=# of satellites)
%  GPST                  latitude(deg) longitude(deg)  height(m)   Q  ns   sdn(m)   sde(m)   sdu(m)  sdne(m)  sdeu(m)  sdun(m) age(s)  ratio
2024/05/03 16:21:38.000   28.281248660  -16.515665580  2225.4224   1   8   0.0025   0.0018   0.0395   0.0008  -0.0015  -0.0069   8.00   13.0
2024/05/03 16:21:39.000   28.281248662  -16.515665579  2225.4150   1   8   0.0025   0.0018   0.0399   0.0008  -0.0016  -0.0070   9.00    9.0
2024/05/03 16:21:40.000   28.281248665  -16.515665576  2225.4025   1   8   0.0025   0.0018   0.0400   0.0008  -0.0016  -0.0070  10.00    5.4
2024/05/03 16:21:41.000   28.281248661  -16.515665577  2225.4117   1   8   0.0025   0.0018   0.0402   0.0008  -0.0016  -0.0071  11.00   90.3
2024/05/03 16:21:42.000   28.281248661  -16.515665577  2225.4125   1   8   0.0025   0.0018   0.0402   0.0008  -0.0016  -0.0071  12.00   90.2
2024/05/03 16:21:43.000   28.281248660  -16.515665577  2225.4131   1   8   0.0025   0.0018   0.0401   0.0008  -0.0016  -0.0071  13.00    7.6
2024/05/03 16:21:44.000   28.281248660  -16.515665577  2225.4138   1   8   0.0025   0.0018   0.0403   0.0008  -0.0016  -0.0071  14.00   88.0
2024/05/03 16:21:45.000   28.281248659  -16.515665577  2225.4144   1   8   0.0026   0.0018   0.0403   0.0008  -0.0016  -0.0071  15.00   87.9
2024/05/03 16:21:46.000   28.281248657  -16.515665577  2225.4210   1   8   0.0025   0.0018   0.0401   0.0008  -0.0015  -0.0071 -14.00    9.2
2024/05/03 16:21:47.000   28.281248658  -16.515665577  2225.4169   1   8   0.0026   0.0018   0.0402   0.0008  -0.0015  -0.0071 -13.00    6.8
2024/05/03 16:21:48.000   28.281248645  -16.515665569  2225.4317   1   8   0.0026   0.0018   0.0410   0.0006  -0.0005  -0.0075 -12.00   12.7
2024/05/03 16:21:49.000   28.281248638  -16.515665572  2225.4543   1   8   0.0026   0.0018   0.0408   0.0006  -0.0001  -0.0074 -11.00    4.0
2024/05/03 16:21:50.000   28.281248641  -16.515665571  2225.4457   1   8   0.0026   0.0018   0.0410   0.0006  -0.0005  -0.0075 -10.00    3.7
2024/05/03 16:21:51.000   28.281248648  -16.515665568  2225.4233   1   8   0.0026   0.0018   0.0410   0.0006  -0.0004  -0.0075  -9.00    6.1
2024/05/03 16:21:52.000   28.281248644  -16.515665570  2225.4361   1   8   0.0027   0.0018   0.0413   0.0006  -0.0007  -0.0075  -8.00  999.9
2024/05/03 16:21:53.000   28.281248644  -16.515665570  2225.4363   1   8   0.0027   0.0018   0.0413   0.0006  -0.0007  -0.0076  -7.00  999.9
2024/05/03 16:21:54.000   28.281248651  -16.515665567  2225.4150   1   8   0.0026   0.0018   0.0408   0.0006   0.0004  -0.0074  -6.00    7.6
2024/05/03 16:21:55.000   28.281248644  -16.515665570  2225.4353   1   8   0.0026   0.0018   0.0399   0.0006   0.0011  -0.0072  -5.00  105.3
2024/05/03 16:21:56.000   28.281248642  -16.515665571  2225.4398   1   8   0.0026   0.0018   0.0405   0.0006   0.0007  -0.0074  -4.00   47.9
2024/05/03 16:21:57.000   28.281248646  -16.515665570  2225.4274   1   8   0.0026   0.0018   0.0399   0.0006   0.0012  -0.0072  -3.00  236.9
2024/05/03 16:21:58.000   28.281248643  -16.515665571  2225.4366   1   8   0.0027   0.0018   0.0414   0.0006  -0.0005  -0.0076  -2.00  999.9
2024/05/03 16:21:59.000   28.281248643  -16.515665571  2225.4368   1   8   0.0027   0.0018   0.0415   0.0006  -0.0005  -0.0076  -1.00  999.9
2024/05/03 16:22:00.000   28.281248671  -16.515665580  2225.3962   1   8   0.0025   0.0018   0.0380   0.0008  -0.0012  -0.0064   0.00  104.6
2024/05/03 16:22:01.000   28.281248670  -16.515665580  2225.3993   1   8   0.0025   0.0018   0.0383   0.0008  -0.0012  -0.0065   1.00  107.0
2024/05/03 16:22:02.000   28.281248668  -16.515665580  2225.4029   1   8   0.0025   0.0018   0.0388   0.0008  -0.0013  -0.0066   2.00   94.2
2024/05/03 16:22:03.000   28.281248667  -16.515665580  2225.4069   1   8   0.0025   0.0018   0.0392   0.0008  -0.0014  -0.0067   3.00   76.0
2024/05/03 16:22:04.000   28.281248665  -16.515665581  2225.4110   1   8   0.0026   0.0018   0.0404   0.0008  -0.0018  -0.0070   4.00  116.4
2024/05/03 16:22:05.000   28.281248664  -16.515665580  2225.4124   1   8   0.0026   0.0018   0.0405   0.0008  -0.0017  -0.0070   5.00  118.6
2024/05/03 16:22:06.000   28.281248669  -16.515665577  2225.3935   1   8   0.0026   0.0018   0.0397   0.0007  -0.0013  -0.0069   6.00   17.0
2024/05/03 16:22:07.000   28.281248667  -16.515665577  2225.3994   1   8   0.0026   0.0018   0.0403   0.0007  -0.0015  -0.0070   7.00    5.7
2024/05/03 16:22:08.000   28.281248661  -16.515665579  2225.4162   1   8   0.0026   0.0018   0.0407   0.0007  -0.0016  -0.0071   8.00  130.7
2024/05/03 16:22:09.000   28.281248661  -16.515665579  2225.4169   1   8   0.0026   0.0018   0.0408   0.0007  -0.0016  -0.0072   9.00  131.1
2024/05/03 16:22:10.000   28.281248661  -16.515665579  2225.4176   1   8   0.0026   0.0018   0.0408   0.0007  -0.0015  -0.0072  10.00  130.3
2024/05/03 16:22:11.000   28.281248660  -16.515665579  2225.4182   1   8   0.0026   0.0018   0.0409   0.0007  -0.0015  -0.0072  11.00  130.8
2024/05/03 16:22:12.000   28.281248729  -16.515665510  2225.5682   2   8   0.0074   0.0074   0.0844   0.0044   0.0153   0.0113  12.00    0.0
2024/05/03 16:22:13.000   28.281248663  -16.515665577  2225.4083   1   8   0.0026   0.0018   0.0407   0.0007  -0.0013  -0.0072  13.00    4.4
2024/05/03 16:22:14.000   28.281248660  -16.515665579  2225.4166   1   8   0.0026   0.0018   0.0408   0.0007  -0.0014  -0.0072  14.00    4.9
2024/05/03 16:22:15.000   28.281248659  -16.515665579  2225.4213   1   8   0.0026   0.0018   0.0410   0.0007  -0.0014  -0.0072  15.00  116.4
2024/05/03 16:22:16.000   28.281248657  -16.515665580  2225.4279   1   8   0.0026   0.0018   0.0408   0.0007  -0.0013  -0.0072 -14.00   10.0
2024/05/03 16:22:17.000   28.281248657  -16.515665580  2225.4255   1   8   0.0026   0.0018   0.0409   0.0007  -0.0013  -0.0072 -13.00    6.1
2024/05/03 16:22:18.000   28.281248658  -16.515665579  2225.4210   1   8   0.0026   0.0018   0.0407   0.0007  -0.0012  -0.0072 -12.00   28.8
2024/05/03 16:22:19.000   28.281248658  -16.515665579  2225.4225   1   8   0.0027   0.0018   0.0411   0.0007  -0.0014  -0.0073 -11.00  105.9
2024/05/03 16:22:20.000   28.281248657  -16.515665578  2225.4228   1   8   0.0027   0.0018   0.0411   0.0007  -0.0013  -0.0073 -10.00  100.2
2024/05/03 16:22:21.000   28.281248655  -16.515665579  2225.4311   1   8   0.0027   0.0018   0.0409   0.0007  -0.0011  -0.0073  -9.00    7.3
2024/05/03 16:22:22.000   28.281248653  -16.515665577  2225.4289   1   8   0.0027   0.0018   0.0417   0.0006  -0.0008  -0.0076  -8.00   72.6
2024/05/03 16:22:23.000   28.281248649  -16.515665577  2225.4380   1   8   0.0027   0.0018   0.0413   0.0006  -0.0003  -0.0075  -7.00   11.5
2024/05/03 16:22:24.000   28.281248644  -16.515665572  2225.4401   1   8   0.0028   0.0018   0.0420   0.0005   0.0005  -0.0077  -6.00  996.1
2024/05/03 16:22:25.000   28.281248641  -16.515665573  2225.4472   1   8   0.0028   0.0018   0.0413   0.0005   0.0010  -0.0076  -5.00   29.5
2024/05/03 16:22:26.000   28.281248645  -16.515665571  2225.4350   1   8   0.0028   0.0018   0.0412   0.0005   0.0011  -0.0075  -4.00   71.0
2024/05/03 16:22:27.000   28.281248660  -16.515665565  2225.3906   1   8   0.0028   0.0018   0.0410   0.0005   0.0012  -0.0075  -3.00    5.3
2024/05/03 16:22:28.000   28.281248643  -16.515665572  2225.4399   1   8   0.0028   0.0018   0.0422   0.0005   0.0006  -0.0078  -2.00  991.7
2024/05/03 16:22:29.000   28.281248642  -16.515665571  2225.4396   1   8   0.0028   0.0019   0.0422   0.0005   0.0007  -0.0078  -1.00  989.6
2024/05/03 16:22:30.000   28.281248673  -16.515665569  2225.3690   1   8   0.0025   0.0018   0.0372   0.0007   0.0010  -0.0062   0.00   58.2
2024/05/03 16:22:31.000   28.281248669  -16.515665571  2225.3799   1   8   0.0026   0.0018   0.0384   0.0007  -0.0005  -0.0065   1.00   41.8
2024/05/03 16:22:32.000   28.281248665  -16.515665571  2225.3879   1   8   0.0026   0.0018   0.0398   0.0007  -0.0013  -0.0068   2.00   14.0
2024/05/03 16:22:33.000   28.281248655  -16.515665577  2225.4246   1   8   0.0027   0.0018   0.0411   0.0007  -0.0017  -0.0071   3.00  229.8
2024/05/03 16:22:34.000   28.281248654  -16.515665576  2225.4270   1   8   0.0026   0.0018   0.0395   0.0007  -0.0006  -0.0068   4.00  116.7
2024/05/03 16:22:35.000   28.281248656  -16.515665574  2225.4153   1   8   0.0027   0.0018   0.0403   0.0007  -0.0011  -0.0070   5.00   49.9
2024/05/03 16:22:36.000   28.281248654  -16.515665575  2225.4221   1   8   0.0027   0.0018   0.0410   0.0007  -0.0013  -0.0072   6.00   28.3
2024/05/03 16:22:37.000   28.281248648  -16.515665579  2225.4458   1   8   0.0027   0.0018   0.0409   0.0007  -0.0012  -0.0072   7.00   16.1
2024/05/03 16:22:38.000   28.281248650  -16.515665577  2225.4367   1   8   0.0027   0.0019   0.0413   0.0007  -0.0013  -0.0073   8.00   11.5
2024/05/03 16:22:39.000   28.281248652  -16.515665575  2225.4285   1   8   0.0027   0.0019   0.0417   0.0007  -0.0015  -0.0074   9.00  230.6
2024/05/03 16:22:40.000   28.281248652  -16.515665575  2225.4295   1   8   0.0027   0.0019   0.0415   0.0006  -0.0013  -0.0073  10.00   19.5
2024/05/03 16:22:41.000   28.281248652  -16.515665574  2225.4280   1   8   0.0027   0.0019   0.0415   0.0006  -0.0012  -0.0073  11.00   39.8
2024/05/03 16:22:42.000   28.281248652  -16.515665574  2225.4291   1   8   0.0028   0.0019   0.0419   0.0006  -0.0014  -0.0074  12.00  222.9
2024/05/03 16:22:43.000   28.281248651  -16.515665574  2225.4294   1   8   0.0028   0.0019   0.0419   0.0006  -0.0013  -0.0074  13.00  220.9
2024/05/03 16:22:44.000   28.281248651  -16.515665574  2225.4296   1   8   0.0028   0.0019   0.0419   0.0006  -0.0013  -0.0074  14.00  217.9
2024/05/03 16:22:45.000   28.281248651  -16.515665574  2225.4296   1   8   0.0028   0.0019   0.0419   0.0006  -0.0013  -0.0075  15.00  214.0
2024/05/03 16:22:46.000   28.281248651  -16.515665574  2225.4296   1   8   0.0028   0.0019   0.0419   0.0006  -0.0013  -0.0075 -14.00  210.6
2024/05/03 16:22:47.000   28.281248651  -16.515665574  2225.4301   1   8   0.0028   0.0019   0.0418   0.0006  -0.0011  -0.0075 -13.00   13.1
2024/05/03 16:22:48.000   28.281248651  -16.515665574  2225.4290   1   8   0.0028   0.0019   0.0416   0.0006  -0.0010  -0.0074 -12.00   47.5
2024/05/03 16:22:49.000   28.281248651  -16.515665574  2225.4296   1   8   0.0028   0.0019   0.0420   0.0006  -0.0012  -0.0075 -11.00  196.6
2024/05/03 16:22:50.000   28.281248651  -16.515665574  2225.4298   1   8   0.0028   0.0019   0.0421   0.0006  -0.0011  -0.0075 -10.00  192.2
2024/05/03 16:22:51.000   28.281248652  -16.515665573  2225.4272   1   8   0.0028   0.0019   0.0418   0.0006  -0.0009  -0.0075  -9.00   20.4
2024/05/03 16:22:52.000   28.281248644  -16.515665571  2225.4382   1   8   0.0029   0.0019   0.0426   0.0004   0.0002  -0.0078  -8.00  191.2
2024/05/03 16:22:53.000   28.281248639  -16.515665573  2225.4538   1   8   0.0029   0.0019   0.0417   0.0004   0.0011  -0.0076  -7.00   28.5
2024/05/03 16:22:54.000   28.281248640  -16.515665571  2225.4467   1   8   0.0029   0.0019   0.0424   0.0003   0.0013  -0.0079  -6.00   28.0
2024/05/03 16:22:55.000   28.281248625  -16.515665576  2225.4927   1   8   0.0029   0.0019   0.0415   0.0002   0.0017  -0.0077  -5.00    6.4
2024/05/03 16:22:56.000   28.281248635  -16.515665572  2225.4626   1   8   0.0029   0.0019   0.0422   0.0002   0.0015  -0.0078  -4.00   11.3
2024/05/03 16:22:57.000   28.281248643  -16.515665569  2225.4389   1   8   0.0029   0.0019   0.0431   0.0003   0.0011  -0.0080  -3.00  896.5
2024/05/03 16:22:58.000   28.281248644  -16.515665569  2225.4392   1   8   0.0029   0.0019   0.0432   0.0003   0.0011  -0.0080  -2.00  854.2
2024/05/03 16:22:59.000   28.281248644  -16.515665568  2225.4393   1   8   0.0029   0.0019   0.0432   0.0003   0.0011  -0.0080  -1.00  837.2
2024/05/03 16:23:00.000   28.281248689  -16.515665570  2225.3495   1   8   0.0027   0.0019   0.0401   0.0007  -0.0011  -0.0068   0.00    6.8
2024/05/03 16:23:01.000   28.281248674  -16.515665578  2225.4001   1   8   0.0027   0.0019   0.0403   0.0006  -0.0011  -0.0069   1.00   42.8
2024/05/03 16:23:02.000   28.281248670  -16.515665579  2225.4075   1   8   0.0028   0.0019   0.0419   0.0007  -0.0017  -0.0073   2.00  126.5
2024/05/03 16:23:03.000   28.281248678  -16.515665573  2225.3797   1   8   0.0028   0.0019   0.0410   0.0006  -0.0011  -0.0071   3.00   11.8
2024/05/03 16:23:04.000   28.281248668  -16.515665578  2225.4101   1   8   0.0028   0.0019   0.0408   0.0006  -0.0006  -0.0071   4.00   47.3
2024/05/03 16:23:05.000   28.281248667  -16.515665578  2225.4114   1   8   0.0028   0.0019   0.0417   0.0006  -0.0011  -0.0073   5.00   23.9
2024/05/03 16:23:06.000   28.281248675  -16.515665572  2225.3809   1   8   0.0028   0.0019   0.0416   0.0005  -0.0008  -0.0073   6.00    7.0
2024/05/03 16:23:07.000   28.281248668  -16.515665576  2225.4052   1   8   0.0029   0.0019   0.0422   0.0005  -0.0011  -0.0074   7.00    9.5
2024/05/03 16:23:08.000   28.281248663  -16.515665578  2225.4177   1   8   0.0029   0.0019   0.0427   0.0005  -0.0013  -0.0076   8.00  121.6
2024/05/03 16:23:09.000   28.281248663  -16.515665577  2225.4167   1   8   0.0029   0.0019   0.0423   0.0005  -0.0009  -0.0075   9.00   26.4
2024/05/03 16:23:10.000   28.281248662  -16.515665577  2225.4194   1   8   0.0029   0.0019   0.0428   0.0005  -0.0012  -0.0076  10.00  122.0
2024/05/03 16:23:11.000   28.281248660  -16.515665577  2225.4202   1   8   0.0029   0.0019   0.0428   0.0005  -0.0012  -0.0076  11.00  123.1
2024/05/03 16:23:12.000   28.281248660  -16.515665576  2225.4195   1   8   0.0029   0.0019   0.0427   0.0005  -0.0010  -0.0076  12.00    8.2
2024/05/03 16:23:13.000   28.281248663  -16.515665574  2225.4061   1   8   0.0029   0.0019   0.0425   0.0004  -0.0008  -0.0076  13.00    5.2
2024/05/03 16:23:14.000   28.281248660  -16.515665575  2225.4147   1   8   0.0029   0.0019   0.0427   0.0004  -0.0009  -0.0077  14.00    6.0
2024/05/03 16:23:15.000   28.281248659  -16.515665576  2225.4201   1   8   0.0029   0.0019   0.0429   0.0004  -0.0009  -0.0077  15.00    4.7
2024/05/03 16:23:16.000   28.281248658  -16.515665576  2225.4213   1   8   0.0029   0.0019   0.0429   0.0004  -0.0009  -0.0077 -14.00    5.9
2024/05/03 16:23:17.000   28.281248657  -16.515665576  2225.4243   1   8   0.0029   0.0019   0.0431   0.0004  -0.0010  -0.0078 -13.00  116.8
2024/05/03 16:23:18.000   28.281248655  -16.515665576  2225.4280   1   8   0.0029   0.0019   0.0429   0.0004  -0.0008  -0.0077 -12.00    7.0
2024/05/03 16:23:19.000   28.281248657  -16.515665575  2225.4230   1   8   0.0029   0.0019   0.0426   0.0004  -0.0003  -0.0077 -11.00   29.6
2024/05/03 16:23:20.000   28.281248656  -16.515665576  2225.4251   1   8   0.0030   0.0019   0.0432   0.0004  -0.0008  -0.0078 -10.00  111.4
2024/05/03 16:23:21.000   28.281248655  -16.515665575  2225.4256   1   8   0.0030   0.0019   0.0432   0.0004  -0.0007  -0.0078  -9.00  109.2
2024/05/03 16:23:22.000   28.281248652  -16.515665576  2225.4336   1   8   0.0030   0.0019   0.0429   0.0003   0.0003  -0.0078  -8.00    9.3
2024/05/03 16:23:23.000   28.281248658  -16.515665572  2225.4108   1   8   0.0030   0.0019   0.0429   0.0003   0.0006  -0.0078  -7.00    5.4
2024/05/03 16:23:24.000   28.281248715  -16.515665542  2225.2244   1   8   0.0029   0.0019   0.0385  -0.0004   0.0025  -0.0070  -6.00    4.3
2024/05/03 16:23:25.000   28.281248705  -16.515665547  2225.2538   1   8   0.0029   0.0019   0.0390  -0.0004   0.0025  -0.0071  -5.00    5.3
2024/05/03 16:23:26.000   28.281248690  -16.515665553  2225.2963   1   8   0.0030   0.0019   0.0396  -0.0004   0.0024  -0.0072  -4.00    8.0
2024/05/03 16:23:27.000   28.281248676  -16.515665558  2225.3349   1   8   0.0030   0.0019   0.0403  -0.0005   0.0024  -0.0074  -3.00   10.0
2024/05/03 16:23:28.000   28.281248662  -16.515665563  2225.3720   1   8   0.0030   0.0019   0.0414  -0.0005   0.0022  -0.0077  -2.00   11.0
2024/05/03 16:23:29.000   28.281248650  -16.515665565  2225.3986   1   8   0.0031   0.0020   0.0428  -0.0005   0.0020  -0.0080  -1.00    7.4
2024/05/03 16:23:30.000   28.281248671  -16.515665586  2225.4034   1   8   0.0029   0.0019   0.0427   0.0006  -0.0018  -0.0074   0.00  107.4
2024/05/03 16:23:31.000   28.281248660  -16.515665591  2225.4363   1   8   0.0029   0.0019   0.0414   0.0005  -0.0009  -0.0072   1.00   13.6
2024/05/03 16:23:32.000   28.281248669  -16.515665585  2225.4044   1   8   0.0029   0.0019   0.0415   0.0004  -0.0006  -0.0072   2.00   66.1
2024/05/03 16:23:33.000   28.281248666  -16.515665585  2225.4090   1   8   0.0030   0.0020   0.0433   0.0005  -0.0016  -0.0076   3.00  114.8
2024/05/03 16:23:34.000   28.281248662  -16.515665584  2225.4120   1   8   0.0030   0.0020   0.0434   0.0004  -0.0014  -0.0077   4.00  121.6
2024/05/03 16:23:35.000   28.281248656  -16.515665585  2225.4274   1   8   0.0030   0.0020   0.0428   0.0003  -0.0009  -0.0076   5.00   12.9
2024/05/03 16:23:36.000   28.281248664  -16.515665579  2225.3948   1   8   0.0030   0.0020   0.0431   0.0003  -0.0009  -0.0077   6.00    4.6
2024/05/03 16:23:37.000   28.281248653  -16.515665584  2225.4293   1   8   0.0030   0.0020   0.0433   0.0002  -0.0008  -0.0077   7.00    8.1
2024/05/03 16:23:38.000   28.281248653  -16.515665584  2225.4299   1   8   0.0031   0.0020   0.0435   0.0002  -0.0008  -0.0078   8.00    5.5
2024/05/03 16:23:39.000   28.281248661  -16.515665577  2225.3962   1   8   0.0031   0.0020   0.0434  -0.0001  -0.0005  -0.0078   9.00    3.2
2024/05/03 16:23:40.000   28.281248656  -16.515665580  2225.4131   1   8   0.0031   0.0020   0.0438  -0.0001  -0.0007  -0.0079  10.00    3.6
2024/05/03 16:23:41.000   28.281248651  -16.515665581  2225.4252   1   8   0.0031   0.0020   0.0441  -0.0001  -0.0009  -0.0080  11.00  140.8
2024/05/03 16:23:42.000   28.281248650  -16.515665581  2225.4262   1   8   0.0031   0.0020   0.0441  -0.0002  -0.0008  -0.0080  12.00  141.5
2024/05/03 16:23:43.000   28.281248653  -16.515665579  2225.4162   1   8   0.0031   0.0020   0.0438  -0.0003   0.0003  -0.0080  13.00    8.3
2024/05/03 16:23:44.000   28.281248669  -16.515665584  2225.4090   1   8   0.0025   0.0017   0.0393   0.0007  -0.0018  -0.0070  14.00    3.3
2024/05/03 16:23:45.000   28.281248667  -16.515665585  2225.4136   1   8   0.0025   0.0017   0.0394   0.0007  -0.0018  -0.0070 -15.00    3.3
2024/05/03 16:23:46.000   28.281248666  -16.515665585  2225.4157   1   8   0.0025   0.0017   0.0395   0.0007  -0.0018  -0.0070 -14.00    3.2
2024/05/03 16:23:47.000   28.281248667  -16.515665584  2225.4139   1   8   0.0025   0.0017   0.0381   0.0007  -0.0013  -0.0068 -13.00    3.0
2024/05/03 16:23:48.000   28.281248667  -16.515665585  2225.4156   1   8   0.0025   0.0017   0.0395   0.0007  -0.0018  -0.0070 -12.00    3.1
2024/05/03 16:23:49.000   28.281248667  -16.515665584  2225.4150   1   8   0.0025   0.0017   0.0390   0.0007  -0.0017  -0.0070 -11.00    3.1
2024/05/03 16:23:50.000   28.281248666  -16.515665584  2225.4161   1   8   0.0025   0.0017   0.0395   0.0007  -0.0018  -0.0070 -10.00    3.0
2024/05/03 16:23:51.000   28.281248643  -16.515665579  2225.4348   1   8   0.0032   0.0020   0.0445  -0.0004   0.0005  -0.0082  -9.00  132.9
2024/05/03 16:23:52.000   28.281248640  -16.515665579  2225.4404   1   8   0.0032   0.0020   0.0442  -0.0005   0.0010  -0.0082  -8.00   15.7
2024/05/03 16:23:53.000   28.281248640  -16.515665578  2225.4373   1   8   0.0032   0.0020   0.0447  -0.0005   0.0008  -0.0083  -7.00  126.1
2024/05/03 16:23:54.000   28.281248633  -16.515665580  2225.4566   1   8   0.0032   0.0020   0.0442  -0.0005   0.0013  -0.0082  -6.00    7.1
2024/05/03 16:23:55.000   28.281248645  -16.515665571  2225.4103   1   8   0.0032   0.0020   0.0442  -0.0006   0.0015  -0.0083  -5.00    3.3
2024/05/03 16:23:56.000   28.281248631  -16.515665577  2225.4544   1   8   0.0033   0.0020   0.0441  -0.0006   0.0017  -0.0083  -4.00   28.5
2024/05/03 16:23:57.000   28.281248631  -16.515665575  2225.4472   1   8   0.0033   0.0020   0.0453  -0.0007   0.0015  -0.0086  -3.00  102.3
2024/05/03 16:23:58.000   28.281248628  -16.515665574  2225.4510   1   8   0.0033   0.0020   0.0455  -0.0007   0.0017  -0.0087  -2.00   83.1
2024/05/03 16:23:59.000   28.281248644  -16.515665564  2225.3937   1   8   0.0034   0.0020   0.0440  -0.0008   0.0024  -0.0085  -1.00    4.7
2024/05/03 16:24:00.000   28.281248659  -16.515665587  2225.4210   1   8   0.0031   0.0020   0.0439   0.0003  -0.0017  -0.0077   0.00  119.8
2024/05/03 16:24:01.000   28.281248649  -16.515665592  2225.4536   1   8   0.0031   0.0020   0.0424  -0.0002  -0.0004  -0.0074   1.00   16.0
2024/05/03 16:24:02.000   28.281248666  -16.515665580  2225.4040   1   8   0.0025   0.0019   0.0372   0.0007   0.0030  -0.0062   2.00    3.4
2024/05/03 16:24:03.000   28.281248660  -16.515665583  2225.4244   1   8   0.0025   0.0019   0.0406   0.0008   0.0022  -0.0070   3.00    3.6
2024/05/03 16:24:04.000   28.281248655  -16.515665585  2225.4370   1   8   0.0025   0.0019   0.0399   0.0007   0.0024  -0.0068   4.00    3.4
2024/05/03 16:24:05.000   28.281248671  -16.515665576  2225.3820   1   8   0.0025   0.0019   0.0397   0.0007   0.0025  -0.0068   5.00    3.2
2024/05/03 16:24:06.000   28.281248663  -16.515665581  2225.4108   1   8   0.0025   0.0019   0.0403   0.0007   0.0024  -0.0069   6.00    3.2
2024/05/03 16:24:07.000   28.281248654  -16.515665585  2225.4415   1   8   0.0025   0.0019   0.0402   0.0007   0.0025  -0.0069   7.00    3.1
2024/05/03 16:24:08.000   28.281248657  -16.515665583  2225.4304   1   8   0.0025   0.0019   0.0405   0.0007   0.0024  -0.0070   8.00    3.1
2024/05/03 16:24:09.000   28.281248656  -16.515665584  2225.4347   1   8   0.0025   0.0019   0.0406   0.0007   0.0024  -0.0070   9.00    3.1
2024/05/03 16:24:10.000   28.281248659  -16.515665583  2225.4266   1   8   0.0025   0.0019   0.0405   0.0007   0.0025  -0.0070  10.00    3.1
2024/05/03 16:24:11.000   28.281248659  -16.515665582  2225.4254   1   8   0.0025   0.0019   0.0409   0.0007   0.0024  -0.0070  11.00    3.0
2024/05/03 16:24:12.000   28.281248659  -16.515665582  2225.4256   1   8   0.0025   0.0019   0.0409   0.0007   0.0024  -0.0071  12.00    3.0
2024/05/03 16:24:13.000   28.281248648  -16.515665585  2225.4362   1   8   0.0034   0.0021   0.0455  -0.0007   0.0007  -0.0084  13.00  119.6
2024/05/03 16:24:14.000   28.281248656  -16.515665582  2225.4301   1   8   0.0026   0.0017   0.0384   0.0006  -0.0014  -0.0070  14.00    3.1
2024/05/03 16:24:15.000   28.281248657  -16.515665582  2225.4300   1   8   0.0026   0.0017   0.0381   0.0006  -0.0013  -0.0070 -15.00    3.1
2024/05/03 16:24:16.000   28.281248658  -16.515665582  2225.4274   1   8   0.0027   0.0017   0.0398   0.0007  -0.0019  -0.0074 -14.00    3.1
2024/05/03 16:24:17.000   28.281248658  -16.515665582  2225.4272   1   8   0.0027   0.0017   0.0398   0.0007  -0.0019  -0.0074 -13.00    3.1
2024/05/03 16:24:18.000   28.281248658  -16.515665581  2225.4252   1   8   0.0027   0.0017   0.0397   0.0007  -0.0018  -0.0073 -12.00    3.1
2024/05/03 16:24:19.000   28.281248658  -16.515665582  2225.4274   1   8   0.0027   0.0017   0.0398   0.0007  -0.0019  -0.0074 -11.00    3.1
2024/05/03 16:24:20.000   28.281248659  -16.515665581  2225.4234   1   8   0.0027   0.0017   0.0396   0.0007  -0.0018  -0.0073 -10.00    3.1
2024/05/03 16:24:21.000   28.281248644  -16.515665589  2225.4709   1   8   0.0027   0.0017   0.0386   0.0006  -0.0014  -0.0071  -9.00    3.0
2024/05/03 16:24:22.000   28.281248631  -16.515665590  2225.4835   1   8   0.0035   0.0021   0.0444  -0.0009   0.0020  -0.0084  -8.00    6.9
2024/05/03 16:24:23.000   28.281248634  -16.515665587  2225.4718   1   8   0.0035   0.0021   0.0449  -0.0009   0.0020  -0.0086  -7.00    7.3
2024/05/03 16:24:24.000   28.281248654  -16.515665585  2225.4438   1   8   0.0025   0.0017   0.0363   0.0006   0.0005  -0.0065  -6.00    3.8
2024/05/03 16:24:25.000   28.281248659  -16.515665582  2225.4248   1   8   0.0025   0.0017   0.0368   0.0006  -0.0005  -0.0066  -5.00    3.7
2024/05/03 16:24:26.000   28.281248667  -16.515665578  2225.4002   1   8   0.0025   0.0017   0.0389   0.0006  -0.0016  -0.0070  -4.00    3.7
2024/05/03 16:24:27.000   28.281248660  -16.515665582  2225.4248   1   8   0.0026   0.0017   0.0396   0.0007  -0.0018  -0.0071  -3.00    3.6
2024/05/03 16:24:28.000   28.281248660  -16.515665582  2225.4278   1   8   0.0026   0.0017   0.0485   0.0007  -0.0029  -0.0076  -2.00    3.6
2024/05/03 16:24:29.000   28.281248659  -16.515665582  2225.4269   1   8   0.0025   0.0017   0.0408   0.0005  -0.0006  -0.0063  -1.00    3.5
2024/05/03 16:24:30.000   28.281248688  -16.515665580  2225.3471   1   8   0.0023   0.0017   0.0385   0.0007  -0.0010  -0.0056   0.00    3.3
2024/05/03 16:24:31.000   28.281248665  -16.515665587  2225.4108   1   8   0.0033   0.0021   0.0536  -0.0007  -0.0023  -0.0070   1.00   72.1
2024/05/03 16:24:32.000   28.281248662  -16.515665586  2225.4125   1   8   0.0034   0.0021   0.0547  -0.0008  -0.0025  -0.0072   2.00   65.5
2024/05/03 16:24:33.000   28.281248657  -16.515665580  2225.4264   1   8   0.0025   0.0017   0.0407   0.0005   0.0005  -0.0064   3.00    3.2
2024/05/03 16:24:34.000   28.281248653  -16.515665581  2225.4390   1   8   0.0025   0.0017   0.0427   0.0005  -0.0013  -0.0068   4.00    3.2
2024/05/03 16:24:35.000   28.281248653  -16.515665580  2225.4399   1   8   0.0025   0.0017   0.0427   0.0005  -0.0012  -0.0068   5.00    3.2
2024/05/03 16:24:36.000   28.281248650  -16.515665583  2225.4199   1   8   0.0036   0.0022   0.0583  -0.0010  -0.0029  -0.0079   6.00   30.6
2024/05/03 16:24:37.000   28.281248650  -16.515665582  2225.4672   1   8   0.0026   0.0017   0.0586   0.0006  -0.0045  -0.0075   7.00    3.4
2024/05/03 16:24:38.000   28.281248650  -16.515665581  2225.4649   1   8   0.0026   0.0017   0.0577   0.0006  -0.0043  -0.0074   8.00    3.4
2024/05/03 16:24:39.000   28.281248658  -16.515665585  2225.4657   1   8   0.0026   0.0018   0.0606   0.0007  -0.0048  -0.0076   9.00    3.1
2024/05/03 16:24:40.000   28.281248658  -16.515665585  2225.4658   1   8   0.0026   0.0018   0.0606   0.0007  -0.0048  -0.0076  10.00    3.1
2024/05/03 16:24:41.000   28.281248658  -16.515665585  2225.4633   1   8   0.0026   0.0017   0.0596   0.0007  -0.0047  -0.0075  11.00    3.0
2024/05/03 16:24:42.000   28.281248652  -16.515665599  2225.6747   1   8   0.0051   0.0038   0.2429   0.0035  -0.0247  -0.0298  12.00    3.0
2024/05/03 16:24:43.000   28.281248660  -16.515665582  2225.4397   1   8   0.0026   0.0017   0.0441   0.0006  -0.0030  -0.0069  13.00    3.0
2024/05/03 16:24:44.000   28.281248637  -16.515665582  2225.4479   1   8   0.0038   0.0022   0.0467  -0.0011   0.0016  -0.0089  14.00  156.6
2024/05/03 16:24:45.000   28.281248635  -16.515665582  2225.4495   1   8   0.0038   0.0022   0.0466  -0.0011   0.0018  -0.0089  15.00    7.5
2024/05/03 16:24:46.000   28.281248615  -16.515665574  2225.4650   1   8   0.0040   0.0022   0.0478  -0.0014   0.0027  -0.0097 -14.00  193.9
2024/05/03 16:24:47.000   28.281248619  -16.515665573  2225.4528   1   8   0.0040   0.0022   0.0471  -0.0014   0.0029  -0.0096 -13.00   22.1
2024/05/03 16:24:48.000   28.281248613  -16.515665571  2225.4616   1   8   0.0041   0.0023   0.0479  -0.0015   0.0033  -0.0100 -12.00   22.7
2024/05/03 16:24:49.000   28.281248611  -16.515665572  2225.4650   1   8   0.0041   0.0023   0.0482  -0.0015   0.0033  -0.0100 -11.00   12.5
2024/05/03 16:24:50.000   28.281248609  -16.515665572  2225.4706   1   8   0.0042   0.0023   0.0485  -0.0015   0.0032  -0.0101 -10.00  481.5
2024/05/03 16:24:51.000   28.281248609  -16.515665572  2225.4708   1   8   0.0042   0.0023   0.0485  -0.0015   0.0033  -0.0101  -9.00  478.2
2024/05/03 16:24:52.000   28.281248608  -16.515665572  2225.4710   1   8   0.0042   0.0023   0.0485  -0.0016   0.0033  -0.0102  -8.00  475.1
2024/05/03 16:24:53.000   28.281248652  -16.515665579  2225.4349   1   8   0.0026   0.0017   0.0400   0.0006  -0.0015  -0.0074  -7.00    3.7
2024/05/03 16:24:54.000   28.281248653  -16.515665580  2225.4338   1   8   0.0026   0.0017   0.0399   0.0006  -0.0016  -0.0074  -6.00    3.6
2024/05/03 16:24:55.000   28.281248653  -16.515665580  2225.4334   1   8   0.0026   0.0017   0.0399   0.0006  -0.0016  -0.0074  -5.00    3.6
2024/05/03 16:24:56.000   28.281248653  -16.515665580  2225.4330   1   8   0.0026   0.0017   0.0398   0.0006  -0.0016  -0.0073  -4.00    3.6
2024/05/03 16:24:57.000   28.281248654  -16.515665580  2225.4326   1   8   0.0026   0.0017   0.0397   0.0006  -0.0016  -0.0073  -3.00    3.6
2024/05/03 16:24:58.000   28.281248655  -16.515665580  2225.4292   1   8   0.0025   0.0017   0.0359   0.0004   0.0011  -0.0065  -2.00    3.6
2024/05/03 16:24:59.000   28.281248655  -16.515665580  2225.4313   1   8   0.0026   0.0017   0.0396   0.0006  -0.0017  -0.0072  -1.00    3.5
2024/05/03 16:25:00.000   28.281248653  -16.515665587  2225.4519   1   8   0.0024   0.0017   0.0363   0.0007  -0.0015  -0.0062   0.00    3.4
2024/05/03 16:25:01.000   28.281248639  -16.515665586  2225.4536   1   8   0.0037   0.0022   0.0446  -0.0011   0.0016  -0.0082   1.00   83.9
2024/05/03 16:25:02.000   28.281248641  -16.515665586  2225.4527   1   8   0.0038   0.0022   0.0468  -0.0012   0.0006  -0.0087   2.00  282.7
2024/05/03 16:25:03.000   28.281248635  -16.515665588  2225.4702   1   8   0.0039   0.0023   0.0456  -0.0013   0.0019  -0.0086   3.00   26.4
2024/05/03 16:25:04.000   28.281248647  -16.515665582  2225.4314   1   8   0.0040   0.0023   0.0461  -0.0013   0.0019  -0.0088   4.00   10.9
2024/05/03 16:25:05.000   28.281248639  -16.515665585  2225.4569   1   8   0.0041   0.0023   0.0474  -0.0014   0.0016  -0.0091   5.00  289.4
2024/05/03 16:25:06.000   28.281248634  -16.515665572  2225.4515   1   8   0.0039   0.0022   0.0400  -0.0014   0.0042  -0.0078   6.00   17.6
2024/05/03 16:25:07.000   28.281248632  -16.515665571  2225.4531   1   8   0.0040   0.0022   0.0425  -0.0014   0.0041  -0.0085   7.00   22.1
2024/05/03 16:25:08.000   28.281248628  -16.515665570  2225.4539   1   8   0.0040   0.0022   0.0406  -0.0015   0.0043  -0.0081   8.00    5.3
2024/05/03 16:25:09.000   28.281248627  -16.515665570  2225.4558   1   8   0.0040   0.0022   0.0428  -0.0015   0.0042  -0.0087   9.00   21.0
2024/05/03 16:25:10.000   28.281248624  -16.515665570  2225.4587   1   8   0.0040   0.0022   0.0409  -0.0015   0.0044  -0.0083  10.00    6.9
2024/05/03 16:25:11.000   28.281248624  -16.515665569  2225.4601   1   8   0.0040   0.0022   0.0408  -0.0016   0.0044  -0.0083  11.00    6.8
2024/05/03 16:25:12.000   28.281248619  -16.515665569  2225.4666   1   8   0.0041   0.0022   0.0415  -0.0016   0.0044  -0.0085  12.00    4.4
2024/05/03 16:25:13.000   28.281248641  -16.515665574  2225.4517   1   8   0.0036   0.0021   0.0404  -0.0011   0.0039  -0.0075  13.00    5.1
2024/05/03 16:25:14.000   28.281248641  -16.515665574  2225.4514   1   8   0.0036   0.0021   0.0402  -0.0011   0.0039  -0.0075  14.00    5.1
2024/05/03 16:25:15.000   28.281248642  -16.515665574  2225.4494   1   8   0.0036   0.0021   0.0401  -0.0012   0.0039  -0.0074 -15.00    3.9
2024/05/03 16:25:16.000   28.281248642  -16.515665574  2225.4495   1   8   0.0036   0.0021   0.0418  -0.0011   0.0036  -0.0078 -14.00    6.8
2024/05/03 16:25:17.000   28.281248642  -16.515665574  2225.4506   1   8   0.0036   0.0021   0.0419  -0.0011   0.0036  -0.0078 -13.00    6.7
2024/05/03 16:25:18.000   28.281248640  -16.515665575  2225.4593   1   8   0.0036   0.0021   0.0404  -0.0011   0.0038  -0.0075 -12.00    3.1
2024/05/03 16:25:19.000   28.281248642  -16.515665574  2225.4515   1   8   0.0036   0.0021   0.0419  -0.0011   0.0036  -0.0078 -11.00    3.6
2024/05/03 16:25:20.000   28.281248643  -16.515665574  2225.4511   1   8   0.0036   0.0021   0.0419  -0.0011   0.0036  -0.0078 -10.00    3.6
2024/05/03 16:25:21.000   28.281248643  -16.515665574  2225.4516   1   8   0.0036   0.0021   0.0419  -0.0011   0.0036  -0.0078  -9.00    3.6
2024/05/03 16:25:22.000   28.281248644  -16.515665573  2225.4473   1   8   0.0036   0.0021   0.0416  -0.0011   0.0037  -0.0077  -8.00    3.6
2024/05/03 16:25:23.000   28.281248641  -16.515665576  2225.4645   1   8   0.0036   0.0021   0.0416  -0.0011   0.0037  -0.0077  -7.00    3.6
2024/05/03 16:25:24.000   28.281248643  -16.515665574  2225.4519   1   8   0.0036   0.0021   0.0420  -0.0011   0.0037  -0.0078  -6.00    3.7
2024/05/03 16:25:25.000   28.281248639  -16.515665577  2225.4720   1   8   0.0036   0.0021   0.0414  -0.0012   0.0038  -0.0077  -5.00    3.7
2024/05/03 16:25:26.000   28.281248645  -16.515665575  2225.4511   1   8   0.0037   0.0022   0.0420  -0.0012   0.0037  -0.0078  -4.00    5.5
2024/05/03 16:25:27.000   28.281248639  -16.515665578  2225.4768   1   8   0.0037   0.0022   0.0412  -0.0012   0.0039  -0.0077  -3.00    7.3
2024/05/03 16:25:28.000   28.281248651  -16.515665576  2225.4325   1   8   0.0036   0.0019   0.0365  -0.0015   0.0026  -0.0076  -2.00    4.6
2024/05/03 16:25:29.000   28.281248620  -16.515665580  2225.4949   1   8   0.0034   0.0019   0.0362  -0.0013   0.0024  -0.0074  -1.00    3.1
2024/05/03 16:25:30.000   28.281248661  -16.515665570  2225.3959   1   8   0.0027   0.0017   0.0348  -0.0002  -0.0005  -0.0060   0.00    4.4
2024/05/03 16:25:31.000   28.281248642  -16.515665572  2225.4345   1   8   0.0029   0.0017   0.0359  -0.0006   0.0015  -0.0067   1.00   11.6
2024/05/03 16:25:32.000   28.281248653  -16.515665567  2225.4024   1   8   0.0029   0.0017   0.0361  -0.0006   0.0015  -0.0068   2.00    3.9
2024/05/03 16:25:33.000   28.281248630  -16.515665578  2225.4715   1   8   0.0029   0.0017   0.0365  -0.0006   0.0013  -0.0069   3.00    7.6
2024/05/03 16:25:34.000   28.281248641  -16.515665573  2225.4412   1   8   0.0029   0.0017   0.0368  -0.0006   0.0012  -0.0069   4.00   12.3
2024/05/03 16:25:35.000   28.281248639  -16.515665575  2225.4505   1   8   0.0029   0.0017   0.0376  -0.0006   0.0007  -0.0071   5.00    6.7
2024/05/03 16:25:36.000   28.281248635  -16.515665578  2225.4646   1   8   0.0029   0.0017   0.0371  -0.0006   0.0011  -0.0070   6.00    3.9
2024/05/03 16:25:37.000   28.281248639  -16.515665574  2225.4480   1   8   0.0029   0.0017   0.0375  -0.0006   0.0009  -0.0071   7.00   12.9
2024/05/03 16:25:38.000   28.281248639  -16.515665575  2225.4498   1   8   0.0029   0.0018   0.0387  -0.0006  -0.0008  -0.0073   8.00   33.5
2024/05/03 16:25:39.000   28.281248638  -16.515665575  2225.4510   1   8   0.0029   0.0017   0.0378  -0.0006   0.0007  -0.0071   9.00   13.8
2024/05/03 16:25:40.000   28.281248639  -16.515665575  2225.4487   1   8   0.0029   0.0017   0.0379  -0.0006   0.0006  -0.0072  10.00    7.4
2024/05/03 16:25:41.000   28.281248639  -16.515665575  2225.4493   1   8   0.0029   0.0017   0.0379  -0.0006   0.0007  -0.0072  11.00    5.0
2024/05/03 16:25:42.000   28.281248638  -16.515665575  2225.4521   1   8   0.0029   0.0017   0.0378  -0.0006   0.0008  -0.0071  12.00    7.3
2024/05/03 16:25:43.000   28.281248639  -16.515665575  2225.4504   1   8   0.0029   0.0017   0.0380  -0.0006   0.0006  -0.0072  13.00    9.0
2024/05/03 16:25:44.000   28.281248638  -16.515665575  2225.4507   1   8   0.0029   0.0017   0.0379  -0.0006   0.0007  -0.0072  14.00   16.3
2024/05/03 16:25:45.000   28.281248635  -16.515665577  2225.4626   1   8   0.0029   0.0017   0.0379  -0.0006   0.0007  -0.0072 -15.00   50.7
2024/05/03 16:25:46.000   28.281248635  -16.515665576  2225.4601   1   8   0.0029   0.0017   0.0380  -0.0006   0.0006  -0.0072 -14.00   53.1
2024/05/03 16:25:47.000   28.281248637  -16.515665576  2225.4556   1   8   0.0029   0.0017   0.0375  -0.0006   0.0010  -0.0071 -13.00   17.7
2024/05/03 16:25:48.000   28.281248638  -16.515665575  2225.4524   1   8   0.0029   0.0017   0.0374  -0.0006   0.0010  -0.0071 -12.00   23.3
2024/05/03 16:25:49.000   28.281248637  -16.515665575  2225.4546   1   8   0.0029   0.0017   0.0373  -0.0006   0.0010  -0.0071 -11.00    8.3
2024/05/03 16:25:50.000   28.281248638  -16.515665575  2225.4514   1   8   0.0029   0.0018   0.0384  -0.0006  -0.0004  -0.0073 -10.00   63.0
2024/05/03 16:25:51.000   28.281248638  -16.515665575  2225.4512   1   8   0.0029   0.0018   0.0384  -0.0006  -0.0004  -0.0073  -9.00   65.6
2024/05/03 16:25:52.000   28.281248639  -16.515665575  2225.4512   1   8   0.0029   0.0017   0.0384  -0.0006  -0.0005  -0.0073  -8.00   67.9
2024/05/03 16:25:53.000   28.281248638  -16.515665574  2225.4517   1   8   0.0029   0.0017   0.0378  -0.0006   0.0007  -0.0071  -7.00    3.1
2024/05/03 16:25:54.000   28.281248643  -16.515665585  2225.4593   1   8   0.0040   0.0023   0.0509  -0.0011   0.0019  -0.0099  -6.00  207.8
2024/05/03 16:25:55.000   28.281248667  -16.515665560  2225.3651   1   8   0.0030   0.0017   0.0354  -0.0007   0.0020  -0.0070  -5.00    8.5
2024/05/03 16:25:56.000   28.281248672  -16.515665559  2225.3573   1   8   0.0030   0.0017   0.0352  -0.0007   0.0020  -0.0069  -4.00    4.8
2024/05/03 16:25:57.000   28.281248672  -16.515665560  2225.3599   1   8   0.0030   0.0017   0.0350  -0.0007   0.0020  -0.0069  -3.00    5.9
2024/05/03 16:25:58.000   28.281248675  -16.515665559  2225.3547   1   8   0.0030   0.0017   0.0348  -0.0008   0.0021  -0.0068  -2.00    5.7
2024/05/03 16:25:59.000   28.281248639  -16.515665574  2225.4512   1   8   0.0031   0.0017   0.0362  -0.0007   0.0017  -0.0071  -1.00   47.4
2024/05/03 16:26:00.000   28.281248647  -16.515665577  2225.4456   1   8   0.0028   0.0017   0.0351  -0.0003   0.0003  -0.0064   0.00   45.1
2024/05/03 16:26:01.000   28.281248675  -16.515665559  2225.3525   1   8   0.0030   0.0017   0.0360  -0.0007   0.0017  -0.0071   1.00   94.6
2024/05/03 16:26:02.000   28.281248655  -16.515665567  2225.4051   1   8   0.0031   0.0017   0.0371  -0.0007   0.0015  -0.0073   2.00   96.9
2024/05/03 16:26:03.000   28.281248640  -16.515665573  2225.4452   1   8   0.0031   0.0017   0.0363  -0.0007   0.0018  -0.0072   3.00   66.9
2024/05/03 16:26:04.000   28.281248637  -16.515665575  2225.4543   1   8   0.0032   0.0018   0.0391  -0.0007   0.0007  -0.0078   4.00  103.7
2024/05/03 16:26:05.000   28.281248639  -16.515665574  2225.4473   1   8   0.0032   0.0017   0.0377  -0.0007   0.0015  -0.0076   5.00   14.9
2024/05/03 16:26:06.000   28.281248635  -16.515665574  2225.4551   1   8   0.0032   0.0018   0.0393  -0.0007   0.0009  -0.0080   6.00  110.9
2024/05/03 16:26:07.000   28.281248639  -16.515665572  2225.4420   1   8   0.0032   0.0018   0.0387  -0.0008   0.0013  -0.0079   7.00  112.8
2024/05/03 16:26:08.000   28.281248634  -16.515665574  2225.4529   1   8   0.0032   0.0018   0.0391  -0.0008   0.0012  -0.0080   8.00  114.8
2024/05/03 16:26:09.000   28.281248633  -16.515665574  2225.4565   1   8   0.0030   0.0018   0.0384  -0.0008   0.0014  -0.0075   9.00   17.8
2024/05/03 16:26:10.000   28.281248634  -16.515665574  2225.4549   1   8   0.0031   0.0018   0.0391  -0.0007   0.0011  -0.0077  10.00   76.6
2024/05/03 16:26:11.000   28.281248633  -16.515665574  2225.4566   1   8   0.0031   0.0018   0.0386  -0.0008   0.0013  -0.0076  11.00   12.2
2024/05/03 16:26:12.000   28.281248628  -16.515665577  2225.4728   1   8   0.0031   0.0018   0.0379  -0.0008   0.0017  -0.0075  12.00    3.4
2024/05/03 16:26:13.000   28.281248643  -16.515665588  2225.4780   1   8   0.0044   0.0025   0.0507  -0.0015   0.0028  -0.0101  13.00   16.8
2024/05/03 16:26:14.000   28.281248646  -16.515665586  2225.4691   1   8   0.0044   0.0025   0.0510  -0.0015   0.0028  -0.0102  14.00   24.3
2024/05/03 16:26:15.000   28.281248633  -16.515665577  2225.4738   1   8   0.0029   0.0017   0.0399  -0.0006   0.0013  -0.0073 -15.00    3.3
2024/05/03 16:26:16.000   28.281248633  -16.515665577  2225.4745   1   8   0.0029   0.0017   0.0399  -0.0006   0.0013  -0.0073 -14.00    5.3
2024/05/03 16:26:17.000   28.281248633  -16.515665577  2225.4764   1   8   0.0029   0.0017   0.0399  -0.0006   0.0013  -0.0073 -13.00    5.9
2024/05/03 16:26:18.000   28.281248632  -16.515665577  2225.4774   1   8   0.0029   0.0017   0.0399  -0.0006   0.0013  -0.0073 -12.00    8.0
2024/05/03 16:26:19.000   28.281248631  -16.515665578  2225.4795   1   8   0.0029   0.0017   0.0399  -0.0006   0.0013  -0.0073 -11.00    9.8
2024/05/03 16:26:20.000   28.281248633  -16.515665578  2225.4769   1   8   0.0029   0.0017   0.0401  -0.0006   0.0011  -0.0073 -10.00  110.0
2024/05/03 16:26:21.000   28.281248635  -16.515665577  2225.4694   1   8   0.0029   0.0017   0.0403  -0.0006   0.0009  -0.0074  -9.00  110.7
2024/05/03 16:26:22.000   28.281248636  -16.515665576  2225.4653   1   8   0.0029   0.0017   0.0396  -0.0006   0.0013  -0.0072  -8.00   45.3
2024/05/03 16:26:23.000   28.281248637  -16.515665576  2225.4625   1   8   0.0029   0.0017   0.0397  -0.0006   0.0012  -0.0072  -7.00   55.5
2024/05/03 16:26:24.000   28.281248638  -16.515665575  2225.4601   1   8   0.0030   0.0017   0.0414  -0.0006  -0.0008  -0.0075  -6.00  113.6
2024/05/03 16:26:25.000   28.281248638  -16.515665575  2225.4602   1   8   0.0029   0.0017   0.0414  -0.0006  -0.0009  -0.0075  -5.00  114.3
2024/05/03 16:26:26.000   28.281248642  -16.515665575  2225.4433   1   8   0.0029   0.0017   0.0371  -0.0006   0.0012  -0.0070  -4.00   40.5
2024/05/03 16:26:27.000   28.281248622  -16.515665585  2225.5037   1   8   0.0029   0.0017   0.0359  -0.0007   0.0017  -0.0068  -3.00    4.4
2024/05/03 16:26:28.000   28.281248622  -16.515665585  2225.5031   1   8   0.0029   0.0017   0.0357  -0.0007   0.0017  -0.0068  -2.00    6.7
2024/05/03 16:26:29.000   28.281248642  -16.515665577  2225.4437   1   8   0.0029   0.0017   0.0362  -0.0007   0.0016  -0.0068  -1.00   56.7
2024/05/03 16:26:30.000   28.281248646  -16.515665580  2225.4428   1   8   0.0028   0.0017   0.0385  -0.0004  -0.0015  -0.0071   0.00  106.4
2024/05/03 16:26:31.000   28.281248633  -16.515665575  2225.4544   1   8   0.0043   0.0021   0.0413  -0.0019   0.0036  -0.0097   1.00  139.6
2024/05/03 16:26:32.000   28.281248643  -16.515665574  2225.4354   1   8   0.0043   0.0021   0.0388  -0.0020   0.0041  -0.0094   2.00   30.3
2024/05/03 16:26:33.000   28.281248613  -16.515665575  2225.4874   1   8   0.0045   0.0021   0.0385  -0.0021   0.0044  -0.0096   3.00   19.8
2024/05/03 16:26:34.000   28.281248616  -16.515665572  2225.4757   1   8   0.0046   0.0021   0.0388  -0.0022   0.0045  -0.0098   4.00   48.8
2024/05/03 16:26:35.000   28.281248606  -16.515665570  2225.4862   1   8   0.0047   0.0022   0.0391  -0.0023   0.0046  -0.0100   5.00   37.3
2024/05/03 16:26:36.000   28.281248622  -16.515665570  2225.4623   1   8   0.0049   0.0022   0.0429  -0.0024   0.0047  -0.0110   6.00  137.6
2024/05/03 16:26:37.000   28.281248616  -16.515665568  2225.4654   1   8   0.0048   0.0022   0.0428  -0.0023   0.0046  -0.0109   7.00   91.9
2024/05/03 16:26:38.000   28.281248616  -16.515665567  2225.4634   1   8   0.0049   0.0022   0.0415  -0.0024   0.0048  -0.0107   8.00   19.7
