% program   : RTKPOST-EX 2.5.0
% inp file  : C:\Users\SallyHenry\Desktop\Sally Internship\GNSS gravi\DATA\Survey Rover Obs\FA07.24o
% inp file  : C:\Users\SallyHenry\Desktop\Sally Internship\GNSS gravi\DATA\BaseStations\IZAN\IZAN00ESP_R_20241240000_01D_30S_MO.rnx
% inp file  : C:\Users\SallyHenry\Desktop\Sally Internship\GNSS gravi\DATA\BaseStations\IZAN\IZAN00ESP_R_20241240000_01D_MN.rnx
% inp file  : C:\Users\SallyHenry\Desktop\Sally Internship\GNSS gravi\DATA\aux_files\Survey\IGS0OPSFIN_20241240000_01D_15M_ORB.SP3
% inp file  : C:\Users\SallyHenry\Desktop\Sally Internship\GNSS gravi\DATA\aux_files\Survey\IGS0OPSFIN_20241240000_01D_30S_CLK.CLK
% obs start : 2024/05/03 16:36:17.0 GPST (week2312 491777.0s)
% obs end   : 2024/05/03 16:41:35.0 GPST (week2312 492095.0s)
% pos mode  : Static
% freqs     : L1+L2/E5b
% solution  : Combined-No Phase Reset
% elev mask : 15.0 deg
% dynamics  : on
% tidecorr  : solid
% ionos opt : Estimate TEC
% tropo opt : Estimate ZTD+Grad
% ephemeris : Precise
% navi sys  : GPS GLONASS Galileo QZSS BDS
% amb res   : Fix and Hold
% amb glo   : Fix and Hold
% amb bds   : on
% val thres : 3.0
% antenna1  :                       ( 0.0000  0.0000  1.8000)
% antenna2  :                       ( 0.0000  0.0000  0.0000)
% ref pos   :  28.308069410  -16.499677180  2417.4044
%
% (lat/lon/height=WGS84/ellipsoidal,Q=1:fix,2:float,3:sbas,4:dgps,5:single,6:ppp,ns=# of satellites)
%  GPST                  latitude(deg) longitude(deg)  height(m)   Q  ns   sdn(m)   sde(m)   sdu(m)  sdne(m)  sdeu(m)  sdun(m) age(s)  ratio
2024/05/03 16:36:17.000   28.281393018  -16.515975926  2226.5223   1   8   0.0030   0.0018   0.0430  -0.0008   0.0033  -0.0047 -13.00  257.2
2024/05/03 16:36:18.000   28.281393018  -16.515975923  2226.5065   1   8   0.0030   0.0018   0.0425  -0.0008   0.0034  -0.0047 -12.00   15.1
2024/05/03 16:36:19.000   28.281393018  -16.515975924  2226.5095   1   8   0.0030   0.0018   0.0427  -0.0008   0.0033  -0.0047 -11.00   10.2
2024/05/03 16:36:20.000   28.281393018  -16.515975925  2226.5150   1   8   0.0030   0.0018   0.0428  -0.0008   0.0033  -0.0047 -10.00    5.9
2024/05/03 16:36:21.000   28.281393017  -16.515975927  2226.5286   1   8   0.0030   0.0018   0.0428  -0.0009   0.0033  -0.0047  -9.00   13.9
2024/05/03 16:36:22.000   28.281393018  -16.515975924  2226.5127   1   8   0.0030   0.0018   0.0428  -0.0009   0.0034  -0.0047  -8.00    5.9
2024/05/03 16:36:23.000   28.281393016  -16.515975926  2226.5257   1   8   0.0030   0.0018   0.0431  -0.0009   0.0033  -0.0048  -7.00  200.4
2024/05/03 16:36:24.000   28.281393016  -16.515975927  2226.5262   1   8   0.0030   0.0018   0.0431  -0.0009   0.0033  -0.0048  -6.00  206.4
2024/05/03 16:36:25.000   28.281393016  -16.515975927  2226.5268   1   8   0.0031   0.0018   0.0431  -0.0009   0.0034  -0.0048  -5.00  195.9
2024/05/03 16:36:26.000   28.281393015  -16.515975927  2226.5276   1   8   0.0031   0.0018   0.0431  -0.0009   0.0034  -0.0049  -4.00  170.0
2024/05/03 16:36:27.000   28.281393014  -16.515975929  2226.5430   1   8   0.0031   0.0018   0.0424  -0.0010   0.0035  -0.0048  -3.00   28.3
2024/05/03 16:36:28.000   28.281393016  -16.515975922  2226.4989   1   8   0.0031   0.0019   0.0423  -0.0010   0.0036  -0.0049  -2.00   16.6
2024/05/03 16:36:29.000   28.281393009  -16.515975933  2226.5813   1   8   0.0032   0.0019   0.0423  -0.0010   0.0037  -0.0049  -1.00    5.7
2024/05/03 16:36:30.000   28.281393027  -16.515975935  2226.5449   1   8   0.0028   0.0018   0.0420  -0.0005   0.0033  -0.0042   0.00   44.0
2024/05/03 16:36:31.000   28.281393027  -16.515975932  2226.5254   1   8   0.0028   0.0018   0.0433  -0.0005   0.0031  -0.0044   1.00  400.3
2024/05/03 16:36:32.000   28.281393025  -16.515975932  2226.5261   1   8   0.0029   0.0018   0.0433  -0.0006   0.0031  -0.0044   2.00  401.6
2024/05/03 16:36:33.000   28.281393025  -16.515975929  2226.5094   1   8   0.0029   0.0018   0.0426  -0.0006   0.0033  -0.0044   3.00   32.9
2024/05/03 16:36:34.000   28.281393020  -16.515975936  2226.5645   1   8   0.0029   0.0018   0.0428  -0.0007   0.0033  -0.0044   4.00    3.0
2024/05/03 16:36:35.000   28.281393022  -16.515975931  2226.5269   1   8   0.0029   0.0018   0.0435  -0.0007   0.0032  -0.0045   5.00  385.4
2024/05/03 16:36:36.000   28.281393021  -16.515975930  2226.5272   1   8   0.0029   0.0018   0.0435  -0.0007   0.0032  -0.0046   6.00  369.8
2024/05/03 16:36:37.000   28.281393021  -16.515975930  2226.5272   1   8   0.0030   0.0018   0.0436  -0.0007   0.0032  -0.0046   7.00  365.8
2024/05/03 16:36:38.000   28.281393021  -16.515975929  2226.5206   1   8   0.0030   0.0018   0.0433  -0.0007   0.0033  -0.0046   8.00   18.3
2024/05/03 16:36:39.000   28.281393019  -16.515975932  2226.5410   1   8   0.0030   0.0018   0.0432  -0.0008   0.0033  -0.0046   9.00   12.9
2024/05/03 16:36:40.000   28.281393019  -16.515975931  2226.5364   1   8   0.0030   0.0018   0.0435  -0.0008   0.0033  -0.0046  10.00    5.0
2024/05/03 16:36:41.000   28.281393019  -16.515975931  2226.5349   1   8   0.0030   0.0018   0.0433  -0.0008   0.0034  -0.0046  11.00   28.9
2024/05/03 16:36:42.000   28.281393018  -16.515975930  2226.5337   1   8   0.0030   0.0018   0.0434  -0.0008   0.0033  -0.0047  12.00   16.9
2024/05/03 16:36:43.000   28.281393018  -16.515975930  2226.5312   1   8   0.0030   0.0018   0.0436  -0.0008   0.0033  -0.0047  13.00    7.9
2024/05/03 16:36:44.000   28.281393018  -16.515975929  2226.5266   1   8   0.0030   0.0018   0.0435  -0.0008   0.0033  -0.0047  14.00   33.9
2024/05/03 16:36:45.000   28.281393018  -16.515975929  2226.5283   1   8   0.0030   0.0018   0.0436  -0.0008   0.0033  -0.0047  15.00   13.8
2024/05/03 16:36:46.000   28.281393017  -16.515975929  2226.5273   1   8   0.0030   0.0018   0.0437  -0.0008   0.0033  -0.0047 -14.00  287.7
2024/05/03 16:36:47.000   28.281393017  -16.515975929  2226.5286   1   8   0.0030   0.0018   0.0436  -0.0008   0.0033  -0.0047 -13.00   16.8
2024/05/03 16:36:48.000   28.281393013  -16.515975925  2226.5227   1   8   0.0031   0.0019   0.0437  -0.0009   0.0035  -0.0049 -12.00    3.0
2024/05/03 16:36:49.000   28.281393011  -16.515975927  2226.5394   1   8   0.0031   0.0019   0.0437  -0.0009   0.0035  -0.0049 -11.00    4.0
2024/05/03 16:36:50.000   28.281393012  -16.515975928  2226.5449   1   8   0.0031   0.0019   0.0435  -0.0010   0.0035  -0.0049 -10.00   12.8
2024/05/03 16:36:51.000   28.281393011  -16.515975928  2226.5418   1   8   0.0031   0.0019   0.0437  -0.0010   0.0035  -0.0049  -9.00    4.8
2024/05/03 16:36:52.000   28.281393003  -16.515975923  2226.5316   1   8   0.0032   0.0019   0.0439  -0.0011   0.0035  -0.0051  -8.00  703.5
2024/05/03 16:36:53.000   28.281393002  -16.515975923  2226.5358   1   8   0.0032   0.0019   0.0427  -0.0011   0.0037  -0.0049  -7.00  313.5
2024/05/03 16:36:54.000   28.281393008  -16.515975925  2226.5265   1   8   0.0032   0.0019   0.0430  -0.0011   0.0037  -0.0050  -6.00  999.9
2024/05/03 16:36:55.000   28.281393009  -16.515975924  2226.5196   1   8   0.0032   0.0019   0.0435  -0.0011   0.0036  -0.0051  -5.00   64.2
2024/05/03 16:36:56.000   28.281393007  -16.515975925  2226.5294   1   8   0.0033   0.0019   0.0441  -0.0011   0.0035  -0.0052  -4.00  999.9
2024/05/03 16:36:57.000   28.281392998  -16.515975929  2226.5759   1   8   0.0033   0.0019   0.0432  -0.0011   0.0036  -0.0050  -3.00    3.7
2024/05/03 16:36:58.000   28.281393002  -16.515975927  2226.5532   1   8   0.0033   0.0019   0.0431  -0.0011   0.0037  -0.0050  -2.00   32.9
2024/05/03 16:36:59.000   28.281393007  -16.515975925  2226.5287   1   8   0.0033   0.0019   0.0442  -0.0011   0.0036  -0.0052  -1.00  999.9
2024/05/03 16:37:00.000   28.281393030  -16.515975933  2226.5094   1   8   0.0028   0.0018   0.0427  -0.0005   0.0033  -0.0042   0.00  100.2
2024/05/03 16:37:01.000   28.281393027  -16.515975934  2226.5228   1   8   0.0029   0.0018   0.0440  -0.0005   0.0031  -0.0044   1.00  527.5
2024/05/03 16:37:02.000   28.281393025  -16.515975930  2226.5138   1   8   0.0029   0.0018   0.0430  -0.0006   0.0033  -0.0043   2.00   87.6
2024/05/03 16:37:03.000   28.281393022  -16.515975931  2226.5243   1   8   0.0029   0.0018   0.0442  -0.0006   0.0031  -0.0045   3.00  593.5
2024/05/03 16:37:04.000   28.281393021  -16.515975930  2226.5250   1   8   0.0029   0.0018   0.0442  -0.0006   0.0032  -0.0045   4.00  593.2
2024/05/03 16:37:05.000   28.281393020  -16.515975926  2226.5113   1   8   0.0030   0.0018   0.0437  -0.0007   0.0033  -0.0045   5.00   19.0
2024/05/03 16:37:06.000   28.281393017  -16.515975929  2226.5376   1   8   0.0030   0.0018   0.0439  -0.0007   0.0033  -0.0045   6.00   19.4
2024/05/03 16:37:07.000   28.281393016  -16.515975927  2226.5266   1   8   0.0030   0.0018   0.0444  -0.0007   0.0032  -0.0046   7.00  550.3
2024/05/03 16:37:08.000   28.281393015  -16.515975928  2226.5346   1   8   0.0030   0.0018   0.0441  -0.0007   0.0033  -0.0046   8.00   17.2
2024/05/03 16:37:09.000   28.281393014  -16.515975926  2226.5270   1   8   0.0030   0.0018   0.0444  -0.0007   0.0033  -0.0047   9.00  494.2
2024/05/03 16:37:10.000   28.281393014  -16.515975925  2226.5207   1   8   0.0030   0.0018   0.0442  -0.0008   0.0033  -0.0047  10.00    9.1
2024/05/03 16:37:11.000   28.281393012  -16.515975926  2226.5334   1   8   0.0030   0.0018   0.0442  -0.0008   0.0033  -0.0047  11.00   28.8
2024/05/03 16:37:12.000   28.281393012  -16.515975925  2226.5309   1   8   0.0030   0.0019   0.0443  -0.0008   0.0033  -0.0047  12.00   15.5
2024/05/03 16:37:13.000   28.281393012  -16.515975925  2226.5280   1   8   0.0030   0.0019   0.0445  -0.0008   0.0033  -0.0047  13.00  401.2
2024/05/03 16:37:14.000   28.281393012  -16.515975925  2226.5310   1   8   0.0031   0.0019   0.0444  -0.0008   0.0033  -0.0047  14.00   11.0
2024/05/03 16:37:15.000   28.281393012  -16.515975923  2226.5210   1   8   0.0031   0.0019   0.0443  -0.0008   0.0033  -0.0047  15.00    8.8
2024/05/03 16:37:16.000   28.281393012  -16.515975924  2226.5258   1   8   0.0031   0.0019   0.0444  -0.0008   0.0033  -0.0047 -14.00   10.8
2024/05/03 16:37:17.000   28.281393011  -16.515975925  2226.5316   1   8   0.0031   0.0019   0.0442  -0.0008   0.0034  -0.0047 -13.00   36.9
2024/05/03 16:37:18.000   28.281393011  -16.515975924  2226.5303   1   8   0.0031   0.0019   0.0444  -0.0008   0.0033  -0.0047 -12.00   22.4
2024/05/03 16:37:19.000   28.281393010  -16.515975926  2226.5433   1   8   0.0031   0.0019   0.0439  -0.0008   0.0034  -0.0047 -11.00   24.6
2024/05/03 16:37:20.000   28.281393010  -16.515975925  2226.5353   1   8   0.0031   0.0019   0.0441  -0.0008   0.0034  -0.0047 -10.00   39.0
2024/05/03 16:37:21.000   28.281393010  -16.515975924  2226.5301   1   8   0.0031   0.0019   0.0443  -0.0009   0.0034  -0.0048  -9.00   37.1
2024/05/03 16:37:22.000   28.281393007  -16.515975928  2226.5634   1   8   0.0031   0.0019   0.0439  -0.0009   0.0035  -0.0048  -8.00    3.9
2024/05/03 16:37:23.000   28.281393008  -16.515975926  2226.5469   1   8   0.0031   0.0019   0.0442  -0.0009   0.0034  -0.0048  -7.00    5.2
2024/05/03 16:37:24.000   28.281393009  -16.515975923  2226.5305   1   8   0.0031   0.0019   0.0437  -0.0009   0.0035  -0.0048  -6.00  199.1
2024/05/03 16:37:25.000   28.281393008  -16.515975922  2226.5307   1   8   0.0031   0.0019   0.0446  -0.0009   0.0034  -0.0049  -5.00  277.0
2024/05/03 16:37:26.000   28.281393009  -16.515975923  2226.5311   1   8   0.0032   0.0019   0.0447  -0.0010   0.0034  -0.0049  -4.00  341.9
2024/05/03 16:37:27.000   28.281393009  -16.515975920  2226.5144   1   8   0.0032   0.0019   0.0438  -0.0010   0.0036  -0.0049  -3.00   36.9
2024/05/03 16:37:28.000   28.281393014  -16.515975910  2226.4493   1   8   0.0032   0.0019   0.0426  -0.0010   0.0039  -0.0048  -2.00    7.5
2024/05/03 16:37:29.000   28.281393008  -16.515975916  2226.5032   1   8   0.0033   0.0019   0.0437  -0.0011   0.0038  -0.0050  -1.00   12.9
2024/05/03 16:37:30.000   28.281393025  -16.515975933  2226.5509   1   8   0.0029   0.0018   0.0433  -0.0005   0.0033  -0.0042   0.00   40.3
2024/05/03 16:37:31.000   28.281393025  -16.515975929  2226.5290   1   8   0.0029   0.0018   0.0447  -0.0005   0.0031  -0.0044   1.00  519.0
2024/05/03 16:37:32.000   28.281393026  -16.515975924  2226.4994   1   8   0.0029   0.0018   0.0437  -0.0006   0.0033  -0.0043   2.00   20.2
2024/05/03 16:37:33.000   28.281393021  -16.515975927  2226.5311   1   8   0.0030   0.0018   0.0449  -0.0006   0.0032  -0.0045   3.00  576.6
2024/05/03 16:37:34.000   28.281393019  -16.515975927  2226.5317   1   8   0.0030   0.0018   0.0449  -0.0006   0.0032  -0.0045   4.00  566.0
2024/05/03 16:37:35.000   28.281393018  -16.515975926  2226.5326   1   8   0.0030   0.0019   0.0450  -0.0007   0.0032  -0.0046   5.00  584.1
2024/05/03 16:37:36.000   28.281393016  -16.515975925  2226.5332   1   8   0.0030   0.0019   0.0450  -0.0007   0.0033  -0.0046   6.00  610.8
2024/05/03 16:37:37.000   28.281393004  -16.515975944  2226.5039   2   8   0.0088   0.0073   0.1095   0.0050   0.0196   0.0188   7.00    0.0
2024/05/03 16:37:38.000   28.281393016  -16.515975922  2226.5173   1   8   0.0031   0.0019   0.0448  -0.0007   0.0033  -0.0046   8.00    3.1
2024/05/03 16:37:39.000   28.281393012  -16.515975927  2226.5562   1   8   0.0031   0.0019   0.0447  -0.0008   0.0034  -0.0046   9.00    4.9
2024/05/03 16:37:40.000   28.281393012  -16.515975926  2226.5455   1   8   0.0031   0.0019   0.0449  -0.0008   0.0034  -0.0047  10.00    4.3
2024/05/03 16:37:41.000   28.281393012  -16.515975924  2226.5381   1   8   0.0031   0.0019   0.0450  -0.0008   0.0034  -0.0047  11.00   23.3
2024/05/03 16:37:42.000   28.281393012  -16.515975924  2226.5360   1   8   0.0031   0.0019   0.0452  -0.0008   0.0033  -0.0047  12.00  559.5
2024/05/03 16:37:43.000   28.281393012  -16.515975924  2226.5398   1   8   0.0031   0.0019   0.0449  -0.0008   0.0034  -0.0047  13.00   24.3
2024/05/03 16:37:44.000   28.281393011  -16.515975924  2226.5377   1   8   0.0031   0.0019   0.0451  -0.0008   0.0034  -0.0047  14.00   16.4
2024/05/03 16:37:45.000   28.281393011  -16.515975923  2226.5365   1   8   0.0031   0.0019   0.0452  -0.0008   0.0033  -0.0048  15.00  521.2
2024/05/03 16:37:46.000   28.281393011  -16.515975923  2226.5373   1   8   0.0031   0.0019   0.0450  -0.0008   0.0034  -0.0047 -14.00   49.5
2024/05/03 16:37:47.000   28.281393010  -16.515975923  2226.5366   1   8   0.0031   0.0019   0.0451  -0.0008   0.0034  -0.0048 -13.00   27.6
2024/05/03 16:37:48.000   28.281393009  -16.515975922  2226.5371   1   8   0.0031   0.0019   0.0452  -0.0008   0.0034  -0.0048 -12.00  557.4
2024/05/03 16:37:49.000   28.281393009  -16.515975921  2226.5331   1   8   0.0031   0.0019   0.0451  -0.0008   0.0034  -0.0048 -11.00   17.8
2024/05/03 16:37:50.000   28.281393007  -16.515975923  2226.5452   1   8   0.0031   0.0019   0.0450  -0.0009   0.0034  -0.0048 -10.00    7.4
2024/05/03 16:37:51.000   28.281393007  -16.515975919  2226.5249   1   8   0.0031   0.0019   0.0450  -0.0009   0.0034  -0.0048  -9.00    3.9
2024/05/03 16:37:52.000   28.281393006  -16.515975920  2226.5358   1   8   0.0032   0.0019   0.0444  -0.0009   0.0036  -0.0047  -8.00  357.5
2024/05/03 16:37:53.000   28.281393005  -16.515975920  2226.5371   1   8   0.0032   0.0019   0.0445  -0.0009   0.0035  -0.0048  -7.00  338.1
2024/05/03 16:37:54.000   28.281393003  -16.515975920  2226.5395   1   8   0.0032   0.0019   0.0454  -0.0009   0.0034  -0.0049  -6.00  801.0
2024/05/03 16:37:55.000   28.281393001  -16.515975919  2226.5400   1   8   0.0032   0.0019   0.0454  -0.0009   0.0034  -0.0049  -5.00  879.5
2024/05/03 16:37:56.000   28.281392998  -16.515975922  2226.5620   1   8   0.0032   0.0019   0.0447  -0.0010   0.0036  -0.0049  -4.00   14.1
2024/05/03 16:37:57.000   28.281392998  -16.515975918  2226.5407   1   8   0.0033   0.0019   0.0455  -0.0010   0.0035  -0.0050  -3.00  912.6
2024/05/03 16:37:58.000   28.281392997  -16.515975918  2226.5413   1   8   0.0033   0.0019   0.0456  -0.0010   0.0035  -0.0051  -2.00  739.5
2024/05/03 16:37:59.000   28.281392992  -16.515975923  2226.5861   1   8   0.0033   0.0019   0.0444  -0.0011   0.0038  -0.0051  -1.00    6.9
2024/05/03 16:38:00.000   28.281393005  -16.515975922  2226.5374   1   8   0.0029   0.0018   0.0454  -0.0005   0.0031  -0.0044   0.00  999.9
2024/05/03 16:38:01.000   28.281392993  -16.515975935  2226.6391   1   8   0.0030   0.0018   0.0415  -0.0006   0.0038  -0.0039   1.00   16.6
2024/05/03 16:38:02.000   28.281392995  -16.515975931  2226.6151   1   8   0.0030   0.0018   0.0426  -0.0006   0.0037  -0.0041   2.00   16.0
2024/05/03 16:38:03.000   28.281392996  -16.515975928  2226.5922   1   8   0.0030   0.0019   0.0436  -0.0006   0.0036  -0.0043   3.00   15.8
2024/05/03 16:38:04.000   28.281392997  -16.515975925  2226.5727   1   8   0.0030   0.0019   0.0445  -0.0007   0.0035  -0.0044   4.00   15.3
2024/05/03 16:38:05.000   28.281392997  -16.515975920  2226.5473   1   8   0.0031   0.0019   0.0453  -0.0007   0.0034  -0.0046   5.00   48.7
2024/05/03 16:38:06.000   28.281392997  -16.515975919  2226.5398   1   8   0.0031   0.0019   0.0459  -0.0007   0.0033  -0.0047   6.00  999.9
2024/05/03 16:38:07.000   28.281392997  -16.515975919  2226.5401   1   8   0.0031   0.0019   0.0460  -0.0007   0.0033  -0.0047   7.00  999.9
2024/05/03 16:38:08.000   28.281392997  -16.515975917  2226.5328   1   8   0.0031   0.0019   0.0452  -0.0008   0.0035  -0.0046   8.00  188.3
2024/05/03 16:38:09.000   28.281392996  -16.515975919  2226.5423   1   8   0.0031   0.0019   0.0456  -0.0008   0.0034  -0.0047   9.00  176.5
2024/05/03 16:38:10.000   28.281392996  -16.515975918  2226.5423   1   8   0.0031   0.0019   0.0459  -0.0008   0.0034  -0.0048  10.00   89.4
2024/05/03 16:38:11.000   28.281392996  -16.515975918  2226.5418   1   8   0.0031   0.0019   0.0461  -0.0008   0.0033  -0.0048  11.00  999.9
2024/05/03 16:38:12.000   28.281392996  -16.515975917  2226.5360   1   8   0.0032   0.0019   0.0460  -0.0008   0.0034  -0.0048  12.00    9.4
2024/05/03 16:38:13.000   28.281392995  -16.515975919  2226.5466   1   8   0.0032   0.0019   0.0457  -0.0008   0.0034  -0.0048  13.00   62.8
2024/05/03 16:38:14.000   28.281392995  -16.515975919  2226.5461   1   8   0.0032   0.0019   0.0458  -0.0008   0.0034  -0.0048  14.00   53.2
2024/05/03 16:38:15.000   28.281392995  -16.515975919  2226.5483   1   8   0.0032   0.0019   0.0460  -0.0008   0.0034  -0.0048  15.00   18.6
2024/05/03 16:38:16.000   28.281392995  -16.515975919  2226.5471   1   8   0.0032   0.0019   0.0461  -0.0008   0.0034  -0.0048 -14.00    9.0
2024/05/03 16:38:17.000   28.281392991  -16.515975927  2226.6013   1   8   0.0032   0.0019   0.0447  -0.0009   0.0037  -0.0047 -13.00    7.1
2024/05/03 16:38:18.000   28.281392991  -16.515975925  2226.5921   1   8   0.0032   0.0019   0.0448  -0.0009   0.0036  -0.0047 -12.00    8.7
2024/05/03 16:38:19.000   28.281392992  -16.515975924  2226.5817   1   8   0.0032   0.0019   0.0449  -0.0009   0.0036  -0.0048 -11.00   11.6
2024/05/03 16:38:20.000   28.281392993  -16.515975922  2226.5676   1   8   0.0032   0.0019   0.0451  -0.0009   0.0036  -0.0048 -10.00   21.9
2024/05/03 16:38:21.000   28.281392994  -16.515975920  2226.5564   1   8   0.0032   0.0019   0.0453  -0.0009   0.0036  -0.0048  -9.00   42.3
2024/05/03 16:38:22.000   28.281392994  -16.515975919  2226.5490   1   8   0.0032   0.0019   0.0456  -0.0009   0.0035  -0.0049  -8.00   68.9
2024/05/03 16:38:23.000   28.281392994  -16.515975919  2226.5489   1   8   0.0032   0.0019   0.0460  -0.0009   0.0035  -0.0049  -7.00   30.2
2024/05/03 16:38:24.000   28.281392996  -16.515975915  2226.5233   1   8   0.0033   0.0019   0.0459  -0.0009   0.0035  -0.0050  -6.00    6.9
2024/05/03 16:38:25.000   28.281392994  -16.515975918  2226.5403   1   8   0.0033   0.0019   0.0459  -0.0010   0.0036  -0.0050  -5.00  163.2
2024/05/03 16:38:26.000   28.281393002  -16.515975907  2226.4610   1   8   0.0033   0.0019   0.0418  -0.0010   0.0042  -0.0045  -4.00   37.0
2024/05/03 16:38:27.000   28.281392999  -16.515975910  2226.4879   1   8   0.0033   0.0019   0.0424  -0.0011   0.0042  -0.0046  -3.00   56.0
2024/05/03 16:38:28.000   28.281392996  -16.515975912  2226.5008   1   8   0.0034   0.0020   0.0431  -0.0011   0.0041  -0.0048  -2.00   54.4
2024/05/03 16:38:29.000   28.281392994  -16.515975914  2226.5159   1   8   0.0034   0.0020   0.0441  -0.0011   0.0040  -0.0049  -1.00   42.7
2024/05/03 16:38:30.000   28.281393007  -16.515975925  2226.5374   1   8   0.0030   0.0019   0.0451  -0.0005   0.0033  -0.0043   0.00  232.2
2024/05/03 16:38:31.000   28.281393001  -16.515975933  2226.6031   1   8   0.0030   0.0019   0.0452  -0.0005   0.0034  -0.0044   1.00    4.3
2024/05/03 16:38:32.000   28.281393006  -16.515975924  2226.5436   1   8   0.0030   0.0019   0.0468  -0.0006   0.0031  -0.0046   2.00  773.0
2024/05/03 16:38:33.000   28.281393006  -16.515975924  2226.5431   1   8   0.0031   0.0019   0.0458  -0.0006   0.0034  -0.0045   3.00  159.2
2024/05/03 16:38:34.000   28.281393003  -16.515975927  2226.5691   1   8   0.0031   0.0019   0.0461  -0.0007   0.0034  -0.0046   4.00    8.9
2024/05/03 16:38:35.000   28.281393008  -16.515975920  2226.5148   1   8   0.0031   0.0019   0.0464  -0.0007   0.0034  -0.0047   5.00    3.8
2024/05/03 16:38:36.000   28.281393003  -16.515975925  2226.5585   1   8   0.0031   0.0019   0.0466  -0.0007   0.0034  -0.0047   6.00   12.5
2024/05/03 16:38:37.000   28.281393005  -16.515975923  2226.5420   1   8   0.0032   0.0019   0.0467  -0.0007   0.0034  -0.0048   7.00   59.6
2024/05/03 16:38:38.000   28.281393006  -16.515975920  2226.5216   1   8   0.0032   0.0019   0.0466  -0.0008   0.0034  -0.0048   8.00    6.2
2024/05/03 16:38:39.000   28.281393005  -16.515975921  2226.5349   1   8   0.0032   0.0019   0.0470  -0.0008   0.0034  -0.0048   9.00    3.8
2024/05/03 16:38:40.000   28.281393003  -16.515975924  2226.5549   1   8   0.0032   0.0019   0.0465  -0.0008   0.0035  -0.0048  10.00   71.6
2024/05/03 16:38:41.000   28.281393003  -16.515975924  2226.5524   1   8   0.0032   0.0019   0.0467  -0.0008   0.0035  -0.0049  11.00   74.1
2024/05/03 16:38:42.000   28.281393003  -16.515975924  2226.5534   1   8   0.0032   0.0019   0.0469  -0.0008   0.0034  -0.0049  12.00   43.4
2024/05/03 16:38:43.000   28.281393003  -16.515975924  2226.5537   1   8   0.0032   0.0019   0.0471  -0.0008   0.0034  -0.0049  13.00   20.8
2024/05/03 16:38:44.000   28.281393004  -16.515975923  2226.5506   1   8   0.0032   0.0019   0.0473  -0.0008   0.0034  -0.0050  14.00   18.8
2024/05/03 16:38:45.000   28.281393004  -16.515975923  2226.5446   1   8   0.0032   0.0019   0.0472  -0.0009   0.0034  -0.0050  15.00   22.8
2024/05/03 16:38:46.000   28.281393003  -16.515975923  2226.5477   1   8   0.0032   0.0019   0.0473  -0.0009   0.0034  -0.0050 -14.00   16.6
2024/05/03 16:38:47.000   28.281393004  -16.515975922  2226.5389   1   8   0.0033   0.0019   0.0471  -0.0009   0.0034  -0.0050 -13.00    8.3
2024/05/03 16:38:48.000   28.281393003  -16.515975922  2226.5430   1   8   0.0033   0.0020   0.0473  -0.0009   0.0034  -0.0050 -12.00    3.7
2024/05/03 16:38:49.000   28.281393003  -16.515975923  2226.5463   1   8   0.0033   0.0020   0.0471  -0.0009   0.0035  -0.0050 -11.00   49.0
2024/05/03 16:38:50.000   28.281393002  -16.515975923  2226.5521   1   8   0.0033   0.0020   0.0473  -0.0009   0.0034  -0.0050 -10.00   48.8
2024/05/03 16:38:51.000   28.281393001  -16.515975924  2226.5606   1   8   0.0033   0.0020   0.0473  -0.0009   0.0035  -0.0050  -9.00    7.8
2024/05/03 16:38:52.000   28.281393002  -16.515975922  2226.5434   1   8   0.0033   0.0020   0.0456  -0.0009   0.0038  -0.0049  -8.00  466.7
2024/05/03 16:38:53.000   28.281393001  -16.515975922  2226.5445   1   8   0.0033   0.0020   0.0457  -0.0010   0.0038  -0.0049  -7.00  474.0
2024/05/03 16:38:54.000   28.281393000  -16.515975922  2226.5459   1   8   0.0033   0.0020   0.0458  -0.0010   0.0038  -0.0050  -6.00  475.1
2024/05/03 16:38:55.000   28.281393000  -16.515975922  2226.5475   1   8   0.0034   0.0020   0.0460  -0.0010   0.0038  -0.0050  -5.00  463.9
2024/05/03 16:38:56.000   28.281392999  -16.515975922  2226.5494   1   8   0.0034   0.0020   0.0462  -0.0010   0.0038  -0.0051  -4.00  507.9
2024/05/03 16:38:57.000   28.281392997  -16.515975922  2226.5569   1   8   0.0034   0.0020   0.0479  -0.0011   0.0036  -0.0053  -3.00  745.6
2024/05/03 16:38:58.000   28.281392995  -16.515975922  2226.5579   1   8   0.0035   0.0020   0.0480  -0.0011   0.0036  -0.0054  -2.00  917.6
2024/05/03 16:38:59.000   28.281392994  -16.515975922  2226.5631   1   8   0.0035   0.0020   0.0467  -0.0012   0.0040  -0.0054  -1.00  187.8
2024/05/03 16:39:00.000   28.281392988  -16.515975929  2226.6120   1   8   0.0030   0.0019   0.0461  -0.0005   0.0033  -0.0044   0.00    6.0
2024/05/03 16:39:01.000   28.281393001  -16.515975914  2226.4949   1   8   0.0031   0.0019   0.0443  -0.0005   0.0037  -0.0042   1.00   41.9
2024/05/03 16:39:02.000   28.281392997  -16.515975916  2226.5132   1   8   0.0031   0.0019   0.0457  -0.0006   0.0035  -0.0044   2.00   32.6
2024/05/03 16:39:03.000   28.281392994  -16.515975919  2226.5379   1   8   0.0031   0.0019   0.0470  -0.0006   0.0034  -0.0046   3.00   32.1
2024/05/03 16:39:04.000   28.281392991  -16.515975923  2226.5700   1   8   0.0032   0.0019   0.0473  -0.0007   0.0034  -0.0047   4.00   90.6
2024/05/03 16:39:05.000   28.281392993  -16.515975921  2226.5490   1   8   0.0032   0.0020   0.0476  -0.0007   0.0034  -0.0048   5.00   25.6
2024/05/03 16:39:06.000   28.281392988  -16.515975924  2226.5830   1   8   0.0032   0.0020   0.0478  -0.0007   0.0034  -0.0049   6.00    3.9
2024/05/03 16:39:07.000   28.281392989  -16.515975919  2226.5518   1   8   0.0032   0.0020   0.0477  -0.0008   0.0034  -0.0049   7.00   83.5
2024/05/03 16:39:08.000   28.281392988  -16.515975920  2226.5616   1   8   0.0033   0.0020   0.0482  -0.0008   0.0034  -0.0049   8.00  261.1
2024/05/03 16:39:09.000   28.281392987  -16.515975920  2226.5620   1   8   0.0033   0.0020   0.0486  -0.0008   0.0033  -0.0050   9.00  999.9
2024/05/03 16:39:10.000   28.281392987  -16.515975919  2226.5593   1   8   0.0033   0.0020   0.0484  -0.0008   0.0034  -0.0050  10.00   71.3
2024/05/03 16:39:11.000   28.281392987  -16.515975920  2226.5621   1   8   0.0033   0.0020   0.0486  -0.0008   0.0033  -0.0051  11.00  999.9
2024/05/03 16:39:12.000   28.281392987  -16.515975919  2226.5571   1   8   0.0033   0.0020   0.0483  -0.0008   0.0034  -0.0050  12.00   40.7
2024/05/03 16:39:13.000   28.281392986  -16.515975919  2226.5615   1   8   0.0033   0.0020   0.0485  -0.0009   0.0034  -0.0051  13.00   91.8
2024/05/03 16:39:14.000   28.281392986  -16.515975919  2226.5616   1   8   0.0033   0.0020   0.0483  -0.0009   0.0035  -0.0051  14.00  328.6
2024/05/03 16:39:15.000   28.281392986  -16.515975919  2226.5619   1   8   0.0033   0.0020   0.0484  -0.0009   0.0034  -0.0051  15.00  245.4
2024/05/03 16:39:16.000   28.281392986  -16.515975919  2226.5622   1   8   0.0033   0.0020   0.0488  -0.0009   0.0034  -0.0051 -14.00  999.9
2024/05/03 16:39:17.000   28.281392986  -16.515975919  2226.5622   1   8   0.0033   0.0020   0.0488  -0.0009   0.0034  -0.0051 -13.00  999.9
2024/05/03 16:39:18.000   28.281392986  -16.515975919  2226.5634   1   8   0.0033   0.0020   0.0484  -0.0009   0.0035  -0.0051 -12.00  137.6
2024/05/03 16:39:19.000   28.281392986  -16.515975919  2226.5612   1   8   0.0033   0.0020   0.0486  -0.0009   0.0035  -0.0052 -11.00  112.5
2024/05/03 16:39:20.000   28.281392986  -16.515975919  2226.5619   1   8   0.0034   0.0020   0.0488  -0.0009   0.0034  -0.0052 -10.00  999.9
2024/05/03 16:39:21.000   28.281392986  -16.515975917  2226.5522   1   8   0.0034   0.0020   0.0482  -0.0009   0.0036  -0.0052  -9.00   48.7
2024/05/03 16:39:22.000   28.281392986  -16.515975918  2226.5545   1   8   0.0034   0.0020   0.0485  -0.0010   0.0035  -0.0052  -8.00   24.4
2024/05/03 16:39:23.000   28.281392984  -16.515975922  2226.5856   1   8   0.0034   0.0020   0.0479  -0.0010   0.0037  -0.0052  -7.00   11.4
2024/05/03 16:39:24.000   28.281392984  -16.515975921  2226.5773   1   8   0.0034   0.0020   0.0484  -0.0010   0.0036  -0.0053  -6.00    6.0
2024/05/03 16:39:25.000   28.281392985  -16.515975919  2226.5635   1   8   0.0034   0.0020   0.0484  -0.0010   0.0037  -0.0053  -5.00   92.6
2024/05/03 16:39:26.000   28.281392985  -16.515975919  2226.5602   1   8   0.0035   0.0020   0.0492  -0.0011   0.0036  -0.0054  -4.00  999.9
2024/05/03 16:39:27.000   28.281392985  -16.515975919  2226.5599   1   8   0.0035   0.0020   0.0493  -0.0011   0.0036  -0.0055  -3.00  999.9
2024/05/03 16:39:28.000   28.281393005  -16.515975899  2226.3981   1   8   0.0036   0.0020   0.0452  -0.0012   0.0043  -0.0051  -2.00    5.2
2024/05/03 16:39:29.000   28.281393001  -16.515975908  2226.4498   1   8   0.0036   0.0021   0.0463  -0.0012   0.0042  -0.0053  -1.00    4.5
2024/05/03 16:39:30.000   28.281393010  -16.515975916  2226.4942   1   8   0.0029   0.0019   0.0473   0.0003   0.0033  -0.0044   0.00    4.8
2024/05/03 16:39:31.000   28.281392996  -16.515975932  2226.6154   1   8   0.0029   0.0019   0.0475   0.0002   0.0033  -0.0044   1.00    4.7
2024/05/03 16:39:32.000   28.281393002  -16.515975927  2226.5723   1   8   0.0030   0.0019   0.0479   0.0001   0.0033  -0.0045   2.00   54.4
2024/05/03 16:39:33.000   28.281393010  -16.515975917  2226.4942   1   8   0.0030   0.0019   0.0463  -0.0002   0.0037  -0.0043   3.00   28.5
2024/05/03 16:39:34.000   28.281393008  -16.515975920  2226.5150   1   8   0.0030   0.0020   0.0474  -0.0003   0.0036  -0.0045   4.00   28.1
2024/05/03 16:39:35.000   28.281393007  -16.515975921  2226.5238   1   8   0.0030   0.0020   0.0483  -0.0003   0.0034  -0.0047   5.00   12.9
2024/05/03 16:39:36.000   28.281393005  -16.515975924  2226.5445   1   8   0.0030   0.0020   0.0492  -0.0004   0.0033  -0.0048   6.00   17.2
2024/05/03 16:39:37.000   28.281393003  -16.515975925  2226.5582   1   8   0.0031   0.0020   0.0499  -0.0004   0.0032  -0.0049   7.00  866.8
2024/05/03 16:39:38.000   28.281393003  -16.515975925  2226.5565   1   8   0.0031   0.0020   0.0495  -0.0004   0.0033  -0.0049   8.00   80.1
2024/05/03 16:39:39.000   28.281393003  -16.515975925  2226.5559   1   8   0.0031   0.0020   0.0493  -0.0005   0.0034  -0.0049   9.00  160.4
2024/05/03 16:39:40.000   28.281393002  -16.515975925  2226.5577   1   8   0.0031   0.0020   0.0500  -0.0005   0.0033  -0.0050  10.00  856.2
2024/05/03 16:39:41.000   28.281393002  -16.515975925  2226.5575   1   8   0.0031   0.0020   0.0501  -0.0005   0.0033  -0.0050  11.00  846.4
2024/05/03 16:39:42.000   28.281393003  -16.515975925  2226.5533   1   8   0.0031   0.0020   0.0499  -0.0005   0.0033  -0.0050  12.00   13.0
2024/05/03 16:39:43.000   28.281393002  -16.515975925  2226.5575   1   8   0.0031   0.0020   0.0501  -0.0005   0.0033  -0.0051  13.00  826.2
2024/05/03 16:39:44.000   28.281393002  -16.515975925  2226.5573   1   8   0.0031   0.0020   0.0501  -0.0005   0.0033  -0.0051  14.00  809.6
2024/05/03 16:39:45.000   28.281393003  -16.515975925  2226.5510   1   8   0.0031   0.0020   0.0498  -0.0005   0.0034  -0.0051  15.00   11.7
2024/05/03 16:39:46.000   28.281393003  -16.515975925  2226.5544   1   8   0.0031   0.0020   0.0500  -0.0005   0.0034  -0.0051 -14.00    9.6
2024/05/03 16:39:47.000   28.281393002  -16.515975926  2226.5617   1   8   0.0031   0.0020   0.0493  -0.0006   0.0035  -0.0050 -13.00  113.5
2024/05/03 16:39:48.000   28.281393001  -16.515975926  2226.5614   1   8   0.0031   0.0020   0.0495  -0.0006   0.0035  -0.0050 -12.00   83.7
2024/05/03 16:39:49.000   28.281393001  -16.515975925  2226.5581   1   8   0.0031   0.0020   0.0497  -0.0006   0.0034  -0.0051 -11.00   97.0
2024/05/03 16:39:50.000   28.281393001  -16.515975925  2226.5552   1   8   0.0031   0.0020   0.0500  -0.0006   0.0034  -0.0051 -10.00   62.1
2024/05/03 16:39:51.000   28.281393000  -16.515975925  2226.5566   1   8   0.0032   0.0020   0.0503  -0.0006   0.0034  -0.0052  -9.00  759.5
2024/05/03 16:39:52.000   28.281393000  -16.515975925  2226.5563   1   8   0.0032   0.0020   0.0504  -0.0006   0.0034  -0.0052  -8.00  751.8
2024/05/03 16:39:53.000   28.281392998  -16.515975926  2226.5706   1   8   0.0032   0.0020   0.0499  -0.0007   0.0035  -0.0052  -7.00    4.2
2024/05/03 16:39:54.000   28.281392999  -16.515975922  2226.5471   1   8   0.0032   0.0020   0.0498  -0.0007   0.0036  -0.0052  -6.00   33.1
2024/05/03 16:39:55.000   28.281392997  -16.515975924  2226.5620   1   8   0.0032   0.0020   0.0497  -0.0007   0.0036  -0.0052  -5.00   45.1
2024/05/03 16:39:56.000   28.281392996  -16.515975927  2226.5829   1   8   0.0032   0.0020   0.0496  -0.0008   0.0037  -0.0053  -4.00    4.8
2024/05/03 16:39:57.000   28.281392999  -16.515975920  2226.5343   1   8   0.0033   0.0020   0.0495  -0.0008   0.0038  -0.0053  -3.00   34.3
2024/05/03 16:39:58.000   28.281392998  -16.515975921  2226.5439   1   8   0.0033   0.0021   0.0493  -0.0009   0.0039  -0.0053  -2.00  141.9
2024/05/03 16:39:59.000   28.281393002  -16.515975916  2226.5082   1   8   0.0033   0.0021   0.0493  -0.0009   0.0040  -0.0054  -1.00    8.8
2024/05/03 16:40:00.000   28.281393008  -16.515975924  2226.5185   1   8   0.0032   0.0020   0.0486  -0.0005   0.0033  -0.0046   0.00   36.8
2024/05/03 16:40:01.000   28.281393005  -16.515975927  2226.5465   1   8   0.0032   0.0020   0.0508  -0.0005   0.0030  -0.0049   1.00  521.2
2024/05/03 16:40:02.000   28.281393005  -16.515975926  2226.5458   1   8   0.0033   0.0020   0.0509  -0.0006   0.0031  -0.0050   2.00  487.2
2024/05/03 16:40:03.000   28.281393001  -16.515975931  2226.5817   1   8   0.0033   0.0020   0.0496  -0.0007   0.0034  -0.0049   3.00    4.0
2024/05/03 16:40:04.000   28.281393008  -16.515975921  2226.5099   1   8   0.0034   0.0020   0.0493  -0.0007   0.0036  -0.0049   4.00   25.7
2024/05/03 16:40:05.000   28.281393006  -16.515975923  2226.5282   1   8   0.0034   0.0021   0.0504  -0.0008   0.0034  -0.0051   5.00   16.8
2024/05/03 16:40:06.000   28.281393003  -16.515975927  2226.5620   1   8   0.0034   0.0021   0.0507  -0.0008   0.0034  -0.0052   6.00    3.3
2024/05/03 16:40:07.000   28.281393003  -16.515975926  2226.5570   1   8   0.0034   0.0021   0.0504  -0.0008   0.0035  -0.0052   7.00   16.7
2024/05/03 16:40:08.000   28.281393002  -16.515975924  2226.5519   1   8   0.0035   0.0021   0.0511  -0.0009   0.0034  -0.0053   8.00    6.7
2024/05/03 16:40:09.000   28.281393002  -16.515975921  2226.5388   1   8   0.0035   0.0021   0.0506  -0.0009   0.0035  -0.0053   9.00   89.3
2024/05/03 16:40:10.000   28.281393001  -16.515975921  2226.5408   1   8   0.0035   0.0021   0.0509  -0.0009   0.0035  -0.0053  10.00   66.9
2024/05/03 16:40:11.000   28.281393000  -16.515975921  2226.5460   1   8   0.0035   0.0021   0.0517  -0.0009   0.0034  -0.0054  11.00  385.3
2024/05/03 16:40:12.000   28.281393015  -16.515975926  2226.5225   1   8   0.0024   0.0016   0.0420  -0.0003   0.0022  -0.0044  12.00   11.5
2024/05/03 16:40:13.000   28.281393014  -16.515975927  2226.5272   1   8   0.0024   0.0016   0.0408  -0.0003   0.0025  -0.0042  13.00    5.2
2024/05/03 16:40:14.000   28.281393017  -16.515975924  2226.5080   1   8   0.0024   0.0016   0.0409  -0.0003   0.0024  -0.0042  14.00    3.0
2024/05/03 16:40:15.000   28.281393014  -16.515975926  2226.5269   1   8   0.0024   0.0016   0.0408  -0.0003   0.0025  -0.0042 -15.00    4.4
2024/05/03 16:40:16.000   28.281393014  -16.515975926  2226.5280   1   8   0.0024   0.0016   0.0405  -0.0003   0.0025  -0.0042 -14.00    5.7
2024/05/03 16:40:17.000   28.281393015  -16.515975926  2226.5232   1   8   0.0024   0.0016   0.0420  -0.0003   0.0022  -0.0044 -13.00   11.5
2024/05/03 16:40:18.000   28.281393015  -16.515975925  2226.5201   1   8   0.0024   0.0016   0.0405  -0.0003   0.0025  -0.0042 -12.00   10.3
2024/05/03 16:40:19.000   28.281393015  -16.515975926  2226.5231   1   8   0.0024   0.0016   0.0402  -0.0004   0.0026  -0.0041 -11.00    7.5
2024/05/03 16:40:20.000   28.281393014  -16.515975926  2226.5237   1   8   0.0024   0.0016   0.0420  -0.0003   0.0022  -0.0044 -10.00   11.4
2024/05/03 16:40:21.000   28.281393014  -16.515975926  2226.5263   1   8   0.0024   0.0016   0.0403  -0.0004   0.0025  -0.0041  -9.00    4.3
2024/05/03 16:40:22.000   28.281393015  -16.515975926  2226.5238   1   8   0.0024   0.0016   0.0420  -0.0003   0.0022  -0.0044  -8.00   11.3
2024/05/03 16:40:23.000   28.281393016  -16.515975925  2226.5174   1   8   0.0024   0.0016   0.0400  -0.0004   0.0026  -0.0041  -7.00    8.3
2024/05/03 16:40:24.000   28.281393015  -16.515975925  2226.5179   1   8   0.0024   0.0016   0.0398  -0.0004   0.0026  -0.0041  -6.00   11.1
2024/05/03 16:40:25.000   28.281393019  -16.515975920  2226.4810   1   8   0.0024   0.0016   0.0409  -0.0003   0.0024  -0.0043  -5.00   11.0
2024/05/03 16:40:26.000   28.281393018  -16.515975923  2226.5009   1   8   0.0024   0.0016   0.0414  -0.0003   0.0023  -0.0043  -4.00   10.8
2024/05/03 16:40:27.000   28.281393014  -16.515975927  2226.5261   1   8   0.0024   0.0016   0.0390  -0.0004   0.0028  -0.0040  -3.00    5.5
2024/05/03 16:40:28.000   28.281393014  -16.515975926  2226.5238   1   8   0.0025   0.0016   0.0420  -0.0003   0.0021  -0.0044  -2.00   10.9
2024/05/03 16:40:29.000   28.281393012  -16.515975929  2226.5454   1   8   0.0025   0.0016   0.0409  -0.0004   0.0024  -0.0043  -1.00   10.9
2024/05/03 16:40:30.000   28.281393006  -16.515975922  2226.5270   1   8   0.0019   0.0015   0.0417   0.0008   0.0016  -0.0039   0.00   11.2
2024/05/03 16:40:31.000   28.281393000  -16.515975923  2226.5650   1   8   0.0019   0.0015   0.0408   0.0007   0.0023  -0.0039   1.00   10.7
2024/05/03 16:40:32.000   28.281393008  -16.515975916  2226.5050   1   8   0.0019   0.0015   0.0387   0.0007   0.0027  -0.0036   2.00    8.8
2024/05/03 16:40:33.000   28.281393002  -16.515975921  2226.5482   1   8   0.0019   0.0015   0.0382   0.0007   0.0028  -0.0035   3.00   20.0
2024/05/03 16:40:34.000   28.281393003  -16.515975921  2226.5430   1   8   0.0019   0.0015   0.0383   0.0007   0.0028  -0.0035   4.00   29.0
2024/05/03 16:40:35.000   28.281393003  -16.515975921  2226.5441   1   8   0.0019   0.0015   0.0384   0.0007   0.0028  -0.0035   5.00   32.7
2024/05/03 16:40:36.000   28.281393002  -16.515975921  2226.5492   1   8   0.0019   0.0015   0.0408   0.0007   0.0024  -0.0039   6.00  132.9
2024/05/03 16:40:37.000   28.281393004  -16.515975920  2226.5336   1   8   0.0019   0.0015   0.0412   0.0007   0.0023  -0.0040   7.00   39.6
2024/05/03 16:40:38.000   28.281393007  -16.515975918  2226.5153   1   8   0.0019   0.0015   0.0410   0.0007   0.0023  -0.0040   8.00   49.3
2024/05/03 16:40:39.000   28.281393005  -16.515975919  2226.5278   1   8   0.0019   0.0015   0.0412   0.0007   0.0021  -0.0040   9.00   70.6
2024/05/03 16:40:40.000   28.281393004  -16.515975919  2226.5305   1   8   0.0019   0.0015   0.0399   0.0007   0.0024  -0.0037  10.00   49.6
2024/05/03 16:40:41.000   28.281393004  -16.515975919  2226.5310   1   8   0.0019   0.0015   0.0398   0.0007   0.0025  -0.0037  11.00   76.4
2024/05/03 16:40:42.000   28.281393004  -16.515975919  2226.5319   1   8   0.0019   0.0015   0.0398   0.0007   0.0025  -0.0037  12.00  102.0
2024/05/03 16:40:43.000   28.281393004  -16.515975919  2226.5310   1   8   0.0019   0.0015   0.0398   0.0007   0.0025  -0.0037  13.00  121.8
2024/05/03 16:40:44.000   28.281393004  -16.515975919  2226.5306   1   8   0.0019   0.0015   0.0398   0.0007   0.0025  -0.0037  14.00  131.9
2024/05/03 16:40:45.000   28.281393004  -16.515975919  2226.5312   1   8   0.0019   0.0015   0.0398   0.0007   0.0025  -0.0037 -15.00  148.6
2024/05/03 16:40:46.000   28.281393003  -16.515975920  2226.5364   1   8   0.0019   0.0015   0.0406   0.0007   0.0023  -0.0039 -14.00    5.4
2024/05/03 16:40:47.000   28.281393004  -16.515975919  2226.5318   1   8   0.0019   0.0015   0.0410   0.0007   0.0022  -0.0039 -13.00  171.2
2024/05/03 16:40:48.000   28.281393004  -16.515975919  2226.5296   1   8   0.0019   0.0015   0.0405   0.0007   0.0023  -0.0038 -12.00   19.4
2024/05/03 16:40:49.000   28.281393004  -16.515975919  2226.5293   1   8   0.0019   0.0015   0.0402   0.0007   0.0024  -0.0038 -11.00   16.7
2024/05/03 16:40:50.000   28.281393004  -16.515975919  2226.5301   1   8   0.0019   0.0015   0.0401   0.0007   0.0024  -0.0038 -10.00   67.5
2024/05/03 16:40:51.000   28.281393004  -16.515975919  2226.5315   1   8   0.0019   0.0015   0.0409   0.0007   0.0022  -0.0039  -9.00  217.7
2024/05/03 16:40:52.000   28.281393004  -16.515975919  2226.5302   1   8   0.0019   0.0015   0.0401   0.0007   0.0024  -0.0038  -8.00   17.6
2024/05/03 16:40:53.000   28.281393005  -16.515975918  2226.5218   1   8   0.0019   0.0015   0.0395   0.0007   0.0025  -0.0037  -7.00   12.1
2024/05/03 16:40:54.000   28.281393005  -16.515975918  2226.5213   1   8   0.0019   0.0015   0.0394   0.0007   0.0025  -0.0037  -6.00   15.7
2024/05/03 16:40:55.000   28.281393003  -16.515975919  2226.5341   1   8   0.0019   0.0015   0.0400   0.0007   0.0024  -0.0038  -5.00    3.6
2024/05/03 16:40:56.000   28.281392994  -16.515975917  2226.5412   1   8   0.0025   0.0021   0.0547   0.0010   0.0032  -0.0052  -4.00  397.9
2024/05/03 16:40:57.000   28.281392994  -16.515975917  2226.5401   1   8   0.0025   0.0021   0.0548   0.0010   0.0032  -0.0053  -3.00  341.4
2024/05/03 16:40:58.000   28.281392995  -16.515975917  2226.5383   1   8   0.0025   0.0021   0.0550   0.0010   0.0033  -0.0053  -2.00  220.4
2024/05/03 16:40:59.000   28.281393004  -16.515975919  2226.5266   1   8   0.0020   0.0018   0.0391   0.0011   0.0043  -0.0018  -1.00  217.8
2024/05/03 16:41:00.000   28.281393005  -16.515975923  2226.5247   1   8   0.0020   0.0018   0.0386   0.0011   0.0040  -0.0015   0.00  247.9
2024/05/03 16:41:01.000   28.281393006  -16.515975924  2226.5215   1   8   0.0021   0.0018   0.0421   0.0011   0.0038  -0.0027   1.00  569.2
2024/05/03 16:41:02.000   28.281393013  -16.515975919  2226.4778   1   8   0.0020   0.0018   0.0401   0.0011   0.0041  -0.0022   2.00    5.7
2024/05/03 16:41:03.000   28.281393004  -16.515975926  2226.5424   1   8   0.0021   0.0018   0.0453   0.0011   0.0043  -0.0016   3.00   25.4
2024/05/03 16:41:04.000   28.281393006  -16.515975925  2226.5212   1   8   0.0021   0.0018   0.0488   0.0011   0.0040  -0.0024   4.00  634.8
2024/05/03 16:41:05.000   28.281393006  -16.515975925  2226.5195   1   8   0.0021   0.0018   0.0507   0.0011   0.0040  -0.0024   5.00  636.8
2024/05/03 16:41:06.000   28.281393006  -16.515975925  2226.5152   1   8   0.0021   0.0018   0.0484   0.0011   0.0042  -0.0018   6.00  352.3
2024/05/03 16:41:07.000   28.281393007  -16.515975924  2226.5017   1   8   0.0021   0.0018   0.0475   0.0011   0.0043  -0.0018   7.00    7.8
2024/05/03 16:41:08.000   28.281393007  -16.515975925  2226.5083   1   8   0.0021   0.0018   0.0481   0.0011   0.0043  -0.0018   8.00   17.0
2024/05/03 16:41:09.000   28.281393006  -16.515975924  2226.5095   1   8   0.0021   0.0018   0.0474   0.0011   0.0042  -0.0017   9.00    8.7
2024/05/03 16:41:10.000   28.281393006  -16.515975925  2226.5139   1   8   0.0021   0.0018   0.0476   0.0011   0.0042  -0.0017  10.00    7.0
2024/05/03 16:41:11.000   28.281393006  -16.515975924  2226.5281   1   8   0.0019   0.0015   0.0469   0.0007   0.0017  -0.0038  11.00    4.4
2024/05/03 16:41:12.000   28.281393003  -16.515975925  2226.5148   1   8   0.0026   0.0021   0.0826   0.0010  -0.0027  -0.0057  12.00  152.3
2024/05/03 16:41:13.000   28.281393003  -16.515975925  2226.5145   1   8   0.0026   0.0021   0.0826   0.0010  -0.0027  -0.0057  13.00  148.7
2024/05/03 16:41:14.000   28.281393003  -16.515975925  2226.5145   1   8   0.0026   0.0021   0.0826   0.0010  -0.0027  -0.0057  14.00  145.1
2024/05/03 16:41:15.000   28.281393006  -16.515975924  2226.5166   1   8   0.0019   0.0016   0.0643   0.0008   0.0035  -0.0010 -15.00    4.1
2024/05/03 16:41:16.000   28.281393007  -16.515975923  2226.5046   1   8   0.0019   0.0016   0.0641   0.0008   0.0035  -0.0010 -14.00   21.1
2024/05/03 16:41:17.000   28.281393006  -16.515975924  2226.5135   1   8   0.0019   0.0016   0.0638   0.0008   0.0035  -0.0009 -13.00    5.2
2024/05/03 16:41:18.000   28.281393006  -16.515975923  2226.5059   1   8   0.0019   0.0016   0.0635   0.0008   0.0035  -0.0008 -12.00   46.4
2024/05/03 16:41:19.000   28.281393007  -16.515975923  2226.4959   1   8   0.0019   0.0015   0.0632   0.0008   0.0035  -0.0007 -11.00    4.3
2024/05/03 16:41:20.000   28.281393006  -16.515975923  2226.5041   1   8   0.0019   0.0015   0.0628   0.0008   0.0035  -0.0006 -10.00   18.4
2024/05/03 16:41:21.000   28.281393009  -16.515975922  2226.5081   1   8   0.0031   0.0024   0.1146   0.0014   0.0093   0.0087  -9.00  378.4
2024/05/03 16:41:22.000   28.281393007  -16.515975923  2226.5095   1   8   0.0019   0.0015   0.0488   0.0008   0.0034  -0.0025  -8.00  371.4
2024/05/03 16:41:23.000   28.281393007  -16.515975923  2226.5062   1   8   0.0019   0.0015   0.0482   0.0008   0.0035  -0.0024  -7.00   71.1
2024/05/03 16:41:24.000   28.281393007  -16.515975923  2226.5005   1   8   0.0019   0.0015   0.0472   0.0008   0.0035  -0.0022  -6.00  352.1
2024/05/03 16:41:25.000   28.281393007  -16.515975923  2226.5009   1   8   0.0019   0.0015   0.0473   0.0008   0.0035  -0.0022  -5.00  340.9
2024/05/03 16:41:26.000   28.281393007  -16.515975923  2226.5049   1   8   0.0019   0.0015   0.0481   0.0008   0.0035  -0.0022  -4.00  196.4
2024/05/03 16:41:27.000   28.281393009  -16.515975922  2226.5142   1   8   0.0019   0.0015   0.0393   0.0007   0.0025  -0.0036  -3.00  175.2
2024/05/03 16:41:28.000   28.281393011  -16.515975921  2226.4971   1   8   0.0019   0.0015   0.0378   0.0007   0.0027  -0.0034  -2.00  170.0
2024/05/03 16:41:29.000   28.281393013  -16.515975919  2226.4826   1   8   0.0019   0.0015   0.0377   0.0007   0.0027  -0.0034  -1.00   47.4
2024/05/03 16:41:30.000   28.281393006  -16.515975922  2226.5239   1   8   0.0019   0.0015   0.0407   0.0007   0.0020  -0.0039   0.00  269.1
2024/05/03 16:41:31.000   28.281393004  -16.515975919  2226.5290   1   8   0.0019   0.0015   0.0411   0.0007   0.0024  -0.0040   1.00  197.6
2024/05/03 16:41:32.000   28.281393009  -16.515975915  2226.4953   1   8   0.0019   0.0015   0.0389   0.0007   0.0028  -0.0037   2.00   10.1
2024/05/03 16:41:33.000   28.281393004  -16.515975919  2226.5281   1   8   0.0019   0.0015   0.0412   0.0007   0.0024  -0.0040   3.00  248.2
2024/05/03 16:41:34.000   28.281393004  -16.515975919  2226.5307   1   8   0.0019   0.0015   0.0383   0.0007   0.0029  -0.0036   4.00  221.7
2024/05/03 16:41:35.000   28.281393004  -16.515975920  2226.5329   1   8   0.0019   0.0015   0.0383   0.0007   0.0029  -0.0036   5.00  192.4
