% program   : RTKPOST-EX 2.5.0
% inp file  : C:\Users\SallyHenry\Desktop\Sally Internship\GNSS gravi\DATA\Survey Rover Obs\FA08.24o
% inp file  : C:\Users\SallyHenry\Desktop\Sally Internship\GNSS gravi\DATA\BaseStations\IZAN\IZAN00ESP_R_20241300000_01D_30S_MO.rnx
% inp file  : C:\Users\SallyHenry\Desktop\Sally Internship\GNSS gravi\DATA\BaseStations\IZAN\IZAN00ESP_R_20241300000_01D_MN.rnx
% inp file  : C:\Users\SallyHenry\Desktop\Sally Internship\GNSS gravi\DATA\aux_files\Survey\IGS0OPSFIN_20241300000_01D_15M_ORB.SP3
% inp file  : C:\Users\SallyHenry\Desktop\Sally Internship\GNSS gravi\DATA\aux_files\Survey\IGS0OPSFIN_20241300000_01D_30S_CLK.CLK
% obs start : 2024/05/09 11:32:46.0 GPST (week2313 387166.0s)
% obs end   : 2024/05/09 11:47:46.0 GPST (week2313 388066.0s)
% pos mode  : Static
% freqs     : L1+L2/E5b
% solution  : Combined-No Phase Reset
% elev mask : 15.0 deg
% dynamics  : on
% tidecorr  : solid
% ionos opt : Estimate TEC
% tropo opt : Estimate ZTD+Grad
% ephemeris : Precise
% navi sys  : GPS GLONASS Galileo QZSS BDS
% amb res   : Fix and Hold
% amb glo   : Fix and Hold
% amb bds   : on
% val thres : 3.0
% antenna1  :                       ( 0.0000  0.0000  1.8000)
% antenna2  :                       ( 0.0000  0.0000  0.0000)
% ref pos   :  28.308069410  -16.499677180  2417.4044
%
% (lat/lon/height=WGS84/ellipsoidal,Q=1:fix,2:float,3:sbas,4:dgps,5:single,6:ppp,ns=# of satellites)
%  GPST                  latitude(deg) longitude(deg)  height(m)   Q  ns   sdn(m)   sde(m)   sdu(m)  sdne(m)  sdeu(m)  sdun(m) age(s)  ratio
2024/05/09 11:32:46.000   28.281835488  -16.516786107  2234.1389   1   8   0.0014   0.0009   0.0077   0.0003   0.0007  -0.0001 -14.00   39.1
2024/05/09 11:32:47.000   28.281835488  -16.516786107  2234.1389   1   8   0.0014   0.0009   0.0077   0.0003   0.0007  -0.0001 -13.00   38.2
2024/05/09 11:32:48.000   28.281835488  -16.516786107  2234.1389   1   8   0.0014   0.0009   0.0077   0.0003   0.0007  -0.0001 -12.00   37.2
2024/05/09 11:32:49.000   28.281835489  -16.516786107  2234.1389   1   8   0.0014   0.0009   0.0077   0.0003   0.0007  -0.0001 -11.00   36.0
2024/05/09 11:32:50.000   28.281835489  -16.516786107  2234.1389   1   8   0.0014   0.0009   0.0077   0.0003   0.0007  -0.0001 -10.00   34.8
2024/05/09 11:32:51.000   28.281835489  -16.516786107  2234.1388   1   8   0.0014   0.0009   0.0077   0.0003   0.0007  -0.0001  -9.00   33.4
2024/05/09 11:32:52.000   28.281835489  -16.516786107  2234.1388   1   8   0.0014   0.0009   0.0077   0.0003   0.0007  -0.0001  -8.00   31.8
2024/05/09 11:32:53.000   28.281835489  -16.516786107  2234.1388   1   8   0.0014   0.0009   0.0077   0.0003   0.0007  -0.0001  -7.00   30.0
2024/05/09 11:32:54.000   28.281835489  -16.516786107  2234.1387   1   8   0.0014   0.0009   0.0077   0.0003   0.0007  -0.0002  -6.00   27.5
2024/05/09 11:32:55.000   28.281835489  -16.516786107  2234.1386   1   8   0.0014   0.0009   0.0077   0.0003   0.0007  -0.0002  -5.00   24.2
2024/05/09 11:32:56.000   28.281835489  -16.516786108  2234.1386   1   8   0.0014   0.0009   0.0077   0.0003   0.0007  -0.0002  -4.00   20.6
2024/05/09 11:32:57.000   28.281835489  -16.516786108  2234.1384   1   8   0.0014   0.0009   0.0077   0.0003   0.0007  -0.0002  -3.00   16.5
2024/05/09 11:32:58.000   28.281835489  -16.516786108  2234.1383   1   8   0.0014   0.0009   0.0077   0.0003   0.0007  -0.0002  -2.00   11.9
2024/05/09 11:32:59.000   28.281835489  -16.516786108  2234.1382   1   8   0.0014   0.0009   0.0077   0.0003   0.0007  -0.0002  -1.00    6.7
2024/05/09 11:33:00.000   28.281835486  -16.516786108  2234.1405   1   8   0.0014   0.0009   0.0076   0.0003   0.0007   0.0001   0.00   37.1
2024/05/09 11:33:01.000   28.281835486  -16.516786108  2234.1403   1   8   0.0014   0.0009   0.0076   0.0003   0.0007   0.0001   1.00   36.9
2024/05/09 11:33:02.000   28.281835486  -16.516786108  2234.1401   1   8   0.0014   0.0009   0.0076   0.0003   0.0007   0.0001   2.00   36.6
2024/05/09 11:33:03.000   28.281835487  -16.516786108  2234.1399   1   8   0.0014   0.0009   0.0077   0.0003   0.0007   0.0001   3.00   36.4
2024/05/09 11:33:04.000   28.281835487  -16.516786108  2234.1397   1   8   0.0014   0.0009   0.0077   0.0003   0.0007   0.0001   4.00   36.2
2024/05/09 11:33:05.000   28.281835487  -16.516786108  2234.1395   1   8   0.0014   0.0009   0.0077   0.0003   0.0007   0.0000   5.00   35.9
2024/05/09 11:33:06.000   28.281835487  -16.516786109  2234.1394   1   8   0.0014   0.0009   0.0077   0.0003   0.0007  -0.0000   6.00   35.6
2024/05/09 11:33:07.000   28.281835487  -16.516786109  2234.1393   1   8   0.0014   0.0009   0.0077   0.0003   0.0007  -0.0001   7.00   35.3
2024/05/09 11:33:08.000   28.281835487  -16.516786109  2234.1392   1   8   0.0014   0.0009   0.0077   0.0003   0.0007  -0.0001   8.00   35.0
2024/05/09 11:33:09.000   28.281835488  -16.516786109  2234.1391   1   8   0.0014   0.0009   0.0077   0.0003   0.0007  -0.0001   9.00   34.7
2024/05/09 11:33:10.000   28.281835488  -16.516786109  2234.1390   1   8   0.0014   0.0009   0.0077   0.0003   0.0007  -0.0001  10.00   34.3
2024/05/09 11:33:11.000   28.281835488  -16.516786109  2234.1389   1   8   0.0014   0.0009   0.0077   0.0003   0.0007  -0.0001  11.00   33.6
2024/05/09 11:33:12.000   28.281835488  -16.516786109  2234.1389   1   8   0.0014   0.0009   0.0077   0.0003   0.0007  -0.0001  12.00   32.9
2024/05/09 11:33:13.000   28.281835488  -16.516786109  2234.1388   1   8   0.0014   0.0009   0.0076   0.0003   0.0007  -0.0001  13.00   32.2
2024/05/09 11:33:14.000   28.281835488  -16.516786109  2234.1388   1   8   0.0014   0.0009   0.0076   0.0003   0.0007  -0.0001  14.00   31.5
2024/05/09 11:33:15.000   28.281835488  -16.516786109  2234.1387   1   8   0.0014   0.0009   0.0076   0.0003   0.0007  -0.0002  15.00   30.9
2024/05/09 11:33:16.000   28.281835488  -16.516786109  2234.1387   1   8   0.0014   0.0009   0.0076   0.0003   0.0007  -0.0002 -14.00   30.3
2024/05/09 11:33:17.000   28.281835488  -16.516786109  2234.1387   1   8   0.0014   0.0009   0.0076   0.0003   0.0007  -0.0002 -13.00   29.6
2024/05/09 11:33:18.000   28.281835488  -16.516786109  2234.1386   1   8   0.0014   0.0009   0.0076   0.0003   0.0007  -0.0002 -12.00   28.9
2024/05/09 11:33:19.000   28.281835488  -16.516786109  2234.1386   1   8   0.0014   0.0009   0.0076   0.0003   0.0007  -0.0002 -11.00   28.2
2024/05/09 11:33:20.000   28.281835489  -16.516786109  2234.1385   1   8   0.0014   0.0009   0.0076   0.0003   0.0007  -0.0002 -10.00   27.4
2024/05/09 11:33:21.000   28.281835489  -16.516786109  2234.1384   1   8   0.0014   0.0009   0.0076   0.0003   0.0007  -0.0002  -9.00   26.5
2024/05/09 11:33:22.000   28.281835489  -16.516786109  2234.1383   1   8   0.0014   0.0009   0.0076   0.0003   0.0007  -0.0002  -8.00   25.6
2024/05/09 11:33:23.000   28.281835489  -16.516786109  2234.1382   1   8   0.0014   0.0009   0.0076   0.0003   0.0007  -0.0002  -7.00   24.2
2024/05/09 11:33:24.000   28.281835489  -16.516786109  2234.1380   1   8   0.0014   0.0009   0.0076   0.0003   0.0007  -0.0002  -6.00   22.2
2024/05/09 11:33:25.000   28.281835489  -16.516786109  2234.1379   1   8   0.0014   0.0009   0.0076   0.0003   0.0007  -0.0002  -5.00   19.9
2024/05/09 11:33:26.000   28.281835490  -16.516786109  2234.1377   1   8   0.0014   0.0009   0.0076   0.0003   0.0007  -0.0002  -4.00   17.4
2024/05/09 11:33:27.000   28.281835490  -16.516786109  2234.1375   1   8   0.0014   0.0009   0.0076   0.0003   0.0007  -0.0002  -3.00   14.4
2024/05/09 11:33:28.000   28.281835490  -16.516786109  2234.1373   1   8   0.0014   0.0009   0.0076   0.0003   0.0007  -0.0002  -2.00   10.8
2024/05/09 11:33:29.000   28.281835490  -16.516786109  2234.1370   1   8   0.0014   0.0009   0.0076   0.0003   0.0007  -0.0002  -1.00    6.4
2024/05/09 11:33:30.000   28.281835488  -16.516786109  2234.1390   1   8   0.0014   0.0009   0.0076   0.0003   0.0007   0.0000   0.00   40.7
2024/05/09 11:33:31.000   28.281835488  -16.516786109  2234.1387   1   8   0.0014   0.0009   0.0076   0.0003   0.0007  -0.0001   1.00   41.0
2024/05/09 11:33:32.000   28.281835489  -16.516786109  2234.1384   1   8   0.0014   0.0009   0.0076   0.0003   0.0007  -0.0001   2.00   41.2
2024/05/09 11:33:33.000   28.281835489  -16.516786110  2234.1382   1   8   0.0014   0.0009   0.0076   0.0003   0.0007  -0.0001   3.00   41.3
2024/05/09 11:33:34.000   28.281835489  -16.516786110  2234.1380   1   8   0.0014   0.0009   0.0076   0.0003   0.0007  -0.0001   4.00   41.4
2024/05/09 11:33:35.000   28.281835489  -16.516786110  2234.1378   1   8   0.0014   0.0009   0.0076   0.0003   0.0007  -0.0001   5.00   41.3
2024/05/09 11:33:36.000   28.281835489  -16.516786110  2234.1377   1   8   0.0014   0.0009   0.0076   0.0003   0.0007  -0.0001   6.00   40.9
2024/05/09 11:33:37.000   28.281835490  -16.516786110  2234.1375   1   8   0.0014   0.0009   0.0076   0.0003   0.0007  -0.0002   7.00   40.5
2024/05/09 11:33:38.000   28.281835490  -16.516786110  2234.1374   1   8   0.0014   0.0009   0.0076   0.0003   0.0007  -0.0002   8.00   40.0
2024/05/09 11:33:39.000   28.281835490  -16.516786110  2234.1374   1   8   0.0014   0.0009   0.0076   0.0003   0.0007  -0.0002   9.00   39.4
2024/05/09 11:33:40.000   28.281835490  -16.516786110  2234.1373   1   8   0.0014   0.0009   0.0076   0.0003   0.0007  -0.0002  10.00   38.6
2024/05/09 11:33:41.000   28.281835490  -16.516786110  2234.1372   1   8   0.0014   0.0009   0.0076   0.0003   0.0007  -0.0002  11.00   37.6
2024/05/09 11:33:42.000   28.281835490  -16.516786110  2234.1372   1   8   0.0014   0.0009   0.0076   0.0003   0.0007  -0.0002  12.00   36.7
2024/05/09 11:33:43.000   28.281835490  -16.516786110  2234.1371   1   8   0.0014   0.0009   0.0076   0.0003   0.0007  -0.0002  13.00   35.7
2024/05/09 11:33:44.000   28.281835490  -16.516786110  2234.1371   1   8   0.0014   0.0009   0.0076   0.0003   0.0007  -0.0002  14.00   34.8
2024/05/09 11:33:45.000   28.281835490  -16.516786110  2234.1371   1   8   0.0014   0.0009   0.0076   0.0003   0.0007  -0.0002  15.00   34.0
2024/05/09 11:33:46.000   28.281835490  -16.516786110  2234.1371   1   8   0.0014   0.0009   0.0076   0.0003   0.0007  -0.0002 -14.00   33.2
2024/05/09 11:33:47.000   28.281835490  -16.516786110  2234.1370   1   8   0.0014   0.0009   0.0076   0.0003   0.0007  -0.0002 -13.00   32.4
2024/05/09 11:33:48.000   28.281835490  -16.516786110  2234.1370   1   8   0.0014   0.0009   0.0076   0.0003   0.0007  -0.0002 -12.00   31.4
2024/05/09 11:33:49.000   28.281835490  -16.516786110  2234.1370   1   8   0.0014   0.0009   0.0076   0.0003   0.0007  -0.0002 -11.00   30.4
2024/05/09 11:33:50.000   28.281835490  -16.516786110  2234.1369   1   8   0.0014   0.0009   0.0076   0.0003   0.0007  -0.0002 -10.00   29.3
2024/05/09 11:33:51.000   28.281835491  -16.516786110  2234.1369   1   8   0.0014   0.0009   0.0076   0.0003   0.0007  -0.0002  -9.00   28.1
2024/05/09 11:33:52.000   28.281835491  -16.516786110  2234.1368   1   8   0.0014   0.0009   0.0076   0.0003   0.0007  -0.0002  -8.00   26.8
2024/05/09 11:33:53.000   28.281835491  -16.516786110  2234.1367   1   8   0.0014   0.0009   0.0076   0.0003   0.0007  -0.0002  -7.00   25.3
2024/05/09 11:33:54.000   28.281835491  -16.516786110  2234.1366   1   8   0.0014   0.0009   0.0076   0.0003   0.0007  -0.0002  -6.00   23.7
2024/05/09 11:33:55.000   28.281835491  -16.516786110  2234.1364   1   8   0.0014   0.0009   0.0076   0.0003   0.0007  -0.0003  -5.00   21.5
2024/05/09 11:33:56.000   28.281835491  -16.516786110  2234.1362   1   8   0.0014   0.0009   0.0076   0.0003   0.0007  -0.0003  -4.00   18.8
2024/05/09 11:33:57.000   28.281835491  -16.516786110  2234.1360   1   8   0.0014   0.0009   0.0076   0.0003   0.0007  -0.0003  -3.00   15.5
2024/05/09 11:33:58.000   28.281835491  -16.516786110  2234.1357   1   8   0.0014   0.0009   0.0076   0.0003   0.0007  -0.0003  -2.00   11.4
2024/05/09 11:33:59.000   28.281835492  -16.516786110  2234.1355   1   8   0.0014   0.0009   0.0076   0.0003   0.0007  -0.0003  -1.00    6.6
2024/05/09 11:34:00.000   28.281835488  -16.516786111  2234.1381   1   8   0.0014   0.0009   0.0076   0.0003   0.0007  -0.0001   0.00   31.8
2024/05/09 11:34:01.000   28.281835488  -16.516786111  2234.1378   1   8   0.0014   0.0009   0.0076   0.0003   0.0007  -0.0001   1.00   31.7
2024/05/09 11:34:02.000   28.281835489  -16.516786111  2234.1377   1   8   0.0014   0.0009   0.0076   0.0003   0.0007  -0.0002   2.00   31.8
2024/05/09 11:34:03.000   28.281835489  -16.516786111  2234.1375   1   8   0.0014   0.0009   0.0076   0.0003   0.0007  -0.0002   3.00   31.8
2024/05/09 11:34:04.000   28.281835489  -16.516786111  2234.1374   1   8   0.0014   0.0009   0.0076   0.0003   0.0007  -0.0002   4.00   31.8
2024/05/09 11:34:05.000   28.281835490  -16.516786111  2234.1372   1   8   0.0014   0.0009   0.0076   0.0003   0.0007  -0.0002   5.00   31.9
2024/05/09 11:34:06.000   28.281835490  -16.516786111  2234.1371   1   8   0.0014   0.0009   0.0076   0.0003   0.0007  -0.0002   6.00   31.9
2024/05/09 11:34:07.000   28.281835490  -16.516786111  2234.1371   1   8   0.0014   0.0009   0.0076   0.0003   0.0007  -0.0002   7.00   31.9
2024/05/09 11:34:08.000   28.281835490  -16.516786110  2234.1370   1   8   0.0014   0.0009   0.0076   0.0003   0.0007  -0.0002   8.00   32.0
2024/05/09 11:34:09.000   28.281835491  -16.516786110  2234.1369   1   8   0.0014   0.0009   0.0076   0.0003   0.0007  -0.0002   9.00   31.9
2024/05/09 11:34:10.000   28.281835491  -16.516786110  2234.1369   1   8   0.0014   0.0009   0.0076   0.0003   0.0007  -0.0002  10.00   31.7
2024/05/09 11:34:11.000   28.281835491  -16.516786110  2234.1368   1   8   0.0014   0.0009   0.0076   0.0003   0.0007  -0.0002  11.00   31.6
2024/05/09 11:34:12.000   28.281835491  -16.516786110  2234.1368   1   8   0.0014   0.0009   0.0076   0.0003   0.0007  -0.0002  12.00   31.4
2024/05/09 11:34:13.000   28.281835491  -16.516786110  2234.1367   1   8   0.0014   0.0009   0.0076   0.0003   0.0007  -0.0002  13.00   31.1
2024/05/09 11:34:14.000   28.281835491  -16.516786110  2234.1367   1   8   0.0014   0.0009   0.0076   0.0003   0.0007  -0.0002  14.00   30.8
2024/05/09 11:34:15.000   28.281835492  -16.516786110  2234.1367   1   8   0.0014   0.0009   0.0076   0.0003   0.0007  -0.0002  15.00   30.4
2024/05/09 11:34:16.000   28.281835492  -16.516786110  2234.1366   1   8   0.0014   0.0009   0.0076   0.0003   0.0007  -0.0002 -14.00   30.1
2024/05/09 11:34:17.000   28.281835492  -16.516786110  2234.1366   1   8   0.0014   0.0009   0.0076   0.0003   0.0007  -0.0002 -13.00   29.6
2024/05/09 11:34:18.000   28.281835492  -16.516786110  2234.1366   1   8   0.0014   0.0009   0.0076   0.0003   0.0007  -0.0003 -12.00   29.1
2024/05/09 11:34:19.000   28.281835492  -16.516786110  2234.1365   1   8   0.0014   0.0009   0.0076   0.0003   0.0007  -0.0003 -11.00   28.5
2024/05/09 11:34:20.000   28.281835492  -16.516786110  2234.1365   1   8   0.0014   0.0009   0.0076   0.0003   0.0007  -0.0003 -10.00   27.9
2024/05/09 11:34:21.000   28.281835492  -16.516786110  2234.1365   1   8   0.0014   0.0009   0.0076   0.0003   0.0007  -0.0003  -9.00   27.0
2024/05/09 11:34:22.000   28.281835493  -16.516786110  2234.1364   1   8   0.0014   0.0009   0.0076   0.0003   0.0007  -0.0003  -8.00   25.7
2024/05/09 11:34:23.000   28.281835493  -16.516786110  2234.1363   1   8   0.0014   0.0009   0.0076   0.0003   0.0007  -0.0003  -7.00   24.1
2024/05/09 11:34:24.000   28.281835493  -16.516786110  2234.1363   1   8   0.0014   0.0009   0.0076   0.0003   0.0007  -0.0003  -6.00   22.2
2024/05/09 11:34:25.000   28.281835493  -16.516786110  2234.1362   1   8   0.0014   0.0009   0.0076   0.0003   0.0007  -0.0003  -5.00   19.8
2024/05/09 11:34:26.000   28.281835493  -16.516786110  2234.1361   1   8   0.0014   0.0009   0.0076   0.0003   0.0007  -0.0003  -4.00   17.2
2024/05/09 11:34:27.000   28.281835494  -16.516786110  2234.1360   1   8   0.0014   0.0009   0.0076   0.0003   0.0007  -0.0003  -3.00   14.1
2024/05/09 11:34:28.000   28.281835494  -16.516786110  2234.1359   1   8   0.0014   0.0009   0.0076   0.0003   0.0007  -0.0003  -2.00   10.4
2024/05/09 11:34:29.000   28.281835494  -16.516786110  2234.1358   1   8   0.0014   0.0009   0.0076   0.0003   0.0007  -0.0003  -1.00    6.0
2024/05/09 11:34:30.000   28.281835491  -16.516786110  2234.1381   1   8   0.0014   0.0009   0.0076   0.0003   0.0007  -0.0002   0.00   34.4
2024/05/09 11:34:31.000   28.281835491  -16.516786110  2234.1380   1   8   0.0014   0.0009   0.0076   0.0003   0.0007  -0.0002   1.00   34.2
2024/05/09 11:34:32.000   28.281835492  -16.516786109  2234.1378   1   8   0.0014   0.0009   0.0076   0.0003   0.0007  -0.0002   2.00   34.1
2024/05/09 11:34:33.000   28.281835492  -16.516786109  2234.1376   1   8   0.0014   0.0009   0.0076   0.0003   0.0007  -0.0002   3.00   33.8
2024/05/09 11:34:34.000   28.281835492  -16.516786109  2234.1375   1   8   0.0014   0.0009   0.0076   0.0003   0.0007  -0.0002   4.00   33.4
2024/05/09 11:34:35.000   28.281835492  -16.516786109  2234.1374   1   8   0.0014   0.0009   0.0076   0.0003   0.0007  -0.0002   5.00   32.9
2024/05/09 11:34:36.000   28.281835492  -16.516786109  2234.1373   1   8   0.0014   0.0009   0.0076   0.0003   0.0007  -0.0002   6.00   32.5
2024/05/09 11:34:37.000   28.281835493  -16.516786109  2234.1372   1   8   0.0014   0.0009   0.0076   0.0003   0.0007  -0.0002   7.00   31.9
2024/05/09 11:34:38.000   28.281835493  -16.516786109  2234.1371   1   8   0.0014   0.0009   0.0076   0.0003   0.0007  -0.0002   8.00   31.0
2024/05/09 11:34:39.000   28.281835493  -16.516786109  2234.1371   1   8   0.0014   0.0009   0.0076   0.0003   0.0007  -0.0002   9.00   30.0
2024/05/09 11:34:40.000   28.281835493  -16.516786109  2234.1370   1   8   0.0014   0.0009   0.0076   0.0003   0.0007  -0.0003  10.00   29.0
2024/05/09 11:34:41.000   28.281835493  -16.516786109  2234.1369   1   8   0.0014   0.0009   0.0076   0.0003   0.0007  -0.0003  11.00   28.1
2024/05/09 11:34:42.000   28.281835493  -16.516786109  2234.1369   1   8   0.0014   0.0009   0.0076   0.0003   0.0007  -0.0003  12.00   27.4
2024/05/09 11:34:43.000   28.281835493  -16.516786109  2234.1368   1   8   0.0014   0.0009   0.0076   0.0003   0.0007  -0.0003  13.00   26.7
2024/05/09 11:34:44.000   28.281835493  -16.516786109  2234.1368   1   8   0.0014   0.0009   0.0076   0.0003   0.0007  -0.0003  14.00   26.0
2024/05/09 11:34:45.000   28.281835493  -16.516786109  2234.1367   1   8   0.0014   0.0009   0.0076   0.0003   0.0007  -0.0003  15.00   25.4
2024/05/09 11:34:46.000   28.281835489  -16.516786109  2234.1430   1   8   0.0013   0.0009   0.0073   0.0003   0.0005  -0.0002 -14.00    4.8
2024/05/09 11:34:47.000   28.281835489  -16.516786109  2234.1430   1   8   0.0013   0.0009   0.0073   0.0003   0.0005  -0.0002 -13.00    4.9
2024/05/09 11:34:48.000   28.281835489  -16.516786109  2234.1431   1   8   0.0013   0.0009   0.0073   0.0003   0.0005  -0.0002 -12.00    4.9
2024/05/09 11:34:49.000   28.281835489  -16.516786109  2234.1432   1   8   0.0013   0.0009   0.0073   0.0003   0.0005  -0.0002 -11.00    5.0
2024/05/09 11:34:50.000   28.281835489  -16.516786109  2234.1432   1   8   0.0013   0.0009   0.0073   0.0003   0.0005  -0.0002 -10.00    5.0
2024/05/09 11:34:51.000   28.281835489  -16.516786109  2234.1433   1   8   0.0013   0.0009   0.0073   0.0003   0.0005  -0.0002  -9.00    5.1
2024/05/09 11:34:52.000   28.281835489  -16.516786109  2234.1434   1   8   0.0013   0.0009   0.0073   0.0003   0.0005  -0.0002  -8.00    5.2
2024/05/09 11:34:53.000   28.281835489  -16.516786109  2234.1435   1   8   0.0013   0.0009   0.0073   0.0003   0.0005  -0.0002  -7.00    5.3
2024/05/09 11:34:54.000   28.281835489  -16.516786109  2234.1436   1   8   0.0013   0.0009   0.0073   0.0003   0.0005  -0.0002  -6.00    5.3
2024/05/09 11:34:55.000   28.281835489  -16.516786109  2234.1438   1   8   0.0013   0.0009   0.0073   0.0003   0.0005  -0.0002  -5.00    5.4
2024/05/09 11:34:56.000   28.281835489  -16.516786109  2234.1439   1   8   0.0013   0.0009   0.0073   0.0003   0.0005  -0.0002  -4.00    5.5
2024/05/09 11:34:57.000   28.281835489  -16.516786109  2234.1441   1   8   0.0013   0.0009   0.0073   0.0003   0.0005  -0.0002  -3.00    5.5
2024/05/09 11:34:58.000   28.281835489  -16.516786109  2234.1442   1   8   0.0013   0.0009   0.0073   0.0003   0.0005  -0.0002  -2.00    5.5
2024/05/09 11:34:59.000   28.281835489  -16.516786109  2234.1443   1   8   0.0013   0.0009   0.0073   0.0003   0.0005  -0.0002  -1.00    5.6
2024/05/09 11:35:00.000   28.281835486  -16.516786109  2234.1464   1   8   0.0013   0.0009   0.0072   0.0003   0.0005  -0.0000   0.00    5.8
2024/05/09 11:35:01.000   28.281835489  -16.516786109  2234.1424   1   8   0.0013   0.0009   0.0073   0.0003   0.0005  -0.0003   1.00    3.1
2024/05/09 11:35:02.000   28.281835489  -16.516786109  2234.1426   1   8   0.0013   0.0009   0.0073   0.0003   0.0005  -0.0003   2.00    3.5
2024/05/09 11:35:03.000   28.281835489  -16.516786109  2234.1427   1   8   0.0013   0.0009   0.0073   0.0003   0.0005  -0.0003   3.00    3.7
2024/05/09 11:35:04.000   28.281835489  -16.516786109  2234.1429   1   8   0.0013   0.0009   0.0073   0.0003   0.0005  -0.0003   4.00    4.0
2024/05/09 11:35:05.000   28.281835489  -16.516786109  2234.1430   1   8   0.0013   0.0009   0.0073   0.0003   0.0005  -0.0003   5.00    4.2
2024/05/09 11:35:06.000   28.281835489  -16.516786109  2234.1431   1   8   0.0012   0.0009   0.0073   0.0003   0.0005  -0.0003   6.00    6.6
2024/05/09 11:35:07.000   28.281835489  -16.516786109  2234.1432   1   8   0.0012   0.0009   0.0073   0.0003   0.0005  -0.0003   7.00    8.5
2024/05/09 11:35:08.000   28.281835489  -16.516786109  2234.1433   1   8   0.0012   0.0009   0.0073   0.0003   0.0005  -0.0003   8.00   10.5
2024/05/09 11:35:09.000   28.281835489  -16.516786109  2234.1433   1   8   0.0012   0.0009   0.0073   0.0003   0.0005  -0.0003   9.00   12.5
2024/05/09 11:35:10.000   28.281835489  -16.516786109  2234.1434   1   8   0.0012   0.0009   0.0073   0.0003   0.0005  -0.0003  10.00   14.6
2024/05/09 11:35:11.000   28.281835489  -16.516786109  2234.1434   1   8   0.0012   0.0009   0.0073   0.0003   0.0005  -0.0003  11.00   16.5
2024/05/09 11:35:12.000   28.281835489  -16.516786109  2234.1434   1   8   0.0012   0.0009   0.0073   0.0003   0.0005  -0.0003  12.00   18.6
2024/05/09 11:35:13.000   28.281835489  -16.516786109  2234.1435   1   8   0.0012   0.0009   0.0073   0.0003   0.0005  -0.0003  13.00   20.6
2024/05/09 11:35:14.000   28.281835489  -16.516786109  2234.1435   1   8   0.0012   0.0009   0.0073   0.0003   0.0005  -0.0003  14.00   22.7
2024/05/09 11:35:15.000   28.281835489  -16.516786109  2234.1435   1   8   0.0012   0.0009   0.0073   0.0003   0.0005  -0.0003 -15.00   24.7
2024/05/09 11:35:16.000   28.281835489  -16.516786109  2234.1435   1   8   0.0012   0.0009   0.0073   0.0003   0.0005  -0.0003 -14.00   26.8
2024/05/09 11:35:17.000   28.281835489  -16.516786109  2234.1435   1   8   0.0012   0.0009   0.0073   0.0003   0.0005  -0.0003 -13.00   28.9
2024/05/09 11:35:18.000   28.281835489  -16.516786109  2234.1436   1   8   0.0012   0.0009   0.0073   0.0003   0.0005  -0.0003 -12.00   31.1
2024/05/09 11:35:19.000   28.281835489  -16.516786109  2234.1436   1   8   0.0012   0.0009   0.0072   0.0003   0.0005  -0.0003 -11.00   33.2
2024/05/09 11:35:20.000   28.281835490  -16.516786109  2234.1436   1   8   0.0012   0.0009   0.0072   0.0003   0.0005  -0.0003 -10.00   35.4
2024/05/09 11:35:21.000   28.281835490  -16.516786109  2234.1437   1   8   0.0012   0.0009   0.0072   0.0003   0.0005  -0.0003  -9.00   37.7
2024/05/09 11:35:22.000   28.281835490  -16.516786109  2234.1437   1   8   0.0012   0.0009   0.0072   0.0003   0.0005  -0.0003  -8.00   40.0
2024/05/09 11:35:23.000   28.281835490  -16.516786109  2234.1438   1   8   0.0012   0.0009   0.0072   0.0003   0.0005  -0.0003  -7.00   42.2
2024/05/09 11:35:24.000   28.281835490  -16.516786109  2234.1438   1   8   0.0012   0.0009   0.0072   0.0003   0.0005  -0.0003  -6.00   44.5
2024/05/09 11:35:25.000   28.281835490  -16.516786109  2234.1439   1   8   0.0012   0.0009   0.0072   0.0003   0.0005  -0.0003  -5.00   47.1
2024/05/09 11:35:26.000   28.281835490  -16.516786109  2234.1440   1   8   0.0012   0.0009   0.0072   0.0003   0.0005  -0.0003  -4.00   49.6
2024/05/09 11:35:27.000   28.281835490  -16.516786109  2234.1442   1   8   0.0012   0.0009   0.0072   0.0003   0.0005  -0.0003  -3.00   52.5
2024/05/09 11:35:28.000   28.281835490  -16.516786109  2234.1443   1   8   0.0012   0.0009   0.0072   0.0003   0.0005  -0.0003  -2.00   55.1
2024/05/09 11:35:29.000   28.281835490  -16.516786109  2234.1444   1   8   0.0012   0.0009   0.0072   0.0003   0.0005  -0.0003  -1.00   57.8
2024/05/09 11:35:30.000   28.281835488  -16.516786108  2234.1405   1   9   0.0012   0.0009   0.0069   0.0003   0.0005  -0.0000   0.00   60.3
2024/05/09 11:35:31.000   28.281835490  -16.516786108  2234.1376   1   9   0.0012   0.0009   0.0071   0.0003   0.0005  -0.0003   1.00   16.6
2024/05/09 11:35:32.000   28.281835490  -16.516786108  2234.1381   1   9   0.0012   0.0009   0.0071   0.0003   0.0005  -0.0003   2.00   29.6
2024/05/09 11:35:33.000   28.281835490  -16.516786108  2234.1385   1   9   0.0012   0.0009   0.0071   0.0003   0.0005  -0.0003   3.00   41.4
2024/05/09 11:35:34.000   28.281835490  -16.516786108  2234.1389   1   9   0.0012   0.0009   0.0071   0.0003   0.0005  -0.0003   4.00   46.9
2024/05/09 11:35:35.000   28.281835490  -16.516786108  2234.1392   1   9   0.0012   0.0009   0.0071   0.0003   0.0005  -0.0003   5.00   51.2
2024/05/09 11:35:36.000   28.281835490  -16.516786108  2234.1395   1   9   0.0012   0.0009   0.0070   0.0003   0.0005  -0.0003   6.00   54.5
2024/05/09 11:35:37.000   28.281835490  -16.516786108  2234.1398   1   9   0.0012   0.0009   0.0070   0.0003   0.0005  -0.0003   7.00   57.6
2024/05/09 11:35:38.000   28.281835490  -16.516786108  2234.1401   1   9   0.0012   0.0009   0.0070   0.0003   0.0005  -0.0003   8.00   60.6
2024/05/09 11:35:39.000   28.281835490  -16.516786108  2234.1403   1   9   0.0012   0.0009   0.0070   0.0003   0.0005  -0.0003   9.00   63.5
2024/05/09 11:35:40.000   28.281835490  -16.516786108  2234.1404   1   9   0.0012   0.0009   0.0070   0.0003   0.0005  -0.0003  10.00   66.5
2024/05/09 11:35:41.000   28.281835490  -16.516786108  2234.1406   1   9   0.0012   0.0009   0.0070   0.0003   0.0005  -0.0003  11.00   69.4
2024/05/09 11:35:42.000   28.281835490  -16.516786108  2234.1408   1   9   0.0012   0.0008   0.0070   0.0003   0.0005  -0.0003  12.00   72.1
2024/05/09 11:35:43.000   28.281835490  -16.516786108  2234.1409   1   9   0.0012   0.0008   0.0070   0.0003   0.0005  -0.0003  13.00   74.9
2024/05/09 11:35:44.000   28.281835490  -16.516786108  2234.1410   1   9   0.0012   0.0008   0.0070   0.0003   0.0005  -0.0003  14.00   77.4
2024/05/09 11:35:45.000   28.281835490  -16.516786108  2234.1411   1   9   0.0012   0.0008   0.0070   0.0003   0.0005  -0.0003 -15.00   79.9
2024/05/09 11:35:46.000   28.281835490  -16.516786108  2234.1412   1   9   0.0012   0.0008   0.0070   0.0003   0.0005  -0.0003 -14.00   82.5
2024/05/09 11:35:47.000   28.281835490  -16.516786108  2234.1413   1   9   0.0012   0.0008   0.0070   0.0003   0.0005  -0.0003 -13.00   85.0
2024/05/09 11:35:48.000   28.281835490  -16.516786108  2234.1414   1   9   0.0012   0.0008   0.0070   0.0003   0.0005  -0.0002 -12.00   87.7
2024/05/09 11:35:49.000   28.281835490  -16.516786108  2234.1416   1   9   0.0012   0.0008   0.0070   0.0003   0.0005  -0.0002 -11.00   90.6
2024/05/09 11:35:50.000   28.281835490  -16.516786108  2234.1418   1   9   0.0012   0.0008   0.0070   0.0003   0.0005  -0.0002 -10.00   93.9
2024/05/09 11:35:51.000   28.281835490  -16.516786108  2234.1420   1   9   0.0012   0.0008   0.0070   0.0003   0.0005  -0.0002  -9.00   96.9
2024/05/09 11:35:52.000   28.281835490  -16.516786108  2234.1422   1   9   0.0012   0.0008   0.0070   0.0003   0.0005  -0.0002  -8.00   99.7
2024/05/09 11:35:53.000   28.281835490  -16.516786108  2234.1424   1   9   0.0012   0.0008   0.0070   0.0003   0.0005  -0.0002  -7.00  103.2
2024/05/09 11:35:54.000   28.281835490  -16.516786108  2234.1427   1   9   0.0012   0.0008   0.0070   0.0003   0.0005  -0.0002  -6.00  105.7
2024/05/09 11:35:55.000   28.281835490  -16.516786109  2234.1429   1   9   0.0012   0.0008   0.0070   0.0003   0.0005  -0.0002  -5.00  107.8
2024/05/09 11:35:56.000   28.281835490  -16.516786109  2234.1432   1   9   0.0012   0.0008   0.0070   0.0003   0.0005  -0.0002  -4.00  111.4
2024/05/09 11:35:57.000   28.281835490  -16.516786109  2234.1435   1   9   0.0012   0.0008   0.0070   0.0003   0.0005  -0.0002  -3.00  114.4
2024/05/09 11:35:58.000   28.281835490  -16.516786109  2234.1438   1   9   0.0012   0.0008   0.0070   0.0003   0.0005  -0.0002  -2.00  118.8
2024/05/09 11:35:59.000   28.281835490  -16.516786109  2234.1442   1   9   0.0012   0.0008   0.0070   0.0003   0.0005  -0.0002  -1.00  122.4
2024/05/09 11:36:00.000   28.281835489  -16.516786109  2234.1454   1   9   0.0012   0.0008   0.0070   0.0003   0.0005  -0.0002   0.00  126.5
2024/05/09 11:36:01.000   28.281835491  -16.516786109  2234.1421   1   9   0.0012   0.0008   0.0071   0.0003   0.0005  -0.0003   1.00   20.1
2024/05/09 11:36:02.000   28.281835491  -16.516786109  2234.1424   1   9   0.0012   0.0008   0.0071   0.0003   0.0005  -0.0003   2.00   38.0
2024/05/09 11:36:03.000   28.281835491  -16.516786109  2234.1428   1   9   0.0012   0.0008   0.0071   0.0003   0.0005  -0.0003   3.00   53.0
2024/05/09 11:36:04.000   28.281835491  -16.516786109  2234.1432   1   9   0.0012   0.0008   0.0071   0.0003   0.0005  -0.0003   4.00   65.5
2024/05/09 11:36:05.000   28.281835491  -16.516786109  2234.1435   1   9   0.0012   0.0008   0.0071   0.0003   0.0005  -0.0003   5.00   76.3
2024/05/09 11:36:06.000   28.281835491  -16.516786109  2234.1437   1   9   0.0012   0.0008   0.0071   0.0003   0.0005  -0.0003   6.00   84.0
2024/05/09 11:36:07.000   28.281835491  -16.516786109  2234.1440   1   9   0.0012   0.0008   0.0071   0.0003   0.0005  -0.0003   7.00   90.2
2024/05/09 11:36:08.000   28.281835491  -16.516786109  2234.1443   1   9   0.0012   0.0008   0.0071   0.0003   0.0005  -0.0003   8.00   95.8
2024/05/09 11:36:09.000   28.281835491  -16.516786109  2234.1446   1   9   0.0012   0.0008   0.0071   0.0003   0.0005  -0.0003   9.00  100.1
2024/05/09 11:36:10.000   28.281835491  -16.516786109  2234.1448   1   9   0.0012   0.0008   0.0071   0.0003   0.0005  -0.0003  10.00  103.7
2024/05/09 11:36:11.000   28.281835491  -16.516786109  2234.1449   1   9   0.0012   0.0008   0.0071   0.0003   0.0005  -0.0003  11.00  107.0
2024/05/09 11:36:12.000   28.281835491  -16.516786109  2234.1451   1   9   0.0012   0.0008   0.0071   0.0003   0.0005  -0.0003  12.00  110.2
2024/05/09 11:36:13.000   28.281835491  -16.516786109  2234.1453   1   9   0.0012   0.0008   0.0071   0.0003   0.0005  -0.0003  13.00  113.8
2024/05/09 11:36:14.000   28.281835491  -16.516786109  2234.1454   1   9   0.0012   0.0008   0.0071   0.0003   0.0005  -0.0003  14.00  116.8
2024/05/09 11:36:15.000   28.281835491  -16.516786109  2234.1455   1   9   0.0012   0.0008   0.0071   0.0003   0.0005  -0.0003 -15.00  120.5
2024/05/09 11:36:16.000   28.281835491  -16.516786109  2234.1456   1   9   0.0012   0.0008   0.0071   0.0003   0.0004  -0.0003 -14.00  123.8
2024/05/09 11:36:17.000   28.281835491  -16.516786109  2234.1457   1   9   0.0012   0.0008   0.0071   0.0003   0.0004  -0.0003 -13.00  127.1
2024/05/09 11:36:18.000   28.281835491  -16.516786109  2234.1458   1   9   0.0012   0.0008   0.0071   0.0003   0.0004  -0.0003 -12.00  129.6
2024/05/09 11:36:19.000   28.281835491  -16.516786109  2234.1460   1   9   0.0012   0.0008   0.0071   0.0003   0.0004  -0.0003 -11.00  132.5
2024/05/09 11:36:20.000   28.281835491  -16.516786109  2234.1461   1   9   0.0012   0.0008   0.0071   0.0003   0.0004  -0.0003 -10.00  135.2
2024/05/09 11:36:21.000   28.281835491  -16.516786109  2234.1462   1   9   0.0012   0.0008   0.0071   0.0003   0.0004  -0.0003  -9.00  137.8
2024/05/09 11:36:22.000   28.281835491  -16.516786109  2234.1464   1   9   0.0012   0.0008   0.0071   0.0003   0.0004  -0.0003  -8.00  140.0
2024/05/09 11:36:23.000   28.281835491  -16.516786109  2234.1466   1   9   0.0012   0.0008   0.0071   0.0003   0.0004  -0.0003  -7.00  141.4
2024/05/09 11:36:24.000   28.281835491  -16.516786109  2234.1467   1   9   0.0012   0.0008   0.0071   0.0003   0.0004  -0.0003  -6.00  140.8
2024/05/09 11:36:25.000   28.281835491  -16.516786109  2234.1468   1   9   0.0012   0.0008   0.0070   0.0003   0.0004  -0.0003  -5.00  141.0
2024/05/09 11:36:26.000   28.281835491  -16.516786109  2234.1469   1   9   0.0012   0.0008   0.0070   0.0003   0.0004  -0.0003  -4.00  140.4
2024/05/09 11:36:27.000   28.281835491  -16.516786109  2234.1471   1   9   0.0012   0.0008   0.0070   0.0003   0.0004  -0.0003  -3.00  139.7
2024/05/09 11:36:28.000   28.281835491  -16.516786109  2234.1471   1   9   0.0012   0.0008   0.0070   0.0003   0.0004  -0.0003  -2.00    3.3
2024/05/09 11:36:29.000   28.281835491  -16.516786109  2234.1471   1   9   0.0012   0.0008   0.0070   0.0003   0.0004  -0.0003  -1.00   10.7
2024/05/09 11:36:30.000   28.281835489  -16.516786107  2234.1349   1   9   0.0012   0.0008   0.0066   0.0003   0.0005  -0.0003   0.00    3.4
2024/05/09 11:36:31.000   28.281835491  -16.516786107  2234.1333   1   9   0.0012   0.0008   0.0066   0.0003   0.0005  -0.0004   1.00    4.1
2024/05/09 11:36:32.000   28.281835491  -16.516786107  2234.1333   1   9   0.0012   0.0008   0.0066   0.0003   0.0005  -0.0004   2.00    6.9
2024/05/09 11:36:33.000   28.281835491  -16.516786107  2234.1334   1   9   0.0012   0.0008   0.0066   0.0003   0.0005  -0.0004   3.00    9.4
2024/05/09 11:36:34.000   28.281835491  -16.516786107  2234.1335   1   9   0.0012   0.0008   0.0066   0.0003   0.0005  -0.0004   4.00   11.6
2024/05/09 11:36:35.000   28.281835491  -16.516786107  2234.1335   1   9   0.0012   0.0008   0.0066   0.0003   0.0005  -0.0004   5.00   13.5
2024/05/09 11:36:36.000   28.281835491  -16.516786107  2234.1336   1   9   0.0012   0.0008   0.0066   0.0003   0.0005  -0.0004   6.00   15.2
2024/05/09 11:36:37.000   28.281835491  -16.516786107  2234.1337   1   9   0.0012   0.0008   0.0066   0.0003   0.0005  -0.0004   7.00   16.6
2024/05/09 11:36:38.000   28.281835491  -16.516786107  2234.1338   1   9   0.0012   0.0008   0.0066   0.0003   0.0005  -0.0004   8.00   17.7
2024/05/09 11:36:39.000   28.281835491  -16.516786107  2234.1338   1   9   0.0012   0.0008   0.0066   0.0003   0.0005  -0.0004   9.00   18.4
2024/05/09 11:36:40.000   28.281835491  -16.516786107  2234.1338   1   9   0.0012   0.0008   0.0066   0.0003   0.0005  -0.0004  10.00   18.9
2024/05/09 11:36:41.000   28.281835491  -16.516786107  2234.1339   1   9   0.0012   0.0008   0.0066   0.0003   0.0005  -0.0004  11.00   19.4
2024/05/09 11:36:42.000   28.281835491  -16.516786107  2234.1339   1   9   0.0012   0.0008   0.0066   0.0003   0.0005  -0.0004  12.00   19.9
2024/05/09 11:36:43.000   28.281835491  -16.516786107  2234.1340   1   9   0.0012   0.0008   0.0066   0.0003   0.0005  -0.0004  13.00   20.4
2024/05/09 11:36:44.000   28.281835491  -16.516786107  2234.1340   1   9   0.0012   0.0008   0.0066   0.0003   0.0005  -0.0004  14.00   20.9
2024/05/09 11:36:45.000   28.281835491  -16.516786107  2234.1340   1   9   0.0012   0.0008   0.0066   0.0003   0.0005  -0.0004 -15.00   21.3
2024/05/09 11:36:46.000   28.281835491  -16.516786107  2234.1341   1   9   0.0012   0.0008   0.0066   0.0003   0.0005  -0.0004 -14.00   21.8
2024/05/09 11:36:47.000   28.281835491  -16.516786107  2234.1341   1   9   0.0012   0.0008   0.0066   0.0003   0.0005  -0.0004 -13.00   22.3
2024/05/09 11:36:48.000   28.281835491  -16.516786107  2234.1341   1   9   0.0012   0.0008   0.0066   0.0003   0.0005  -0.0004 -12.00   22.7
2024/05/09 11:36:49.000   28.281835491  -16.516786107  2234.1342   1   9   0.0012   0.0008   0.0066   0.0003   0.0005  -0.0004 -11.00   23.2
2024/05/09 11:36:50.000   28.281835491  -16.516786107  2234.1342   1   9   0.0012   0.0008   0.0066   0.0003   0.0005  -0.0004 -10.00   23.6
2024/05/09 11:36:51.000   28.281835491  -16.516786107  2234.1343   1   9   0.0012   0.0008   0.0066   0.0003   0.0005  -0.0004  -9.00   24.0
2024/05/09 11:36:52.000   28.281835491  -16.516786107  2234.1343   1   9   0.0012   0.0008   0.0066   0.0003   0.0005  -0.0004  -8.00   24.4
2024/05/09 11:36:53.000   28.281835491  -16.516786107  2234.1344   1   9   0.0012   0.0008   0.0066   0.0003   0.0005  -0.0004  -7.00   24.8
2024/05/09 11:36:54.000   28.281835491  -16.516786107  2234.1344   1   9   0.0012   0.0008   0.0066   0.0003   0.0005  -0.0004  -6.00   25.3
2024/05/09 11:36:55.000   28.281835491  -16.516786107  2234.1345   1   9   0.0012   0.0008   0.0066   0.0003   0.0005  -0.0004  -5.00   25.8
2024/05/09 11:36:56.000   28.281835491  -16.516786107  2234.1346   1   9   0.0012   0.0008   0.0066   0.0003   0.0005  -0.0004  -4.00   26.4
2024/05/09 11:36:57.000   28.281835491  -16.516786107  2234.1345   1   9   0.0012   0.0008   0.0066   0.0003   0.0005  -0.0004  -3.00   26.9
2024/05/09 11:36:58.000   28.281835491  -16.516786107  2234.1346   1   9   0.0012   0.0008   0.0066   0.0003   0.0005  -0.0004  -2.00   27.6
2024/05/09 11:36:59.000   28.281835491  -16.516786107  2234.1346   1   9   0.0012   0.0008   0.0066   0.0003   0.0005  -0.0004  -1.00   28.1
2024/05/09 11:37:00.000   28.281835490  -16.516786107  2234.1351   1   9   0.0012   0.0008   0.0065   0.0003   0.0005  -0.0003   0.00   28.5
2024/05/09 11:37:01.000   28.281835491  -16.516786109  2234.1439   1   9   0.0012   0.0008   0.0070   0.0003   0.0004  -0.0004   1.00    5.3
2024/05/09 11:37:02.000   28.281835491  -16.516786109  2234.1438   1   9   0.0012   0.0008   0.0070   0.0003   0.0004  -0.0004   2.00   11.5
2024/05/09 11:37:03.000   28.281835491  -16.516786109  2234.1439   1   9   0.0012   0.0008   0.0070   0.0003   0.0004  -0.0004   3.00   15.9
2024/05/09 11:37:04.000   28.281835491  -16.516786109  2234.1439   1   9   0.0012   0.0008   0.0069   0.0003   0.0004  -0.0004   4.00   19.4
2024/05/09 11:37:05.000   28.281835491  -16.516786109  2234.1440   1   9   0.0012   0.0008   0.0069   0.0003   0.0004  -0.0004   5.00   22.5
2024/05/09 11:37:06.000   28.281835491  -16.516786109  2234.1440   1   9   0.0012   0.0008   0.0069   0.0003   0.0004  -0.0004   6.00   25.0
2024/05/09 11:37:07.000   28.281835491  -16.516786109  2234.1440   1   9   0.0012   0.0008   0.0069   0.0003   0.0004  -0.0004   7.00   26.3
2024/05/09 11:37:08.000   28.281835491  -16.516786109  2234.1441   1   9   0.0012   0.0008   0.0069   0.0003   0.0004  -0.0004   8.00   27.1
2024/05/09 11:37:09.000   28.281835491  -16.516786109  2234.1441   1   9   0.0012   0.0008   0.0069   0.0003   0.0004  -0.0004   9.00   28.1
2024/05/09 11:37:10.000   28.281835491  -16.516786109  2234.1441   1   9   0.0012   0.0008   0.0069   0.0003   0.0004  -0.0004  10.00   29.3
2024/05/09 11:37:11.000   28.281835491  -16.516786109  2234.1441   1   9   0.0012   0.0008   0.0069   0.0003   0.0004  -0.0004  11.00   30.5
2024/05/09 11:37:12.000   28.281835491  -16.516786109  2234.1441   1   9   0.0012   0.0008   0.0069   0.0003   0.0004  -0.0004  12.00   31.7
2024/05/09 11:37:13.000   28.281835491  -16.516786109  2234.1441   1   9   0.0012   0.0008   0.0069   0.0003   0.0004  -0.0004  13.00   32.8
2024/05/09 11:37:14.000   28.281835491  -16.516786109  2234.1441   1   9   0.0012   0.0008   0.0069   0.0003   0.0004  -0.0004  14.00   33.9
2024/05/09 11:37:15.000   28.281835491  -16.516786109  2234.1441   1   9   0.0012   0.0008   0.0069   0.0003   0.0004  -0.0004 -15.00   34.9
2024/05/09 11:37:16.000   28.281835491  -16.516786109  2234.1441   1   9   0.0012   0.0008   0.0069   0.0003   0.0004  -0.0004 -14.00   36.0
2024/05/09 11:37:17.000   28.281835491  -16.516786109  2234.1441   1   9   0.0012   0.0008   0.0069   0.0003   0.0004  -0.0004 -13.00   37.2
2024/05/09 11:37:18.000   28.281835491  -16.516786109  2234.1441   1   9   0.0012   0.0008   0.0069   0.0003   0.0004  -0.0004 -12.00   38.3
2024/05/09 11:37:19.000   28.281835491  -16.516786109  2234.1440   1   9   0.0012   0.0008   0.0069   0.0003   0.0004  -0.0004 -11.00   39.5
2024/05/09 11:37:20.000   28.281835491  -16.516786109  2234.1440   1   9   0.0012   0.0008   0.0069   0.0003   0.0004  -0.0004 -10.00   40.5
2024/05/09 11:37:21.000   28.281835491  -16.516786109  2234.1440   1   9   0.0012   0.0008   0.0069   0.0003   0.0004  -0.0004  -9.00   41.6
2024/05/09 11:37:22.000   28.281835491  -16.516786109  2234.1440   1   9   0.0012   0.0008   0.0068   0.0003   0.0004  -0.0004  -8.00   42.5
2024/05/09 11:37:23.000   28.281835491  -16.516786109  2234.1440   1   9   0.0012   0.0008   0.0068   0.0003   0.0004  -0.0004  -7.00   43.5
2024/05/09 11:37:24.000   28.281835491  -16.516786109  2234.1440   1   9   0.0012   0.0008   0.0068   0.0003   0.0004  -0.0004  -6.00   44.3
2024/05/09 11:37:25.000   28.281835491  -16.516786109  2234.1440   1   9   0.0012   0.0008   0.0068   0.0003   0.0004  -0.0004  -5.00   45.2
2024/05/09 11:37:26.000   28.281835491  -16.516786109  2234.1440   1   9   0.0012   0.0008   0.0068   0.0003   0.0004  -0.0004  -4.00   46.0
2024/05/09 11:37:27.000   28.281835491  -16.516786109  2234.1440   1   9   0.0012   0.0008   0.0068   0.0003   0.0004  -0.0004  -3.00   46.9
2024/05/09 11:37:28.000   28.281835491  -16.516786109  2234.1440   1   9   0.0012   0.0008   0.0068   0.0003   0.0004  -0.0004  -2.00   47.8
2024/05/09 11:37:29.000   28.281835491  -16.516786109  2234.1440   1   9   0.0012   0.0008   0.0068   0.0003   0.0004  -0.0004  -1.00   48.5
2024/05/09 11:37:30.000   28.281835491  -16.516786109  2234.1436   1   9   0.0012   0.0008   0.0067   0.0003   0.0004  -0.0004   0.00   49.0
2024/05/09 11:37:31.000   28.281835492  -16.516786109  2234.1437   1   9   0.0012   0.0008   0.0069   0.0003   0.0004  -0.0005   1.00    5.3
2024/05/09 11:37:32.000   28.281835492  -16.516786109  2234.1438   1   9   0.0012   0.0008   0.0069   0.0003   0.0004  -0.0004   2.00   11.1
2024/05/09 11:37:33.000   28.281835492  -16.516786109  2234.1437   1   9   0.0012   0.0008   0.0069   0.0003   0.0004  -0.0004   3.00   15.4
2024/05/09 11:37:34.000   28.281835492  -16.516786109  2234.1437   1   9   0.0012   0.0008   0.0069   0.0003   0.0004  -0.0004   4.00   19.3
2024/05/09 11:37:35.000   28.281835492  -16.516786109  2234.1437   1   9   0.0012   0.0008   0.0069   0.0003   0.0004  -0.0004   5.00   22.7
2024/05/09 11:37:36.000   28.281835492  -16.516786109  2234.1436   1   9   0.0012   0.0008   0.0068   0.0003   0.0004  -0.0004   6.00   25.8
2024/05/09 11:37:37.000   28.281835492  -16.516786109  2234.1437   1   9   0.0012   0.0008   0.0068   0.0003   0.0004  -0.0004   7.00   28.4
2024/05/09 11:37:38.000   28.281835492  -16.516786109  2234.1437   1   9   0.0012   0.0008   0.0068   0.0003   0.0004  -0.0004   8.00   30.2
2024/05/09 11:37:39.000   28.281835492  -16.516786109  2234.1436   1   9   0.0012   0.0008   0.0068   0.0003   0.0004  -0.0004   9.00   31.5
2024/05/09 11:37:40.000   28.281835492  -16.516786109  2234.1436   1   9   0.0012   0.0008   0.0068   0.0003   0.0004  -0.0004  10.00   32.6
2024/05/09 11:37:41.000   28.281835492  -16.516786109  2234.1436   1   9   0.0012   0.0008   0.0068   0.0003   0.0004  -0.0004  11.00   33.6
2024/05/09 11:37:42.000   28.281835492  -16.516786109  2234.1436   1   9   0.0012   0.0008   0.0068   0.0003   0.0004  -0.0004  12.00   34.7
2024/05/09 11:37:43.000   28.281835492  -16.516786109  2234.1436   1   9   0.0012   0.0008   0.0068   0.0003   0.0004  -0.0004  13.00   35.6
2024/05/09 11:37:44.000   28.281835492  -16.516786109  2234.1436   1   9   0.0012   0.0008   0.0068   0.0003   0.0004  -0.0004  14.00   36.6
2024/05/09 11:37:45.000   28.281835492  -16.516786109  2234.1436   1   9   0.0012   0.0008   0.0068   0.0003   0.0004  -0.0004 -15.00   37.6
2024/05/09 11:37:46.000   28.281835492  -16.516786109  2234.1436   1   9   0.0012   0.0008   0.0068   0.0003   0.0004  -0.0004 -14.00   38.5
2024/05/09 11:37:47.000   28.281835492  -16.516786109  2234.1436   1   9   0.0012   0.0008   0.0068   0.0003   0.0004  -0.0004 -13.00   39.5
2024/05/09 11:37:48.000   28.281835492  -16.516786109  2234.1435   1   9   0.0012   0.0008   0.0068   0.0003   0.0004  -0.0004 -12.00   40.5
2024/05/09 11:37:49.000   28.281835492  -16.516786109  2234.1435   1   9   0.0012   0.0008   0.0068   0.0003   0.0004  -0.0004 -11.00   41.5
2024/05/09 11:37:50.000   28.281835492  -16.516786109  2234.1435   1   9   0.0012   0.0008   0.0068   0.0003   0.0004  -0.0004 -10.00   42.4
2024/05/09 11:37:51.000   28.281835492  -16.516786109  2234.1435   1   9   0.0012   0.0008   0.0068   0.0003   0.0004  -0.0004  -9.00   43.4
2024/05/09 11:37:52.000   28.281835492  -16.516786109  2234.1435   1   9   0.0012   0.0008   0.0068   0.0003   0.0004  -0.0004  -8.00   44.4
2024/05/09 11:37:53.000   28.281835492  -16.516786109  2234.1435   1   9   0.0012   0.0008   0.0068   0.0003   0.0004  -0.0004  -7.00   45.4
2024/05/09 11:37:54.000   28.281835492  -16.516786109  2234.1434   1   9   0.0012   0.0008   0.0068   0.0003   0.0004  -0.0004  -6.00   46.5
2024/05/09 11:37:55.000   28.281835492  -16.516786109  2234.1434   1   9   0.0012   0.0008   0.0068   0.0003   0.0004  -0.0004  -5.00   47.6
2024/05/09 11:37:56.000   28.281835492  -16.516786109  2234.1434   1   9   0.0012   0.0008   0.0068   0.0003   0.0004  -0.0004  -4.00   48.7
2024/05/09 11:37:57.000   28.281835492  -16.516786109  2234.1434   1   9   0.0012   0.0008   0.0067   0.0003   0.0004  -0.0004  -3.00   50.0
2024/05/09 11:37:58.000   28.281835492  -16.516786109  2234.1434   1   9   0.0012   0.0008   0.0067   0.0003   0.0004  -0.0004  -2.00   51.2
2024/05/09 11:37:59.000   28.281835492  -16.516786109  2234.1435   1   9   0.0011   0.0008   0.0067   0.0003   0.0004  -0.0004  -1.00   52.3
2024/05/09 11:38:00.000   28.281835492  -16.516786109  2234.1438   1   9   0.0011   0.0008   0.0067   0.0003   0.0004  -0.0004   0.00   53.5
2024/05/09 11:38:01.000   28.281835492  -16.516786109  2234.1443   1   9   0.0011   0.0008   0.0068   0.0003   0.0004  -0.0005   1.00    5.8
2024/05/09 11:38:02.000   28.281835492  -16.516786109  2234.1443   1   9   0.0011   0.0008   0.0068   0.0003   0.0004  -0.0005   2.00   12.4
2024/05/09 11:38:03.000   28.281835492  -16.516786109  2234.1444   1   9   0.0011   0.0008   0.0068   0.0003   0.0004  -0.0005   3.00   17.1
2024/05/09 11:38:04.000   28.281835492  -16.516786109  2234.1444   1   9   0.0011   0.0008   0.0068   0.0003   0.0004  -0.0005   4.00   21.3
2024/05/09 11:38:05.000   28.281835492  -16.516786109  2234.1444   1   9   0.0011   0.0008   0.0068   0.0003   0.0004  -0.0005   5.00   25.2
2024/05/09 11:38:06.000   28.281835492  -16.516786109  2234.1444   1   9   0.0011   0.0008   0.0068   0.0003   0.0004  -0.0005   6.00   28.6
2024/05/09 11:38:07.000   28.281835492  -16.516786109  2234.1444   1   9   0.0011   0.0008   0.0068   0.0003   0.0004  -0.0005   7.00   31.5
2024/05/09 11:38:08.000   28.281835492  -16.516786109  2234.1444   1   9   0.0011   0.0008   0.0068   0.0003   0.0004  -0.0005   8.00   33.0
2024/05/09 11:38:09.000   28.281835492  -16.516786109  2234.1444   1   9   0.0011   0.0008   0.0068   0.0003   0.0004  -0.0005   9.00   34.4
2024/05/09 11:38:10.000   28.281835492  -16.516786109  2234.1444   1   9   0.0011   0.0008   0.0068   0.0003   0.0004  -0.0005  10.00   35.6
2024/05/09 11:38:11.000   28.281835492  -16.516786109  2234.1444   1   9   0.0011   0.0008   0.0068   0.0003   0.0004  -0.0005  11.00   36.8
2024/05/09 11:38:12.000   28.281835492  -16.516786109  2234.1444   1   9   0.0011   0.0008   0.0067   0.0003   0.0004  -0.0005  12.00   37.9
2024/05/09 11:38:13.000   28.281835492  -16.516786109  2234.1444   1   9   0.0011   0.0008   0.0067   0.0003   0.0004  -0.0005  13.00   39.0
2024/05/09 11:38:14.000   28.281835492  -16.516786109  2234.1445   1   9   0.0011   0.0008   0.0067   0.0003   0.0004  -0.0005  14.00   40.0
2024/05/09 11:38:15.000   28.281835492  -16.516786109  2234.1445   1   9   0.0011   0.0008   0.0067   0.0003   0.0004  -0.0005 -15.00   41.0
2024/05/09 11:38:16.000   28.281835492  -16.516786109  2234.1445   1   9   0.0011   0.0008   0.0067   0.0003   0.0004  -0.0005 -14.00   42.1
2024/05/09 11:38:17.000   28.281835492  -16.516786109  2234.1445   1   9   0.0011   0.0008   0.0067   0.0003   0.0004  -0.0005 -13.00   43.2
2024/05/09 11:38:18.000   28.281835492  -16.516786109  2234.1445   1   9   0.0011   0.0008   0.0067   0.0003   0.0004  -0.0005 -12.00   44.2
2024/05/09 11:38:19.000   28.281835492  -16.516786109  2234.1445   1   9   0.0011   0.0008   0.0067   0.0003   0.0004  -0.0005 -11.00   45.3
2024/05/09 11:38:20.000   28.281835492  -16.516786109  2234.1445   1   9   0.0011   0.0008   0.0067   0.0003   0.0004  -0.0005 -10.00   46.4
2024/05/09 11:38:21.000   28.281835492  -16.516786109  2234.1445   1   9   0.0011   0.0008   0.0067   0.0003   0.0004  -0.0005  -9.00   47.6
2024/05/09 11:38:22.000   28.281835492  -16.516786109  2234.1445   1   9   0.0011   0.0008   0.0067   0.0003   0.0004  -0.0005  -8.00   48.8
2024/05/09 11:38:23.000   28.281835492  -16.516786109  2234.1445   1   9   0.0011   0.0008   0.0067   0.0003   0.0004  -0.0005  -7.00   50.0
2024/05/09 11:38:24.000   28.281835492  -16.516786109  2234.1445   1   9   0.0011   0.0008   0.0067   0.0003   0.0004  -0.0005  -6.00   51.2
2024/05/09 11:38:25.000   28.281835492  -16.516786109  2234.1445   1   9   0.0011   0.0008   0.0067   0.0003   0.0004  -0.0005  -5.00   52.5
2024/05/09 11:38:26.000   28.281835492  -16.516786109  2234.1444   1   9   0.0011   0.0008   0.0067   0.0003   0.0004  -0.0005  -4.00   53.8
2024/05/09 11:38:27.000   28.281835492  -16.516786109  2234.1444   1   9   0.0011   0.0008   0.0067   0.0003   0.0004  -0.0005  -3.00   55.2
2024/05/09 11:38:28.000   28.281835493  -16.516786109  2234.1444   1   9   0.0011   0.0008   0.0067   0.0003   0.0004  -0.0005  -2.00   56.5
2024/05/09 11:38:29.000   28.281835493  -16.516786109  2234.1444   1   9   0.0011   0.0008   0.0067   0.0003   0.0004  -0.0005  -1.00   57.9
2024/05/09 11:38:30.000   28.281835493  -16.516786109  2234.1432   1   9   0.0011   0.0008   0.0065   0.0003   0.0005  -0.0003   0.00   59.1
2024/05/09 11:38:31.000   28.281835493  -16.516786109  2234.1429   1   9   0.0011   0.0008   0.0065   0.0003   0.0005  -0.0004   1.00    7.4
2024/05/09 11:38:32.000   28.281835493  -16.516786109  2234.1429   1   9   0.0011   0.0008   0.0065   0.0003   0.0005  -0.0004   2.00   13.2
2024/05/09 11:38:33.000   28.281835493  -16.516786109  2234.1429   1   9   0.0011   0.0008   0.0065   0.0003   0.0005  -0.0004   3.00   18.4
2024/05/09 11:38:34.000   28.281835493  -16.516786109  2234.1429   1   9   0.0011   0.0008   0.0065   0.0003   0.0005  -0.0004   4.00   23.0
2024/05/09 11:38:35.000   28.281835493  -16.516786109  2234.1429   1   9   0.0011   0.0008   0.0065   0.0003   0.0005  -0.0004   5.00   27.1
2024/05/09 11:38:36.000   28.281835493  -16.516786109  2234.1429   1   9   0.0011   0.0008   0.0065   0.0003   0.0005  -0.0004   6.00   30.8
2024/05/09 11:38:37.000   28.281835493  -16.516786109  2234.1428   1   9   0.0011   0.0008   0.0065   0.0003   0.0005  -0.0004   7.00   33.8
2024/05/09 11:38:38.000   28.281835493  -16.516786109  2234.1429   1   9   0.0011   0.0008   0.0065   0.0003   0.0005  -0.0004   8.00   36.0
2024/05/09 11:38:39.000   28.281835493  -16.516786109  2234.1428   1   9   0.0011   0.0008   0.0065   0.0003   0.0005  -0.0004   9.00   38.1
2024/05/09 11:38:40.000   28.281835493  -16.516786109  2234.1428   1   9   0.0011   0.0008   0.0065   0.0003   0.0005  -0.0004  10.00   39.6
2024/05/09 11:38:41.000   28.281835493  -16.516786109  2234.1428   1   9   0.0011   0.0008   0.0065   0.0003   0.0005  -0.0004  11.00   40.9
2024/05/09 11:38:42.000   28.281835493  -16.516786109  2234.1428   1   9   0.0011   0.0008   0.0065   0.0003   0.0005  -0.0004  12.00   42.1
2024/05/09 11:38:43.000   28.281835493  -16.516786109  2234.1428   1   9   0.0011   0.0008   0.0065   0.0003   0.0005  -0.0004  13.00   43.2
2024/05/09 11:38:44.000   28.281835493  -16.516786109  2234.1428   1   9   0.0011   0.0008   0.0065   0.0003   0.0005  -0.0004  14.00   44.3
2024/05/09 11:38:45.000   28.281835493  -16.516786109  2234.1428   1   9   0.0011   0.0008   0.0064   0.0003   0.0005  -0.0004 -15.00   45.4
2024/05/09 11:38:46.000   28.281835493  -16.516786109  2234.1428   1   9   0.0011   0.0008   0.0064   0.0003   0.0005  -0.0004 -14.00   46.5
2024/05/09 11:38:47.000   28.281835493  -16.516786109  2234.1428   1   9   0.0011   0.0008   0.0064   0.0003   0.0005  -0.0004 -13.00   47.5
2024/05/09 11:38:48.000   28.281835494  -16.516786109  2234.1427   1   9   0.0011   0.0008   0.0064   0.0003   0.0005  -0.0004 -12.00   48.5
2024/05/09 11:38:49.000   28.281835494  -16.516786109  2234.1427   1   9   0.0011   0.0008   0.0064   0.0003   0.0005  -0.0004 -11.00   49.6
2024/05/09 11:38:50.000   28.281835494  -16.516786109  2234.1427   1   9   0.0011   0.0008   0.0064   0.0003   0.0005  -0.0004 -10.00   50.7
2024/05/09 11:38:51.000   28.281835494  -16.516786109  2234.1427   1   9   0.0011   0.0008   0.0064   0.0003   0.0005  -0.0004  -9.00   51.8
2024/05/09 11:38:52.000   28.281835494  -16.516786109  2234.1427   1   9   0.0011   0.0008   0.0064   0.0003   0.0005  -0.0004  -8.00   52.8
2024/05/09 11:38:53.000   28.281835494  -16.516786109  2234.1427   1   9   0.0011   0.0008   0.0064   0.0003   0.0005  -0.0004  -7.00   54.0
2024/05/09 11:38:54.000   28.281835494  -16.516786109  2234.1427   1   9   0.0011   0.0008   0.0064   0.0003   0.0005  -0.0004  -6.00   55.1
2024/05/09 11:38:55.000   28.281835494  -16.516786109  2234.1427   1   9   0.0011   0.0008   0.0064   0.0003   0.0005  -0.0004  -5.00   56.2
2024/05/09 11:38:56.000   28.281835494  -16.516786109  2234.1426   1   9   0.0011   0.0008   0.0064   0.0003   0.0005  -0.0004  -4.00   57.2
2024/05/09 11:38:57.000   28.281835494  -16.516786109  2234.1427   1   9   0.0011   0.0008   0.0064   0.0003   0.0005  -0.0004  -3.00   58.2
2024/05/09 11:38:58.000   28.281835494  -16.516786109  2234.1426   1   9   0.0011   0.0008   0.0064   0.0003   0.0005  -0.0004  -2.00   59.6
2024/05/09 11:38:59.000   28.281835494  -16.516786109  2234.1427   1   9   0.0011   0.0008   0.0064   0.0003   0.0005  -0.0004  -1.00   60.9
2024/05/09 11:39:00.000   28.281835494  -16.516786109  2234.1426   1   9   0.0011   0.0008   0.0064   0.0003   0.0005  -0.0003   0.00   62.3
2024/05/09 11:39:01.000   28.281835494  -16.516786109  2234.1430   1   9   0.0011   0.0008   0.0066   0.0003   0.0004  -0.0004   1.00    6.7
2024/05/09 11:39:02.000   28.281835494  -16.516786109  2234.1430   1   9   0.0011   0.0008   0.0065   0.0003   0.0004  -0.0004   2.00   13.1
2024/05/09 11:39:03.000   28.281835494  -16.516786109  2234.1430   1   9   0.0011   0.0008   0.0065   0.0003   0.0004  -0.0004   3.00   18.2
2024/05/09 11:39:04.000   28.281835494  -16.516786109  2234.1431   1   9   0.0011   0.0008   0.0065   0.0003   0.0004  -0.0004   4.00   22.7
2024/05/09 11:39:05.000   28.281835494  -16.516786109  2234.1431   1   9   0.0011   0.0008   0.0065   0.0003   0.0004  -0.0004   5.00   26.9
2024/05/09 11:39:06.000   28.281835494  -16.516786109  2234.1431   1   9   0.0011   0.0008   0.0065   0.0003   0.0004  -0.0004   6.00   30.6
2024/05/09 11:39:07.000   28.281835494  -16.516786109  2234.1430   1   9   0.0011   0.0008   0.0065   0.0003   0.0004  -0.0004   7.00   33.9
2024/05/09 11:39:08.000   28.281835494  -16.516786109  2234.1431   1   9   0.0011   0.0008   0.0065   0.0003   0.0004  -0.0004   8.00   36.9
2024/05/09 11:39:09.000   28.281835494  -16.516786109  2234.1430   1   9   0.0011   0.0008   0.0065   0.0003   0.0004  -0.0004   9.00   38.4
2024/05/09 11:39:10.000   28.281835494  -16.516786109  2234.1430   1   9   0.0011   0.0008   0.0065   0.0003   0.0004  -0.0004  10.00   39.6
2024/05/09 11:39:11.000   28.281835494  -16.516786109  2234.1430   1   9   0.0011   0.0008   0.0065   0.0003   0.0004  -0.0004  11.00   40.7
2024/05/09 11:39:12.000   28.281835494  -16.516786109  2234.1430   1   9   0.0011   0.0008   0.0065   0.0003   0.0004  -0.0004  12.00   41.8
2024/05/09 11:39:13.000   28.281835494  -16.516786109  2234.1430   1   9   0.0011   0.0008   0.0065   0.0003   0.0004  -0.0004  13.00   42.9
2024/05/09 11:39:14.000   28.281835494  -16.516786109  2234.1430   1   9   0.0011   0.0008   0.0065   0.0003   0.0004  -0.0004  14.00   44.0
2024/05/09 11:39:15.000   28.281835494  -16.516786109  2234.1430   1   9   0.0011   0.0008   0.0065   0.0003   0.0004  -0.0004 -15.00   45.0
2024/05/09 11:39:16.000   28.281835494  -16.516786109  2234.1430   1   9   0.0011   0.0008   0.0065   0.0003   0.0004  -0.0004 -14.00   46.1
2024/05/09 11:39:17.000   28.281835494  -16.516786109  2234.1429   1   9   0.0011   0.0008   0.0065   0.0003   0.0004  -0.0004 -13.00   47.3
2024/05/09 11:39:18.000   28.281835494  -16.516786109  2234.1429   1   9   0.0011   0.0008   0.0065   0.0003   0.0004  -0.0004 -12.00   48.4
2024/05/09 11:39:19.000   28.281835494  -16.516786109  2234.1429   1   9   0.0011   0.0008   0.0065   0.0003   0.0004  -0.0004 -11.00   49.6
2024/05/09 11:39:20.000   28.281835494  -16.516786109  2234.1429   1   9   0.0011   0.0008   0.0065   0.0003   0.0004  -0.0004 -10.00   50.7
2024/05/09 11:39:21.000   28.281835494  -16.516786109  2234.1429   1   9   0.0011   0.0008   0.0065   0.0003   0.0004  -0.0004  -9.00   51.8
2024/05/09 11:39:22.000   28.281835494  -16.516786109  2234.1429   1   9   0.0011   0.0008   0.0065   0.0003   0.0004  -0.0004  -8.00   52.9
2024/05/09 11:39:23.000   28.281835494  -16.516786109  2234.1429   1   9   0.0011   0.0008   0.0065   0.0003   0.0004  -0.0004  -7.00   54.0
2024/05/09 11:39:24.000   28.281835494  -16.516786109  2234.1428   1   9   0.0011   0.0008   0.0065   0.0003   0.0004  -0.0004  -6.00   55.1
2024/05/09 11:39:25.000   28.281835494  -16.516786109  2234.1428   1   9   0.0011   0.0008   0.0065   0.0003   0.0004  -0.0004  -5.00   56.3
2024/05/09 11:39:26.000   28.281835494  -16.516786109  2234.1428   1   9   0.0011   0.0008   0.0065   0.0003   0.0004  -0.0004  -4.00   57.5
2024/05/09 11:39:27.000   28.281835494  -16.516786109  2234.1428   1   9   0.0011   0.0008   0.0065   0.0003   0.0004  -0.0004  -3.00   58.6
2024/05/09 11:39:28.000   28.281835494  -16.516786109  2234.1427   1   9   0.0011   0.0008   0.0064   0.0003   0.0004  -0.0004  -2.00   59.6
2024/05/09 11:39:29.000   28.281835494  -16.516786109  2234.1427   1   9   0.0011   0.0008   0.0064   0.0003   0.0004  -0.0004  -1.00   60.6
2024/05/09 11:39:30.000   28.281835495  -16.516786109  2234.1423   1   9   0.0011   0.0008   0.0064   0.0003   0.0004  -0.0004   0.00   61.5
2024/05/09 11:39:31.000   28.281835494  -16.516786109  2234.1423   1   9   0.0011   0.0008   0.0065   0.0003   0.0004  -0.0004   1.00    7.1
2024/05/09 11:39:32.000   28.281835494  -16.516786109  2234.1423   1   9   0.0011   0.0008   0.0065   0.0003   0.0004  -0.0004   2.00   12.7
2024/05/09 11:39:33.000   28.281835494  -16.516786109  2234.1423   1   9   0.0011   0.0008   0.0065   0.0003   0.0004  -0.0004   3.00   17.7
2024/05/09 11:39:34.000   28.281835494  -16.516786109  2234.1423   1   9   0.0011   0.0008   0.0065   0.0003   0.0004  -0.0004   4.00   22.0
2024/05/09 11:39:35.000   28.281835494  -16.516786109  2234.1422   1   9   0.0011   0.0008   0.0064   0.0003   0.0004  -0.0004   5.00   25.9
2024/05/09 11:39:36.000   28.281835494  -16.516786109  2234.1422   1   9   0.0011   0.0008   0.0064   0.0003   0.0004  -0.0004   6.00   29.4
