% program   : RTKPOST-EX 2.5.0
% inp file  : C:\Users\SallyHenry\Desktop\Sally Internship\GNSS gravi\DATA\Survey Rover Obs\FA09.24o
% inp file  : C:\Users\SallyHenry\Desktop\Sally Internship\GNSS gravi\DATA\BaseStations\IZAN\IZAN00ESP_R_20241300000_01D_30S_MO.rnx
% inp file  : C:\Users\SallyHenry\Desktop\Sally Internship\GNSS gravi\DATA\BaseStations\IZAN\IZAN00ESP_R_20241300000_01D_MN.rnx
% inp file  : C:\Users\SallyHenry\Desktop\Sally Internship\GNSS gravi\DATA\aux_files\Survey\IGS0OPSFIN_20241300000_01D_15M_ORB.SP3
% inp file  : C:\Users\SallyHenry\Desktop\Sally Internship\GNSS gravi\DATA\aux_files\Survey\IGS0OPSFIN_20241300000_01D_30S_CLK.CLK
% obs start : 2024/05/09 12:02:51.0 GPST (week2313 388971.0s)
% obs end   : 2024/05/09 12:19:05.0 GPST (week2313 389945.0s)
% pos mode  : Static
% freqs     : L1+L2/E5b
% solution  : Combined-No Phase Reset
% elev mask : 15.0 deg
% dynamics  : on
% tidecorr  : solid
% ionos opt : Estimate TEC
% tropo opt : Estimate ZTD+Grad
% ephemeris : Precise
% navi sys  : GPS GLONASS Galileo QZSS BDS
% amb res   : Fix and Hold
% amb glo   : Fix and Hold
% amb bds   : on
% val thres : 3.0
% antenna1  :                       ( 0.0000  0.0000  1.8000)
% antenna2  :                       ( 0.0000  0.0000  0.0000)
% ref pos   :  28.308069410  -16.499677180  2417.4044
%
% (lat/lon/height=WGS84/ellipsoidal,Q=1:fix,2:float,3:sbas,4:dgps,5:single,6:ppp,ns=# of satellites)
%  GPST                  latitude(deg) longitude(deg)  height(m)   Q  ns   sdn(m)   sde(m)   sdu(m)  sdne(m)  sdeu(m)  sdun(m) age(s)  ratio
2024/05/09 12:02:51.000   28.272772508  -16.516246899  2197.4709   1   8   0.0014   0.0011   0.0100  -0.0006  -0.0016  -0.0014  -9.00   45.8
2024/05/09 12:02:52.000   28.272772508  -16.516246899  2197.4710   1   8   0.0014   0.0011   0.0100  -0.0006  -0.0016  -0.0014  -8.00   44.8
2024/05/09 12:02:53.000   28.272772508  -16.516246899  2197.4711   1   8   0.0014   0.0011   0.0100  -0.0006  -0.0016  -0.0014  -7.00   43.7
2024/05/09 12:02:54.000   28.272772508  -16.516246899  2197.4711   1   8   0.0014   0.0011   0.0100  -0.0006  -0.0016  -0.0014  -6.00   42.4
2024/05/09 12:02:55.000   28.272772508  -16.516246899  2197.4712   1   8   0.0014   0.0011   0.0100  -0.0006  -0.0016  -0.0014  -5.00   40.7
2024/05/09 12:02:56.000   28.272772508  -16.516246899  2197.4712   1   8   0.0014   0.0011   0.0100  -0.0006  -0.0016  -0.0014  -4.00   37.5
2024/05/09 12:02:57.000   28.272772508  -16.516246899  2197.4712   1   8   0.0014   0.0011   0.0100  -0.0006  -0.0016  -0.0014  -3.00   31.4
2024/05/09 12:02:58.000   28.272772508  -16.516246900  2197.4713   1   8   0.0014   0.0011   0.0100  -0.0006  -0.0016  -0.0014  -2.00   22.9
2024/05/09 12:02:59.000   28.272772507  -16.516246900  2197.4713   1   8   0.0014   0.0011   0.0100  -0.0006  -0.0016  -0.0014  -1.00   13.1
2024/05/09 12:03:00.000   28.272772509  -16.516246901  2197.4719   1   8   0.0014   0.0011   0.0100  -0.0006  -0.0016  -0.0014   0.00   60.9
2024/05/09 12:03:01.000   28.272772509  -16.516246901  2197.4719   1   8   0.0014   0.0011   0.0100  -0.0006  -0.0016  -0.0014   1.00   60.1
2024/05/09 12:03:02.000   28.272772509  -16.516246901  2197.4719   1   8   0.0014   0.0011   0.0100  -0.0006  -0.0016  -0.0014   2.00   59.3
2024/05/09 12:03:03.000   28.272772509  -16.516246901  2197.4718   1   8   0.0014   0.0011   0.0100  -0.0006  -0.0016  -0.0014   3.00   58.6
2024/05/09 12:03:04.000   28.272772509  -16.516246901  2197.4718   1   8   0.0014   0.0011   0.0100  -0.0006  -0.0016  -0.0014   4.00   57.6
2024/05/09 12:03:05.000   28.272772509  -16.516246901  2197.4718   1   8   0.0014   0.0011   0.0100  -0.0006  -0.0016  -0.0014   5.00   56.9
2024/05/09 12:03:06.000   28.272772509  -16.516246901  2197.4718   1   8   0.0014   0.0011   0.0100  -0.0006  -0.0016  -0.0014   6.00   56.1
2024/05/09 12:03:07.000   28.272772509  -16.516246901  2197.4717   1   8   0.0014   0.0011   0.0100  -0.0006  -0.0016  -0.0014   7.00   55.4
2024/05/09 12:03:08.000   28.272772509  -16.516246901  2197.4717   1   8   0.0014   0.0011   0.0100  -0.0006  -0.0016  -0.0014   8.00   54.6
2024/05/09 12:03:09.000   28.272772509  -16.516246901  2197.4717   1   8   0.0014   0.0011   0.0100  -0.0006  -0.0016  -0.0014   9.00   53.8
2024/05/09 12:03:10.000   28.272772509  -16.516246901  2197.4717   1   8   0.0014   0.0011   0.0100  -0.0006  -0.0016  -0.0014  10.00   53.1
2024/05/09 12:03:11.000   28.272772509  -16.516246902  2197.4717   1   8   0.0014   0.0011   0.0100  -0.0006  -0.0016  -0.0014  11.00   52.4
2024/05/09 12:03:12.000   28.272772509  -16.516246902  2197.4717   1   8   0.0014   0.0011   0.0100  -0.0006  -0.0016  -0.0014  12.00   51.7
2024/05/09 12:03:13.000   28.272772509  -16.516246902  2197.4718   1   8   0.0014   0.0011   0.0100  -0.0006  -0.0016  -0.0014  13.00   51.0
2024/05/09 12:03:14.000   28.272772509  -16.516246902  2197.4718   1   8   0.0014   0.0011   0.0100  -0.0006  -0.0016  -0.0014  14.00   50.3
2024/05/09 12:03:15.000   28.272772509  -16.516246902  2197.4718   1   8   0.0014   0.0011   0.0100  -0.0006  -0.0016  -0.0014  15.00   49.6
2024/05/09 12:03:16.000   28.272772508  -16.516246902  2197.4718   1   8   0.0014   0.0011   0.0100  -0.0006  -0.0016  -0.0014 -14.00   48.9
2024/05/09 12:03:17.000   28.272772508  -16.516246902  2197.4718   1   8   0.0014   0.0011   0.0100  -0.0006  -0.0016  -0.0014 -13.00   48.2
2024/05/09 12:03:18.000   28.272772508  -16.516246902  2197.4718   1   8   0.0014   0.0011   0.0100  -0.0006  -0.0016  -0.0014 -12.00   47.5
2024/05/09 12:03:19.000   28.272772508  -16.516246902  2197.4719   1   8   0.0014   0.0011   0.0100  -0.0006  -0.0016  -0.0014 -11.00   46.7
2024/05/09 12:03:20.000   28.272772508  -16.516246902  2197.4719   1   8   0.0014   0.0011   0.0100  -0.0006  -0.0016  -0.0014 -10.00   45.9
2024/05/09 12:03:21.000   28.272772508  -16.516246902  2197.4719   1   8   0.0014   0.0011   0.0100  -0.0006  -0.0016  -0.0014  -9.00   45.0
2024/05/09 12:03:22.000   28.272772508  -16.516246902  2197.4719   1   8   0.0014   0.0011   0.0100  -0.0006  -0.0016  -0.0014  -8.00   44.1
2024/05/09 12:03:23.000   28.272772508  -16.516246902  2197.4718   1   8   0.0014   0.0011   0.0100  -0.0006  -0.0016  -0.0014  -7.00   43.0
2024/05/09 12:03:24.000   28.272772508  -16.516246902  2197.4718   1   8   0.0014   0.0011   0.0100  -0.0006  -0.0016  -0.0014  -6.00   41.8
2024/05/09 12:03:25.000   28.272772508  -16.516246902  2197.4718   1   8   0.0014   0.0011   0.0100  -0.0006  -0.0016  -0.0014  -5.00   40.3
2024/05/09 12:03:26.000   28.272772508  -16.516246902  2197.4718   1   8   0.0014   0.0011   0.0100  -0.0006  -0.0016  -0.0014  -4.00   38.1
2024/05/09 12:03:27.000   28.272772508  -16.516246902  2197.4717   1   8   0.0014   0.0011   0.0100  -0.0006  -0.0016  -0.0014  -3.00   31.5
2024/05/09 12:03:28.000   28.272772508  -16.516246902  2197.4716   1   8   0.0014   0.0011   0.0100  -0.0006  -0.0016  -0.0014  -2.00   23.1
2024/05/09 12:03:29.000   28.272772508  -16.516246902  2197.4715   1   8   0.0014   0.0011   0.0100  -0.0007  -0.0016  -0.0014  -1.00   13.1
2024/05/09 12:03:30.000   28.272772510  -16.516246903  2197.4720   1   8   0.0014   0.0011   0.0100  -0.0006  -0.0016  -0.0014   0.00   63.2
2024/05/09 12:03:31.000   28.272772510  -16.516246903  2197.4718   1   8   0.0014   0.0011   0.0100  -0.0006  -0.0016  -0.0014   1.00   62.6
2024/05/09 12:03:32.000   28.272772510  -16.516246903  2197.4716   1   8   0.0014   0.0011   0.0100  -0.0006  -0.0016  -0.0014   2.00   61.8
2024/05/09 12:03:33.000   28.272772510  -16.516246903  2197.4714   1   8   0.0014   0.0011   0.0100  -0.0006  -0.0016  -0.0014   3.00   61.2
2024/05/09 12:03:34.000   28.272772510  -16.516246903  2197.4712   1   8   0.0014   0.0011   0.0100  -0.0006  -0.0016  -0.0014   4.00   60.6
2024/05/09 12:03:35.000   28.272772510  -16.516246903  2197.4710   1   8   0.0014   0.0011   0.0100  -0.0006  -0.0016  -0.0014   5.00   59.8
2024/05/09 12:03:36.000   28.272772510  -16.516246903  2197.4709   1   8   0.0014   0.0011   0.0100  -0.0006  -0.0016  -0.0014   6.00   59.0
2024/05/09 12:03:37.000   28.272772510  -16.516246903  2197.4708   1   8   0.0014   0.0011   0.0100  -0.0006  -0.0016  -0.0014   7.00   58.2
2024/05/09 12:03:38.000   28.272772510  -16.516246903  2197.4707   1   8   0.0014   0.0011   0.0100  -0.0006  -0.0016  -0.0014   8.00   57.4
2024/05/09 12:03:39.000   28.272772510  -16.516246903  2197.4706   1   8   0.0014   0.0011   0.0100  -0.0006  -0.0016  -0.0014   9.00   56.6
2024/05/09 12:03:40.000   28.272772510  -16.516246903  2197.4706   1   8   0.0014   0.0011   0.0100  -0.0006  -0.0016  -0.0014  10.00   55.8
2024/05/09 12:03:41.000   28.272772510  -16.516246903  2197.4706   1   8   0.0014   0.0011   0.0100  -0.0006  -0.0016  -0.0014  11.00   55.0
2024/05/09 12:03:42.000   28.272772510  -16.516246903  2197.4706   1   8   0.0014   0.0011   0.0100  -0.0006  -0.0016  -0.0014  12.00   54.2
2024/05/09 12:03:43.000   28.272772510  -16.516246903  2197.4706   1   8   0.0014   0.0011   0.0100  -0.0006  -0.0016  -0.0014  13.00   53.4
2024/05/09 12:03:44.000   28.272772510  -16.516246903  2197.4706   1   8   0.0014   0.0011   0.0100  -0.0006  -0.0016  -0.0014  14.00   52.6
2024/05/09 12:03:45.000   28.272772510  -16.516246903  2197.4706   1   8   0.0014   0.0011   0.0100  -0.0006  -0.0016  -0.0014  15.00   51.9
2024/05/09 12:03:46.000   28.272772510  -16.516246903  2197.4706   1   8   0.0014   0.0011   0.0100  -0.0006  -0.0016  -0.0014 -14.00   51.1
2024/05/09 12:03:47.000   28.272772510  -16.516246903  2197.4706   1   8   0.0014   0.0011   0.0100  -0.0006  -0.0016  -0.0014 -13.00   50.3
2024/05/09 12:03:48.000   28.272772510  -16.516246903  2197.4706   1   8   0.0014   0.0011   0.0100  -0.0006  -0.0016  -0.0014 -12.00   49.5
2024/05/09 12:03:49.000   28.272772510  -16.516246903  2197.4706   1   8   0.0014   0.0011   0.0100  -0.0006  -0.0016  -0.0014 -11.00   48.6
2024/05/09 12:03:50.000   28.272772510  -16.516246903  2197.4706   1   8   0.0014   0.0011   0.0100  -0.0006  -0.0016  -0.0014 -10.00   47.7
2024/05/09 12:03:51.000   28.272772510  -16.516246903  2197.4706   1   8   0.0014   0.0011   0.0100  -0.0006  -0.0016  -0.0014  -9.00   46.8
2024/05/09 12:03:52.000   28.272772510  -16.516246903  2197.4706   1   8   0.0014   0.0011   0.0100  -0.0006  -0.0016  -0.0014  -8.00   45.8
2024/05/09 12:03:53.000   28.272772510  -16.516246903  2197.4706   1   8   0.0014   0.0011   0.0100  -0.0006  -0.0016  -0.0014  -7.00   44.6
2024/05/09 12:03:54.000   28.272772510  -16.516246904  2197.4706   1   8   0.0014   0.0011   0.0100  -0.0006  -0.0016  -0.0014  -6.00   43.2
2024/05/09 12:03:55.000   28.272772510  -16.516246903  2197.4705   1   8   0.0014   0.0011   0.0100  -0.0006  -0.0016  -0.0014  -5.00   41.5
2024/05/09 12:03:56.000   28.272772510  -16.516246903  2197.4705   1   8   0.0014   0.0011   0.0100  -0.0006  -0.0017  -0.0014  -4.00   38.5
2024/05/09 12:03:57.000   28.272772510  -16.516246904  2197.4704   1   8   0.0014   0.0011   0.0100  -0.0006  -0.0017  -0.0014  -3.00   32.2
2024/05/09 12:03:58.000   28.272772510  -16.516246904  2197.4704   1   8   0.0014   0.0011   0.0100  -0.0007  -0.0017  -0.0014  -2.00   23.8
2024/05/09 12:03:59.000   28.272772510  -16.516246904  2197.4703   1   8   0.0014   0.0011   0.0100  -0.0007  -0.0017  -0.0014  -1.00   13.5
2024/05/09 12:04:00.000   28.272772512  -16.516246905  2197.4708   1   8   0.0014   0.0011   0.0100  -0.0006  -0.0016  -0.0014   0.00   64.5
2024/05/09 12:04:01.000   28.272772512  -16.516246905  2197.4707   1   8   0.0014   0.0011   0.0100  -0.0006  -0.0016  -0.0014   1.00   63.8
2024/05/09 12:04:02.000   28.272772512  -16.516246905  2197.4706   1   8   0.0014   0.0011   0.0100  -0.0006  -0.0016  -0.0014   2.00   62.7
2024/05/09 12:04:03.000   28.272772512  -16.516246905  2197.4704   1   8   0.0014   0.0011   0.0100  -0.0006  -0.0016  -0.0014   3.00   61.9
2024/05/09 12:04:04.000   28.272772512  -16.516246905  2197.4704   1   8   0.0014   0.0011   0.0100  -0.0006  -0.0016  -0.0014   4.00   61.0
2024/05/09 12:04:05.000   28.272772512  -16.516246905  2197.4704   1   8   0.0014   0.0011   0.0101  -0.0006  -0.0016  -0.0014   5.00   60.0
2024/05/09 12:04:06.000   28.272772512  -16.516246905  2197.4704   1   8   0.0014   0.0011   0.0101  -0.0006  -0.0016  -0.0014   6.00   59.0
2024/05/09 12:04:07.000   28.272772512  -16.516246905  2197.4704   1   8   0.0014   0.0011   0.0101  -0.0006  -0.0016  -0.0014   7.00   58.1
2024/05/09 12:04:08.000   28.272772512  -16.516246905  2197.4704   1   8   0.0014   0.0011   0.0101  -0.0006  -0.0017  -0.0014   8.00   57.2
2024/05/09 12:04:09.000   28.272772512  -16.516246905  2197.4705   1   8   0.0014   0.0011   0.0101  -0.0006  -0.0017  -0.0014   9.00   56.4
2024/05/09 12:04:10.000   28.272772512  -16.516246905  2197.4705   1   8   0.0014   0.0011   0.0101  -0.0006  -0.0017  -0.0014  10.00   55.6
2024/05/09 12:04:11.000   28.272772512  -16.516246905  2197.4706   1   8   0.0014   0.0011   0.0101  -0.0006  -0.0017  -0.0014  11.00   54.7
2024/05/09 12:04:12.000   28.272772512  -16.516246905  2197.4706   1   8   0.0014   0.0011   0.0100  -0.0006  -0.0017  -0.0014  12.00   53.9
2024/05/09 12:04:13.000   28.272772512  -16.516246905  2197.4707   1   8   0.0014   0.0011   0.0100  -0.0006  -0.0017  -0.0014  13.00   53.1
2024/05/09 12:04:14.000   28.272772512  -16.516246905  2197.4708   1   8   0.0014   0.0011   0.0100  -0.0006  -0.0017  -0.0014  14.00   52.3
2024/05/09 12:04:15.000   28.272772512  -16.516246905  2197.4708   1   8   0.0014   0.0011   0.0100  -0.0006  -0.0017  -0.0014  15.00   51.6
2024/05/09 12:04:16.000   28.272772512  -16.516246905  2197.4709   1   8   0.0014   0.0011   0.0100  -0.0006  -0.0017  -0.0014 -14.00   50.8
2024/05/09 12:04:17.000   28.272772512  -16.516246905  2197.4709   1   8   0.0014   0.0011   0.0100  -0.0006  -0.0017  -0.0014 -13.00   50.0
2024/05/09 12:04:18.000   28.272772512  -16.516246905  2197.4710   1   8   0.0014   0.0011   0.0100  -0.0006  -0.0017  -0.0014 -12.00   49.2
2024/05/09 12:04:19.000   28.272772512  -16.516246905  2197.4710   1   8   0.0014   0.0011   0.0100  -0.0006  -0.0017  -0.0014 -11.00   48.4
2024/05/09 12:04:20.000   28.272772512  -16.516246905  2197.4711   1   8   0.0014   0.0011   0.0100  -0.0006  -0.0017  -0.0014 -10.00   47.5
2024/05/09 12:04:21.000   28.272772512  -16.516246905  2197.4712   1   8   0.0014   0.0011   0.0100  -0.0006  -0.0017  -0.0014  -9.00   46.6
2024/05/09 12:04:22.000   28.272772512  -16.516246905  2197.4712   1   8   0.0014   0.0011   0.0100  -0.0006  -0.0017  -0.0014  -8.00   45.5
2024/05/09 12:04:23.000   28.272772512  -16.516246905  2197.4713   1   8   0.0014   0.0011   0.0100  -0.0006  -0.0017  -0.0014  -7.00   44.4
2024/05/09 12:04:24.000   28.272772512  -16.516246905  2197.4713   1   8   0.0014   0.0011   0.0100  -0.0006  -0.0017  -0.0014  -6.00   43.0
2024/05/09 12:04:25.000   28.272772512  -16.516246905  2197.4714   1   8   0.0014   0.0011   0.0100  -0.0006  -0.0017  -0.0014  -5.00   41.3
2024/05/09 12:04:26.000   28.272772512  -16.516246905  2197.4714   1   8   0.0014   0.0011   0.0100  -0.0006  -0.0017  -0.0014  -4.00   38.0
2024/05/09 12:04:27.000   28.272772512  -16.516246904  2197.4713   1   8   0.0014   0.0011   0.0100  -0.0007  -0.0017  -0.0014  -3.00   31.7
2024/05/09 12:04:28.000   28.272772512  -16.516246904  2197.4713   1   8   0.0014   0.0011   0.0100  -0.0007  -0.0017  -0.0014  -2.00   23.4
2024/05/09 12:04:29.000   28.272772512  -16.516246904  2197.4713   1   8   0.0014   0.0011   0.0100  -0.0007  -0.0017  -0.0014  -1.00   13.4
2024/05/09 12:04:30.000   28.272772513  -16.516246906  2197.4719   1   8   0.0014   0.0011   0.0100  -0.0006  -0.0016  -0.0014   0.00   64.2
2024/05/09 12:04:31.000   28.272772513  -16.516246906  2197.4718   1   8   0.0014   0.0011   0.0100  -0.0006  -0.0016  -0.0014   1.00   63.4
2024/05/09 12:04:32.000   28.272772513  -16.516246905  2197.4718   1   8   0.0014   0.0011   0.0100  -0.0006  -0.0016  -0.0014   2.00   62.4
2024/05/09 12:04:33.000   28.272772513  -16.516246905  2197.4718   1   8   0.0014   0.0011   0.0101  -0.0006  -0.0016  -0.0014   3.00   61.6
2024/05/09 12:04:34.000   28.272772513  -16.516246905  2197.4718   1   8   0.0014   0.0011   0.0101  -0.0006  -0.0017  -0.0014   4.00   60.7
2024/05/09 12:04:35.000   28.272772513  -16.516246905  2197.4718   1   8   0.0014   0.0011   0.0101  -0.0006  -0.0017  -0.0014   5.00   59.9
2024/05/09 12:04:36.000   28.272772513  -16.516246905  2197.4718   1   8   0.0014   0.0011   0.0101  -0.0006  -0.0017  -0.0014   6.00   59.2
2024/05/09 12:04:37.000   28.272772513  -16.516246905  2197.4719   1   8   0.0014   0.0011   0.0101  -0.0006  -0.0017  -0.0014   7.00   58.3
2024/05/09 12:04:38.000   28.272772513  -16.516246905  2197.4719   1   8   0.0014   0.0011   0.0101  -0.0006  -0.0017  -0.0014   8.00   57.6
2024/05/09 12:04:39.000   28.272772513  -16.516246905  2197.4719   1   8   0.0014   0.0011   0.0101  -0.0006  -0.0017  -0.0014   9.00   56.8
2024/05/09 12:04:40.000   28.272772512  -16.516246905  2197.4719   1   8   0.0014   0.0011   0.0101  -0.0006  -0.0017  -0.0014  10.00   56.0
2024/05/09 12:04:41.000   28.272772512  -16.516246905  2197.4720   1   8   0.0014   0.0011   0.0101  -0.0006  -0.0017  -0.0014  11.00   55.2
2024/05/09 12:04:42.000   28.272772512  -16.516246905  2197.4720   1   8   0.0014   0.0011   0.0101  -0.0006  -0.0017  -0.0014  12.00   54.4
2024/05/09 12:04:43.000   28.272772512  -16.516246905  2197.4721   1   8   0.0014   0.0011   0.0101  -0.0006  -0.0017  -0.0014  13.00   53.7
2024/05/09 12:04:44.000   28.272772512  -16.516246905  2197.4721   1   8   0.0014   0.0011   0.0101  -0.0006  -0.0017  -0.0014  14.00   52.9
2024/05/09 12:04:45.000   28.272772512  -16.516246906  2197.4722   1   8   0.0014   0.0011   0.0101  -0.0006  -0.0017  -0.0014  15.00   52.2
2024/05/09 12:04:46.000   28.272772512  -16.516246906  2197.4722   1   8   0.0014   0.0011   0.0100  -0.0006  -0.0017  -0.0014 -14.00   51.4
2024/05/09 12:04:47.000   28.272772512  -16.516246906  2197.4722   1   8   0.0014   0.0011   0.0100  -0.0006  -0.0017  -0.0014 -13.00   50.7
2024/05/09 12:04:48.000   28.272772512  -16.516246906  2197.4723   1   8   0.0014   0.0011   0.0100  -0.0006  -0.0017  -0.0014 -12.00   50.0
2024/05/09 12:04:49.000   28.272772512  -16.516246906  2197.4723   1   8   0.0014   0.0011   0.0100  -0.0006  -0.0017  -0.0014 -11.00   49.1
2024/05/09 12:04:50.000   28.272772512  -16.516246906  2197.4723   1   8   0.0014   0.0011   0.0100  -0.0006  -0.0017  -0.0014 -10.00   48.3
2024/05/09 12:04:51.000   28.272772512  -16.516246906  2197.4723   1   8   0.0014   0.0011   0.0100  -0.0006  -0.0017  -0.0014  -9.00   47.4
2024/05/09 12:04:52.000   28.272772512  -16.516246906  2197.4724   1   8   0.0014   0.0011   0.0100  -0.0006  -0.0017  -0.0014  -8.00   46.3
2024/05/09 12:04:53.000   28.272772511  -16.516246905  2197.4723   1   8   0.0014   0.0011   0.0100  -0.0006  -0.0017  -0.0014  -7.00   45.2
2024/05/09 12:04:54.000   28.272772511  -16.516246905  2197.4723   1   8   0.0014   0.0011   0.0100  -0.0006  -0.0017  -0.0014  -6.00   43.9
2024/05/09 12:04:55.000   28.272772511  -16.516246905  2197.4723   1   8   0.0014   0.0011   0.0100  -0.0007  -0.0017  -0.0014  -5.00   42.3
2024/05/09 12:04:56.000   28.272772511  -16.516246905  2197.4722   1   8   0.0014   0.0011   0.0100  -0.0007  -0.0017  -0.0014  -4.00   38.5
2024/05/09 12:04:57.000   28.272772511  -16.516246905  2197.4722   1   8   0.0014   0.0011   0.0100  -0.0007  -0.0017  -0.0014  -3.00   32.3
2024/05/09 12:04:58.000   28.272772511  -16.516246905  2197.4720   1   8   0.0014   0.0011   0.0100  -0.0007  -0.0017  -0.0014  -2.00   23.9
2024/05/09 12:04:59.000   28.272772510  -16.516246905  2197.4719   1   8   0.0014   0.0011   0.0101  -0.0007  -0.0017  -0.0014  -1.00   13.5
2024/05/09 12:05:00.000   28.272772513  -16.516246907  2197.4728   1   8   0.0014   0.0011   0.0100  -0.0006  -0.0016  -0.0014   0.00   62.9
2024/05/09 12:05:01.000   28.272772513  -16.516246906  2197.4727   1   8   0.0014   0.0011   0.0100  -0.0006  -0.0017  -0.0014   1.00   62.5
2024/05/09 12:05:02.000   28.272772512  -16.516246906  2197.4725   1   8   0.0014   0.0011   0.0101  -0.0006  -0.0017  -0.0014   2.00   61.8
2024/05/09 12:05:03.000   28.272772512  -16.516246902  2197.4770   1   8   0.0013   0.0010   0.0093  -0.0006  -0.0015  -0.0011   3.00    3.7
2024/05/09 12:05:04.000   28.272772512  -16.516246902  2197.4770   1   8   0.0013   0.0010   0.0093  -0.0006  -0.0015  -0.0011   4.00    3.6
2024/05/09 12:05:05.000   28.272772512  -16.516246902  2197.4770   1   8   0.0013   0.0010   0.0093  -0.0006  -0.0015  -0.0011   5.00    3.6
2024/05/09 12:05:06.000   28.272772511  -16.516246902  2197.4770   1   8   0.0013   0.0010   0.0093  -0.0006  -0.0015  -0.0011   6.00    3.5
2024/05/09 12:05:07.000   28.272772511  -16.516246902  2197.4770   1   8   0.0013   0.0010   0.0093  -0.0006  -0.0015  -0.0011   7.00    3.4
2024/05/09 12:05:08.000   28.272772511  -16.516246902  2197.4770   1   8   0.0013   0.0010   0.0093  -0.0006  -0.0015  -0.0011   8.00    3.4
2024/05/09 12:05:09.000   28.272772511  -16.516246902  2197.4770   1   8   0.0013   0.0010   0.0093  -0.0006  -0.0015  -0.0011   9.00    3.4
2024/05/09 12:05:10.000   28.272772511  -16.516246902  2197.4770   1   8   0.0013   0.0010   0.0093  -0.0006  -0.0015  -0.0011  10.00    3.3
2024/05/09 12:05:11.000   28.272772511  -16.516246902  2197.4770   1   8   0.0013   0.0010   0.0093  -0.0006  -0.0015  -0.0011  11.00    3.3
2024/05/09 12:05:12.000   28.272772511  -16.516246902  2197.4770   1   8   0.0013   0.0010   0.0093  -0.0006  -0.0015  -0.0011  12.00    3.3
2024/05/09 12:05:13.000   28.272772511  -16.516246902  2197.4770   1   8   0.0013   0.0010   0.0093  -0.0006  -0.0015  -0.0011  13.00    3.3
2024/05/09 12:05:14.000   28.272772511  -16.516246902  2197.4770   1   8   0.0013   0.0010   0.0093  -0.0006  -0.0015  -0.0011  14.00    3.3
2024/05/09 12:05:15.000   28.272772511  -16.516246902  2197.4770   1   8   0.0013   0.0010   0.0092  -0.0006  -0.0015  -0.0011 -15.00    3.2
2024/05/09 12:05:16.000   28.272772511  -16.516246902  2197.4771   1   8   0.0013   0.0010   0.0092  -0.0006  -0.0015  -0.0011 -14.00    3.2
2024/05/09 12:05:17.000   28.272772511  -16.516246902  2197.4771   1   8   0.0013   0.0010   0.0092  -0.0006  -0.0015  -0.0011 -13.00    3.2
2024/05/09 12:05:18.000   28.272772511  -16.516246902  2197.4771   1   8   0.0013   0.0010   0.0092  -0.0006  -0.0015  -0.0011 -12.00    3.2
2024/05/09 12:05:19.000   28.272772511  -16.516246902  2197.4771   1   8   0.0013   0.0010   0.0092  -0.0006  -0.0015  -0.0011 -11.00    3.2
2024/05/09 12:05:20.000   28.272772511  -16.516246902  2197.4771   1   8   0.0013   0.0010   0.0092  -0.0006  -0.0015  -0.0011 -10.00    3.2
2024/05/09 12:05:21.000   28.272772511  -16.516246902  2197.4771   1   8   0.0013   0.0010   0.0092  -0.0006  -0.0015  -0.0011  -9.00    3.2
2024/05/09 12:05:22.000   28.272772511  -16.516246902  2197.4772   1   8   0.0013   0.0010   0.0092  -0.0006  -0.0015  -0.0011  -8.00    3.2
2024/05/09 12:05:23.000   28.272772511  -16.516246902  2197.4772   1   8   0.0013   0.0010   0.0092  -0.0006  -0.0015  -0.0011  -7.00    8.8
2024/05/09 12:05:24.000   28.272772511  -16.516246902  2197.4772   1   8   0.0013   0.0010   0.0092  -0.0006  -0.0015  -0.0011  -6.00   13.6
2024/05/09 12:05:25.000   28.272772511  -16.516246902  2197.4772   1   8   0.0013   0.0010   0.0092  -0.0006  -0.0015  -0.0011  -5.00   15.4
2024/05/09 12:05:26.000   28.272772511  -16.516246902  2197.4773   1   8   0.0013   0.0010   0.0092  -0.0006  -0.0015  -0.0011  -4.00   17.1
2024/05/09 12:05:27.000   28.272772511  -16.516246902  2197.4773   1   8   0.0013   0.0010   0.0092  -0.0006  -0.0015  -0.0011  -3.00   18.9
2024/05/09 12:05:28.000   28.272772511  -16.516246902  2197.4774   1   8   0.0013   0.0010   0.0092  -0.0006  -0.0015  -0.0011  -2.00   20.5
2024/05/09 12:05:29.000   28.272772511  -16.516246902  2197.4774   1   8   0.0013   0.0010   0.0092  -0.0006  -0.0015  -0.0011  -1.00   22.2
2024/05/09 12:05:30.000   28.272772513  -16.516246904  2197.4781   1   8   0.0013   0.0010   0.0092  -0.0006  -0.0015  -0.0011   0.00   23.9
2024/05/09 12:05:31.000   28.272772511  -16.516246902  2197.4771   1   8   0.0013   0.0010   0.0092  -0.0006  -0.0015  -0.0011   1.00   19.3
2024/05/09 12:05:32.000   28.272772511  -16.516246902  2197.4771   1   8   0.0013   0.0010   0.0092  -0.0006  -0.0015  -0.0011   2.00   23.1
2024/05/09 12:05:33.000   28.272772511  -16.516246902  2197.4772   1   8   0.0013   0.0010   0.0092  -0.0006  -0.0015  -0.0011   3.00   26.0
2024/05/09 12:05:34.000   28.272772511  -16.516246902  2197.4771   1   8   0.0013   0.0010   0.0092  -0.0006  -0.0015  -0.0011   4.00   28.7
2024/05/09 12:05:35.000   28.272772511  -16.516246902  2197.4772   1   8   0.0013   0.0010   0.0092  -0.0006  -0.0015  -0.0011   5.00   31.0
2024/05/09 12:05:36.000   28.272772511  -16.516246902  2197.4772   1   8   0.0013   0.0010   0.0092  -0.0006  -0.0015  -0.0011   6.00   33.3
2024/05/09 12:05:37.000   28.272772511  -16.516246902  2197.4772   1   8   0.0013   0.0010   0.0092  -0.0006  -0.0015  -0.0011   7.00   35.6
2024/05/09 12:05:38.000   28.272772511  -16.516246902  2197.4773   1   8   0.0013   0.0010   0.0092  -0.0006  -0.0015  -0.0011   8.00   37.7
2024/05/09 12:05:39.000   28.272772511  -16.516246902  2197.4773   1   8   0.0013   0.0010   0.0092  -0.0006  -0.0015  -0.0011   9.00   39.7
2024/05/09 12:05:40.000   28.272772511  -16.516246902  2197.4773   1   8   0.0013   0.0010   0.0092  -0.0006  -0.0015  -0.0011  10.00   41.7
2024/05/09 12:05:41.000   28.272772511  -16.516246902  2197.4773   1   8   0.0013   0.0010   0.0091  -0.0006  -0.0015  -0.0011  11.00   43.7
2024/05/09 12:05:42.000   28.272772511  -16.516246902  2197.4773   1   8   0.0013   0.0010   0.0091  -0.0006  -0.0015  -0.0011  12.00   45.7
2024/05/09 12:05:43.000   28.272772511  -16.516246902  2197.4773   1   8   0.0013   0.0010   0.0091  -0.0006  -0.0015  -0.0011  13.00   47.8
2024/05/09 12:05:44.000   28.272772511  -16.516246902  2197.4774   1   8   0.0013   0.0010   0.0091  -0.0006  -0.0015  -0.0011  14.00   49.8
2024/05/09 12:05:45.000   28.272772511  -16.516246902  2197.4774   1   8   0.0013   0.0010   0.0091  -0.0006  -0.0015  -0.0011 -15.00   51.9
2024/05/09 12:05:46.000   28.272772511  -16.516246902  2197.4774   1   8   0.0013   0.0010   0.0091  -0.0006  -0.0015  -0.0011 -14.00   53.9
2024/05/09 12:05:47.000   28.272772511  -16.516246902  2197.4774   1   8   0.0013   0.0010   0.0091  -0.0006  -0.0015  -0.0011 -13.00   56.0
2024/05/09 12:05:48.000   28.272772511  -16.516246902  2197.4775   1   8   0.0013   0.0010   0.0091  -0.0006  -0.0015  -0.0011 -12.00   58.1
2024/05/09 12:05:49.000   28.272772511  -16.516246902  2197.4775   1   8   0.0013   0.0010   0.0091  -0.0006  -0.0015  -0.0011 -11.00   60.2
2024/05/09 12:05:50.000   28.272772511  -16.516246902  2197.4775   1   8   0.0013   0.0010   0.0091  -0.0006  -0.0015  -0.0011 -10.00   62.4
2024/05/09 12:05:51.000   28.272772511  -16.516246902  2197.4775   1   8   0.0013   0.0010   0.0091  -0.0006  -0.0015  -0.0011  -9.00   64.6
2024/05/09 12:05:52.000   28.272772511  -16.516246902  2197.4775   1   8   0.0013   0.0009   0.0091  -0.0006  -0.0015  -0.0011  -8.00   67.0
2024/05/09 12:05:53.000   28.272772511  -16.516246902  2197.4776   1   8   0.0013   0.0009   0.0091  -0.0006  -0.0015  -0.0011  -7.00   69.5
2024/05/09 12:05:54.000   28.272772511  -16.516246902  2197.4776   1   8   0.0013   0.0009   0.0091  -0.0006  -0.0015  -0.0011  -6.00   72.0
2024/05/09 12:05:55.000   28.272772511  -16.516246902  2197.4777   1   8   0.0013   0.0009   0.0091  -0.0006  -0.0015  -0.0011  -5.00   73.9
2024/05/09 12:05:56.000   28.272772511  -16.516246902  2197.4776   1   8   0.0013   0.0009   0.0091  -0.0006  -0.0015  -0.0011  -4.00   75.8
2024/05/09 12:05:57.000   28.272772511  -16.516246902  2197.4777   1   8   0.0013   0.0009   0.0091  -0.0006  -0.0015  -0.0011  -3.00   77.6
2024/05/09 12:05:58.000   28.272772511  -16.516246902  2197.4777   1   8   0.0013   0.0009   0.0091  -0.0006  -0.0015  -0.0011  -2.00   79.6
2024/05/09 12:05:59.000   28.272772511  -16.516246902  2197.4778   1   8   0.0013   0.0009   0.0091  -0.0006  -0.0015  -0.0011  -1.00   81.4
2024/05/09 12:06:00.000   28.272772512  -16.516246903  2197.4785   1   8   0.0012   0.0009   0.0090  -0.0006  -0.0015  -0.0011   0.00   83.4
2024/05/09 12:06:01.000   28.272772511  -16.516246902  2197.4778   1   8   0.0013   0.0009   0.0091  -0.0006  -0.0015  -0.0011   1.00   36.5
2024/05/09 12:06:02.000   28.272772511  -16.516246902  2197.4779   1   8   0.0013   0.0009   0.0091  -0.0006  -0.0015  -0.0011   2.00   54.4
2024/05/09 12:06:03.000   28.272772511  -16.516246902  2197.4778   1   8   0.0013   0.0009   0.0091  -0.0006  -0.0015  -0.0010   3.00   61.0
2024/05/09 12:06:04.000   28.272772510  -16.516246902  2197.4777   1   8   0.0013   0.0009   0.0091  -0.0006  -0.0015  -0.0010   4.00   66.4
2024/05/09 12:06:05.000   28.272772510  -16.516246902  2197.4778   1   8   0.0013   0.0009   0.0091  -0.0006  -0.0015  -0.0010   5.00   70.6
2024/05/09 12:06:06.000   28.272772510  -16.516246902  2197.4778   1   8   0.0013   0.0009   0.0091  -0.0006  -0.0015  -0.0010   6.00   74.0
2024/05/09 12:06:07.000   28.272772510  -16.516246902  2197.4778   1   8   0.0013   0.0009   0.0091  -0.0006  -0.0015  -0.0010   7.00   76.9
2024/05/09 12:06:08.000   28.272772510  -16.516246902  2197.4778   1   8   0.0013   0.0009   0.0091  -0.0006  -0.0015  -0.0010   8.00   79.9
2024/05/09 12:06:09.000   28.272772510  -16.516246902  2197.4778   1   8   0.0013   0.0009   0.0090  -0.0006  -0.0015  -0.0010   9.00   82.3
2024/05/09 12:06:10.000   28.272772510  -16.516246902  2197.4779   1   8   0.0013   0.0009   0.0090  -0.0006  -0.0015  -0.0010  10.00   84.8
2024/05/09 12:06:11.000   28.272772510  -16.516246902  2197.4779   1   8   0.0013   0.0009   0.0090  -0.0006  -0.0015  -0.0010  11.00   87.3
2024/05/09 12:06:12.000   28.272772510  -16.516246902  2197.4779   1   8   0.0013   0.0009   0.0090  -0.0006  -0.0015  -0.0010  12.00   89.8
2024/05/09 12:06:13.000   28.272772510  -16.516246902  2197.4779   1   8   0.0013   0.0009   0.0090  -0.0006  -0.0015  -0.0010  13.00   92.1
2024/05/09 12:06:14.000   28.272772510  -16.516246902  2197.4779   1   8   0.0013   0.0009   0.0090  -0.0006  -0.0015  -0.0010  14.00   94.5
2024/05/09 12:06:15.000   28.272772510  -16.516246902  2197.4779   1   8   0.0013   0.0009   0.0090  -0.0006  -0.0015  -0.0010 -15.00   96.7
2024/05/09 12:06:16.000   28.272772510  -16.516246902  2197.4779   1   8   0.0013   0.0009   0.0090  -0.0006  -0.0015  -0.0010 -14.00   98.8
2024/05/09 12:06:17.000   28.272772510  -16.516246902  2197.4780   1   8   0.0013   0.0009   0.0090  -0.0006  -0.0015  -0.0010 -13.00  101.2
2024/05/09 12:06:18.000   28.272772510  -16.516246902  2197.4780   1   8   0.0013   0.0009   0.0090  -0.0006  -0.0015  -0.0010 -12.00  103.6
2024/05/09 12:06:19.000   28.272772510  -16.516246902  2197.4780   1   8   0.0012   0.0009   0.0090  -0.0006  -0.0015  -0.0010 -11.00  106.1
2024/05/09 12:06:20.000   28.272772510  -16.516246902  2197.4780   1   8   0.0012   0.0009   0.0090  -0.0006  -0.0015  -0.0010 -10.00  108.7
2024/05/09 12:06:21.000   28.272772510  -16.516246902  2197.4781   1   8   0.0012   0.0009   0.0090  -0.0006  -0.0015  -0.0010  -9.00  111.6
2024/05/09 12:06:22.000   28.272772510  -16.516246902  2197.4781   1   8   0.0012   0.0009   0.0090  -0.0006  -0.0015  -0.0010  -8.00  114.5
2024/05/09 12:06:23.000   28.272772510  -16.516246902  2197.4781   1   8   0.0012   0.0009   0.0090  -0.0006  -0.0015  -0.0010  -7.00  117.1
2024/05/09 12:06:24.000   28.272772510  -16.516246902  2197.4782   1   8   0.0012   0.0009   0.0090  -0.0006  -0.0015  -0.0010  -6.00  120.1
2024/05/09 12:06:25.000   28.272772510  -16.516246902  2197.4782   1   8   0.0012   0.0009   0.0090  -0.0006  -0.0015  -0.0010  -5.00  123.0
2024/05/09 12:06:26.000   28.272772510  -16.516246902  2197.4782   1   8   0.0012   0.0009   0.0090  -0.0006  -0.0015  -0.0010  -4.00  126.3
2024/05/09 12:06:27.000   28.272772510  -16.516246902  2197.4783   1   8   0.0012   0.0009   0.0090  -0.0006  -0.0015  -0.0010  -3.00  130.1
2024/05/09 12:06:28.000   28.272772510  -16.516246902  2197.4783   1   8   0.0012   0.0009   0.0090  -0.0006  -0.0015  -0.0010  -2.00  133.5
2024/05/09 12:06:29.000   28.272772510  -16.516246902  2197.4784   1   8   0.0012   0.0009   0.0090  -0.0006  -0.0015  -0.0010  -1.00  136.8
2024/05/09 12:06:30.000   28.272772512  -16.516246904  2197.4792   1   8   0.0012   0.0009   0.0089  -0.0005  -0.0015  -0.0011   0.00  138.9
2024/05/09 12:06:31.000   28.272772510  -16.516246902  2197.4785   1   8   0.0012   0.0009   0.0090  -0.0006  -0.0015  -0.0010   1.00   42.2
2024/05/09 12:06:32.000   28.272772510  -16.516246902  2197.4785   1   8   0.0012   0.0009   0.0090  -0.0006  -0.0015  -0.0010   2.00   75.9
2024/05/09 12:06:33.000   28.272772510  -16.516246902  2197.4785   1   8   0.0012   0.0009   0.0090  -0.0006  -0.0015  -0.0010   3.00   91.6
2024/05/09 12:06:34.000   28.272772510  -16.516246902  2197.4785   1   8   0.0012   0.0009   0.0090  -0.0006  -0.0015  -0.0010   4.00   97.9
2024/05/09 12:06:35.000   28.272772510  -16.516246902  2197.4785   1   8   0.0012   0.0009   0.0090  -0.0006  -0.0015  -0.0010   5.00  102.2
2024/05/09 12:06:36.000   28.272772510  -16.516246902  2197.4785   1   8   0.0012   0.0009   0.0090  -0.0006  -0.0015  -0.0010   6.00  106.3
2024/05/09 12:06:37.000   28.272772510  -16.516246902  2197.4784   1   8   0.0012   0.0009   0.0090  -0.0006  -0.0015  -0.0010   7.00  109.7
2024/05/09 12:06:38.000   28.272772510  -16.516246902  2197.4784   1   8   0.0012   0.0009   0.0090  -0.0006  -0.0015  -0.0010   8.00  112.3
2024/05/09 12:06:39.000   28.272772510  -16.516246902  2197.4784   1   8   0.0012   0.0009   0.0089  -0.0006  -0.0015  -0.0010   9.00  115.2
2024/05/09 12:06:40.000   28.272772510  -16.516246902  2197.4784   1   8   0.0012   0.0009   0.0089  -0.0006  -0.0015  -0.0010  10.00  117.9
2024/05/09 12:06:41.000   28.272772510  -16.516246902  2197.4785   1   8   0.0012   0.0009   0.0089  -0.0006  -0.0015  -0.0010  11.00  120.3
2024/05/09 12:06:42.000   28.272772510  -16.516246902  2197.4784   1   8   0.0012   0.0009   0.0089  -0.0006  -0.0015  -0.0010  12.00  123.0
2024/05/09 12:06:43.000   28.272772510  -16.516246902  2197.4785   1   8   0.0012   0.0009   0.0089  -0.0006  -0.0015  -0.0010  13.00  125.6
2024/05/09 12:06:44.000   28.272772510  -16.516246902  2197.4785   1   8   0.0012   0.0009   0.0089  -0.0006  -0.0015  -0.0010  14.00  127.9
2024/05/09 12:06:45.000   28.272772510  -16.516246902  2197.4785   1   8   0.0012   0.0009   0.0089  -0.0006  -0.0015  -0.0010 -15.00  130.2
2024/05/09 12:06:46.000   28.272772510  -16.516246902  2197.4785   1   8   0.0012   0.0009   0.0089  -0.0006  -0.0015  -0.0010 -14.00  132.4
2024/05/09 12:06:47.000   28.272772510  -16.516246902  2197.4785   1   8   0.0012   0.0009   0.0089  -0.0006  -0.0015  -0.0010 -13.00  134.5
2024/05/09 12:06:48.000   28.272772510  -16.516246902  2197.4785   1   8   0.0012   0.0009   0.0089  -0.0006  -0.0015  -0.0010 -12.00  136.7
2024/05/09 12:06:49.000   28.272772510  -16.516246902  2197.4786   1   8   0.0012   0.0009   0.0089  -0.0006  -0.0015  -0.0010 -11.00  138.7
2024/05/09 12:06:50.000   28.272772510  -16.516246902  2197.4786   1   8   0.0012   0.0009   0.0089  -0.0006  -0.0015  -0.0010 -10.00  140.3
2024/05/09 12:06:51.000   28.272772510  -16.516246902  2197.4786   1   8   0.0012   0.0009   0.0089  -0.0006  -0.0015  -0.0010  -9.00  141.7
2024/05/09 12:06:52.000   28.272772510  -16.516246902  2197.4786   1   8   0.0012   0.0009   0.0089  -0.0006  -0.0015  -0.0010  -8.00  143.1
2024/05/09 12:06:53.000   28.272772510  -16.516246902  2197.4786   1   8   0.0012   0.0009   0.0089  -0.0006  -0.0015  -0.0010  -7.00  144.7
2024/05/09 12:06:54.000   28.272772510  -16.516246902  2197.4787   1   8   0.0012   0.0009   0.0089  -0.0006  -0.0015  -0.0010  -6.00  146.3
2024/05/09 12:06:55.000   28.272772510  -16.516246902  2197.4787   1   8   0.0012   0.0009   0.0089  -0.0006  -0.0015  -0.0010  -5.00  148.4
2024/05/09 12:06:56.000   28.272772510  -16.516246902  2197.4786   1   8   0.0012   0.0009   0.0089  -0.0006  -0.0015  -0.0010  -4.00  152.0
2024/05/09 12:06:57.000   28.272772510  -16.516246902  2197.4787   1   8   0.0012   0.0009   0.0089  -0.0006  -0.0015  -0.0010  -3.00  154.9
2024/05/09 12:06:58.000   28.272772510  -16.516246902  2197.4788   1   8   0.0012   0.0009   0.0089  -0.0006  -0.0015  -0.0010  -2.00  157.8
2024/05/09 12:06:59.000   28.272772510  -16.516246902  2197.4788   1   8   0.0012   0.0009   0.0089  -0.0006  -0.0015  -0.0010  -1.00  162.6
2024/05/09 12:07:00.000   28.272772511  -16.516246903  2197.4791   1   8   0.0012   0.0009   0.0089  -0.0005  -0.0015  -0.0010   0.00  168.1
2024/05/09 12:07:01.000   28.272772509  -16.516246902  2197.4783   1   8   0.0012   0.0009   0.0089  -0.0006  -0.0015  -0.0010   1.00   42.3
2024/05/09 12:07:02.000   28.272772509  -16.516246902  2197.4783   1   8   0.0012   0.0009   0.0089  -0.0006  -0.0015  -0.0010   2.00   79.7
2024/05/09 12:07:03.000   28.272772509  -16.516246902  2197.4783   1   8   0.0012   0.0009   0.0089  -0.0006  -0.0015  -0.0010   3.00  110.6
2024/05/09 12:07:04.000   28.272772509  -16.516246902  2197.4783   1   8   0.0012   0.0009   0.0089  -0.0006  -0.0015  -0.0010   4.00  121.9
2024/05/09 12:07:05.000   28.272772509  -16.516246902  2197.4783   1   8   0.0012   0.0009   0.0089  -0.0006  -0.0015  -0.0010   5.00  129.0
2024/05/09 12:07:06.000   28.272772509  -16.516246902  2197.4784   1   8   0.0012   0.0009   0.0089  -0.0006  -0.0015  -0.0010   6.00  135.0
2024/05/09 12:07:07.000   28.272772509  -16.516246902  2197.4784   1   8   0.0012   0.0009   0.0089  -0.0006  -0.0015  -0.0010   7.00  140.6
2024/05/09 12:07:08.000   28.272772509  -16.516246902  2197.4784   1   8   0.0012   0.0009   0.0089  -0.0006  -0.0015  -0.0010   8.00  145.2
2024/05/09 12:07:09.000   28.272772509  -16.516246902  2197.4784   1   8   0.0012   0.0009   0.0089  -0.0006  -0.0015  -0.0010   9.00  149.5
2024/05/09 12:07:10.000   28.272772509  -16.516246902  2197.4785   1   8   0.0012   0.0009   0.0089  -0.0006  -0.0015  -0.0010  10.00  153.8
2024/05/09 12:07:11.000   28.272772510  -16.516246902  2197.4785   1   8   0.0012   0.0009   0.0089  -0.0006  -0.0015  -0.0010  11.00  157.6
2024/05/09 12:07:12.000   28.272772510  -16.516246902  2197.4785   1   8   0.0012   0.0009   0.0089  -0.0006  -0.0015  -0.0010  12.00  161.3
2024/05/09 12:07:13.000   28.272772510  -16.516246902  2197.4785   1   8   0.0012   0.0009   0.0088  -0.0006  -0.0015  -0.0010  13.00  165.0
2024/05/09 12:07:14.000   28.272772510  -16.516246902  2197.4785   1   8   0.0012   0.0009   0.0088  -0.0006  -0.0015  -0.0010  14.00  168.5
2024/05/09 12:07:15.000   28.272772510  -16.516246902  2197.4785   1   8   0.0012   0.0009   0.0088  -0.0005  -0.0015  -0.0010 -15.00  171.9
2024/05/09 12:07:16.000   28.272772510  -16.516246902  2197.4785   1   8   0.0012   0.0009   0.0088  -0.0005  -0.0015  -0.0010 -14.00  175.3
2024/05/09 12:07:17.000   28.272772510  -16.516246902  2197.4786   1   8   0.0012   0.0009   0.0088  -0.0005  -0.0015  -0.0010 -13.00  179.0
2024/05/09 12:07:18.000   28.272772510  -16.516246902  2197.4786   1   8   0.0012   0.0009   0.0088  -0.0005  -0.0015  -0.0010 -12.00  183.0
2024/05/09 12:07:19.000   28.272772510  -16.516246902  2197.4786   1   8   0.0012   0.0009   0.0088  -0.0005  -0.0015  -0.0010 -11.00  187.3
2024/05/09 12:07:20.000   28.272772510  -16.516246902  2197.4786   1   8   0.0012   0.0009   0.0088  -0.0005  -0.0015  -0.0010 -10.00  191.8
2024/05/09 12:07:21.000   28.272772510  -16.516246902  2197.4786   1   8   0.0012   0.0009   0.0088  -0.0005  -0.0015  -0.0010  -9.00  196.4
2024/05/09 12:07:22.000   28.272772510  -16.516246902  2197.4787   1   8   0.0012   0.0009   0.0088  -0.0005  -0.0015  -0.0010  -8.00  201.3
2024/05/09 12:07:23.000   28.272772510  -16.516246902  2197.4787   1   8   0.0012   0.0009   0.0088  -0.0005  -0.0015  -0.0010  -7.00  206.3
2024/05/09 12:07:24.000   28.272772510  -16.516246902  2197.4787   1   8   0.0012   0.0009   0.0088  -0.0005  -0.0015  -0.0010  -6.00  212.3
2024/05/09 12:07:25.000   28.272772510  -16.516246902  2197.4787   1   8   0.0012   0.0009   0.0088  -0.0005  -0.0015  -0.0010  -5.00  218.4
2024/05/09 12:07:26.000   28.272772510  -16.516246902  2197.4788   1   8   0.0012   0.0009   0.0088  -0.0005  -0.0015  -0.0010  -4.00  223.6
2024/05/09 12:07:27.000   28.272772510  -16.516246902  2197.4788   1   8   0.0012   0.0009   0.0088  -0.0005  -0.0015  -0.0010  -3.00  230.4
2024/05/09 12:07:28.000   28.272772510  -16.516246902  2197.4788   1   8   0.0012   0.0009   0.0088  -0.0005  -0.0015  -0.0010  -2.00  236.5
2024/05/09 12:07:29.000   28.272772510  -16.516246902  2197.4789   1   8   0.0012   0.0009   0.0088  -0.0005  -0.0015  -0.0009  -1.00  243.2
2024/05/09 12:07:30.000   28.272772511  -16.516246903  2197.4794   1   8   0.0012   0.0009   0.0088  -0.0005  -0.0015  -0.0010   0.00  249.2
2024/05/09 12:07:31.000   28.272772510  -16.516246902  2197.4792   1   8   0.0012   0.0009   0.0088  -0.0005  -0.0015  -0.0010   1.00   53.9
2024/05/09 12:07:32.000   28.272772510  -16.516246902  2197.4791   1   8   0.0012   0.0009   0.0088  -0.0005  -0.0015  -0.0009   2.00   99.6
2024/05/09 12:07:33.000   28.272772510  -16.516246902  2197.4791   1   8   0.0012   0.0009   0.0088  -0.0005  -0.0015  -0.0009   3.00  137.0
2024/05/09 12:07:34.000   28.272772510  -16.516246902  2197.4791   1   8   0.0012   0.0009   0.0088  -0.0005  -0.0015  -0.0009   4.00  155.6
2024/05/09 12:07:35.000   28.272772510  -16.516246902  2197.4791   1   8   0.0012   0.0009   0.0088  -0.0005  -0.0015  -0.0009   5.00  164.2
2024/05/09 12:07:36.000   28.272772510  -16.516246902  2197.4791   1   8   0.0012   0.0009   0.0088  -0.0005  -0.0015  -0.0009   6.00  170.7
2024/05/09 12:07:37.000   28.272772510  -16.516246902  2197.4791   1   8   0.0012   0.0009   0.0088  -0.0005  -0.0015  -0.0009   7.00  177.7
2024/05/09 12:07:38.000   28.272772511  -16.516246902  2197.4791   1   8   0.0012   0.0009   0.0088  -0.0005  -0.0015  -0.0009   8.00  183.5
2024/05/09 12:07:39.000   28.272772511  -16.516246902  2197.4791   1   8   0.0012   0.0009   0.0088  -0.0005  -0.0015  -0.0009   9.00  188.9
2024/05/09 12:07:40.000   28.272772511  -16.516246902  2197.4791   1   8   0.0012   0.0009   0.0088  -0.0005  -0.0015  -0.0009  10.00  193.8
2024/05/09 12:07:41.000   28.272772511  -16.516246902  2197.4791   1   8   0.0012   0.0009   0.0088  -0.0005  -0.0015  -0.0009  11.00  198.4
2024/05/09 12:07:42.000   28.272772511  -16.516246902  2197.4791   1   8   0.0012   0.0009   0.0088  -0.0005  -0.0015  -0.0009  12.00  202.7
2024/05/09 12:07:43.000   28.272772511  -16.516246902  2197.4791   1   8   0.0012   0.0009   0.0088  -0.0005  -0.0015  -0.0009  13.00  206.8
2024/05/09 12:07:44.000   28.272772511  -16.516246902  2197.4791   1   8   0.0012   0.0009   0.0088  -0.0005  -0.0015  -0.0009  14.00  210.9
2024/05/09 12:07:45.000   28.272772511  -16.516246902  2197.4791   1   8   0.0012   0.0009   0.0088  -0.0005  -0.0015  -0.0009 -15.00  215.2
2024/05/09 12:07:46.000   28.272772511  -16.516246902  2197.4792   1   8   0.0012   0.0009   0.0088  -0.0005  -0.0015  -0.0009 -14.00  219.3
2024/05/09 12:07:47.000   28.272772511  -16.516246902  2197.4792   1   8   0.0012   0.0009   0.0088  -0.0005  -0.0015  -0.0009 -13.00  223.6
2024/05/09 12:07:48.000   28.272772511  -16.516246902  2197.4792   1   8   0.0012   0.0009   0.0088  -0.0005  -0.0015  -0.0009 -12.00  228.1
2024/05/09 12:07:49.000   28.272772511  -16.516246902  2197.4792   1   8   0.0012   0.0009   0.0088  -0.0005  -0.0015  -0.0009 -11.00  232.4
2024/05/09 12:07:50.000   28.272772511  -16.516246902  2197.4792   1   8   0.0012   0.0009   0.0087  -0.0005  -0.0015  -0.0009 -10.00  236.3
2024/05/09 12:07:51.000   28.272772511  -16.516246902  2197.4792   1   8   0.0012   0.0009   0.0087  -0.0005  -0.0015  -0.0009  -9.00  240.2
2024/05/09 12:07:52.000   28.272772511  -16.516246902  2197.4792   1   8   0.0012   0.0009   0.0087  -0.0005  -0.0015  -0.0009  -8.00  244.2
2024/05/09 12:07:53.000   28.272772511  -16.516246902  2197.4792   1   8   0.0012   0.0009   0.0087  -0.0005  -0.0015  -0.0009  -7.00  249.0
2024/05/09 12:07:54.000   28.272772511  -16.516246902  2197.4793   1   8   0.0012   0.0009   0.0087  -0.0005  -0.0015  -0.0009  -6.00  254.0
2024/05/09 12:07:55.000   28.272772511  -16.516246902  2197.4793   1   8   0.0012   0.0009   0.0087  -0.0005  -0.0015  -0.0009  -5.00  258.2
2024/05/09 12:07:56.000   28.272772511  -16.516246902  2197.4793   1   8   0.0012   0.0009   0.0087  -0.0005  -0.0015  -0.0009  -4.00  263.0
2024/05/09 12:07:57.000   28.272772511  -16.516246903  2197.4793   1   8   0.0012   0.0009   0.0087  -0.0005  -0.0015  -0.0009  -3.00  267.4
2024/05/09 12:07:58.000   28.272772511  -16.516246903  2197.4793   1   8   0.0012   0.0009   0.0087  -0.0005  -0.0015  -0.0009  -2.00  273.1
2024/05/09 12:07:59.000   28.272772511  -16.516246903  2197.4793   1   8   0.0012   0.0009   0.0087  -0.0005  -0.0015  -0.0009  -1.00  277.5
2024/05/09 12:08:00.000   28.272772513  -16.516246904  2197.4802   1   8   0.0012   0.0009   0.0087  -0.0005  -0.0015  -0.0010   0.00  280.2
2024/05/09 12:08:01.000   28.272772512  -16.516246903  2197.4797   1   8   0.0012   0.0009   0.0087  -0.0005  -0.0015  -0.0009   1.00   56.7
2024/05/09 12:08:02.000   28.272772512  -16.516246903  2197.4796   1   8   0.0012   0.0009   0.0087  -0.0005  -0.0015  -0.0009   2.00  102.3
2024/05/09 12:08:03.000   28.272772512  -16.516246903  2197.4795   1   8   0.0012   0.0009   0.0087  -0.0005  -0.0015  -0.0009   3.00  139.4
2024/05/09 12:08:04.000   28.272772512  -16.516246903  2197.4794   1   8   0.0012   0.0009   0.0087  -0.0005  -0.0015  -0.0009   4.00  164.3
2024/05/09 12:08:05.000   28.272772512  -16.516246903  2197.4794   1   8   0.0012   0.0009   0.0087  -0.0005  -0.0015  -0.0009   5.00  175.0
2024/05/09 12:08:06.000   28.272772512  -16.516246903  2197.4794   1   8   0.0012   0.0009   0.0087  -0.0005  -0.0015  -0.0009   6.00  182.2
2024/05/09 12:08:07.000   28.272772512  -16.516246903  2197.4794   1   8   0.0012   0.0009   0.0087  -0.0005  -0.0015  -0.0009   7.00  188.2
2024/05/09 12:08:08.000   28.272772512  -16.516246903  2197.4793   1   8   0.0012   0.0009   0.0087  -0.0005  -0.0015  -0.0009   8.00  192.8
2024/05/09 12:08:09.000   28.272772512  -16.516246903  2197.4793   1   8   0.0012   0.0009   0.0087  -0.0005  -0.0015  -0.0009   9.00  197.1
2024/05/09 12:08:10.000   28.272772512  -16.516246903  2197.4793   1   8   0.0012   0.0009   0.0087  -0.0005  -0.0015  -0.0009  10.00  201.5
2024/05/09 12:08:11.000   28.272772512  -16.516246903  2197.4793   1   8   0.0012   0.0009   0.0087  -0.0005  -0.0015  -0.0009  11.00  205.8
2024/05/09 12:08:12.000   28.272772512  -16.516246903  2197.4792   1   8   0.0012   0.0009   0.0087  -0.0005  -0.0015  -0.0009  12.00  210.9
2024/05/09 12:08:13.000   28.272772512  -16.516246903  2197.4792   1   8   0.0012   0.0009   0.0087  -0.0005  -0.0015  -0.0009  13.00  215.4
2024/05/09 12:08:14.000   28.272772512  -16.516246903  2197.4792   1   8   0.0012   0.0009   0.0087  -0.0005  -0.0015  -0.0009  14.00  219.0
2024/05/09 12:08:15.000   28.272772512  -16.516246903  2197.4792   1   8   0.0012   0.0009   0.0087  -0.0005  -0.0015  -0.0009 -15.00  223.1
2024/05/09 12:08:16.000   28.272772512  -16.516246903  2197.4792   1   8   0.0012   0.0009   0.0087  -0.0005  -0.0015  -0.0009 -14.00  226.8
2024/05/09 12:08:17.000   28.272772512  -16.516246903  2197.4792   1   8   0.0012   0.0009   0.0087  -0.0005  -0.0015  -0.0009 -13.00  230.6
2024/05/09 12:08:18.000   28.272772512  -16.516246903  2197.4792   1   8   0.0012   0.0009   0.0087  -0.0005  -0.0015  -0.0009 -12.00  234.4
2024/05/09 12:08:19.000   28.272772512  -16.516246903  2197.4792   1   8   0.0012   0.0009   0.0087  -0.0005  -0.0015  -0.0009 -11.00  238.0
2024/05/09 12:08:20.000   28.272772512  -16.516246903  2197.4792   1   8   0.0012   0.0009   0.0087  -0.0005  -0.0015  -0.0009 -10.00  242.4
2024/05/09 12:08:21.000   28.272772512  -16.516246903  2197.4792   1   8   0.0012   0.0009   0.0087  -0.0005  -0.0015  -0.0009  -9.00  247.6
2024/05/09 12:08:22.000   28.272772512  -16.516246903  2197.4792   1   8   0.0012   0.0009   0.0087  -0.0005  -0.0015  -0.0009  -8.00  251.5
2024/05/09 12:08:23.000   28.272772512  -16.516246903  2197.4792   1   8   0.0012   0.0009   0.0087  -0.0005  -0.0015  -0.0009  -7.00  256.3
2024/05/09 12:08:24.000   28.272772512  -16.516246903  2197.4792   1   8   0.0012   0.0009   0.0087  -0.0005  -0.0015  -0.0009  -6.00  259.3
2024/05/09 12:08:25.000   28.272772512  -16.516246903  2197.4792   1   8   0.0012   0.0009   0.0087  -0.0005  -0.0015  -0.0009  -5.00  261.7
2024/05/09 12:08:26.000   28.272772512  -16.516246903  2197.4792   1   8   0.0012   0.0009   0.0087  -0.0005  -0.0015  -0.0009  -4.00  261.9
2024/05/09 12:08:27.000   28.272772512  -16.516246903  2197.4791   1   8   0.0012   0.0009   0.0087  -0.0005  -0.0015  -0.0009  -3.00  268.4
2024/05/09 12:08:28.000   28.272772512  -16.516246903  2197.4791   1   8   0.0012   0.0009   0.0087  -0.0005  -0.0015  -0.0009  -2.00  271.7
2024/05/09 12:08:29.000   28.272772512  -16.516246903  2197.4791   1   8   0.0012   0.0009   0.0087  -0.0005  -0.0015  -0.0009  -1.00  273.7
2024/05/09 12:08:30.000   28.272772513  -16.516246903  2197.4796   1   8   0.0012   0.0009   0.0086  -0.0005  -0.0015  -0.0009   0.00  276.5
2024/05/09 12:08:31.000   28.272772512  -16.516246902  2197.4789   1   8   0.0012   0.0009   0.0086  -0.0005  -0.0015  -0.0009   1.00   68.2
2024/05/09 12:08:32.000   28.272772512  -16.516246902  2197.4788   1   8   0.0012   0.0009   0.0086  -0.0005  -0.0015  -0.0009   2.00  121.2
2024/05/09 12:08:33.000   28.272772512  -16.516246902  2197.4787   1   8   0.0012   0.0009   0.0086  -0.0005  -0.0015  -0.0009   3.00  163.2
2024/05/09 12:08:34.000   28.272772512  -16.516246902  2197.4787   1   8   0.0012   0.0009   0.0086  -0.0005  -0.0015  -0.0009   4.00  195.4
2024/05/09 12:08:35.000   28.272772512  -16.516246902  2197.4786   1   8   0.0012   0.0009   0.0086  -0.0005  -0.0015  -0.0009   5.00  203.3
2024/05/09 12:08:36.000   28.272772512  -16.516246902  2197.4785   1   8   0.0012   0.0009   0.0086  -0.0005  -0.0015  -0.0009   6.00  212.8
2024/05/09 12:08:37.000   28.272772512  -16.516246902  2197.4785   1   8   0.0012   0.0009   0.0086  -0.0005  -0.0015  -0.0009   7.00  220.8
2024/05/09 12:08:38.000   28.272772512  -16.516246902  2197.4785   1   8   0.0012   0.0009   0.0086  -0.0005  -0.0015  -0.0009   8.00  228.3
2024/05/09 12:08:39.000   28.272772512  -16.516246902  2197.4785   1   8   0.0012   0.0009   0.0086  -0.0005  -0.0015  -0.0009   9.00  234.9
2024/05/09 12:08:40.000   28.272772512  -16.516246902  2197.4785   1   8   0.0012   0.0009   0.0086  -0.0005  -0.0015  -0.0009  10.00  240.4
2024/05/09 12:08:41.000   28.272772512  -16.516246902  2197.4785   1   8   0.0012   0.0009   0.0086  -0.0005  -0.0015  -0.0009  11.00  245.6
2024/05/09 12:08:42.000   28.272772512  -16.516246902  2197.4785   1   8   0.0012   0.0009   0.0086  -0.0005  -0.0015  -0.0009  12.00  250.5
2024/05/09 12:08:43.000   28.272772512  -16.516246902  2197.4785   1   8   0.0012   0.0009   0.0086  -0.0005  -0.0015  -0.0009  13.00  255.2
2024/05/09 12:08:44.000   28.272772512  -16.516246902  2197.4785   1   8   0.0012   0.0009   0.0086  -0.0005  -0.0015  -0.0009  14.00  260.0
2024/05/09 12:08:45.000   28.272772512  -16.516246902  2197.4785   1   8   0.0012   0.0009   0.0086  -0.0005  -0.0015  -0.0009 -15.00  264.8
2024/05/09 12:08:46.000   28.272772512  -16.516246902  2197.4785   1   8   0.0012   0.0009   0.0086  -0.0005  -0.0015  -0.0009 -14.00  269.3
2024/05/09 12:08:47.000   28.272772512  -16.516246902  2197.4785   1   8   0.0012   0.0009   0.0086  -0.0005  -0.0015  -0.0009 -13.00  274.8
2024/05/09 12:08:48.000   28.272772512  -16.516246902  2197.4785   1   8   0.0012   0.0009   0.0086  -0.0005  -0.0015  -0.0009 -12.00  280.9
2024/05/09 12:08:49.000   28.272772512  -16.516246902  2197.4785   1   8   0.0012   0.0009   0.0086  -0.0005  -0.0015  -0.0009 -11.00  286.7
2024/05/09 12:08:50.000   28.272772512  -16.516246902  2197.4785   1   8   0.0012   0.0009   0.0086  -0.0005  -0.0015  -0.0009 -10.00  293.4
2024/05/09 12:08:51.000   28.272772512  -16.516246902  2197.4785   1   8   0.0012   0.0009   0.0086  -0.0005  -0.0015  -0.0009  -9.00  300.0
2024/05/09 12:08:52.000   28.272772512  -16.516246902  2197.4784   1   8   0.0012   0.0009   0.0086  -0.0005  -0.0015  -0.0009  -8.00  307.0
2024/05/09 12:08:53.000   28.272772512  -16.516246902  2197.4784   1   8   0.0012   0.0009   0.0086  -0.0005  -0.0015  -0.0009  -7.00  314.9
2024/05/09 12:08:54.000   28.272772513  -16.516246902  2197.4785   1   8   0.0012   0.0009   0.0086  -0.0005  -0.0015  -0.0009  -6.00  321.6
2024/05/09 12:08:55.000   28.272772513  -16.516246902  2197.4785   1   8   0.0012   0.0009   0.0086  -0.0005  -0.0015  -0.0009  -5.00  326.6
2024/05/09 12:08:56.000   28.272772513  -16.516246902  2197.4784   1   8   0.0012   0.0009   0.0086  -0.0005  -0.0015  -0.0009  -4.00  333.8
2024/05/09 12:08:57.000   28.272772513  -16.516246902  2197.4784   1   8   0.0012   0.0009   0.0086  -0.0005  -0.0015  -0.0009  -3.00  339.8
2024/05/09 12:08:58.000   28.272772513  -16.516246902  2197.4783   1   8   0.0012   0.0009   0.0086  -0.0005  -0.0015  -0.0009  -2.00  346.9
2024/05/09 12:08:59.000   28.272772513  -16.516246901  2197.4783   1   8   0.0012   0.0009   0.0086  -0.0005  -0.0015  -0.0009  -1.00  355.6
2024/05/09 12:09:00.000   28.272772513  -16.516246902  2197.4787   1   8   0.0012   0.0009   0.0086  -0.0005  -0.0015  -0.0009   0.00  359.6
2024/05/09 12:09:01.000   28.272772512  -16.516246901  2197.4781   1   8   0.0012   0.0009   0.0086  -0.0005  -0.0015  -0.0009   1.00   73.6
2024/05/09 12:09:02.000   28.272772512  -16.516246901  2197.4780   1   8   0.0012   0.0009   0.0086  -0.0005  -0.0015  -0.0009   2.00  133.9
2024/05/09 12:09:03.000   28.272772512  -16.516246901  2197.4779   1   8   0.0012   0.0009   0.0086  -0.0005  -0.0015  -0.0009   3.00  183.1
2024/05/09 12:09:04.000   28.272772512  -16.516246901  2197.4778   1   8   0.0012   0.0009   0.0086  -0.0005  -0.0015  -0.0009   4.00  218.3
2024/05/09 12:09:05.000   28.272772512  -16.516246901  2197.4777   1   8   0.0012   0.0009   0.0086  -0.0005  -0.0015  -0.0009   5.00  230.6
2024/05/09 12:09:06.000   28.272772512  -16.516246901  2197.4776   1   8   0.0012   0.0009   0.0086  -0.0005  -0.0015  -0.0009   6.00  240.9
2024/05/09 12:09:07.000   28.272772512  -16.516246901  2197.4776   1   8   0.0012   0.0009   0.0086  -0.0005  -0.0015  -0.0009   7.00  248.6
2024/05/09 12:09:08.000   28.272772512  -16.516246901  2197.4775   1   8   0.0012   0.0009   0.0086  -0.0005  -0.0015  -0.0009   8.00  257.0
2024/05/09 12:09:09.000   28.272772512  -16.516246901  2197.4775   1   8   0.0012   0.0009   0.0086  -0.0005  -0.0015  -0.0009   9.00  262.6
2024/05/09 12:09:10.000   28.272772513  -16.516246901  2197.4775   1   8   0.0012   0.0009   0.0086  -0.0005  -0.0015  -0.0009  10.00  268.6
2024/05/09 12:09:11.000   28.272772513  -16.516246901  2197.4775   1   8   0.0012   0.0009   0.0086  -0.0005  -0.0015  -0.0009  11.00  273.7
2024/05/09 12:09:12.000   28.272772513  -16.516246901  2197.4775   1   8   0.0012   0.0009   0.0086  -0.0005  -0.0015  -0.0009  12.00  278.9
2024/05/09 12:09:13.000   28.272772513  -16.516246901  2197.4775   1   8   0.0012   0.0009   0.0086  -0.0005  -0.0015  -0.0009  13.00  283.6
2024/05/09 12:09:14.000   28.272772513  -16.516246901  2197.4775   1   8   0.0012   0.0009   0.0086  -0.0005  -0.0015  -0.0009  14.00  288.1
2024/05/09 12:09:15.000   28.272772513  -16.516246901  2197.4775   1   8   0.0012   0.0009   0.0086  -0.0005  -0.0015  -0.0009 -15.00  292.4
2024/05/09 12:09:16.000   28.272772513  -16.516246901  2197.4775   1   8   0.0012   0.0009   0.0086  -0.0005  -0.0015  -0.0009 -14.00  296.9
2024/05/09 12:09:17.000   28.272772513  -16.516246901  2197.4775   1   8   0.0012   0.0009   0.0086  -0.0005  -0.0015  -0.0009 -13.00  301.6
2024/05/09 12:09:18.000   28.272772513  -16.516246901  2197.4775   1   8   0.0012   0.0009   0.0086  -0.0005  -0.0015  -0.0009 -12.00  306.4
2024/05/09 12:09:19.000   28.272772513  -16.516246901  2197.4774   1   8   0.0012   0.0009   0.0086  -0.0005  -0.0015  -0.0009 -11.00  311.4
2024/05/09 12:09:20.000   28.272772513  -16.516246901  2197.4774   1   8   0.0012   0.0009   0.0086  -0.0005  -0.0015  -0.0009 -10.00  317.0
2024/05/09 12:09:21.000   28.272772513  -16.516246901  2197.4774   1   8   0.0012   0.0009   0.0086  -0.0005  -0.0015  -0.0009  -9.00  321.8
2024/05/09 12:09:22.000   28.272772513  -16.516246901  2197.4774   1   8   0.0012   0.0009   0.0086  -0.0005  -0.0015  -0.0009  -8.00  327.1
2024/05/09 12:09:23.000   28.272772513  -16.516246901  2197.4774   1   8   0.0012   0.0009   0.0086  -0.0005  -0.0015  -0.0009  -7.00  332.2
2024/05/09 12:09:24.000   28.272772513  -16.516246901  2197.4774   1   8   0.0012   0.0009   0.0086  -0.0005  -0.0015  -0.0009  -6.00  337.4
2024/05/09 12:09:25.000   28.272772513  -16.516246901  2197.4774   1   8   0.0012   0.0009   0.0086  -0.0005  -0.0015  -0.0009  -5.00  343.9
2024/05/09 12:09:26.000   28.272772513  -16.516246901  2197.4774   1   8   0.0012   0.0009   0.0085  -0.0005  -0.0015  -0.0008  -4.00  351.5
2024/05/09 12:09:27.000   28.272772513  -16.516246901  2197.4774   1   8   0.0012   0.0009   0.0085  -0.0005  -0.0015  -0.0008  -3.00  359.5
2024/05/09 12:09:28.000   28.272772513  -16.516246901  2197.4774   1   8   0.0012   0.0009   0.0085  -0.0005  -0.0015  -0.0008  -2.00  366.6
2024/05/09 12:09:29.000   28.272772513  -16.516246901  2197.4774   1   8   0.0012   0.0009   0.0085  -0.0005  -0.0015  -0.0008  -1.00  373.2
2024/05/09 12:09:30.000   28.272772505  -16.516246880  2197.4381   1   9   0.0011   0.0008   0.0069  -0.0005  -0.0009  -0.0012   0.00    4.9
2024/05/09 12:09:31.000   28.272772504  -16.516246879  2197.4377   1   9   0.0012   0.0008   0.0069  -0.0005  -0.0009  -0.0012   1.00    8.8
2024/05/09 12:09:32.000   28.272772504  -16.516246879  2197.4376   1   9   0.0012   0.0008   0.0069  -0.0005  -0.0009  -0.0012   2.00   11.9
2024/05/09 12:09:33.000   28.272772504  -16.516246879  2197.4375   1   9   0.0012   0.0008   0.0069  -0.0005  -0.0009  -0.0012   3.00   14.9
2024/05/09 12:09:34.000   28.272772504  -16.516246878  2197.4375   1   9   0.0012   0.0008   0.0069  -0.0005  -0.0009  -0.0012   4.00   17.8
2024/05/09 12:09:35.000   28.272772504  -16.516246878  2197.4375   1   9   0.0012   0.0008   0.0069  -0.0005  -0.0009  -0.0012   5.00   20.2
2024/05/09 12:09:36.000   28.272772504  -16.516246878  2197.4374   1   9   0.0012   0.0008   0.0069  -0.0005  -0.0009  -0.0012   6.00   22.6
2024/05/09 12:09:37.000   28.272772504  -16.516246878  2197.4374   1   9   0.0012   0.0008   0.0069  -0.0005  -0.0009  -0.0012   7.00   24.8
2024/05/09 12:09:38.000   28.272772504  -16.516246878  2197.4374   1   9   0.0012   0.0008   0.0069  -0.0005  -0.0009  -0.0012   8.00   27.2
2024/05/09 12:09:39.000   28.272772504  -16.516246878  2197.4373   1   9   0.0012   0.0008   0.0069  -0.0005  -0.0009  -0.0012   9.00   29.6
2024/05/09 12:09:40.000   28.272772504  -16.516246878  2197.4373   1   9   0.0012   0.0008   0.0069  -0.0005  -0.0009  -0.0012  10.00   31.8
2024/05/09 12:09:41.000   28.272772504  -16.516246878  2197.4373   1   9   0.0012   0.0008   0.0069  -0.0005  -0.0009  -0.0012  11.00   34.2
