% program   : RTKPOST-EX 2.5.0
% inp file  : C:\Users\SallyHenry\Desktop\Sally Internship\GNSS gravi\DATA\Survey Rover Obs\FA10.24o
% inp file  : C:\Users\SallyHenry\Desktop\Sally Internship\GNSS gravi\DATA\BaseStations\IZAN\IZAN00ESP_R_20241300000_01D_30S_MO.rnx
% inp file  : C:\Users\SallyHenry\Desktop\Sally Internship\GNSS gravi\DATA\BaseStations\IZAN\IZAN00ESP_R_20241300000_01D_MN.rnx
% inp file  : C:\Users\SallyHenry\Desktop\Sally Internship\GNSS gravi\DATA\aux_files\Survey\IGS0OPSFIN_20241300000_01D_15M_ORB.SP3
% inp file  : C:\Users\SallyHenry\Desktop\Sally Internship\GNSS gravi\DATA\aux_files\Survey\IGS0OPSFIN_20241300000_01D_30S_CLK.CLK
% obs start : 2024/05/09 12:33:11.0 GPST (week2313 390791.0s)
% obs end   : 2024/05/09 12:48:11.0 GPST (week2313 391691.0s)
% pos mode  : Static
% freqs     : L1+L2/E5b
% solution  : Combined-No Phase Reset
% elev mask : 15.0 deg
% dynamics  : on
% tidecorr  : solid
% ionos opt : Estimate TEC
% tropo opt : Estimate ZTD+Grad
% ephemeris : Precise
% navi sys  : GPS GLONASS Galileo QZSS BDS
% amb res   : Fix and Hold
% amb glo   : Fix and Hold
% amb bds   : on
% val thres : 3.0
% antenna1  :                       ( 0.0000  0.0000  1.8000)
% antenna2  :                       ( 0.0000  0.0000  0.0000)
% ref pos   :  28.308069410  -16.499677180  2417.4044
%
% (lat/lon/height=WGS84/ellipsoidal,Q=1:fix,2:float,3:sbas,4:dgps,5:single,6:ppp,ns=# of satellites)
%  GPST                  latitude(deg) longitude(deg)  height(m)   Q  ns   sdn(m)   sde(m)   sdu(m)  sdne(m)  sdeu(m)  sdun(m) age(s)  ratio
2024/05/09 12:33:11.000   28.259524272  -16.519988890  2080.9028   1   9   0.0016   0.0011   0.0111  -0.0007  -0.0016  -0.0008  11.00   16.5
2024/05/09 12:33:12.000   28.259524272  -16.519988890  2080.9027   1   9   0.0016   0.0011   0.0111  -0.0007  -0.0016  -0.0008  12.00   16.2
2024/05/09 12:33:13.000   28.259524272  -16.519988890  2080.9027   1   9   0.0016   0.0011   0.0111  -0.0007  -0.0016  -0.0008  13.00   15.9
2024/05/09 12:33:14.000   28.259524272  -16.519988890  2080.9027   1   9   0.0016   0.0011   0.0111  -0.0007  -0.0016  -0.0008  14.00   15.6
2024/05/09 12:33:15.000   28.259524272  -16.519988890  2080.9027   1   9   0.0016   0.0011   0.0111  -0.0007  -0.0016  -0.0008  15.00   15.3
2024/05/09 12:33:16.000   28.259524272  -16.519988890  2080.9026   1   9   0.0016   0.0011   0.0110  -0.0007  -0.0016  -0.0008 -14.00   15.0
2024/05/09 12:33:17.000   28.259524272  -16.519988890  2080.9026   1   9   0.0016   0.0011   0.0110  -0.0007  -0.0016  -0.0008 -13.00   14.7
2024/05/09 12:33:18.000   28.259524272  -16.519988890  2080.9026   1   9   0.0016   0.0011   0.0110  -0.0007  -0.0016  -0.0007 -12.00   14.4
2024/05/09 12:33:19.000   28.259524272  -16.519988890  2080.9026   1   9   0.0016   0.0011   0.0110  -0.0007  -0.0016  -0.0007 -11.00   14.1
2024/05/09 12:33:20.000   28.259524272  -16.519988890  2080.9026   1   9   0.0016   0.0011   0.0110  -0.0007  -0.0016  -0.0007 -10.00   13.7
2024/05/09 12:33:21.000   28.259524272  -16.519988890  2080.9026   1   9   0.0016   0.0011   0.0110  -0.0007  -0.0016  -0.0007  -9.00   13.4
2024/05/09 12:33:22.000   28.259524272  -16.519988890  2080.9025   1   9   0.0016   0.0011   0.0110  -0.0007  -0.0016  -0.0007  -8.00   13.0
2024/05/09 12:33:23.000   28.259524271  -16.519988890  2080.9025   1   9   0.0016   0.0011   0.0110  -0.0007  -0.0016  -0.0007  -7.00   12.7
2024/05/09 12:33:24.000   28.259524271  -16.519988890  2080.9024   1   9   0.0016   0.0011   0.0110  -0.0007  -0.0016  -0.0007  -6.00   12.2
2024/05/09 12:33:25.000   28.259524271  -16.519988890  2080.9024   1   9   0.0016   0.0011   0.0110  -0.0007  -0.0016  -0.0007  -5.00   11.7
2024/05/09 12:33:26.000   28.259524272  -16.519988890  2080.9024   1   9   0.0016   0.0011   0.0110  -0.0007  -0.0016  -0.0007  -4.00   11.1
2024/05/09 12:33:27.000   28.259524272  -16.519988890  2080.9024   1   9   0.0016   0.0011   0.0111  -0.0007  -0.0016  -0.0006  -3.00    9.8
2024/05/09 12:33:28.000   28.259524271  -16.519988890  2080.9023   1   9   0.0016   0.0011   0.0111  -0.0007  -0.0016  -0.0006  -2.00    7.3
2024/05/09 12:33:29.000   28.259524271  -16.519988890  2080.9022   1   9   0.0016   0.0011   0.0111  -0.0007  -0.0016  -0.0006  -1.00    4.4
2024/05/09 12:33:30.000   28.259524270  -16.519988889  2080.9014   1   9   0.0016   0.0011   0.0110  -0.0007  -0.0015  -0.0009   0.00   20.1
2024/05/09 12:33:31.000   28.259524270  -16.519988889  2080.9013   1   9   0.0016   0.0011   0.0110  -0.0007  -0.0015  -0.0009   1.00   19.8
2024/05/09 12:33:32.000   28.259524270  -16.519988889  2080.9011   1   9   0.0016   0.0011   0.0111  -0.0007  -0.0015  -0.0009   2.00   19.5
2024/05/09 12:33:33.000   28.259524270  -16.519988889  2080.9010   1   9   0.0016   0.0011   0.0111  -0.0007  -0.0015  -0.0008   3.00   19.2
2024/05/09 12:33:34.000   28.259524270  -16.519988889  2080.9009   1   9   0.0016   0.0011   0.0111  -0.0007  -0.0015  -0.0008   4.00   18.9
2024/05/09 12:33:35.000   28.259524270  -16.519988889  2080.9007   1   9   0.0016   0.0011   0.0111  -0.0007  -0.0015  -0.0008   5.00   18.6
2024/05/09 12:33:36.000   28.259524270  -16.519988889  2080.9007   1   9   0.0016   0.0011   0.0111  -0.0007  -0.0015  -0.0008   6.00   18.3
2024/05/09 12:33:37.000   28.259524270  -16.519988889  2080.9006   1   9   0.0016   0.0011   0.0111  -0.0007  -0.0015  -0.0008   7.00   18.0
2024/05/09 12:33:38.000   28.259524270  -16.519988889  2080.9005   1   9   0.0016   0.0011   0.0111  -0.0007  -0.0015  -0.0008   8.00   17.7
2024/05/09 12:33:39.000   28.259524270  -16.519988889  2080.9004   1   9   0.0016   0.0011   0.0111  -0.0007  -0.0015  -0.0008   9.00   17.4
2024/05/09 12:33:40.000   28.259524270  -16.519988889  2080.9003   1   9   0.0016   0.0011   0.0111  -0.0007  -0.0015  -0.0008  10.00   17.1
2024/05/09 12:33:41.000   28.259524270  -16.519988889  2080.9003   1   9   0.0016   0.0011   0.0111  -0.0007  -0.0015  -0.0008  11.00   16.8
2024/05/09 12:33:42.000   28.259524270  -16.519988889  2080.9002   1   9   0.0016   0.0011   0.0111  -0.0007  -0.0015  -0.0008  12.00   16.5
2024/05/09 12:33:43.000   28.259524270  -16.519988889  2080.9002   1   9   0.0016   0.0011   0.0111  -0.0007  -0.0015  -0.0007  13.00   16.2
2024/05/09 12:33:44.000   28.259524270  -16.519988889  2080.9001   1   9   0.0016   0.0011   0.0111  -0.0007  -0.0015  -0.0007  14.00   15.9
2024/05/09 12:33:45.000   28.259524270  -16.519988889  2080.9001   1   9   0.0016   0.0011   0.0111  -0.0007  -0.0015  -0.0007  15.00   15.6
2024/05/09 12:33:46.000   28.259524270  -16.519988889  2080.9000   1   9   0.0016   0.0011   0.0111  -0.0007  -0.0015  -0.0007 -14.00   15.3
2024/05/09 12:33:47.000   28.259524270  -16.519988889  2080.9000   1   9   0.0016   0.0011   0.0111  -0.0007  -0.0015  -0.0007 -13.00   15.0
2024/05/09 12:33:48.000   28.259524270  -16.519988890  2080.9000   1   9   0.0016   0.0011   0.0111  -0.0007  -0.0015  -0.0007 -12.00   14.7
2024/05/09 12:33:49.000   28.259524270  -16.519988890  2080.8999   1   9   0.0016   0.0011   0.0111  -0.0007  -0.0015  -0.0007 -11.00   14.4
2024/05/09 12:33:50.000   28.259524270  -16.519988890  2080.8998   1   9   0.0016   0.0011   0.0111  -0.0007  -0.0015  -0.0007 -10.00   14.1
2024/05/09 12:33:51.000   28.259524270  -16.519988890  2080.8998   1   9   0.0016   0.0011   0.0111  -0.0007  -0.0015  -0.0007  -9.00   13.8
2024/05/09 12:33:52.000   28.259524271  -16.519988890  2080.8997   1   9   0.0016   0.0011   0.0111  -0.0007  -0.0015  -0.0007  -8.00   13.5
2024/05/09 12:33:53.000   28.259524271  -16.519988890  2080.8997   1   9   0.0016   0.0011   0.0111  -0.0007  -0.0015  -0.0007  -7.00   13.1
2024/05/09 12:33:54.000   28.259524271  -16.519988890  2080.8997   1   9   0.0016   0.0011   0.0111  -0.0007  -0.0015  -0.0006  -6.00   12.7
2024/05/09 12:33:55.000   28.259524271  -16.519988890  2080.8996   1   9   0.0016   0.0011   0.0111  -0.0007  -0.0015  -0.0006  -5.00   12.2
2024/05/09 12:33:56.000   28.259524271  -16.519988890  2080.8996   1   9   0.0016   0.0011   0.0111  -0.0007  -0.0015  -0.0006  -4.00   11.6
2024/05/09 12:33:57.000   28.259524271  -16.519988890  2080.8995   1   9   0.0016   0.0011   0.0111  -0.0007  -0.0015  -0.0006  -3.00   10.0
2024/05/09 12:33:58.000   28.259524271  -16.519988890  2080.8995   1   9   0.0016   0.0011   0.0111  -0.0007  -0.0016  -0.0006  -2.00    7.6
2024/05/09 12:33:59.000   28.259524271  -16.519988890  2080.8994   1   9   0.0016   0.0011   0.0112  -0.0007  -0.0016  -0.0006  -1.00    4.6
2024/05/09 12:34:00.000   28.259524267  -16.519988888  2080.8970   1   9   0.0016   0.0011   0.0111  -0.0007  -0.0015  -0.0008   0.00   20.8
2024/05/09 12:34:01.000   28.259524267  -16.519988888  2080.8970   1   9   0.0016   0.0011   0.0111  -0.0007  -0.0015  -0.0008   1.00   20.7
2024/05/09 12:34:02.000   28.259524267  -16.519988888  2080.8971   1   9   0.0016   0.0011   0.0111  -0.0007  -0.0015  -0.0008   2.00   20.5
2024/05/09 12:34:03.000   28.259524267  -16.519988888  2080.8970   1   9   0.0016   0.0011   0.0111  -0.0007  -0.0015  -0.0008   3.00   20.3
2024/05/09 12:34:04.000   28.259524267  -16.519988888  2080.8971   1   9   0.0016   0.0011   0.0112  -0.0007  -0.0015  -0.0008   4.00   20.1
2024/05/09 12:34:05.000   28.259524267  -16.519988888  2080.8972   1   9   0.0016   0.0011   0.0112  -0.0007  -0.0015  -0.0008   5.00   19.9
2024/05/09 12:34:06.000   28.259524267  -16.519988888  2080.8973   1   9   0.0016   0.0011   0.0112  -0.0007  -0.0015  -0.0008   6.00   19.7
2024/05/09 12:34:07.000   28.259524267  -16.519988888  2080.8974   1   9   0.0016   0.0011   0.0112  -0.0007  -0.0015  -0.0008   7.00   19.5
2024/05/09 12:34:08.000   28.259524267  -16.519988888  2080.8974   1   9   0.0016   0.0011   0.0112  -0.0007  -0.0015  -0.0008   8.00   19.3
2024/05/09 12:34:09.000   28.259524268  -16.519988889  2080.8976   1   9   0.0016   0.0011   0.0112  -0.0007  -0.0015  -0.0007   9.00   19.1
2024/05/09 12:34:10.000   28.259524268  -16.519988889  2080.8976   1   9   0.0016   0.0011   0.0112  -0.0007  -0.0015  -0.0007  10.00   18.8
2024/05/09 12:34:11.000   28.259524268  -16.519988889  2080.8977   1   9   0.0016   0.0011   0.0112  -0.0007  -0.0015  -0.0007  11.00   18.6
2024/05/09 12:34:12.000   28.259524268  -16.519988889  2080.8978   1   9   0.0016   0.0011   0.0112  -0.0007  -0.0015  -0.0007  12.00   18.3
2024/05/09 12:34:13.000   28.259524268  -16.519988889  2080.8978   1   9   0.0016   0.0011   0.0112  -0.0007  -0.0015  -0.0007  13.00   18.0
2024/05/09 12:34:14.000   28.259524268  -16.519988889  2080.8979   1   9   0.0016   0.0011   0.0112  -0.0007  -0.0015  -0.0007  14.00   17.7
2024/05/09 12:34:15.000   28.259524268  -16.519988889  2080.8979   1   9   0.0016   0.0011   0.0112  -0.0007  -0.0015  -0.0007  15.00   17.4
2024/05/09 12:34:16.000   28.259524268  -16.519988889  2080.8979   1   9   0.0016   0.0011   0.0112  -0.0007  -0.0015  -0.0007 -14.00   17.2
2024/05/09 12:34:17.000   28.259524268  -16.519988889  2080.8980   1   9   0.0016   0.0011   0.0112  -0.0007  -0.0015  -0.0007 -13.00   16.9
2024/05/09 12:34:18.000   28.259524268  -16.519988889  2080.8980   1   9   0.0016   0.0011   0.0112  -0.0007  -0.0015  -0.0007 -12.00   16.6
2024/05/09 12:34:19.000   28.259524268  -16.519988889  2080.8981   1   9   0.0016   0.0011   0.0112  -0.0007  -0.0015  -0.0007 -11.00   16.3
2024/05/09 12:34:20.000   28.259524268  -16.519988889  2080.8981   1   9   0.0016   0.0011   0.0112  -0.0007  -0.0015  -0.0007 -10.00   16.0
2024/05/09 12:34:21.000   28.259524268  -16.519988889  2080.8981   1   9   0.0016   0.0011   0.0112  -0.0007  -0.0015  -0.0006  -9.00   15.7
2024/05/09 12:34:22.000   28.259524268  -16.519988889  2080.8982   1   9   0.0016   0.0011   0.0112  -0.0007  -0.0015  -0.0006  -8.00   15.4
2024/05/09 12:34:23.000   28.259524268  -16.519988889  2080.8983   1   9   0.0016   0.0011   0.0112  -0.0007  -0.0015  -0.0006  -7.00   15.0
2024/05/09 12:34:24.000   28.259524269  -16.519988889  2080.8983   1   9   0.0016   0.0011   0.0112  -0.0007  -0.0015  -0.0006  -6.00   14.6
2024/05/09 12:34:25.000   28.259524269  -16.519988889  2080.8985   1   9   0.0016   0.0011   0.0112  -0.0007  -0.0015  -0.0006  -5.00   14.2
2024/05/09 12:34:26.000   28.259524269  -16.519988889  2080.8986   1   9   0.0016   0.0011   0.0112  -0.0007  -0.0015  -0.0006  -4.00   13.1
2024/05/09 12:34:27.000   28.259524269  -16.519988889  2080.8987   1   9   0.0016   0.0011   0.0112  -0.0007  -0.0015  -0.0006  -3.00   11.2
2024/05/09 12:34:28.000   28.259524270  -16.519988889  2080.8988   1   9   0.0016   0.0011   0.0112  -0.0007  -0.0015  -0.0005  -2.00    8.4
2024/05/09 12:34:29.000   28.259524270  -16.519988889  2080.8989   1   9   0.0016   0.0011   0.0112  -0.0007  -0.0015  -0.0005  -1.00    5.0
2024/05/09 12:34:30.000   28.259524264  -16.519988886  2080.8958   1   9   0.0016   0.0011   0.0111  -0.0007  -0.0015  -0.0008   0.00   23.2
2024/05/09 12:34:31.000   28.259524265  -16.519988886  2080.8959   1   9   0.0016   0.0011   0.0112  -0.0007  -0.0015  -0.0008   1.00   23.2
2024/05/09 12:34:32.000   28.259524265  -16.519988886  2080.8959   1   9   0.0016   0.0011   0.0112  -0.0007  -0.0015  -0.0008   2.00   23.2
2024/05/09 12:34:33.000   28.259524265  -16.519988886  2080.8958   1   9   0.0016   0.0011   0.0112  -0.0007  -0.0015  -0.0008   3.00   23.2
2024/05/09 12:34:34.000   28.259524265  -16.519988887  2080.8957   1   9   0.0016   0.0011   0.0112  -0.0007  -0.0015  -0.0008   4.00   23.1
2024/05/09 12:34:35.000   28.259524266  -16.519988887  2080.8957   1   9   0.0016   0.0011   0.0112  -0.0007  -0.0015  -0.0008   5.00   23.0
2024/05/09 12:34:36.000   28.259524266  -16.519988887  2080.8956   1   9   0.0016   0.0011   0.0112  -0.0007  -0.0015  -0.0007   6.00   22.9
2024/05/09 12:34:37.000   28.259524266  -16.519988887  2080.8957   1   9   0.0016   0.0011   0.0112  -0.0007  -0.0015  -0.0007   7.00   22.7
2024/05/09 12:34:38.000   28.259524266  -16.519988887  2080.8957   1   9   0.0016   0.0011   0.0112  -0.0007  -0.0015  -0.0007   8.00   22.5
2024/05/09 12:34:39.000   28.259524267  -16.519988887  2080.8957   1   9   0.0016   0.0011   0.0112  -0.0007  -0.0015  -0.0007   9.00   22.2
2024/05/09 12:34:40.000   28.259524267  -16.519988887  2080.8957   1   9   0.0016   0.0011   0.0112  -0.0007  -0.0015  -0.0007  10.00   22.0
2024/05/09 12:34:41.000   28.259524267  -16.519988887  2080.8957   1   9   0.0016   0.0011   0.0112  -0.0007  -0.0015  -0.0007  11.00   21.7
2024/05/09 12:34:42.000   28.259524267  -16.519988887  2080.8957   1   9   0.0016   0.0011   0.0112  -0.0007  -0.0015  -0.0007  12.00   21.4
2024/05/09 12:34:43.000   28.259524267  -16.519988887  2080.8957   1   9   0.0016   0.0011   0.0112  -0.0007  -0.0015  -0.0007  13.00   21.1
2024/05/09 12:34:44.000   28.259524267  -16.519988887  2080.8958   1   9   0.0016   0.0011   0.0112  -0.0007  -0.0015  -0.0007  14.00   20.7
2024/05/09 12:34:45.000   28.259524267  -16.519988887  2080.8958   1   9   0.0016   0.0011   0.0112  -0.0007  -0.0015  -0.0007  15.00   20.4
2024/05/09 12:34:46.000   28.259524267  -16.519988887  2080.8958   1   9   0.0016   0.0011   0.0112  -0.0007  -0.0015  -0.0006 -14.00   20.1
2024/05/09 12:34:47.000   28.259524267  -16.519988887  2080.8958   1   9   0.0016   0.0011   0.0112  -0.0007  -0.0015  -0.0006 -13.00   19.7
2024/05/09 12:34:48.000   28.259524267  -16.519988887  2080.8959   1   9   0.0016   0.0011   0.0112  -0.0007  -0.0015  -0.0006 -12.00   19.4
2024/05/09 12:34:49.000   28.259524267  -16.519988887  2080.8959   1   9   0.0016   0.0011   0.0112  -0.0007  -0.0015  -0.0006 -11.00   19.0
2024/05/09 12:34:50.000   28.259524267  -16.519988887  2080.8959   1   9   0.0016   0.0011   0.0112  -0.0007  -0.0015  -0.0006 -10.00   18.7
2024/05/09 12:34:51.000   28.259524267  -16.519988887  2080.8960   1   9   0.0016   0.0011   0.0112  -0.0007  -0.0015  -0.0006  -9.00   18.3
2024/05/09 12:34:52.000   28.259524267  -16.519988887  2080.8961   1   9   0.0016   0.0011   0.0112  -0.0007  -0.0015  -0.0006  -8.00   17.9
2024/05/09 12:34:53.000   28.259524267  -16.519988887  2080.8961   1   9   0.0016   0.0011   0.0112  -0.0007  -0.0015  -0.0006  -7.00   17.4
2024/05/09 12:34:54.000   28.259524267  -16.519988887  2080.8962   1   9   0.0016   0.0011   0.0112  -0.0007  -0.0015  -0.0006  -6.00   16.9
2024/05/09 12:34:55.000   28.259524267  -16.519988887  2080.8962   1   9   0.0016   0.0011   0.0112  -0.0007  -0.0015  -0.0005  -5.00   16.4
2024/05/09 12:34:56.000   28.259524268  -16.519988887  2080.8963   1   9   0.0016   0.0011   0.0112  -0.0007  -0.0015  -0.0005  -4.00   15.3
2024/05/09 12:34:57.000   28.259524268  -16.519988887  2080.8964   1   9   0.0016   0.0011   0.0112  -0.0007  -0.0015  -0.0005  -3.00   12.9
2024/05/09 12:34:58.000   28.259524268  -16.519988887  2080.8964   1   9   0.0016   0.0011   0.0113  -0.0007  -0.0015  -0.0005  -2.00    9.5
2024/05/09 12:34:59.000   28.259524268  -16.519988887  2080.8965   1   9   0.0016   0.0011   0.0113  -0.0007  -0.0015  -0.0005  -1.00    5.5
2024/05/09 12:35:00.000   28.259524263  -16.519988884  2080.8937   1   9   0.0016   0.0011   0.0112  -0.0007  -0.0015  -0.0008   0.00   27.0
2024/05/09 12:35:01.000   28.259524263  -16.519988885  2080.8936   1   9   0.0016   0.0011   0.0112  -0.0007  -0.0015  -0.0008   1.00   27.0
2024/05/09 12:35:02.000   28.259524264  -16.519988885  2080.8935   1   9   0.0016   0.0011   0.0112  -0.0007  -0.0015  -0.0008   2.00   26.9
2024/05/09 12:35:03.000   28.259524264  -16.519988885  2080.8934   1   9   0.0016   0.0011   0.0113  -0.0007  -0.0015  -0.0008   3.00   26.7
2024/05/09 12:35:04.000   28.259524265  -16.519988885  2080.8934   1   9   0.0016   0.0011   0.0113  -0.0007  -0.0015  -0.0007   4.00   26.4
2024/05/09 12:35:05.000   28.259524265  -16.519988885  2080.8934   1   9   0.0016   0.0011   0.0113  -0.0007  -0.0015  -0.0007   5.00   26.1
2024/05/09 12:35:06.000   28.259524265  -16.519988885  2080.8934   1   9   0.0016   0.0011   0.0113  -0.0007  -0.0015  -0.0007   6.00   25.9
2024/05/09 12:35:07.000   28.259524265  -16.519988885  2080.8935   1   9   0.0016   0.0011   0.0113  -0.0007  -0.0015  -0.0007   7.00   25.6
2024/05/09 12:35:08.000   28.259524265  -16.519988885  2080.8935   1   9   0.0016   0.0011   0.0113  -0.0007  -0.0015  -0.0007   8.00   25.3
2024/05/09 12:35:09.000   28.259524265  -16.519988885  2080.8935   1   9   0.0016   0.0011   0.0113  -0.0007  -0.0015  -0.0007   9.00   24.9
2024/05/09 12:35:10.000   28.259524266  -16.519988885  2080.8935   1   9   0.0016   0.0011   0.0113  -0.0007  -0.0015  -0.0007  10.00   24.6
2024/05/09 12:35:11.000   28.259524266  -16.519988885  2080.8935   1   9   0.0016   0.0011   0.0113  -0.0007  -0.0015  -0.0006  11.00   24.2
2024/05/09 12:35:12.000   28.259524266  -16.519988885  2080.8935   1   9   0.0016   0.0011   0.0113  -0.0007  -0.0015  -0.0006  12.00   23.8
2024/05/09 12:35:13.000   28.259524266  -16.519988885  2080.8936   1   9   0.0016   0.0011   0.0113  -0.0007  -0.0015  -0.0006  13.00   23.5
2024/05/09 12:35:14.000   28.259524266  -16.519988885  2080.8936   1   9   0.0016   0.0011   0.0113  -0.0007  -0.0015  -0.0006  14.00   23.1
2024/05/09 12:35:15.000   28.259524266  -16.519988886  2080.8936   1   9   0.0016   0.0011   0.0113  -0.0007  -0.0015  -0.0006  15.00   22.7
2024/05/09 12:35:16.000   28.259524266  -16.519988886  2080.8936   1   9   0.0016   0.0011   0.0113  -0.0007  -0.0015  -0.0006 -14.00   22.3
2024/05/09 12:35:17.000   28.259524266  -16.519988886  2080.8936   1   9   0.0016   0.0011   0.0113  -0.0007  -0.0015  -0.0006 -13.00   21.9
2024/05/09 12:35:18.000   28.259524266  -16.519988886  2080.8936   1   9   0.0016   0.0011   0.0113  -0.0007  -0.0015  -0.0006 -12.00   21.5
2024/05/09 12:35:19.000   28.259524266  -16.519988886  2080.8936   1   9   0.0016   0.0011   0.0113  -0.0007  -0.0015  -0.0006 -11.00   21.1
2024/05/09 12:35:20.000   28.259524266  -16.519988886  2080.8936   1   9   0.0016   0.0011   0.0113  -0.0007  -0.0015  -0.0006 -10.00   20.6
2024/05/09 12:35:21.000   28.259524266  -16.519988886  2080.8936   1   9   0.0016   0.0011   0.0113  -0.0007  -0.0015  -0.0006  -9.00   20.2
2024/05/09 12:35:22.000   28.259524266  -16.519988886  2080.8936   1   9   0.0016   0.0011   0.0113  -0.0007  -0.0015  -0.0005  -8.00   19.7
2024/05/09 12:35:23.000   28.259524266  -16.519988886  2080.8936   1   9   0.0016   0.0011   0.0113  -0.0007  -0.0015  -0.0005  -7.00   19.2
2024/05/09 12:35:24.000   28.259524267  -16.519988886  2080.8936   1   9   0.0016   0.0011   0.0113  -0.0007  -0.0015  -0.0005  -6.00   18.6
2024/05/09 12:35:25.000   28.259524267  -16.519988886  2080.8936   1   9   0.0016   0.0011   0.0113  -0.0007  -0.0015  -0.0005  -5.00   17.9
2024/05/09 12:35:26.000   28.259524267  -16.519988886  2080.8937   1   9   0.0016   0.0011   0.0113  -0.0007  -0.0015  -0.0005  -4.00   16.6
2024/05/09 12:35:27.000   28.259524267  -16.519988886  2080.8938   1   9   0.0016   0.0011   0.0113  -0.0007  -0.0015  -0.0004  -3.00   14.1
2024/05/09 12:35:28.000   28.259524267  -16.519988886  2080.8938   1   9   0.0016   0.0011   0.0113  -0.0007  -0.0015  -0.0004  -2.00   10.5
2024/05/09 12:35:29.000   28.259524268  -16.519988886  2080.8939   1   9   0.0016   0.0011   0.0113  -0.0007  -0.0015  -0.0004  -1.00    6.1
2024/05/09 12:35:30.000   28.259524262  -16.519988883  2080.8910   1   9   0.0016   0.0011   0.0113  -0.0007  -0.0014  -0.0008   0.00   29.4
2024/05/09 12:35:31.000   28.259524262  -16.519988883  2080.8910   1   9   0.0016   0.0011   0.0113  -0.0007  -0.0015  -0.0007   1.00   29.2
2024/05/09 12:35:32.000   28.259524263  -16.519988883  2080.8909   1   9   0.0016   0.0011   0.0113  -0.0007  -0.0015  -0.0007   2.00   29.0
2024/05/09 12:35:33.000   28.259524263  -16.519988883  2080.8909   1   9   0.0016   0.0011   0.0113  -0.0007  -0.0015  -0.0007   3.00   28.7
2024/05/09 12:35:34.000   28.259524263  -16.519988883  2080.8910   1   9   0.0016   0.0011   0.0113  -0.0007  -0.0015  -0.0007   4.00   28.5
2024/05/09 12:35:35.000   28.259524263  -16.519988884  2080.8911   1   9   0.0016   0.0011   0.0114  -0.0007  -0.0015  -0.0007   5.00   28.3
2024/05/09 12:35:36.000   28.259524264  -16.519988884  2080.8912   1   9   0.0016   0.0011   0.0114  -0.0007  -0.0015  -0.0007   6.00   28.1
2024/05/09 12:35:37.000   28.259524264  -16.519988884  2080.8912   1   9   0.0016   0.0011   0.0114  -0.0007  -0.0015  -0.0007   7.00   27.8
2024/05/09 12:35:38.000   28.259524264  -16.519988884  2080.8913   1   9   0.0016   0.0011   0.0114  -0.0007  -0.0015  -0.0006   8.00   27.6
2024/05/09 12:35:39.000   28.259524264  -16.519988884  2080.8914   1   9   0.0016   0.0011   0.0114  -0.0007  -0.0015  -0.0006   9.00   27.2
2024/05/09 12:35:40.000   28.259524264  -16.519988884  2080.8915   1   9   0.0016   0.0011   0.0114  -0.0007  -0.0015  -0.0006  10.00   26.9
2024/05/09 12:35:41.000   28.259524264  -16.519988884  2080.8915   1   9   0.0016   0.0011   0.0114  -0.0007  -0.0015  -0.0006  11.00   26.5
2024/05/09 12:35:42.000   28.259524264  -16.519988884  2080.8916   1   9   0.0016   0.0011   0.0114  -0.0007  -0.0015  -0.0006  12.00   26.1
2024/05/09 12:35:43.000   28.259524264  -16.519988884  2080.8917   1   9   0.0016   0.0011   0.0114  -0.0007  -0.0015  -0.0006  13.00   25.7
2024/05/09 12:35:44.000   28.259524264  -16.519988884  2080.8917   1   9   0.0016   0.0011   0.0114  -0.0007  -0.0015  -0.0006  14.00   25.3
2024/05/09 12:35:45.000   28.259524265  -16.519988884  2080.8918   1   9   0.0016   0.0011   0.0114  -0.0007  -0.0015  -0.0006  15.00   24.9
2024/05/09 12:35:46.000   28.259524265  -16.519988884  2080.8919   1   9   0.0016   0.0011   0.0114  -0.0007  -0.0015  -0.0006 -14.00   24.5
2024/05/09 12:35:47.000   28.259524265  -16.519988884  2080.8920   1   9   0.0016   0.0011   0.0113  -0.0007  -0.0015  -0.0006 -13.00   24.1
2024/05/09 12:35:48.000   28.259524265  -16.519988884  2080.8920   1   9   0.0016   0.0011   0.0113  -0.0007  -0.0015  -0.0005 -12.00   23.7
2024/05/09 12:35:49.000   28.259524265  -16.519988884  2080.8921   1   9   0.0016   0.0011   0.0113  -0.0007  -0.0015  -0.0005 -11.00   23.2
2024/05/09 12:35:50.000   28.259524265  -16.519988884  2080.8922   1   9   0.0016   0.0011   0.0113  -0.0007  -0.0015  -0.0005 -10.00   22.8
2024/05/09 12:35:51.000   28.259524265  -16.519988884  2080.8923   1   9   0.0016   0.0011   0.0113  -0.0007  -0.0015  -0.0005  -9.00   22.4
2024/05/09 12:35:52.000   28.259524265  -16.519988884  2080.8924   1   9   0.0016   0.0011   0.0113  -0.0007  -0.0015  -0.0005  -8.00   22.0
2024/05/09 12:35:53.000   28.259524265  -16.519988884  2080.8925   1   9   0.0016   0.0011   0.0113  -0.0007  -0.0015  -0.0005  -7.00   21.4
2024/05/09 12:35:54.000   28.259524266  -16.519988884  2080.8926   1   9   0.0016   0.0011   0.0113  -0.0007  -0.0015  -0.0005  -6.00   20.7
2024/05/09 12:35:55.000   28.259524266  -16.519988885  2080.8928   1   9   0.0016   0.0011   0.0113  -0.0007  -0.0015  -0.0004  -5.00   20.0
2024/05/09 12:35:56.000   28.259524266  -16.519988885  2080.8929   1   9   0.0016   0.0011   0.0114  -0.0007  -0.0015  -0.0004  -4.00   18.0
2024/05/09 12:35:57.000   28.259524266  -16.519988885  2080.8931   1   9   0.0016   0.0011   0.0114  -0.0007  -0.0015  -0.0004  -3.00   15.3
2024/05/09 12:35:58.000   28.259524267  -16.519988885  2080.8933   1   9   0.0016   0.0011   0.0114  -0.0007  -0.0015  -0.0003  -2.00   11.3
2024/05/09 12:35:59.000   28.259524267  -16.519988885  2080.8936   1   9   0.0016   0.0011   0.0114  -0.0007  -0.0015  -0.0003  -1.00    6.6
2024/05/09 12:36:00.000   28.259524263  -16.519988883  2080.8917   1   9   0.0016   0.0011   0.0113  -0.0007  -0.0014  -0.0007   0.00   33.1
2024/05/09 12:36:01.000   28.259524264  -16.519988883  2080.8920   1   9   0.0016   0.0011   0.0114  -0.0007  -0.0014  -0.0007   1.00   32.7
2024/05/09 12:36:02.000   28.259524264  -16.519988883  2080.8923   1   9   0.0016   0.0011   0.0114  -0.0007  -0.0014  -0.0007   2.00   32.3
2024/05/09 12:36:03.000   28.259524264  -16.519988883  2080.8926   1   9   0.0016   0.0011   0.0114  -0.0007  -0.0014  -0.0007   3.00   31.9
2024/05/09 12:36:04.000   28.259524265  -16.519988883  2080.8928   1   9   0.0016   0.0011   0.0114  -0.0007  -0.0014  -0.0007   4.00   31.5
2024/05/09 12:36:05.000   28.259524265  -16.519988883  2080.8930   1   9   0.0016   0.0011   0.0114  -0.0007  -0.0014  -0.0006   5.00   31.0
2024/05/09 12:36:06.000   28.259524265  -16.519988883  2080.8932   1   9   0.0016   0.0011   0.0114  -0.0007  -0.0014  -0.0006   6.00   30.6
2024/05/09 12:36:07.000   28.259524265  -16.519988883  2080.8933   1   9   0.0016   0.0011   0.0114  -0.0007  -0.0014  -0.0006   7.00   30.0
2024/05/09 12:36:08.000   28.259524265  -16.519988883  2080.8934   1   9   0.0016   0.0011   0.0114  -0.0007  -0.0014  -0.0006   8.00   29.5
2024/05/09 12:36:09.000   28.259524265  -16.519988883  2080.8935   1   9   0.0016   0.0011   0.0114  -0.0007  -0.0014  -0.0006   9.00   29.0
2024/05/09 12:36:10.000   28.259524265  -16.519988883  2080.8937   1   9   0.0016   0.0011   0.0114  -0.0007  -0.0014  -0.0006  10.00   28.5
2024/05/09 12:36:11.000   28.259524266  -16.519988883  2080.8938   1   9   0.0016   0.0011   0.0114  -0.0007  -0.0014  -0.0006  11.00   28.1
2024/05/09 12:36:12.000   28.259524266  -16.519988883  2080.8938   1   9   0.0016   0.0011   0.0114  -0.0007  -0.0014  -0.0006  12.00   27.6
2024/05/09 12:36:13.000   28.259524266  -16.519988883  2080.8939   1   9   0.0016   0.0011   0.0114  -0.0007  -0.0014  -0.0005  13.00   27.1
2024/05/09 12:36:14.000   28.259524266  -16.519988883  2080.8940   1   9   0.0016   0.0011   0.0114  -0.0007  -0.0014  -0.0005  14.00   26.6
2024/05/09 12:36:15.000   28.259524266  -16.519988883  2080.8940   1   9   0.0016   0.0011   0.0114  -0.0007  -0.0014  -0.0005  15.00   26.1
2024/05/09 12:36:16.000   28.259524266  -16.519988883  2080.8941   1   9   0.0016   0.0011   0.0114  -0.0007  -0.0014  -0.0005 -14.00   25.6
2024/05/09 12:36:17.000   28.259524266  -16.519988883  2080.8942   1   9   0.0016   0.0011   0.0114  -0.0007  -0.0014  -0.0005 -13.00   25.1
2024/05/09 12:36:18.000   28.259524266  -16.519988883  2080.8943   1   9   0.0016   0.0011   0.0114  -0.0007  -0.0014  -0.0005 -12.00   24.6
2024/05/09 12:36:19.000   28.259524266  -16.519988883  2080.8943   1   9   0.0016   0.0011   0.0114  -0.0007  -0.0014  -0.0005 -11.00   24.0
2024/05/09 12:36:20.000   28.259524266  -16.519988883  2080.8944   1   9   0.0016   0.0011   0.0114  -0.0007  -0.0014  -0.0005 -10.00   23.5
2024/05/09 12:36:21.000   28.259524266  -16.519988883  2080.8945   1   9   0.0016   0.0011   0.0114  -0.0007  -0.0014  -0.0005  -9.00   22.9
2024/05/09 12:36:22.000   28.259524266  -16.519988883  2080.8946   1   9   0.0016   0.0011   0.0114  -0.0007  -0.0014  -0.0004  -8.00   22.3
2024/05/09 12:36:23.000   28.259524266  -16.519988883  2080.8947   1   9   0.0016   0.0011   0.0114  -0.0007  -0.0014  -0.0004  -7.00   21.6
2024/05/09 12:36:24.000   28.259524267  -16.519988883  2080.8949   1   9   0.0016   0.0011   0.0114  -0.0007  -0.0014  -0.0004  -6.00   20.9
2024/05/09 12:36:25.000   28.259524267  -16.519988882  2080.8950   1   9   0.0016   0.0011   0.0114  -0.0007  -0.0014  -0.0004  -5.00   20.0
2024/05/09 12:36:26.000   28.259524267  -16.519988882  2080.8952   1   9   0.0016   0.0011   0.0114  -0.0007  -0.0015  -0.0003  -4.00   18.4
2024/05/09 12:36:27.000   28.259524267  -16.519988882  2080.8953   1   9   0.0016   0.0011   0.0114  -0.0007  -0.0015  -0.0003  -3.00   15.8
2024/05/09 12:36:28.000   28.259524268  -16.519988882  2080.8955   1   9   0.0016   0.0011   0.0115  -0.0007  -0.0015  -0.0003  -2.00   11.6
2024/05/09 12:36:29.000   28.259524268  -16.519988882  2080.8956   1   9   0.0016   0.0011   0.0115  -0.0007  -0.0015  -0.0002  -1.00    6.7
2024/05/09 12:36:30.000   28.259524266  -16.519988881  2080.8943   1   9   0.0016   0.0011   0.0114  -0.0007  -0.0014  -0.0007   0.00   34.6
2024/05/09 12:36:31.000   28.259524266  -16.519988881  2080.8943   1   9   0.0016   0.0011   0.0114  -0.0007  -0.0014  -0.0007   1.00   34.2
2024/05/09 12:36:32.000   28.259524267  -16.519988881  2080.8943   1   9   0.0016   0.0011   0.0114  -0.0007  -0.0014  -0.0007   2.00   33.7
2024/05/09 12:36:33.000   28.259524268  -16.519988881  2080.8943   1   9   0.0016   0.0011   0.0115  -0.0007  -0.0014  -0.0006   3.00   33.1
2024/05/09 12:36:34.000   28.259524268  -16.519988881  2080.8942   1   9   0.0016   0.0011   0.0115  -0.0007  -0.0014  -0.0006   4.00   32.6
2024/05/09 12:36:35.000   28.259524269  -16.519988881  2080.8941   1   9   0.0016   0.0011   0.0115  -0.0007  -0.0014  -0.0006   5.00   32.2
2024/05/09 12:36:36.000   28.259524270  -16.519988881  2080.8940   1   9   0.0016   0.0011   0.0115  -0.0007  -0.0014  -0.0006   6.00   31.7
2024/05/09 12:36:37.000   28.259524270  -16.519988882  2080.8939   1   9   0.0016   0.0011   0.0115  -0.0007  -0.0014  -0.0006   7.00   31.2
2024/05/09 12:36:38.000   28.259524270  -16.519988882  2080.8938   1   9   0.0016   0.0011   0.0115  -0.0007  -0.0014  -0.0006   8.00   30.7
2024/05/09 12:36:39.000   28.259524270  -16.519988882  2080.8937   1   9   0.0016   0.0011   0.0115  -0.0007  -0.0014  -0.0005   9.00   30.2
2024/05/09 12:36:40.000   28.259524271  -16.519988882  2080.8937   1   9   0.0016   0.0011   0.0115  -0.0007  -0.0014  -0.0005  10.00   29.7
2024/05/09 12:36:41.000   28.259524271  -16.519988882  2080.8937   1   9   0.0016   0.0011   0.0115  -0.0007  -0.0014  -0.0005  11.00   29.2
2024/05/09 12:36:42.000   28.259524271  -16.519988882  2080.8937   1   9   0.0016   0.0011   0.0115  -0.0007  -0.0014  -0.0005  12.00   28.7
2024/05/09 12:36:43.000   28.259524271  -16.519988882  2080.8938   1   9   0.0016   0.0011   0.0115  -0.0007  -0.0014  -0.0005  13.00   28.2
2024/05/09 12:36:44.000   28.259524271  -16.519988882  2080.8938   1   9   0.0016   0.0011   0.0115  -0.0007  -0.0014  -0.0005  14.00   27.7
2024/05/09 12:36:45.000   28.259524271  -16.519988882  2080.8939   1   9   0.0016   0.0011   0.0115  -0.0007  -0.0014  -0.0005  15.00   27.1
2024/05/09 12:36:46.000   28.259524271  -16.519988882  2080.8939   1   9   0.0016   0.0011   0.0115  -0.0007  -0.0014  -0.0005 -14.00   26.6
2024/05/09 12:36:47.000   28.259524272  -16.519988882  2080.8940   1   9   0.0016   0.0011   0.0115  -0.0007  -0.0014  -0.0004 -13.00   26.1
2024/05/09 12:36:48.000   28.259524272  -16.519988882  2080.8941   1   9   0.0016   0.0011   0.0115  -0.0007  -0.0014  -0.0004 -12.00   25.5
2024/05/09 12:36:49.000   28.259524272  -16.519988882  2080.8942   1   9   0.0016   0.0011   0.0115  -0.0007  -0.0014  -0.0004 -11.00   25.0
2024/05/09 12:36:50.000   28.259524272  -16.519988882  2080.8943   1   9   0.0016   0.0011   0.0115  -0.0007  -0.0014  -0.0004 -10.00   24.4
2024/05/09 12:36:51.000   28.259524272  -16.519988882  2080.8944   1   9   0.0016   0.0011   0.0115  -0.0007  -0.0014  -0.0004  -9.00   23.7
2024/05/09 12:36:52.000   28.259524272  -16.519988882  2080.8945   1   9   0.0016   0.0011   0.0115  -0.0007  -0.0014  -0.0004  -8.00   23.1
2024/05/09 12:36:53.000   28.259524272  -16.519988882  2080.8947   1   9   0.0016   0.0011   0.0115  -0.0007  -0.0014  -0.0003  -7.00   22.4
2024/05/09 12:36:54.000   28.259524273  -16.519988882  2080.8949   1   9   0.0016   0.0011   0.0115  -0.0007  -0.0014  -0.0003  -6.00   21.6
2024/05/09 12:36:55.000   28.259524273  -16.519988882  2080.8951   1   9   0.0016   0.0011   0.0115  -0.0007  -0.0014  -0.0003  -5.00   20.6
2024/05/09 12:36:56.000   28.259524273  -16.519988881  2080.8953   1   9   0.0016   0.0011   0.0115  -0.0007  -0.0014  -0.0002  -4.00   19.4
2024/05/09 12:36:57.000   28.259524274  -16.519988881  2080.8955   1   9   0.0016   0.0011   0.0115  -0.0007  -0.0014  -0.0002  -3.00   16.7
2024/05/09 12:36:58.000   28.259524274  -16.519988881  2080.8957   1   9   0.0016   0.0011   0.0115  -0.0007  -0.0014  -0.0001  -2.00   12.4
2024/05/09 12:36:59.000   28.259524275  -16.519988881  2080.8959   1   9   0.0016   0.0011   0.0115  -0.0007  -0.0014   0.0001  -1.00    7.1
2024/05/09 12:37:00.000   28.259524272  -16.519988880  2080.8946   1   9   0.0016   0.0011   0.0115  -0.0007  -0.0014  -0.0006   0.00   36.2
2024/05/09 12:37:01.000   28.259524273  -16.519988880  2080.8948   1   9   0.0016   0.0011   0.0115  -0.0007  -0.0014  -0.0006   1.00   35.5
2024/05/09 12:37:02.000   28.259524273  -16.519988880  2080.8950   1   9   0.0016   0.0011   0.0115  -0.0007  -0.0014  -0.0006   2.00   35.0
2024/05/09 12:37:03.000   28.259524274  -16.519988880  2080.8950   1   9   0.0016   0.0011   0.0115  -0.0007  -0.0014  -0.0006   3.00   34.4
2024/05/09 12:37:04.000   28.259524275  -16.519988880  2080.8950   1   9   0.0016   0.0011   0.0116  -0.0007  -0.0014  -0.0006   4.00   33.8
2024/05/09 12:37:05.000   28.259524275  -16.519988880  2080.8950   1   9   0.0016   0.0011   0.0116  -0.0007  -0.0014  -0.0006   5.00   33.2
2024/05/09 12:37:06.000   28.259524275  -16.519988880  2080.8950   1   9   0.0016   0.0011   0.0116  -0.0007  -0.0014  -0.0005   6.00   32.6
2024/05/09 12:37:07.000   28.259524276  -16.519988880  2080.8950   1   9   0.0016   0.0011   0.0116  -0.0007  -0.0014  -0.0005   7.00   32.0
2024/05/09 12:37:08.000   28.259524276  -16.519988880  2080.8949   1   9   0.0016   0.0011   0.0116  -0.0007  -0.0014  -0.0005   8.00   31.4
2024/05/09 12:37:09.000   28.259524276  -16.519988880  2080.8949   1   9   0.0016   0.0011   0.0116  -0.0007  -0.0014  -0.0005   9.00   30.8
2024/05/09 12:37:10.000   28.259524276  -16.519988880  2080.8949   1   9   0.0016   0.0011   0.0116  -0.0007  -0.0014  -0.0005  10.00   30.2
2024/05/09 12:37:11.000   28.259524276  -16.519988880  2080.8948   1   9   0.0016   0.0011   0.0116  -0.0007  -0.0014  -0.0005  11.00   29.6
2024/05/09 12:37:12.000   28.259524276  -16.519988880  2080.8948   1   9   0.0016   0.0011   0.0116  -0.0007  -0.0014  -0.0004  12.00   29.1
2024/05/09 12:37:13.000   28.259524276  -16.519988880  2080.8948   1   9   0.0016   0.0011   0.0116  -0.0007  -0.0014  -0.0004  13.00   28.5
2024/05/09 12:37:14.000   28.259524277  -16.519988880  2080.8948   1   9   0.0016   0.0011   0.0116  -0.0007  -0.0014  -0.0004  14.00   28.0
2024/05/09 12:37:15.000   28.259524277  -16.519988880  2080.8949   1   9   0.0016   0.0011   0.0116  -0.0007  -0.0014  -0.0004  15.00   27.4
2024/05/09 12:37:16.000   28.259524277  -16.519988880  2080.8948   1   9   0.0016   0.0011   0.0116  -0.0007  -0.0014  -0.0004 -14.00   26.9
2024/05/09 12:37:17.000   28.259524277  -16.519988880  2080.8948   1   9   0.0016   0.0011   0.0116  -0.0007  -0.0014  -0.0004 -13.00   26.3
2024/05/09 12:37:18.000   28.259524277  -16.519988880  2080.8948   1   9   0.0016   0.0011   0.0116  -0.0007  -0.0014  -0.0004 -12.00   25.7
2024/05/09 12:37:19.000   28.259524277  -16.519988880  2080.8948   1   9   0.0016   0.0011   0.0116  -0.0007  -0.0014  -0.0003 -11.00   25.1
2024/05/09 12:37:20.000   28.259524277  -16.519988880  2080.8948   1   9   0.0016   0.0011   0.0116  -0.0007  -0.0014  -0.0003 -10.00   24.5
2024/05/09 12:37:21.000   28.259524277  -16.519988880  2080.8948   1   9   0.0016   0.0011   0.0116  -0.0007  -0.0014  -0.0003  -9.00   23.9
2024/05/09 12:37:22.000   28.259524277  -16.519988880  2080.8947   1   9   0.0016   0.0011   0.0116  -0.0007  -0.0014  -0.0003  -8.00   23.2
2024/05/09 12:37:23.000   28.259524277  -16.519988880  2080.8947   1   9   0.0016   0.0011   0.0116  -0.0007  -0.0014  -0.0002  -7.00   22.5
2024/05/09 12:37:24.000   28.259524277  -16.519988880  2080.8946   1   9   0.0016   0.0011   0.0116  -0.0007  -0.0014  -0.0002  -6.00   21.7
2024/05/09 12:37:25.000   28.259524277  -16.519988880  2080.8946   1   9   0.0016   0.0011   0.0116  -0.0007  -0.0014  -0.0001  -5.00   20.7
2024/05/09 12:37:26.000   28.259524278  -16.519988880  2080.8945   1   9   0.0016   0.0011   0.0116  -0.0007  -0.0014   0.0000  -4.00   19.2
2024/05/09 12:37:27.000   28.259524278  -16.519988880  2080.8943   1   9   0.0016   0.0011   0.0116  -0.0007  -0.0014   0.0002  -3.00   16.3
2024/05/09 12:37:28.000   28.259524278  -16.519988880  2080.8942   1   9   0.0016   0.0011   0.0116  -0.0007  -0.0014   0.0002  -2.00   11.9
2024/05/09 12:37:29.000   28.259524279  -16.519988880  2080.8940   1   9   0.0016   0.0011   0.0116  -0.0007  -0.0014   0.0003  -1.00    6.8
2024/05/09 12:37:30.000   28.259524278  -16.519988879  2080.8930   1   9   0.0016   0.0011   0.0115  -0.0007  -0.0014  -0.0006   0.00   35.6
2024/05/09 12:37:31.000   28.259524278  -16.519988879  2080.8927   1   9   0.0016   0.0011   0.0116  -0.0007  -0.0014  -0.0006   1.00   34.8
2024/05/09 12:37:32.000   28.259524279  -16.519988879  2080.8923   1   9   0.0016   0.0011   0.0116  -0.0007  -0.0014  -0.0006   2.00   34.1
2024/05/09 12:37:33.000   28.259524279  -16.519988880  2080.8920   1   9   0.0016   0.0011   0.0116  -0.0007  -0.0014  -0.0005   3.00   33.4
2024/05/09 12:37:34.000   28.259524279  -16.519988880  2080.8917   1   9   0.0016   0.0011   0.0116  -0.0007  -0.0014  -0.0005   4.00   32.7
2024/05/09 12:37:35.000   28.259524280  -16.519988880  2080.8915   1   9   0.0016   0.0011   0.0116  -0.0007  -0.0014  -0.0005   5.00   32.1
2024/05/09 12:37:36.000   28.259524280  -16.519988880  2080.8914   1   9   0.0016   0.0011   0.0117  -0.0007  -0.0014  -0.0005   6.00   31.4
2024/05/09 12:37:37.000   28.259524280  -16.519988880  2080.8912   1   9   0.0016   0.0011   0.0117  -0.0007  -0.0014  -0.0005   7.00   30.8
2024/05/09 12:37:38.000   28.259524280  -16.519988880  2080.8911   1   9   0.0016   0.0011   0.0117  -0.0007  -0.0014  -0.0004   8.00   30.2
2024/05/09 12:37:39.000   28.259524280  -16.519988880  2080.8910   1   9   0.0016   0.0011   0.0117  -0.0007  -0.0014  -0.0004   9.00   29.6
2024/05/09 12:37:40.000   28.259524280  -16.519988880  2080.8909   1   9   0.0016   0.0011   0.0117  -0.0007  -0.0014  -0.0004  10.00   29.1
2024/05/09 12:37:41.000   28.259524280  -16.519988880  2080.8909   1   9   0.0016   0.0011   0.0117  -0.0007  -0.0014  -0.0004  11.00   28.5
2024/05/09 12:37:42.000   28.259524280  -16.519988880  2080.8908   1   9   0.0016   0.0011   0.0117  -0.0007  -0.0014  -0.0004  12.00   28.0
2024/05/09 12:37:43.000   28.259524280  -16.519988880  2080.8907   1   9   0.0016   0.0011   0.0117  -0.0007  -0.0014  -0.0003  13.00   27.4
2024/05/09 12:37:44.000   28.259524280  -16.519988880  2080.8906   1   9   0.0016   0.0011   0.0117  -0.0007  -0.0014  -0.0003  14.00   26.9
2024/05/09 12:37:45.000   28.259524280  -16.519988880  2080.8906   1   9   0.0016   0.0011   0.0117  -0.0007  -0.0014  -0.0003  15.00   26.3
2024/05/09 12:37:46.000   28.259524280  -16.519988880  2080.8905   1   9   0.0016   0.0011   0.0116  -0.0007  -0.0014  -0.0003 -14.00   25.8
2024/05/09 12:37:47.000   28.259524280  -16.519988880  2080.8905   1   9   0.0016   0.0011   0.0116  -0.0007  -0.0014  -0.0003 -13.00   25.2
2024/05/09 12:37:48.000   28.259524280  -16.519988880  2080.8904   1   9   0.0016   0.0011   0.0116  -0.0007  -0.0014  -0.0003 -12.00   24.7
2024/05/09 12:37:49.000   28.259524280  -16.519988880  2080.8903   1   9   0.0016   0.0011   0.0116  -0.0007  -0.0014  -0.0002 -11.00   24.1
2024/05/09 12:37:50.000   28.259524280  -16.519988880  2080.8902   1   9   0.0016   0.0011   0.0116  -0.0007  -0.0014  -0.0002 -10.00   23.5
2024/05/09 12:37:51.000   28.259524280  -16.519988881  2080.8901   1   9   0.0016   0.0011   0.0116  -0.0007  -0.0014  -0.0002  -9.00   22.9
2024/05/09 12:37:52.000   28.259524280  -16.519988881  2080.8900   1   9   0.0016   0.0011   0.0116  -0.0007  -0.0014  -0.0001  -8.00   22.3
2024/05/09 12:37:53.000   28.259524280  -16.519988881  2080.8899   1   9   0.0016   0.0011   0.0116  -0.0007  -0.0014   0.0000  -7.00   21.5
2024/05/09 12:37:54.000   28.259524281  -16.519988881  2080.8898   1   9   0.0016   0.0011   0.0116  -0.0007  -0.0014   0.0001  -6.00   20.7
2024/05/09 12:37:55.000   28.259524281  -16.519988881  2080.8896   1   9   0.0016   0.0011   0.0116  -0.0007  -0.0014   0.0002  -5.00   19.8
2024/05/09 12:37:56.000   28.259524281  -16.519988881  2080.8894   1   9   0.0016   0.0011   0.0117  -0.0007  -0.0014   0.0002  -4.00   18.6
2024/05/09 12:37:57.000   28.259524281  -16.519988881  2080.8893   1   9   0.0016   0.0011   0.0117  -0.0007  -0.0014   0.0003  -3.00   15.5
2024/05/09 12:37:58.000   28.259524282  -16.519988881  2080.8891   1   9   0.0016   0.0011   0.0117  -0.0007  -0.0014   0.0003  -2.00   11.4
2024/05/09 12:37:59.000   28.259524282  -16.519988881  2080.8889   1   9   0.0016   0.0011   0.0117  -0.0007  -0.0014   0.0004  -1.00    6.5
2024/05/09 12:38:00.000   28.259524281  -16.519988881  2080.8881   1   9   0.0016   0.0011   0.0116  -0.0007  -0.0013  -0.0005   0.00   33.3
2024/05/09 12:38:01.000   28.259524282  -16.519988881  2080.8880   1   9   0.0016   0.0011   0.0117  -0.0007  -0.0013  -0.0005   1.00   32.9
2024/05/09 12:38:02.000   28.259524282  -16.519988881  2080.8878   1   9   0.0016   0.0011   0.0117  -0.0007  -0.0013  -0.0005   2.00   32.3
2024/05/09 12:38:03.000   28.259524282  -16.519988881  2080.8877   1   9   0.0016   0.0011   0.0117  -0.0007  -0.0013  -0.0005   3.00   31.7
2024/05/09 12:38:04.000   28.259524283  -16.519988881  2080.8875   1   9   0.0016   0.0011   0.0117  -0.0007  -0.0013  -0.0005   4.00   31.2
2024/05/09 12:38:05.000   28.259524283  -16.519988882  2080.8874   1   9   0.0016   0.0011   0.0117  -0.0007  -0.0013  -0.0004   5.00   30.6
2024/05/09 12:38:06.000   28.259524283  -16.519988882  2080.8872   1   9   0.0016   0.0011   0.0117  -0.0007  -0.0013  -0.0004   6.00   30.0
2024/05/09 12:38:07.000   28.259524283  -16.519988882  2080.8871   1   9   0.0016   0.0011   0.0117  -0.0007  -0.0013  -0.0004   7.00   29.5
2024/05/09 12:38:08.000   28.259524284  -16.519988882  2080.8870   1   9   0.0016   0.0011   0.0117  -0.0007  -0.0013  -0.0004   8.00   29.0
2024/05/09 12:38:09.000   28.259524284  -16.519988882  2080.8870   1   9   0.0016   0.0011   0.0117  -0.0007  -0.0013  -0.0003   9.00   28.4
2024/05/09 12:38:10.000   28.259524284  -16.519988882  2080.8870   1   9   0.0016   0.0011   0.0117  -0.0007  -0.0013  -0.0003  10.00   27.9
2024/05/09 12:38:11.000   28.259524284  -16.519988882  2080.8869   1   9   0.0016   0.0011   0.0117  -0.0007  -0.0013  -0.0003  11.00   27.3
2024/05/09 12:38:12.000   28.259524284  -16.519988882  2080.8869   1   9   0.0016   0.0011   0.0117  -0.0007  -0.0013  -0.0003  12.00   26.8
2024/05/09 12:38:13.000   28.259524284  -16.519988882  2080.8869   1   9   0.0016   0.0011   0.0117  -0.0007  -0.0013  -0.0002  13.00   26.3
2024/05/09 12:38:14.000   28.259524284  -16.519988882  2080.8868   1   9   0.0016   0.0011   0.0117  -0.0007  -0.0013  -0.0002  14.00   25.8
2024/05/09 12:38:15.000   28.259524284  -16.519988882  2080.8868   1   9   0.0016   0.0011   0.0117  -0.0007  -0.0013  -0.0002  15.00   25.3
2024/05/09 12:38:16.000   28.259524284  -16.519988882  2080.8868   1   9   0.0016   0.0011   0.0117  -0.0007  -0.0013  -0.0002 -14.00   24.8
2024/05/09 12:38:17.000   28.259524284  -16.519988882  2080.8868   1   9   0.0016   0.0011   0.0117  -0.0007  -0.0013  -0.0001 -13.00   24.3
2024/05/09 12:38:18.000   28.259524284  -16.519988882  2080.8868   1   9   0.0016   0.0011   0.0117  -0.0007  -0.0013  -0.0001 -12.00   23.8
2024/05/09 12:38:19.000   28.259524284  -16.519988882  2080.8867   1   9   0.0016   0.0011   0.0117  -0.0007  -0.0013   0.0001 -11.00   23.3
2024/05/09 12:38:20.000   28.259524284  -16.519988882  2080.8867   1   9   0.0016   0.0011   0.0117  -0.0007  -0.0013   0.0001 -10.00   22.7
2024/05/09 12:38:21.000   28.259524284  -16.519988882  2080.8867   1   9   0.0016   0.0011   0.0117  -0.0007  -0.0013   0.0002  -9.00   22.2
2024/05/09 12:38:22.000   28.259524284  -16.519988882  2080.8867   1   9   0.0016   0.0011   0.0117  -0.0007  -0.0013   0.0002  -8.00   21.6
2024/05/09 12:38:23.000   28.259524284  -16.519988882  2080.8867   1   9   0.0016   0.0011   0.0117  -0.0007  -0.0013   0.0003  -7.00   20.9
2024/05/09 12:38:24.000   28.259524284  -16.519988882  2080.8867   1   9   0.0016   0.0011   0.0117  -0.0007  -0.0013   0.0003  -6.00   20.2
2024/05/09 12:38:25.000   28.259524284  -16.519988882  2080.8867   1   9   0.0016   0.0011   0.0117  -0.0007  -0.0014   0.0003  -5.00   19.3
2024/05/09 12:38:26.000   28.259524284  -16.519988882  2080.8867   1   9   0.0016   0.0011   0.0117  -0.0007  -0.0014   0.0004  -4.00   18.3
2024/05/09 12:38:27.000   28.259524285  -16.519988882  2080.8867   1   9   0.0016   0.0011   0.0118  -0.0007  -0.0014   0.0004  -3.00   15.6
2024/05/09 12:38:28.000   28.259524285  -16.519988882  2080.8866   1   9   0.0016   0.0011   0.0118  -0.0007  -0.0014   0.0004  -2.00   11.3
2024/05/09 12:38:29.000   28.259524285  -16.519988882  2080.8865   1   9   0.0016   0.0011   0.0118  -0.0007  -0.0014   0.0005  -1.00    6.6
2024/05/09 12:38:30.000   28.259524285  -16.519988883  2080.8861   1   9   0.0016   0.0011   0.0117  -0.0007  -0.0013  -0.0005   0.00   34.8
2024/05/09 12:38:31.000   28.259524285  -16.519988883  2080.8860   1   9   0.0016   0.0011   0.0117  -0.0007  -0.0013  -0.0005   1.00   34.5
2024/05/09 12:38:32.000   28.259524285  -16.519988883  2080.8857   1   9   0.0016   0.0011   0.0118  -0.0007  -0.0013  -0.0004   2.00   34.2
2024/05/09 12:38:33.000   28.259524285  -16.519988883  2080.8856   1   9   0.0016   0.0011   0.0118  -0.0007  -0.0013  -0.0004   3.00   33.8
2024/05/09 12:38:34.000   28.259524286  -16.519988884  2080.8855   1   9   0.0016   0.0011   0.0118  -0.0007  -0.0013  -0.0004   4.00   33.4
2024/05/09 12:38:35.000   28.259524286  -16.519988884  2080.8855   1   9   0.0016   0.0011   0.0118  -0.0007  -0.0013  -0.0003   5.00   33.0
2024/05/09 12:38:36.000   28.259524286  -16.519988884  2080.8853   1   9   0.0016   0.0012   0.0118  -0.0007  -0.0013  -0.0003   6.00   32.6
2024/05/09 12:38:37.000   28.259524286  -16.519988884  2080.8852   1   9   0.0016   0.0012   0.0118  -0.0007  -0.0013  -0.0003   7.00   32.1
2024/05/09 12:38:38.000   28.259524286  -16.519988884  2080.8851   1   9   0.0016   0.0012   0.0118  -0.0007  -0.0013  -0.0002   8.00   31.6
2024/05/09 12:38:39.000   28.259524286  -16.519988885  2080.8850   1   9   0.0016   0.0012   0.0118  -0.0007  -0.0013  -0.0002   9.00   31.1
2024/05/09 12:38:40.000   28.259524286  -16.519988885  2080.8849   1   9   0.0016   0.0012   0.0118  -0.0007  -0.0013  -0.0002  10.00   30.6
2024/05/09 12:38:41.000   28.259524286  -16.519988885  2080.8848   1   9   0.0016   0.0012   0.0118  -0.0007  -0.0013  -0.0001  11.00   30.1
2024/05/09 12:38:42.000   28.259524286  -16.519988885  2080.8847   1   9   0.0016   0.0011   0.0118  -0.0007  -0.0013  -0.0000  12.00   29.5
2024/05/09 12:38:43.000   28.259524286  -16.519988885  2080.8846   1   9   0.0016   0.0011   0.0118  -0.0007  -0.0013   0.0001  13.00   29.0
2024/05/09 12:38:44.000   28.259524287  -16.519988885  2080.8846   1   9   0.0016   0.0011   0.0118  -0.0007  -0.0013   0.0001  14.00   28.5
2024/05/09 12:38:45.000   28.259524287  -16.519988885  2080.8845   1   9   0.0016   0.0011   0.0118  -0.0007  -0.0013   0.0002  15.00   28.0
2024/05/09 12:38:46.000   28.259524287  -16.519988885  2080.8845   1   9   0.0016   0.0011   0.0118  -0.0007  -0.0013   0.0002 -14.00   27.5
2024/05/09 12:38:47.000   28.259524287  -16.519988885  2080.8844   1   9   0.0016   0.0011   0.0118  -0.0007  -0.0013   0.0002 -13.00   26.9
2024/05/09 12:38:48.000   28.259524287  -16.519988885  2080.8844   1   9   0.0016   0.0011   0.0118  -0.0007  -0.0013   0.0003 -12.00   26.4
2024/05/09 12:38:49.000   28.259524287  -16.519988885  2080.8843   1   9   0.0016   0.0011   0.0118  -0.0007  -0.0013   0.0003 -11.00   25.8
2024/05/09 12:38:50.000   28.259524287  -16.519988885  2080.8842   1   9   0.0016   0.0011   0.0118  -0.0007  -0.0013   0.0003 -10.00   25.2
2024/05/09 12:38:51.000   28.259524287  -16.519988885  2080.8841   1   9   0.0016   0.0011   0.0118  -0.0007  -0.0013   0.0003  -9.00   24.6
2024/05/09 12:38:52.000   28.259524287  -16.519988885  2080.8840   1   9   0.0016   0.0011   0.0118  -0.0007  -0.0013   0.0003  -8.00   24.0
2024/05/09 12:38:53.000   28.259524287  -16.519988885  2080.8839   1   9   0.0016   0.0011   0.0118  -0.0007  -0.0013   0.0004  -7.00   23.3
2024/05/09 12:38:54.000   28.259524287  -16.519988886  2080.8839   1   9   0.0016   0.0011   0.0118  -0.0007  -0.0013   0.0004  -6.00   22.5
2024/05/09 12:38:55.000   28.259524287  -16.519988886  2080.8838   1   9   0.0016   0.0011   0.0118  -0.0007  -0.0013   0.0004  -5.00   21.7
2024/05/09 12:38:56.000   28.259524287  -16.519988886  2080.8838   1   9   0.0016   0.0011   0.0118  -0.0007  -0.0013   0.0004  -4.00   20.6
2024/05/09 12:38:57.000   28.259524287  -16.519988886  2080.8837   1   9   0.0016   0.0011   0.0119  -0.0007  -0.0013   0.0005  -3.00   17.3
2024/05/09 12:38:58.000   28.259524287  -16.519988886  2080.8838   1   9   0.0016   0.0011   0.0119  -0.0007  -0.0013   0.0005  -2.00   12.9
2024/05/09 12:38:59.000   28.259524286  -16.519988886  2080.8838   1   9   0.0016   0.0011   0.0119  -0.0007  -0.0013   0.0005  -1.00    7.4
2024/05/09 12:39:00.000   28.259524286  -16.519988887  2080.8836   1   9   0.0016   0.0011   0.0118  -0.0007  -0.0013  -0.0004   0.00   39.7
2024/05/09 12:39:01.000   28.259524286  -16.519988887  2080.8836   1   9   0.0016   0.0011   0.0118  -0.0007  -0.0013  -0.0004   1.00   39.7
2024/05/09 12:39:02.000   28.259524286  -16.519988888  2080.8836   1   9   0.0016   0.0011   0.0119  -0.0007  -0.0013  -0.0003   2.00   39.6
2024/05/09 12:39:03.000   28.259524286  -16.519988888  2080.8837   1   9   0.0016   0.0012   0.0119  -0.0007  -0.0013  -0.0003   3.00   39.4
2024/05/09 12:39:04.000   28.259524286  -16.519988888  2080.8838   1   9   0.0016   0.0012   0.0119  -0.0007  -0.0013  -0.0003   4.00   39.0
2024/05/09 12:39:05.000   28.259524286  -16.519988888  2080.8839   1   9   0.0016   0.0012   0.0119  -0.0007  -0.0013  -0.0002   5.00   38.6
2024/05/09 12:39:06.000   28.259524286  -16.519988888  2080.8840   1   9   0.0016   0.0012   0.0119  -0.0007  -0.0013  -0.0001   6.00   38.1
2024/05/09 12:39:07.000   28.259524286  -16.519988888  2080.8841   1   9   0.0016   0.0012   0.0119  -0.0007  -0.0013  -0.0000   7.00   37.6
2024/05/09 12:39:08.000   28.259524286  -16.519988889  2080.8842   1   9   0.0016   0.0012   0.0119  -0.0007  -0.0013   0.0001   8.00   37.0
2024/05/09 12:39:09.000   28.259524286  -16.519988889  2080.8843   1   9   0.0016   0.0012   0.0119  -0.0007  -0.0013   0.0002   9.00   36.4
2024/05/09 12:39:10.000   28.259524286  -16.519988889  2080.8843   1   9   0.0016   0.0012   0.0119  -0.0007  -0.0013   0.0002  10.00   35.9
2024/05/09 12:39:11.000   28.259524286  -16.519988889  2080.8844   1   9   0.0016   0.0012   0.0119  -0.0007  -0.0013   0.0002  11.00   35.3
2024/05/09 12:39:12.000   28.259524286  -16.519988889  2080.8845   1   9   0.0016   0.0012   0.0119  -0.0007  -0.0013   0.0003  12.00   34.7
2024/05/09 12:39:13.000   28.259524286  -16.519988889  2080.8845   1   9   0.0016   0.0012   0.0119  -0.0007  -0.0013   0.0003  13.00   34.1
2024/05/09 12:39:14.000   28.259524286  -16.519988889  2080.8845   1   9   0.0016   0.0012   0.0119  -0.0007  -0.0013   0.0003  14.00   33.4
2024/05/09 12:39:15.000   28.259524286  -16.519988889  2080.8846   1   9   0.0016   0.0012   0.0119  -0.0007  -0.0013   0.0003  15.00   32.7
2024/05/09 12:39:16.000   28.259524286  -16.519988889  2080.8846   1   9   0.0016   0.0012   0.0119  -0.0007  -0.0013   0.0003 -14.00   32.1
2024/05/09 12:39:17.000   28.259524286  -16.519988889  2080.8846   1   9   0.0016   0.0012   0.0119  -0.0007  -0.0013   0.0004 -13.00   31.4
2024/05/09 12:39:18.000   28.259524285  -16.519988889  2080.8846   1   9   0.0016   0.0011   0.0119  -0.0007  -0.0013   0.0004 -12.00   30.7
2024/05/09 12:39:19.000   28.259524285  -16.519988889  2080.8847   1   9   0.0016   0.0011   0.0119  -0.0007  -0.0013   0.0004 -11.00   30.0
2024/05/09 12:39:20.000   28.259524285  -16.519988889  2080.8847   1   9   0.0016   0.0011   0.0119  -0.0007  -0.0013   0.0004 -10.00   29.4
2024/05/09 12:39:21.000   28.259524285  -16.519988889  2080.8848   1   9   0.0016   0.0011   0.0119  -0.0007  -0.0013   0.0004  -9.00   28.6
2024/05/09 12:39:22.000   28.259524285  -16.519988889  2080.8849   1   9   0.0016   0.0011   0.0119  -0.0007  -0.0013   0.0004  -8.00   27.8
2024/05/09 12:39:23.000   28.259524285  -16.519988889  2080.8849   1   9   0.0016   0.0011   0.0119  -0.0007  -0.0013   0.0005  -7.00   27.0
2024/05/09 12:39:24.000   28.259524285  -16.519988889  2080.8850   1   9   0.0016   0.0011   0.0119  -0.0007  -0.0013   0.0005  -6.00   26.1
2024/05/09 12:39:25.000   28.259524285  -16.519988889  2080.8852   1   9   0.0016   0.0011   0.0119  -0.0007  -0.0013   0.0005  -5.00   25.1
2024/05/09 12:39:26.000   28.259524285  -16.519988889  2080.8853   1   9   0.0016   0.0011   0.0119  -0.0007  -0.0013   0.0005  -4.00   23.7
2024/05/09 12:39:27.000   28.259524285  -16.519988889  2080.8854   1   9   0.0016   0.0011   0.0120  -0.0007  -0.0013   0.0005  -3.00   20.4
2024/05/09 12:39:28.000   28.259524285  -16.519988889  2080.8855   1   9   0.0016   0.0012   0.0120  -0.0007  -0.0013   0.0006  -2.00   14.9
2024/05/09 12:39:29.000   28.259524284  -16.519988889  2080.8856   1   9   0.0016   0.0012   0.0120  -0.0007  -0.0013   0.0006  -1.00    8.6
2024/05/09 12:39:30.000   28.259524285  -16.519988890  2080.8860   1   9   0.0016   0.0011   0.0119  -0.0007  -0.0012  -0.0003   0.00   47.0
2024/05/09 12:39:31.000   28.259524284  -16.519988890  2080.8861   1   9   0.0016   0.0012   0.0120  -0.0007  -0.0012  -0.0002   1.00   46.6
2024/05/09 12:39:32.000   28.259524284  -16.519988890  2080.8863   1   9   0.0016   0.0012   0.0120  -0.0007  -0.0012  -0.0002   2.00   46.3
2024/05/09 12:39:33.000   28.259524284  -16.519988890  2080.8863   1   9   0.0016   0.0012   0.0120  -0.0007  -0.0013  -0.0001   3.00   45.7
2024/05/09 12:39:34.000   28.259524284  -16.519988890  2080.8863   1   9   0.0016   0.0012   0.0120  -0.0007  -0.0013   0.0001   4.00   45.0
2024/05/09 12:39:35.000   28.259524284  -16.519988890  2080.8863   1   9   0.0016   0.0012   0.0120  -0.0007  -0.0013   0.0002   5.00   44.4
2024/05/09 12:39:36.000   28.259524284  -16.519988890  2080.8863   1   9   0.0016   0.0012   0.0120  -0.0007  -0.0013   0.0002   6.00   43.7
2024/05/09 12:39:37.000   28.259524284  -16.519988891  2080.8862   1   9   0.0016   0.0012   0.0121  -0.0007  -0.0013   0.0003   7.00   42.8
2024/05/09 12:39:38.000   28.259524284  -16.519988891  2080.8862   1   9   0.0016   0.0012   0.0121  -0.0007  -0.0013   0.0003   8.00   42.0
2024/05/09 12:39:39.000   28.259524284  -16.519988891  2080.8862   1   9   0.0016   0.0012   0.0121  -0.0007  -0.0013   0.0003   9.00   41.1
2024/05/09 12:39:40.000   28.259524284  -16.519988891  2080.8861   1   9   0.0016   0.0012   0.0121  -0.0007  -0.0013   0.0004  10.00   40.3
2024/05/09 12:39:41.000   28.259524284  -16.519988891  2080.8860   1   9   0.0016   0.0012   0.0121  -0.0007  -0.0013   0.0004  11.00   39.5
2024/05/09 12:39:42.000   28.259524284  -16.519988891  2080.8860   1   9   0.0016   0.0012   0.0121  -0.0007  -0.0013   0.0004  12.00   38.7
2024/05/09 12:39:43.000   28.259524284  -16.519988891  2080.8859   1   9   0.0016   0.0012   0.0121  -0.0007  -0.0013   0.0004  13.00   37.9
2024/05/09 12:39:44.000   28.259524284  -16.519988891  2080.8858   1   9   0.0016   0.0012   0.0121  -0.0007  -0.0013   0.0004  14.00   37.1
2024/05/09 12:39:45.000   28.259524284  -16.519988891  2080.8857   1   9   0.0016   0.0012   0.0121  -0.0007  -0.0013   0.0004  15.00   36.3
2024/05/09 12:39:46.000   28.259524284  -16.519988891  2080.8857   1   9   0.0016   0.0012   0.0120  -0.0007  -0.0013   0.0004 -14.00   35.5
2024/05/09 12:39:47.000   28.259524284  -16.519988891  2080.8856   1   9   0.0016   0.0012   0.0120  -0.0007  -0.0013   0.0005 -13.00   34.7
2024/05/09 12:39:48.000   28.259524284  -16.519988891  2080.8855   1   9   0.0016   0.0012   0.0120  -0.0007  -0.0013   0.0005 -12.00   33.9
2024/05/09 12:39:49.000   28.259524284  -16.519988891  2080.8853   1   9   0.0016   0.0012   0.0120  -0.0007  -0.0013   0.0005 -11.00   33.2
2024/05/09 12:39:50.000   28.259524284  -16.519988891  2080.8852   1   9   0.0016   0.0012   0.0120  -0.0007  -0.0013   0.0005 -10.00   32.4
2024/05/09 12:39:51.000   28.259524284  -16.519988891  2080.8850   1   9   0.0016   0.0012   0.0120  -0.0007  -0.0013   0.0005  -9.00   31.6
2024/05/09 12:39:52.000   28.259524284  -16.519988892  2080.8848   1   9   0.0016   0.0012   0.0120  -0.0007  -0.0013   0.0005  -8.00   30.7
2024/05/09 12:39:53.000   28.259524283  -16.519988892  2080.8846   1   9   0.0016   0.0012   0.0120  -0.0007  -0.0013   0.0005  -7.00   29.7
2024/05/09 12:39:54.000   28.259524283  -16.519988892  2080.8844   1   9   0.0016   0.0012   0.0120  -0.0007  -0.0013   0.0006  -6.00   28.7
2024/05/09 12:39:55.000   28.259524283  -16.519988892  2080.8840   1   9   0.0016   0.0012   0.0121  -0.0007  -0.0013   0.0006  -5.00   27.4
2024/05/09 12:39:56.000   28.259524283  -16.519988892  2080.8837   1   9   0.0016   0.0012   0.0121  -0.0007  -0.0013   0.0006  -4.00   25.5
2024/05/09 12:39:57.000   28.259524283  -16.519988892  2080.8834   1   9   0.0016   0.0012   0.0121  -0.0007  -0.0013   0.0006  -3.00   21.4
2024/05/09 12:39:58.000   28.259524282  -16.519988892  2080.8830   1   9   0.0016   0.0012   0.0121  -0.0007  -0.0013   0.0006  -2.00   15.6
2024/05/09 12:39:59.000   28.259524282  -16.519988892  2080.8826   1   9   0.0016   0.0012   0.0121  -0.0007  -0.0013   0.0007  -1.00    8.8
2024/05/09 12:40:00.000   28.259524282  -16.519988893  2080.8825   1   9   0.0016   0.0012   0.0121  -0.0007  -0.0012   0.0002   0.00   38.3
2024/05/09 12:40:01.000   28.259524282  -16.519988893  2080.8821   1   9   0.0016   0.0012   0.0121  -0.0007  -0.0012   0.0002   1.00   38.0
