% program   : RTKPOST-EX 2.5.0
% inp file  : C:\Users\SallyHenry\Desktop\Sally Internship\GNSS gravi\DATA\Survey Rover Obs\FA11.24o
% inp file  : C:\Users\SallyHenry\Desktop\Sally Internship\GNSS gravi\DATA\BaseStations\IZAN\IZAN00ESP_R_20241300000_01D_30S_MO.rnx
% inp file  : C:\Users\SallyHenry\Desktop\Sally Internship\GNSS gravi\DATA\BaseStations\IZAN\IZAN00ESP_R_20241300000_01D_MN.rnx
% inp file  : C:\Users\SallyHenry\Desktop\Sally Internship\GNSS gravi\DATA\aux_files\Survey\IGS0OPSFIN_20241300000_01D_15M_ORB.SP3
% inp file  : C:\Users\SallyHenry\Desktop\Sally Internship\GNSS gravi\DATA\aux_files\Survey\IGS0OPSFIN_20241300000_01D_30S_CLK.CLK
% obs start : 2024/05/09 13:02:47.0 GPST (week2313 392567.0s)
% obs end   : 2024/05/09 13:17:47.0 GPST (week2313 393467.0s)
% pos mode  : Static
% freqs     : L1+L2/E5b
% solution  : Combined-No Phase Reset
% elev mask : 15.0 deg
% dynamics  : on
% tidecorr  : solid
% ionos opt : Estimate TEC
% tropo opt : Estimate ZTD+Grad
% ephemeris : Precise
% navi sys  : GPS GLONASS Galileo QZSS BDS
% amb res   : Fix and Hold
% amb glo   : Fix and Hold
% amb bds   : on
% val thres : 3.0
% antenna1  :                       ( 0.0000  0.0000  1.8000)
% antenna2  :                       ( 0.0000  0.0000  0.0000)
% ref pos   :  28.308069410  -16.499677180  2417.4044
%
% (lat/lon/height=WGS84/ellipsoidal,Q=1:fix,2:float,3:sbas,4:dgps,5:single,6:ppp,ns=# of satellites)
%  GPST                  latitude(deg) longitude(deg)  height(m)   Q  ns   sdn(m)   sde(m)   sdu(m)  sdne(m)  sdeu(m)  sdun(m) age(s)  ratio
2024/05/09 13:02:47.000   28.276225140  -16.508941479  2146.0350   1   8   0.0025   0.0013   0.0137  -0.0012   0.0029  -0.0023 -13.00  320.2
2024/05/09 13:02:48.000   28.276225140  -16.508941479  2146.0350   1   8   0.0025   0.0013   0.0137  -0.0012   0.0029  -0.0023 -12.00  316.6
2024/05/09 13:02:49.000   28.276225140  -16.508941479  2146.0350   1   8   0.0025   0.0013   0.0137  -0.0012   0.0029  -0.0023 -11.00  313.4
2024/05/09 13:02:50.000   28.276225140  -16.508941479  2146.0350   1   8   0.0025   0.0013   0.0137  -0.0012   0.0029  -0.0023 -10.00  310.3
2024/05/09 13:02:51.000   28.276225140  -16.508941479  2146.0351   1   8   0.0025   0.0013   0.0137  -0.0012   0.0029  -0.0024  -9.00  306.9
2024/05/09 13:02:52.000   28.276225141  -16.508941479  2146.0351   1   8   0.0025   0.0013   0.0137  -0.0012   0.0029  -0.0024  -8.00  304.0
2024/05/09 13:02:53.000   28.276225141  -16.508941479  2146.0352   1   8   0.0026   0.0013   0.0137  -0.0012   0.0029  -0.0024  -7.00  301.1
2024/05/09 13:02:54.000   28.276225141  -16.508941478  2146.0353   1   8   0.0026   0.0013   0.0137  -0.0012   0.0029  -0.0024  -6.00  297.0
2024/05/09 13:02:55.000   28.276225141  -16.508941478  2146.0354   1   8   0.0026   0.0013   0.0137  -0.0012   0.0029  -0.0024  -5.00  294.3
2024/05/09 13:02:56.000   28.276225141  -16.508941478  2146.0354   1   8   0.0026   0.0013   0.0137  -0.0013   0.0029  -0.0024  -4.00  290.1
2024/05/09 13:02:57.000   28.276225142  -16.508941478  2146.0355   1   8   0.0026   0.0013   0.0137  -0.0013   0.0029  -0.0025  -3.00  286.6
2024/05/09 13:02:58.000   28.276225142  -16.508941478  2146.0355   1   8   0.0026   0.0013   0.0138  -0.0013   0.0029  -0.0025  -2.00  283.4
2024/05/09 13:02:59.000   28.276225143  -16.508941478  2146.0356   1   8   0.0026   0.0013   0.0138  -0.0013   0.0029  -0.0025  -1.00  278.6
2024/05/09 13:03:00.000   28.276225144  -16.508941478  2146.0358   1   8   0.0026   0.0013   0.0138  -0.0013   0.0030  -0.0026   0.00  274.4
2024/05/09 13:03:01.000   28.276225144  -16.508941478  2146.0359   1   8   0.0027   0.0013   0.0139  -0.0013   0.0030  -0.0026   1.00  272.6
2024/05/09 13:03:02.000   28.276225145  -16.508941478  2146.0360   1   8   0.0027   0.0013   0.0139  -0.0013   0.0030  -0.0026   2.00  271.3
2024/05/09 13:03:03.000   28.276225145  -16.508941478  2146.0362   1   8   0.0027   0.0013   0.0139  -0.0013   0.0030  -0.0027   3.00  264.7
2024/05/09 13:03:04.000   28.276225145  -16.508941478  2146.0364   1   8   0.0027   0.0013   0.0139  -0.0013   0.0030  -0.0027   4.00  257.5
2024/05/09 13:03:05.000   28.276225146  -16.508941478  2146.0365   1   8   0.0027   0.0013   0.0140  -0.0014   0.0030  -0.0027   5.00  250.6
2024/05/09 13:03:06.000   28.276225146  -16.508941478  2146.0366   1   8   0.0027   0.0013   0.0140  -0.0014   0.0030  -0.0027   6.00  243.2
2024/05/09 13:03:07.000   28.276225146  -16.508941478  2146.0367   1   8   0.0027   0.0014   0.0140  -0.0014   0.0031  -0.0028   7.00  234.7
2024/05/09 13:03:08.000   28.276225146  -16.508941478  2146.0367   1   8   0.0028   0.0014   0.0140  -0.0014   0.0031  -0.0028   8.00  227.9
2024/05/09 13:03:09.000   28.276225147  -16.508941478  2146.0368   1   8   0.0028   0.0014   0.0140  -0.0014   0.0031  -0.0028   9.00  221.9
2024/05/09 13:03:10.000   28.276225147  -16.508941477  2146.0369   1   8   0.0028   0.0014   0.0140  -0.0014   0.0031  -0.0028  10.00  216.9
2024/05/09 13:03:11.000   28.276225147  -16.508941477  2146.0369   1   8   0.0028   0.0014   0.0140  -0.0014   0.0031  -0.0028  11.00  211.8
2024/05/09 13:03:12.000   28.276225147  -16.508941477  2146.0370   1   8   0.0028   0.0014   0.0140  -0.0014   0.0031  -0.0028  12.00  208.1
2024/05/09 13:03:13.000   28.276225147  -16.508941477  2146.0370   1   8   0.0028   0.0014   0.0140  -0.0014   0.0031  -0.0029  13.00  205.2
2024/05/09 13:03:14.000   28.276225147  -16.508941477  2146.0371   1   8   0.0028   0.0014   0.0140  -0.0014   0.0031  -0.0029  14.00  201.8
2024/05/09 13:03:15.000   28.276225147  -16.508941477  2146.0371   1   8   0.0028   0.0014   0.0140  -0.0014   0.0031  -0.0029  15.00  198.9
2024/05/09 13:03:16.000   28.276225147  -16.508941477  2146.0372   1   8   0.0028   0.0014   0.0140  -0.0014   0.0031  -0.0029 -14.00  195.8
2024/05/09 13:03:17.000   28.276225147  -16.508941477  2146.0372   1   8   0.0028   0.0014   0.0140  -0.0014   0.0031  -0.0029 -13.00  192.3
2024/05/09 13:03:18.000   28.276225147  -16.508941477  2146.0372   1   8   0.0028   0.0014   0.0140  -0.0014   0.0031  -0.0029 -12.00  188.2
2024/05/09 13:03:19.000   28.276225147  -16.508941477  2146.0372   1   8   0.0028   0.0014   0.0140  -0.0014   0.0031  -0.0029 -11.00  184.7
2024/05/09 13:03:20.000   28.276225147  -16.508941477  2146.0373   1   8   0.0028   0.0014   0.0140  -0.0014   0.0031  -0.0029 -10.00  180.5
2024/05/09 13:03:21.000   28.276225147  -16.508941477  2146.0373   1   8   0.0028   0.0014   0.0141  -0.0014   0.0031  -0.0029  -9.00  177.5
2024/05/09 13:03:22.000   28.276225147  -16.508941477  2146.0374   1   8   0.0028   0.0014   0.0141  -0.0014   0.0031  -0.0030  -8.00  175.2
2024/05/09 13:03:23.000   28.276225147  -16.508941477  2146.0375   1   8   0.0028   0.0014   0.0141  -0.0014   0.0031  -0.0030  -7.00  173.2
2024/05/09 13:03:24.000   28.276225147  -16.508941477  2146.0376   1   8   0.0028   0.0014   0.0141  -0.0014   0.0031  -0.0030  -6.00  173.6
2024/05/09 13:03:25.000   28.276225147  -16.508941477  2146.0378   1   8   0.0028   0.0014   0.0141  -0.0015   0.0032  -0.0030  -5.00  173.5
2024/05/09 13:03:26.000   28.276225147  -16.508941477  2146.0379   1   8   0.0029   0.0014   0.0141  -0.0015   0.0032  -0.0031  -4.00  176.0
2024/05/09 13:03:27.000   28.276225148  -16.508941477  2146.0380   1   8   0.0029   0.0014   0.0142  -0.0015   0.0032  -0.0031  -3.00  178.2
2024/05/09 13:03:28.000   28.276225148  -16.508941477  2146.0381   1   8   0.0029   0.0014   0.0142  -0.0015   0.0032  -0.0031  -2.00  161.5
2024/05/09 13:03:29.000   28.276225149  -16.508941477  2146.0383   1   8   0.0029   0.0014   0.0142  -0.0015   0.0032  -0.0032  -1.00   99.8
2024/05/09 13:03:30.000   28.276225136  -16.508941472  2146.0406   1   8   0.0028   0.0014   0.0142  -0.0014   0.0032  -0.0030   0.00  150.0
2024/05/09 13:03:31.000   28.276225137  -16.508941471  2146.0407   1   8   0.0028   0.0014   0.0142  -0.0014   0.0032  -0.0030   1.00  151.3
2024/05/09 13:03:32.000   28.276225137  -16.508941471  2146.0409   1   8   0.0028   0.0014   0.0143  -0.0014   0.0032  -0.0031   2.00  152.1
2024/05/09 13:03:33.000   28.276225138  -16.508941471  2146.0411   1   8   0.0028   0.0014   0.0143  -0.0014   0.0032  -0.0031   3.00  150.9
2024/05/09 13:03:34.000   28.276225138  -16.508941471  2146.0412   1   8   0.0028   0.0014   0.0143  -0.0015   0.0032  -0.0031   4.00  150.0
2024/05/09 13:03:35.000   28.276225138  -16.508941471  2146.0413   1   8   0.0029   0.0014   0.0144  -0.0015   0.0032  -0.0032   5.00  147.4
2024/05/09 13:03:36.000   28.276225138  -16.508941470  2146.0414   1   8   0.0029   0.0014   0.0144  -0.0015   0.0033  -0.0032   6.00  145.6
2024/05/09 13:03:37.000   28.276225138  -16.508941470  2146.0416   1   8   0.0029   0.0014   0.0144  -0.0015   0.0033  -0.0032   7.00  144.1
2024/05/09 13:03:38.000   28.276225138  -16.508941470  2146.0417   1   8   0.0029   0.0014   0.0144  -0.0015   0.0033  -0.0033   8.00  142.3
2024/05/09 13:03:39.000   28.276225138  -16.508941470  2146.0418   1   8   0.0029   0.0014   0.0144  -0.0015   0.0033  -0.0033   9.00  140.7
2024/05/09 13:03:40.000   28.276225138  -16.508941470  2146.0419   1   8   0.0029   0.0014   0.0144  -0.0015   0.0033  -0.0033  10.00  139.0
2024/05/09 13:03:41.000   28.276225138  -16.508941470  2146.0419   1   8   0.0029   0.0014   0.0145  -0.0015   0.0033  -0.0033  11.00  136.3
2024/05/09 13:03:42.000   28.276225138  -16.508941470  2146.0419   1   8   0.0029   0.0014   0.0145  -0.0015   0.0033  -0.0033  12.00  133.0
2024/05/09 13:03:43.000   28.276225138  -16.508941470  2146.0420   1   8   0.0029   0.0014   0.0145  -0.0015   0.0033  -0.0033  13.00  130.0
2024/05/09 13:03:44.001   28.276225138  -16.508941469  2146.0421   1   8   0.0029   0.0014   0.0145  -0.0015   0.0033  -0.0034  14.00  127.2
2024/05/09 13:03:45.000   28.276225138  -16.508941469  2146.0421   1   8   0.0029   0.0014   0.0145  -0.0015   0.0033  -0.0034  15.00  123.9
2024/05/09 13:03:46.000   28.276225138  -16.508941469  2146.0421   1   8   0.0029   0.0014   0.0145  -0.0015   0.0033  -0.0034 -14.00  120.5
2024/05/09 13:03:47.000   28.276225138  -16.508941469  2146.0421   1   8   0.0029   0.0014   0.0145  -0.0015   0.0033  -0.0034 -13.00  117.0
2024/05/09 13:03:48.000   28.276225138  -16.508941469  2146.0421   1   8   0.0030   0.0014   0.0145  -0.0015   0.0034  -0.0034 -12.00  113.5
2024/05/09 13:03:49.000   28.276225138  -16.508941469  2146.0422   1   8   0.0030   0.0014   0.0145  -0.0016   0.0034  -0.0034 -11.00  110.1
2024/05/09 13:03:50.000   28.276225138  -16.508941469  2146.0422   1   8   0.0030   0.0014   0.0145  -0.0016   0.0034  -0.0034 -10.00  106.5
2024/05/09 13:03:51.000   28.276225138  -16.508941469  2146.0422   1   8   0.0030   0.0014   0.0145  -0.0016   0.0034  -0.0035  -9.00  103.0
2024/05/09 13:03:52.000   28.276225138  -16.508941469  2146.0422   1   8   0.0030   0.0014   0.0145  -0.0016   0.0034  -0.0035  -8.00   99.7
2024/05/09 13:03:53.000   28.276225138  -16.508941469  2146.0422   1   8   0.0030   0.0014   0.0146  -0.0016   0.0034  -0.0035  -7.00   95.8
2024/05/09 13:03:54.000   28.276225139  -16.508941469  2146.0422   1   8   0.0030   0.0015   0.0146  -0.0016   0.0034  -0.0035  -6.00   91.8
2024/05/09 13:03:55.000   28.276225139  -16.508941469  2146.0423   1   8   0.0030   0.0015   0.0146  -0.0016   0.0034  -0.0036  -5.00   88.9
2024/05/09 13:03:56.000   28.276225139  -16.508941469  2146.0424   1   8   0.0030   0.0015   0.0147  -0.0016   0.0034  -0.0036  -4.00   87.5
2024/05/09 13:03:57.000   28.276225140  -16.508941469  2146.0424   1   8   0.0031   0.0015   0.0147  -0.0016   0.0035  -0.0037  -3.00   84.4
2024/05/09 13:03:58.000   28.276225141  -16.508941469  2146.0423   1   8   0.0031   0.0015   0.0147  -0.0016   0.0035  -0.0037  -2.00   80.6
2024/05/09 13:03:59.000   28.276225142  -16.508941470  2146.0423   1   8   0.0031   0.0015   0.0148  -0.0017   0.0035  -0.0038  -1.00   85.6
2024/05/09 13:04:00.000   28.276225113  -16.508941458  2146.0482   1   8   0.0025   0.0014   0.0145  -0.0013   0.0032  -0.0030   0.00   53.6
2024/05/09 13:04:01.000   28.276225113  -16.508941458  2146.0483   1   8   0.0026   0.0014   0.0145  -0.0013   0.0033  -0.0030   1.00   51.4
2024/05/09 13:04:02.000   28.276225114  -16.508941458  2146.0484   1   8   0.0026   0.0014   0.0146  -0.0013   0.0033  -0.0030   2.00   48.7
2024/05/09 13:04:03.000   28.276225114  -16.508941458  2146.0485   1   8   0.0026   0.0014   0.0146  -0.0013   0.0033  -0.0031   3.00   46.6
2024/05/09 13:04:04.000   28.276225115  -16.508941458  2146.0484   1   8   0.0026   0.0014   0.0147  -0.0013   0.0033  -0.0031   4.00   44.2
2024/05/09 13:04:05.000   28.276225115  -16.508941458  2146.0485   1   8   0.0026   0.0014   0.0147  -0.0014   0.0033  -0.0032   5.00   42.1
2024/05/09 13:04:06.000   28.276225116  -16.508941458  2146.0484   1   8   0.0026   0.0014   0.0147  -0.0014   0.0034  -0.0032   6.00   39.5
2024/05/09 13:04:07.000   28.276225116  -16.508941458  2146.0485   1   8   0.0027   0.0014   0.0148  -0.0014   0.0034  -0.0032   7.00   37.1
2024/05/09 13:04:08.000   28.276225116  -16.508941458  2146.0486   1   8   0.0027   0.0014   0.0148  -0.0014   0.0034  -0.0033   8.00   34.3
2024/05/09 13:04:09.000   28.276225116  -16.508941458  2146.0486   1   8   0.0027   0.0014   0.0148  -0.0014   0.0034  -0.0033   9.00   31.4
2024/05/09 13:04:10.000   28.276225116  -16.508941458  2146.0487   1   8   0.0027   0.0014   0.0148  -0.0014   0.0034  -0.0033  10.00   28.4
2024/05/09 13:04:11.000   28.276225116  -16.508941458  2146.0487   1   8   0.0027   0.0014   0.0149  -0.0014   0.0034  -0.0033  11.00   25.6
2024/05/09 13:04:12.000   28.276225116  -16.508941458  2146.0488   1   8   0.0027   0.0014   0.0149  -0.0014   0.0034  -0.0033  12.00   22.5
2024/05/09 13:04:13.000   28.276225116  -16.508941458  2146.0489   1   8   0.0027   0.0014   0.0149  -0.0014   0.0034  -0.0034  13.00   19.3
2024/05/09 13:04:14.000   28.276225116  -16.508941458  2146.0489   1   8   0.0027   0.0014   0.0149  -0.0014   0.0034  -0.0034  14.00   16.0
2024/05/09 13:04:15.000   28.276225116  -16.508941458  2146.0490   1   8   0.0027   0.0014   0.0149  -0.0014   0.0034  -0.0034  15.00   12.7
2024/05/09 13:04:16.000   28.276225116  -16.508941458  2146.0490   1   8   0.0027   0.0014   0.0149  -0.0014   0.0035  -0.0034 -14.00    9.4
2024/05/09 13:04:17.000   28.276225116  -16.508941458  2146.0491   1   8   0.0027   0.0014   0.0149  -0.0014   0.0035  -0.0034 -13.00    6.2
2024/05/09 13:04:18.000   28.276225115  -16.508941458  2146.0492   1   8   0.0027   0.0014   0.0149  -0.0014   0.0035  -0.0034 -12.00    3.3
2024/05/09 13:04:19.000   28.276225101  -16.508941449  2146.0574   1   8   0.0028   0.0015   0.0155  -0.0015   0.0037  -0.0039 -11.00  988.8
2024/05/09 13:04:20.000   28.276225102  -16.508941449  2146.0573   1   8   0.0028   0.0015   0.0155  -0.0015   0.0037  -0.0039 -10.00  988.0
2024/05/09 13:04:21.000   28.276225102  -16.508941449  2146.0572   1   8   0.0028   0.0015   0.0155  -0.0015   0.0037  -0.0039  -9.00  985.7
2024/05/09 13:04:22.000   28.276225102  -16.508941450  2146.0570   1   8   0.0028   0.0015   0.0155  -0.0015   0.0037  -0.0039  -8.00  984.2
2024/05/09 13:04:23.000   28.276225102  -16.508941450  2146.0568   1   8   0.0028   0.0015   0.0155  -0.0015   0.0037  -0.0039  -7.00  981.7
2024/05/09 13:04:24.000   28.276225103  -16.508941450  2146.0567   1   8   0.0028   0.0015   0.0155  -0.0016   0.0037  -0.0039  -6.00  981.1
2024/05/09 13:04:25.000   28.276225103  -16.508941450  2146.0565   1   8   0.0029   0.0015   0.0155  -0.0016   0.0037  -0.0039  -5.00  978.2
2024/05/09 13:04:26.000   28.276225103  -16.508941450  2146.0564   1   8   0.0029   0.0015   0.0155  -0.0016   0.0037  -0.0039  -4.00  973.4
2024/05/09 13:04:27.000   28.276225104  -16.508941451  2146.0562   1   8   0.0029   0.0015   0.0155  -0.0016   0.0037  -0.0039  -3.00  966.8
2024/05/09 13:04:28.000   28.276225104  -16.508941451  2146.0560   1   8   0.0029   0.0015   0.0155  -0.0016   0.0037  -0.0040  -2.00  958.0
2024/05/09 13:04:29.000   28.276225104  -16.508941451  2146.0558   1   8   0.0029   0.0015   0.0156  -0.0016   0.0038  -0.0040  -1.00  950.5
2024/05/09 13:04:30.000   28.276225104  -16.508941451  2146.0557   1   8   0.0029   0.0015   0.0156  -0.0016   0.0038  -0.0040   0.00  944.7
2024/05/09 13:04:31.000   28.276225093  -16.508941454  2146.0529   1   7   0.0026   0.0014   0.0151  -0.0014   0.0034  -0.0037   1.00    4.0
2024/05/09 13:04:32.000   28.276225094  -16.508941454  2146.0529   1   7   0.0026   0.0014   0.0151  -0.0014   0.0034  -0.0037   2.00    4.2
2024/05/09 13:04:33.000   28.276225094  -16.508941454  2146.0528   1   7   0.0026   0.0014   0.0151  -0.0014   0.0035  -0.0037   3.00    4.2
2024/05/09 13:04:34.000   28.276225094  -16.508941454  2146.0528   1   7   0.0026   0.0014   0.0151  -0.0014   0.0035  -0.0037   4.00    4.3
2024/05/09 13:04:35.000   28.276225094  -16.508941454  2146.0527   1   7   0.0026   0.0014   0.0151  -0.0014   0.0035  -0.0037   5.00    4.3
2024/05/09 13:04:36.000   28.276225094  -16.508941454  2146.0528   1   7   0.0026   0.0014   0.0151  -0.0014   0.0035  -0.0037   6.00    4.4
2024/05/09 13:04:37.000   28.276225094  -16.508941454  2146.0528   1   7   0.0026   0.0014   0.0151  -0.0014   0.0035  -0.0037   7.00    4.4
2024/05/09 13:04:38.000   28.276225094  -16.508941454  2146.0527   1   7   0.0026   0.0014   0.0151  -0.0014   0.0035  -0.0037   8.00    4.5
2024/05/09 13:04:39.000   28.276225094  -16.508941454  2146.0527   1   7   0.0026   0.0014   0.0151  -0.0014   0.0035  -0.0037   9.00    4.5
2024/05/09 13:04:40.000   28.276225094  -16.508941454  2146.0527   1   7   0.0026   0.0014   0.0151  -0.0014   0.0035  -0.0037  10.00    4.6
2024/05/09 13:04:41.000   28.276225094  -16.508941454  2146.0527   1   7   0.0026   0.0014   0.0151  -0.0014   0.0035  -0.0037  11.00    4.6
2024/05/09 13:04:42.000   28.276225094  -16.508941454  2146.0526   1   7   0.0026   0.0014   0.0151  -0.0014   0.0035  -0.0037  12.00    4.6
2024/05/09 13:04:43.000   28.276225094  -16.508941454  2146.0526   1   7   0.0026   0.0014   0.0151  -0.0014   0.0035  -0.0037  13.00    4.6
2024/05/09 13:04:44.000   28.276225094  -16.508941454  2146.0526   1   7   0.0026   0.0014   0.0151  -0.0014   0.0035  -0.0037  14.00    4.7
2024/05/09 13:04:45.000   28.276225094  -16.508941454  2146.0526   1   7   0.0026   0.0014   0.0151  -0.0014   0.0034  -0.0037 -15.00    4.7
2024/05/09 13:04:46.000   28.276225094  -16.508941454  2146.0526   1   7   0.0026   0.0014   0.0151  -0.0014   0.0034  -0.0037 -14.00    4.7
2024/05/09 13:04:47.000   28.276225094  -16.508941454  2146.0525   1   7   0.0026   0.0014   0.0150  -0.0014   0.0034  -0.0037 -13.00    4.7
2024/05/09 13:04:48.000   28.276225094  -16.508941454  2146.0525   1   7   0.0026   0.0014   0.0150  -0.0014   0.0034  -0.0037 -12.00    4.8
2024/05/09 13:04:49.000   28.276225094  -16.508941454  2146.0525   1   7   0.0026   0.0014   0.0150  -0.0014   0.0034  -0.0037 -11.00    4.8
2024/05/09 13:04:50.000   28.276225094  -16.508941454  2146.0525   1   7   0.0026   0.0014   0.0150  -0.0014   0.0034  -0.0037 -10.00    4.8
2024/05/09 13:04:51.000   28.276225094  -16.508941454  2146.0525   1   7   0.0026   0.0014   0.0150  -0.0014   0.0034  -0.0037  -9.00   17.4
2024/05/09 13:04:52.000   28.276225094  -16.508941454  2146.0525   1   7   0.0026   0.0014   0.0150  -0.0014   0.0034  -0.0037  -8.00   21.6
2024/05/09 13:04:53.000   28.276225094  -16.508941454  2146.0524   1   7   0.0026   0.0014   0.0150  -0.0014   0.0034  -0.0037  -7.00   25.5
2024/05/09 13:04:54.000   28.276225094  -16.508941454  2146.0523   1   7   0.0026   0.0014   0.0150  -0.0014   0.0034  -0.0037  -6.00   29.4
2024/05/09 13:04:55.000   28.276225094  -16.508941454  2146.0523   1   7   0.0026   0.0014   0.0150  -0.0014   0.0034  -0.0037  -5.00   33.3
2024/05/09 13:04:56.000   28.276225094  -16.508941454  2146.0522   1   7   0.0026   0.0014   0.0150  -0.0014   0.0034  -0.0037  -4.00   37.2
2024/05/09 13:04:57.000   28.276225093  -16.508941454  2146.0523   1   7   0.0026   0.0014   0.0150  -0.0014   0.0034  -0.0037  -3.00   41.0
2024/05/09 13:04:58.000   28.276225093  -16.508941454  2146.0523   1   7   0.0026   0.0014   0.0150  -0.0014   0.0034  -0.0037  -2.00   44.7
2024/05/09 13:04:59.000   28.276225093  -16.508941454  2146.0521   1   7   0.0026   0.0014   0.0150  -0.0014   0.0034  -0.0037  -1.00   48.5
2024/05/09 13:05:00.000   28.276225093  -16.508941454  2146.0521   1   7   0.0026   0.0014   0.0150  -0.0014   0.0034  -0.0037   0.00   51.9
2024/05/09 13:05:01.000   28.276225110  -16.508941461  2146.0480   1   7   0.0030   0.0015   0.0154  -0.0017   0.0037  -0.0044   1.00   88.3
2024/05/09 13:05:02.000   28.276225110  -16.508941461  2146.0479   1   7   0.0031   0.0015   0.0155  -0.0018   0.0038  -0.0044   2.00   93.3
2024/05/09 13:05:03.000   28.276225111  -16.508941462  2146.0497   1   7   0.0031   0.0015   0.0148  -0.0018   0.0038  -0.0045   3.00    3.9
2024/05/09 13:05:04.000   28.276225112  -16.508941462  2146.0496   1   7   0.0031   0.0015   0.0149  -0.0018   0.0038  -0.0045   4.00   11.4
2024/05/09 13:05:05.000   28.276225112  -16.508941462  2146.0495   1   7   0.0031   0.0015   0.0148  -0.0018   0.0038  -0.0045   5.00   18.1
2024/05/09 13:05:06.000   28.276225112  -16.508941462  2146.0494   1   7   0.0031   0.0015   0.0148  -0.0018   0.0038  -0.0045   6.00   25.2
2024/05/09 13:05:07.000   28.276225110  -16.508941461  2146.0501   1   7   0.0030   0.0015   0.0148  -0.0017   0.0038  -0.0044   7.00   27.0
2024/05/09 13:05:08.000   28.276225110  -16.508941461  2146.0500   1   7   0.0030   0.0015   0.0147  -0.0017   0.0038  -0.0044   8.00   33.0
2024/05/09 13:05:09.000   28.276225110  -16.508941461  2146.0501   1   7   0.0030   0.0015   0.0147  -0.0017   0.0038  -0.0044   9.00   38.9
2024/05/09 13:05:10.000   28.276225110  -16.508941461  2146.0500   1   7   0.0030   0.0015   0.0147  -0.0017   0.0038  -0.0044  10.00   44.9
2024/05/09 13:05:11.000   28.276225110  -16.508941461  2146.0501   1   7   0.0030   0.0015   0.0147  -0.0017   0.0038  -0.0044  11.00   50.7
2024/05/09 13:05:12.000   28.276225110  -16.508941461  2146.0501   1   7   0.0030   0.0015   0.0147  -0.0017   0.0037  -0.0044  12.00   56.5
2024/05/09 13:05:13.000   28.276225110  -16.508941461  2146.0500   1   7   0.0030   0.0015   0.0147  -0.0017   0.0037  -0.0044  13.00   62.5
2024/05/09 13:05:14.000   28.276225110  -16.508941461  2146.0501   1   7   0.0030   0.0015   0.0147  -0.0017   0.0037  -0.0044  14.00   68.3
2024/05/09 13:05:15.000   28.276225110  -16.508941461  2146.0501   1   7   0.0030   0.0015   0.0147  -0.0017   0.0037  -0.0044 -15.00   74.0
2024/05/09 13:05:16.000   28.276225110  -16.508941461  2146.0501   1   7   0.0030   0.0015   0.0147  -0.0017   0.0037  -0.0044 -14.00   79.7
2024/05/09 13:05:17.000   28.276225110  -16.508941461  2146.0500   1   7   0.0030   0.0015   0.0147  -0.0017   0.0037  -0.0044 -13.00   85.2
2024/05/09 13:05:18.000   28.276225110  -16.508941461  2146.0500   1   7   0.0030   0.0015   0.0147  -0.0017   0.0037  -0.0044 -12.00   90.8
2024/05/09 13:05:19.000   28.276225110  -16.508941461  2146.0500   1   7   0.0030   0.0015   0.0147  -0.0017   0.0037  -0.0044 -11.00   96.4
2024/05/09 13:05:20.000   28.276225110  -16.508941461  2146.0500   1   7   0.0030   0.0015   0.0147  -0.0017   0.0037  -0.0044 -10.00  101.8
2024/05/09 13:05:21.000   28.276225110  -16.508941461  2146.0501   1   7   0.0030   0.0015   0.0147  -0.0017   0.0037  -0.0044  -9.00  107.4
2024/05/09 13:05:22.000   28.276225110  -16.508941461  2146.0500   1   7   0.0030   0.0015   0.0147  -0.0017   0.0037  -0.0044  -8.00  113.5
2024/05/09 13:05:23.000   28.276225110  -16.508941461  2146.0500   1   7   0.0030   0.0015   0.0146  -0.0017   0.0037  -0.0044  -7.00  117.7
2024/05/09 13:05:24.000   28.276225110  -16.508941461  2146.0499   1   7   0.0030   0.0015   0.0146  -0.0017   0.0037  -0.0044  -6.00  122.2
2024/05/09 13:05:25.000   28.276225110  -16.508941461  2146.0500   1   7   0.0030   0.0015   0.0146  -0.0017   0.0037  -0.0044  -5.00  126.2
2024/05/09 13:05:26.000   28.276225110  -16.508941461  2146.0500   1   7   0.0030   0.0015   0.0146  -0.0017   0.0037  -0.0044  -4.00  130.6
2024/05/09 13:05:27.000   28.276225110  -16.508941461  2146.0500   1   7   0.0030   0.0015   0.0146  -0.0017   0.0037  -0.0044  -3.00  135.7
2024/05/09 13:05:28.000   28.276225110  -16.508941460  2146.0501   1   7   0.0030   0.0015   0.0146  -0.0017   0.0037  -0.0043  -2.00  139.4
2024/05/09 13:05:29.000   28.276225109  -16.508941460  2146.0501   1   7   0.0030   0.0015   0.0146  -0.0017   0.0037  -0.0043  -1.00  142.6
2024/05/09 13:05:30.000   28.276225106  -16.508941459  2146.0508   1   7   0.0028   0.0014   0.0143  -0.0016   0.0036  -0.0040   0.00  146.8
2024/05/09 13:05:31.000   28.276225112  -16.508941461  2146.0493   1   7   0.0030   0.0015   0.0146  -0.0017   0.0037  -0.0043   1.00  169.9
2024/05/09 13:05:32.000   28.276225112  -16.508941462  2146.0494   1   7   0.0030   0.0015   0.0146  -0.0017   0.0037  -0.0043   2.00  194.0
2024/05/09 13:05:33.000   28.276225112  -16.508941462  2146.0493   1   7   0.0030   0.0015   0.0146  -0.0017   0.0037  -0.0044   3.00  191.7
2024/05/09 13:05:34.000   28.276225112  -16.508941462  2146.0492   1   7   0.0030   0.0015   0.0146  -0.0017   0.0037  -0.0044   4.00  191.9
2024/05/09 13:05:35.000   28.276225112  -16.508941462  2146.0492   1   7   0.0030   0.0015   0.0146  -0.0017   0.0037  -0.0044   5.00  194.4
2024/05/09 13:05:36.000   28.276225113  -16.508941462  2146.0492   1   7   0.0030   0.0015   0.0146  -0.0017   0.0037  -0.0044   6.00  196.9
2024/05/09 13:05:37.000   28.276225113  -16.508941462  2146.0491   1   7   0.0030   0.0015   0.0146  -0.0017   0.0037  -0.0044   7.00  200.9
2024/05/09 13:05:38.000   28.276225113  -16.508941462  2146.0492   1   7   0.0030   0.0015   0.0146  -0.0017   0.0037  -0.0044   8.00  205.2
2024/05/09 13:05:39.000   28.276225113  -16.508941462  2146.0492   1   7   0.0030   0.0015   0.0146  -0.0017   0.0037  -0.0044   9.00  208.5
2024/05/09 13:05:40.000   28.276225113  -16.508941462  2146.0491   1   7   0.0030   0.0015   0.0146  -0.0017   0.0037  -0.0044  10.00  212.6
2024/05/09 13:05:41.000   28.276225113  -16.508941462  2146.0492   1   7   0.0030   0.0015   0.0146  -0.0017   0.0037  -0.0044  11.00  216.2
2024/05/09 13:05:42.000   28.276225113  -16.508941462  2146.0492   1   7   0.0030   0.0015   0.0145  -0.0017   0.0037  -0.0044  12.00  220.3
2024/05/09 13:05:43.000   28.276225113  -16.508941462  2146.0492   1   7   0.0030   0.0015   0.0145  -0.0017   0.0037  -0.0044  13.00  224.0
2024/05/09 13:05:44.000   28.276225113  -16.508941462  2146.0492   1   7   0.0030   0.0015   0.0145  -0.0017   0.0037  -0.0044  14.00  227.9
2024/05/09 13:05:45.000   28.276225113  -16.508941462  2146.0492   1   7   0.0030   0.0015   0.0145  -0.0017   0.0037  -0.0044 -15.00  231.8
2024/05/09 13:05:46.000   28.276225113  -16.508941462  2146.0492   1   7   0.0030   0.0015   0.0145  -0.0017   0.0037  -0.0044 -14.00  235.8
2024/05/09 13:05:47.000   28.276225113  -16.508941462  2146.0492   1   7   0.0030   0.0015   0.0145  -0.0017   0.0037  -0.0044 -13.00  239.7
2024/05/09 13:05:48.000   28.276225113  -16.508941462  2146.0492   1   7   0.0030   0.0015   0.0145  -0.0017   0.0037  -0.0044 -12.00  243.2
2024/05/09 13:05:49.000   28.276225113  -16.508941462  2146.0492   1   7   0.0030   0.0015   0.0145  -0.0017   0.0037  -0.0044 -11.00  246.2
2024/05/09 13:05:50.000   28.276225113  -16.508941462  2146.0492   1   7   0.0030   0.0015   0.0145  -0.0017   0.0037  -0.0044 -10.00  249.1
2024/05/09 13:05:51.000   28.276225113  -16.508941462  2146.0492   1   7   0.0030   0.0015   0.0145  -0.0017   0.0037  -0.0044  -9.00  251.5
2024/05/09 13:05:52.000   28.276225113  -16.508941462  2146.0492   1   7   0.0030   0.0015   0.0145  -0.0017   0.0037  -0.0044  -8.00  254.5
2024/05/09 13:05:53.000   28.276225113  -16.508941462  2146.0492   1   7   0.0030   0.0015   0.0145  -0.0017   0.0037  -0.0044  -7.00  257.1
2024/05/09 13:05:54.000   28.276225113  -16.508941462  2146.0492   1   7   0.0030   0.0015   0.0145  -0.0017   0.0037  -0.0043  -6.00  258.1
2024/05/09 13:05:55.000   28.276225113  -16.508941462  2146.0493   1   7   0.0030   0.0015   0.0145  -0.0017   0.0037  -0.0043  -5.00  261.0
2024/05/09 13:05:56.000   28.276225113  -16.508941462  2146.0493   1   7   0.0030   0.0015   0.0144  -0.0017   0.0037  -0.0043  -4.00  265.2
2024/05/09 13:05:57.000   28.276225113  -16.508941462  2146.0494   1   7   0.0030   0.0015   0.0144  -0.0017   0.0037  -0.0043  -3.00  267.7
2024/05/09 13:05:58.000   28.276225113  -16.508941462  2146.0494   1   7   0.0030   0.0015   0.0144  -0.0017   0.0037  -0.0043  -2.00  271.1
2024/05/09 13:05:59.000   28.276225113  -16.508941462  2146.0493   1   7   0.0030   0.0015   0.0144  -0.0017   0.0037  -0.0043  -1.00  274.6
2024/05/09 13:06:00.000   28.276225109  -16.508941460  2146.0504   1   7   0.0028   0.0014   0.0142  -0.0016   0.0035  -0.0040   0.00  281.2
2024/05/09 13:06:01.000   28.276225112  -16.508941461  2146.0496   1   7   0.0030   0.0015   0.0144  -0.0017   0.0037  -0.0043   1.00  211.6
2024/05/09 13:06:02.000   28.276225113  -16.508941462  2146.0495   1   7   0.0030   0.0015   0.0144  -0.0017   0.0037  -0.0043   2.00  338.5
2024/05/09 13:06:03.000   28.276225113  -16.508941462  2146.0495   1   7   0.0030   0.0015   0.0144  -0.0017   0.0037  -0.0043   3.00  343.4
2024/05/09 13:06:04.000   28.276225113  -16.508941461  2146.0496   1   7   0.0030   0.0015   0.0144  -0.0017   0.0037  -0.0043   4.00  344.0
2024/05/09 13:06:05.000   28.276225113  -16.508941461  2146.0496   1   7   0.0030   0.0015   0.0144  -0.0017   0.0037  -0.0043   5.00  352.4
2024/05/09 13:06:06.000   28.276225113  -16.508941461  2146.0496   1   7   0.0030   0.0015   0.0144  -0.0017   0.0037  -0.0043   6.00  359.7
2024/05/09 13:06:07.000   28.276225113  -16.508941461  2146.0497   1   7   0.0030   0.0015   0.0144  -0.0017   0.0037  -0.0043   7.00  364.7
2024/05/09 13:06:08.000   28.276225113  -16.508941461  2146.0496   1   7   0.0030   0.0015   0.0144  -0.0017   0.0037  -0.0043   8.00  372.1
2024/05/09 13:06:09.000   28.276225113  -16.508941461  2146.0497   1   7   0.0030   0.0015   0.0144  -0.0017   0.0037  -0.0043   9.00  377.8
2024/05/09 13:06:10.000   28.276225113  -16.508941461  2146.0497   1   7   0.0030   0.0015   0.0144  -0.0017   0.0037  -0.0043  10.00  382.7
2024/05/09 13:06:11.000   28.276225113  -16.508941461  2146.0497   1   7   0.0030   0.0015   0.0144  -0.0017   0.0037  -0.0043  11.00  388.7
2024/05/09 13:06:12.000   28.276225113  -16.508941461  2146.0497   1   7   0.0030   0.0015   0.0144  -0.0017   0.0037  -0.0043  12.00  395.6
2024/05/09 13:06:13.000   28.276225113  -16.508941461  2146.0497   1   7   0.0030   0.0015   0.0144  -0.0017   0.0037  -0.0043  13.00  401.7
2024/05/09 13:06:14.000   28.276225113  -16.508941461  2146.0497   1   7   0.0030   0.0015   0.0144  -0.0017   0.0037  -0.0043  14.00  407.6
2024/05/09 13:06:15.000   28.276225113  -16.508941461  2146.0497   1   7   0.0030   0.0015   0.0144  -0.0017   0.0037  -0.0043 -15.00  413.6
2024/05/09 13:06:16.000   28.276225113  -16.508941461  2146.0497   1   7   0.0030   0.0015   0.0144  -0.0017   0.0037  -0.0043 -14.00  419.5
2024/05/09 13:06:17.000   28.276225113  -16.508941461  2146.0497   1   7   0.0030   0.0015   0.0143  -0.0017   0.0037  -0.0043 -13.00  423.6
2024/05/09 13:06:18.000   28.276225113  -16.508941461  2146.0497   1   7   0.0030   0.0015   0.0143  -0.0017   0.0037  -0.0043 -12.00  428.3
2024/05/09 13:06:19.000   28.276225113  -16.508941461  2146.0497   1   7   0.0030   0.0015   0.0143  -0.0017   0.0037  -0.0043 -11.00  432.9
2024/05/09 13:06:20.000   28.276225113  -16.508941461  2146.0497   1   7   0.0030   0.0015   0.0143  -0.0017   0.0037  -0.0043 -10.00  437.6
2024/05/09 13:06:21.000   28.276225113  -16.508941461  2146.0497   1   7   0.0030   0.0015   0.0143  -0.0017   0.0037  -0.0043  -9.00  442.6
2024/05/09 13:06:22.000   28.276225113  -16.508941461  2146.0497   1   7   0.0030   0.0015   0.0143  -0.0017   0.0037  -0.0043  -8.00  446.7
2024/05/09 13:06:23.000   28.276225113  -16.508941461  2146.0497   1   7   0.0030   0.0015   0.0143  -0.0017   0.0037  -0.0043  -7.00  448.8
2024/05/09 13:06:24.000   28.276225113  -16.508941461  2146.0498   1   7   0.0030   0.0015   0.0143  -0.0017   0.0037  -0.0043  -6.00  448.4
2024/05/09 13:06:25.000   28.276225113  -16.508941461  2146.0498   1   7   0.0030   0.0015   0.0143  -0.0017   0.0037  -0.0043  -5.00  451.1
2024/05/09 13:06:26.000   28.276225113  -16.508941461  2146.0498   1   7   0.0030   0.0015   0.0143  -0.0017   0.0037  -0.0043  -4.00  454.2
2024/05/09 13:06:27.000   28.276225113  -16.508941461  2146.0498   1   7   0.0030   0.0015   0.0143  -0.0017   0.0037  -0.0043  -3.00  458.3
2024/05/09 13:06:28.000   28.276225113  -16.508941461  2146.0499   1   7   0.0030   0.0015   0.0143  -0.0017   0.0037  -0.0043  -2.00  454.9
2024/05/09 13:06:29.000   28.276225113  -16.508941461  2146.0498   1   7   0.0030   0.0015   0.0143  -0.0017   0.0037  -0.0043  -1.00  454.6
2024/05/09 13:06:30.000   28.276225109  -16.508941459  2146.0508   1   7   0.0027   0.0014   0.0140  -0.0016   0.0035  -0.0040   0.00  457.8
2024/05/09 13:06:31.000   28.276225113  -16.508941461  2146.0498   1   7   0.0030   0.0015   0.0142  -0.0017   0.0037  -0.0043   1.00  278.8
2024/05/09 13:06:32.000   28.276225113  -16.508941461  2146.0497   1   7   0.0030   0.0015   0.0142  -0.0017   0.0037  -0.0043   2.00  448.0
2024/05/09 13:06:33.000   28.276225113  -16.508941461  2146.0497   1   7   0.0030   0.0015   0.0142  -0.0017   0.0037  -0.0043   3.00  582.1
2024/05/09 13:06:34.000   28.276225113  -16.508941461  2146.0497   1   7   0.0030   0.0015   0.0142  -0.0017   0.0037  -0.0043   4.00  636.3
2024/05/09 13:06:35.000   28.276225113  -16.508941461  2146.0499   1   7   0.0030   0.0015   0.0142  -0.0017   0.0037  -0.0043   5.00  629.9
2024/05/09 13:06:36.000   28.276225113  -16.508941461  2146.0499   1   7   0.0030   0.0015   0.0142  -0.0017   0.0037  -0.0043   6.00  632.9
2024/05/09 13:06:37.000   28.276225113  -16.508941461  2146.0498   1   7   0.0030   0.0015   0.0142  -0.0017   0.0037  -0.0043   7.00  638.7
2024/05/09 13:06:38.000   28.276225113  -16.508941461  2146.0499   1   7   0.0030   0.0015   0.0142  -0.0017   0.0037  -0.0043   8.00  642.3
2024/05/09 13:06:39.000   28.276225113  -16.508941461  2146.0499   1   7   0.0030   0.0015   0.0142  -0.0017   0.0037  -0.0043   9.00  644.1
2024/05/09 13:06:40.000   28.276225113  -16.508941461  2146.0499   1   7   0.0030   0.0015   0.0142  -0.0017   0.0037  -0.0043  10.00  644.1
2024/05/09 13:06:41.000   28.276225113  -16.508941461  2146.0499   1   7   0.0030   0.0015   0.0142  -0.0017   0.0037  -0.0043  11.00  643.5
2024/05/09 13:06:42.000   28.276225113  -16.508941461  2146.0499   1   7   0.0030   0.0015   0.0142  -0.0017   0.0037  -0.0043  12.00  645.4
2024/05/09 13:06:43.000   28.276225113  -16.508941461  2146.0499   1   7   0.0030   0.0015   0.0142  -0.0017   0.0037  -0.0043  13.00  651.9
2024/05/09 13:06:44.000   28.276225113  -16.508941461  2146.0499   1   7   0.0030   0.0015   0.0142  -0.0017   0.0037  -0.0043  14.00  655.0
2024/05/09 13:06:45.000   28.276225113  -16.508941461  2146.0499   1   7   0.0030   0.0015   0.0142  -0.0017   0.0037  -0.0043 -15.00  658.0
2024/05/09 13:06:46.000   28.276225113  -16.508941461  2146.0499   1   7   0.0030   0.0015   0.0142  -0.0017   0.0037  -0.0043 -14.00  661.4
2024/05/09 13:06:47.000   28.276225113  -16.508941461  2146.0500   1   7   0.0030   0.0015   0.0142  -0.0017   0.0037  -0.0043 -13.00  664.3
2024/05/09 13:06:48.000   28.276225113  -16.508941461  2146.0500   1   7   0.0030   0.0015   0.0142  -0.0017   0.0037  -0.0043 -12.00  667.7
2024/05/09 13:06:49.000   28.276225113  -16.508941461  2146.0500   1   7   0.0030   0.0015   0.0142  -0.0017   0.0037  -0.0043 -11.00  671.7
2024/05/09 13:06:50.000   28.276225113  -16.508941461  2146.0500   1   7   0.0030   0.0015   0.0142  -0.0017   0.0037  -0.0043 -10.00  673.5
2024/05/09 13:06:51.000   28.276225113  -16.508941461  2146.0500   1   7   0.0030   0.0015   0.0142  -0.0017   0.0037  -0.0043  -9.00  674.1
2024/05/09 13:06:52.000   28.276225113  -16.508941461  2146.0500   1   7   0.0030   0.0015   0.0142  -0.0017   0.0037  -0.0043  -8.00  676.0
2024/05/09 13:06:53.000   28.276225113  -16.508941461  2146.0500   1   7   0.0030   0.0015   0.0142  -0.0017   0.0037  -0.0043  -7.00  674.9
2024/05/09 13:06:54.000   28.276225113  -16.508941460  2146.0500   1   7   0.0030   0.0014   0.0141  -0.0017   0.0037  -0.0043  -6.00  666.9
2024/05/09 13:06:55.000   28.276225113  -16.508941460  2146.0500   1   7   0.0030   0.0014   0.0141  -0.0017   0.0037  -0.0043  -5.00  657.9
2024/05/09 13:06:56.000   28.276225113  -16.508941460  2146.0501   1   7   0.0029   0.0014   0.0141  -0.0017   0.0037  -0.0043  -4.00  654.6
2024/05/09 13:06:57.000   28.276225113  -16.508941460  2146.0501   1   7   0.0029   0.0014   0.0141  -0.0017   0.0037  -0.0043  -3.00  642.0
2024/05/09 13:06:58.000   28.276225113  -16.508941460  2146.0501   1   7   0.0029   0.0014   0.0141  -0.0017   0.0037  -0.0043  -2.00  627.3
2024/05/09 13:06:59.000   28.276225113  -16.508941460  2146.0500   1   7   0.0029   0.0014   0.0141  -0.0017   0.0037  -0.0043  -1.00  628.8
2024/05/09 13:07:00.000   28.276225107  -16.508941458  2146.0515   1   7   0.0027   0.0014   0.0139  -0.0016   0.0035  -0.0039   0.00  633.0
2024/05/09 13:07:01.000   28.276225112  -16.508941460  2146.0505   1   7   0.0029   0.0014   0.0141  -0.0017   0.0036  -0.0043   1.00  325.6
2024/05/09 13:07:02.000   28.276225112  -16.508941460  2146.0506   1   7   0.0029   0.0014   0.0141  -0.0017   0.0037  -0.0043   2.00  553.4
2024/05/09 13:07:03.000   28.276225112  -16.508941460  2146.0505   1   7   0.0029   0.0014   0.0141  -0.0017   0.0037  -0.0043   3.00  705.0
2024/05/09 13:07:04.000   28.276225112  -16.508941460  2146.0505   1   7   0.0029   0.0014   0.0141  -0.0017   0.0037  -0.0043   4.00  807.9
2024/05/09 13:07:05.000   28.276225112  -16.508941459  2146.0507   1   7   0.0029   0.0014   0.0141  -0.0017   0.0037  -0.0043   5.00  863.7
2024/05/09 13:07:06.000   28.276225112  -16.508941460  2146.0507   1   7   0.0029   0.0014   0.0141  -0.0017   0.0037  -0.0043   6.00  898.8
2024/05/09 13:07:07.000   28.276225112  -16.508941460  2146.0507   1   7   0.0029   0.0014   0.0141  -0.0017   0.0037  -0.0043   7.00  906.2
2024/05/09 13:07:08.000   28.276225112  -16.508941460  2146.0506   1   7   0.0029   0.0014   0.0141  -0.0017   0.0037  -0.0043   8.00  908.1
2024/05/09 13:07:09.000   28.276225112  -16.508941460  2146.0506   1   7   0.0029   0.0014   0.0141  -0.0017   0.0037  -0.0043   9.00  910.1
2024/05/09 13:07:10.000   28.276225112  -16.508941460  2146.0506   1   7   0.0029   0.0014   0.0141  -0.0017   0.0037  -0.0043  10.00  911.6
2024/05/09 13:07:11.000   28.276225112  -16.508941460  2146.0506   1   7   0.0029   0.0014   0.0141  -0.0017   0.0037  -0.0043  11.00  911.8
2024/05/09 13:07:12.000   28.276225112  -16.508941460  2146.0506   1   7   0.0029   0.0014   0.0141  -0.0017   0.0037  -0.0043  12.00  914.6
2024/05/09 13:07:13.000   28.276225112  -16.508941460  2146.0506   1   7   0.0029   0.0014   0.0141  -0.0017   0.0037  -0.0043  13.00  914.4
2024/05/09 13:07:14.000   28.276225112  -16.508941460  2146.0506   1   7   0.0029   0.0014   0.0141  -0.0017   0.0037  -0.0043  14.00  916.6
2024/05/09 13:07:15.000   28.276225112  -16.508941460  2146.0506   1   7   0.0029   0.0014   0.0141  -0.0017   0.0037  -0.0043 -15.00  919.6
2024/05/09 13:07:16.000   28.276225112  -16.508941460  2146.0506   1   7   0.0029   0.0014   0.0141  -0.0017   0.0037  -0.0043 -14.00  917.1
2024/05/09 13:07:17.000   28.276225112  -16.508941460  2146.0507   1   7   0.0029   0.0014   0.0140  -0.0017   0.0037  -0.0043 -13.00  915.9
2024/05/09 13:07:18.000   28.276225112  -16.508941459  2146.0507   1   7   0.0029   0.0014   0.0140  -0.0017   0.0037  -0.0043 -12.00  909.6
2024/05/09 13:07:19.000   28.276225112  -16.508941459  2146.0507   1   7   0.0029   0.0014   0.0140  -0.0017   0.0037  -0.0043 -11.00  900.8
2024/05/09 13:07:20.000   28.276225112  -16.508941459  2146.0507   1   7   0.0029   0.0014   0.0140  -0.0017   0.0036  -0.0043 -10.00  891.3
2024/05/09 13:07:21.000   28.276225112  -16.508941459  2146.0507   1   7   0.0029   0.0014   0.0140  -0.0017   0.0036  -0.0043  -9.00  878.5
2024/05/09 13:07:22.000   28.276225112  -16.508941459  2146.0507   1   7   0.0029   0.0014   0.0140  -0.0017   0.0036  -0.0043  -8.00  859.6
2024/05/09 13:07:23.000   28.276225112  -16.508941459  2146.0507   1   7   0.0029   0.0014   0.0140  -0.0017   0.0036  -0.0043  -7.00  844.8
2024/05/09 13:07:24.000   28.276225112  -16.508941459  2146.0506   1   7   0.0029   0.0014   0.0140  -0.0017   0.0036  -0.0043  -6.00  837.2
2024/05/09 13:07:25.000   28.276225112  -16.508941459  2146.0507   1   7   0.0029   0.0014   0.0140  -0.0017   0.0036  -0.0043  -5.00  820.6
2024/05/09 13:07:26.000   28.276225112  -16.508941459  2146.0507   1   7   0.0029   0.0014   0.0140  -0.0017   0.0036  -0.0043  -4.00  793.7
2024/05/09 13:07:27.000   28.276225112  -16.508941459  2146.0507   1   7   0.0029   0.0014   0.0140  -0.0017   0.0036  -0.0043  -3.00  762.2
2024/05/09 13:07:28.000   28.276225112  -16.508941459  2146.0507   1   7   0.0029   0.0014   0.0140  -0.0017   0.0036  -0.0043  -2.00  739.6
2024/05/09 13:07:29.000   28.276225112  -16.508941459  2146.0507   1   7   0.0029   0.0014   0.0140  -0.0017   0.0036  -0.0043  -1.00  721.4
2024/05/09 13:07:30.000   28.276225106  -16.508941457  2146.0519   1   7   0.0027   0.0014   0.0137  -0.0015   0.0035  -0.0039   0.00  689.2
2024/05/09 13:07:31.000   28.276225112  -16.508941459  2146.0504   1   7   0.0029   0.0014   0.0140  -0.0017   0.0036  -0.0043   1.00  348.2
2024/05/09 13:07:32.000   28.276225112  -16.508941459  2146.0504   1   7   0.0029   0.0014   0.0140  -0.0017   0.0036  -0.0043   2.00  516.7
2024/05/09 13:07:33.000   28.276225112  -16.508941460  2146.0503   1   7   0.0029   0.0014   0.0140  -0.0017   0.0036  -0.0043   3.00  632.8
2024/05/09 13:07:34.000   28.276225112  -16.508941459  2146.0504   1   7   0.0029   0.0014   0.0140  -0.0017   0.0036  -0.0043   4.00  705.9
2024/05/09 13:07:35.000   28.276225112  -16.508941459  2146.0504   1   7   0.0029   0.0014   0.0140  -0.0017   0.0036  -0.0043   5.00  763.3
2024/05/09 13:07:36.000   28.276225112  -16.508941459  2146.0505   1   7   0.0029   0.0014   0.0139  -0.0017   0.0036  -0.0043   6.00  801.3
2024/05/09 13:07:37.000   28.276225112  -16.508941460  2146.0505   1   7   0.0029   0.0014   0.0139  -0.0017   0.0036  -0.0043   7.00  841.7
2024/05/09 13:07:38.000   28.276225112  -16.508941460  2146.0505   1   7   0.0029   0.0014   0.0139  -0.0017   0.0036  -0.0043   8.00  881.0
2024/05/09 13:07:39.000   28.276225112  -16.508941460  2146.0505   1   7   0.0029   0.0014   0.0139  -0.0017   0.0036  -0.0043   9.00  917.7
2024/05/09 13:07:40.000   28.276225112  -16.508941459  2146.0505   1   7   0.0029   0.0014   0.0139  -0.0017   0.0036  -0.0043  10.00  941.1
2024/05/09 13:07:41.000   28.276225112  -16.508941460  2146.0505   1   7   0.0029   0.0014   0.0139  -0.0017   0.0036  -0.0043  11.00  971.7
2024/05/09 13:07:42.000   28.276225112  -16.508941460  2146.0506   1   7   0.0029   0.0014   0.0139  -0.0017   0.0036  -0.0043  12.00  998.3
2024/05/09 13:07:43.000   28.276225112  -16.508941459  2146.0506   1   7   0.0029   0.0014   0.0139  -0.0017   0.0036  -0.0043  13.00  999.9
2024/05/09 13:07:44.000   28.276225112  -16.508941459  2146.0506   1   7   0.0029   0.0014   0.0139  -0.0017   0.0036  -0.0043  14.00  999.9
2024/05/09 13:07:45.000   28.276225112  -16.508941459  2146.0507   1   7   0.0029   0.0014   0.0139  -0.0017   0.0036  -0.0043 -15.00  999.9
2024/05/09 13:07:46.000   28.276225112  -16.508941459  2146.0507   1   7   0.0029   0.0014   0.0139  -0.0017   0.0036  -0.0043 -14.00  999.9
2024/05/09 13:07:47.000   28.276225112  -16.508941459  2146.0507   1   7   0.0029   0.0014   0.0139  -0.0017   0.0036  -0.0043 -13.00  999.9
2024/05/09 13:07:48.000   28.276225112  -16.508941459  2146.0507   1   7   0.0029   0.0014   0.0139  -0.0017   0.0036  -0.0043 -12.00  999.9
2024/05/09 13:07:49.000   28.276225112  -16.508941459  2146.0508   1   7   0.0029   0.0014   0.0139  -0.0017   0.0036  -0.0043 -11.00  999.9
2024/05/09 13:07:50.000   28.276225113  -16.508941459  2146.0508   1   7   0.0029   0.0014   0.0139  -0.0017   0.0036  -0.0043 -10.00  999.9
2024/05/09 13:07:51.000   28.276225112  -16.508941459  2146.0508   1   7   0.0029   0.0014   0.0139  -0.0017   0.0036  -0.0043  -9.00  999.9
2024/05/09 13:07:52.000   28.276225112  -16.508941459  2146.0509   1   7   0.0029   0.0014   0.0139  -0.0017   0.0036  -0.0043  -8.00  999.9
2024/05/09 13:07:53.000   28.276225112  -16.508941459  2146.0510   1   7   0.0029   0.0014   0.0139  -0.0017   0.0036  -0.0043  -7.00  999.9
2024/05/09 13:07:54.000   28.276225112  -16.508941459  2146.0510   1   7   0.0029   0.0014   0.0139  -0.0017   0.0036  -0.0043  -6.00  999.9
2024/05/09 13:07:55.000   28.276225112  -16.508941459  2146.0510   1   7   0.0029   0.0014   0.0139  -0.0017   0.0036  -0.0043  -5.00  999.9
2024/05/09 13:07:56.000   28.276225112  -16.508941459  2146.0510   1   7   0.0029   0.0014   0.0139  -0.0017   0.0036  -0.0043  -4.00  966.9
2024/05/09 13:07:57.000   28.276225112  -16.508941459  2146.0511   1   7   0.0029   0.0014   0.0138  -0.0017   0.0036  -0.0043  -3.00  920.2
2024/05/09 13:07:58.000   28.276225112  -16.508941459  2146.0511   1   7   0.0029   0.0014   0.0138  -0.0017   0.0036  -0.0043  -2.00  876.7
2024/05/09 13:07:59.000   28.276225112  -16.508941459  2146.0511   1   7   0.0029   0.0014   0.0138  -0.0017   0.0036  -0.0043  -1.00  822.6
2024/05/09 13:08:00.000   28.276225094  -16.508941451  2146.0553   1   7   0.0025   0.0013   0.0135  -0.0014   0.0034  -0.0037   0.00  782.9
2024/05/09 13:08:01.000   28.276225095  -16.508941452  2146.0553   1   7   0.0025   0.0013   0.0135  -0.0014   0.0034  -0.0037   1.00  747.3
2024/05/09 13:08:02.000   28.276225095  -16.508941451  2146.0553   1   7   0.0025   0.0013   0.0135  -0.0014   0.0034  -0.0037   2.00  715.2
2024/05/09 13:08:03.000   28.276225095  -16.508941452  2146.0552   1   7   0.0025   0.0013   0.0135  -0.0014   0.0034  -0.0037   3.00  698.1
2024/05/09 13:08:04.000   28.276225095  -16.508941452  2146.0551   1   7   0.0025   0.0013   0.0135  -0.0014   0.0034  -0.0037   4.00  688.6
2024/05/09 13:08:05.000   28.276225095  -16.508941452  2146.0551   1   7   0.0025   0.0013   0.0134  -0.0014   0.0034  -0.0037   5.00  679.1
2024/05/09 13:08:06.000   28.276225095  -16.508941452  2146.0551   1   7   0.0025   0.0013   0.0134  -0.0014   0.0034  -0.0037   6.00  674.4
2024/05/09 13:08:07.000   28.276225095  -16.508941452  2146.0551   1   7   0.0025   0.0013   0.0134  -0.0014   0.0034  -0.0037   7.00  673.3
2024/05/09 13:08:08.000   28.276225095  -16.508941452  2146.0551   1   7   0.0025   0.0013   0.0134  -0.0014   0.0034  -0.0037   8.00  676.4
2024/05/09 13:08:09.000   28.276225095  -16.508941452  2146.0552   1   7   0.0025   0.0013   0.0134  -0.0014   0.0034  -0.0037   9.00  680.2
2024/05/09 13:08:10.000   28.276225095  -16.508941452  2146.0552   1   7   0.0025   0.0013   0.0134  -0.0014   0.0034  -0.0037  10.00  684.5
2024/05/09 13:08:11.000   28.276225095  -16.508941452  2146.0552   1   7   0.0025   0.0013   0.0134  -0.0014   0.0034  -0.0037  11.00  688.8
2024/05/09 13:08:12.000   28.276225095  -16.508941452  2146.0553   1   7   0.0025   0.0013   0.0134  -0.0014   0.0034  -0.0037  12.00  694.0
2024/05/09 13:08:13.000   28.276225095  -16.508941452  2146.0553   1   7   0.0025   0.0013   0.0134  -0.0014   0.0034  -0.0037  13.00  700.9
2024/05/09 13:08:14.000   28.276225095  -16.508941452  2146.0553   1   7   0.0025   0.0013   0.0134  -0.0014   0.0034  -0.0037  14.00  705.6
2024/05/09 13:08:15.000   28.276225095  -16.508941452  2146.0554   1   7   0.0025   0.0013   0.0134  -0.0014   0.0034  -0.0037 -15.00  710.4
2024/05/09 13:08:16.000   28.276225095  -16.508941452  2146.0554   1   7   0.0025   0.0013   0.0134  -0.0014   0.0034  -0.0037 -14.00  716.5
2024/05/09 13:08:17.000   28.276225095  -16.508941451  2146.0554   1   7   0.0025   0.0013   0.0134  -0.0014   0.0034  -0.0037 -13.00  718.6
2024/05/09 13:08:18.000   28.276225095  -16.508941451  2146.0554   1   7   0.0025   0.0013   0.0134  -0.0014   0.0034  -0.0037 -12.00  720.9
2024/05/09 13:08:19.000   28.276225095  -16.508941451  2146.0554   1   7   0.0025   0.0013   0.0134  -0.0014   0.0034  -0.0037 -11.00  722.5
2024/05/09 13:08:20.000   28.276225095  -16.508941451  2146.0554   1   7   0.0025   0.0013   0.0134  -0.0014   0.0034  -0.0037 -10.00  721.0
2024/05/09 13:08:21.000   28.276225095  -16.508941451  2146.0554   1   7   0.0025   0.0013   0.0134  -0.0014   0.0034  -0.0037  -9.00  720.3
2024/05/09 13:08:22.000   28.276225095  -16.508941451  2146.0554   1   7   0.0025   0.0013   0.0134  -0.0014   0.0034  -0.0037  -8.00  716.4
2024/05/09 13:08:23.000   28.276225095  -16.508941451  2146.0555   1   7   0.0025   0.0013   0.0134  -0.0014   0.0034  -0.0037  -7.00  709.3
2024/05/09 13:08:24.000   28.276225095  -16.508941451  2146.0555   1   7   0.0025   0.0013   0.0134  -0.0014   0.0034  -0.0037  -6.00  701.1
2024/05/09 13:08:25.000   28.276225095  -16.508941451  2146.0555   1   7   0.0025   0.0013   0.0134  -0.0014   0.0034  -0.0037  -5.00  694.8
2024/05/09 13:08:26.000   28.276225095  -16.508941451  2146.0555   1   7   0.0025   0.0013   0.0134  -0.0014   0.0034  -0.0037  -4.00  685.1
2024/05/09 13:08:27.000   28.276225095  -16.508941451  2146.0555   1   7   0.0025   0.0013   0.0134  -0.0014   0.0034  -0.0037  -3.00  673.5
2024/05/09 13:08:28.000   28.276225095  -16.508941451  2146.0556   1   7   0.0025   0.0013   0.0133  -0.0014   0.0034  -0.0037  -2.00  653.4
2024/05/09 13:08:29.000   28.276225095  -16.508941451  2146.0556   1   7   0.0025   0.0013   0.0133  -0.0014   0.0033  -0.0037  -1.00  631.9
2024/05/09 13:08:30.000   28.276225094  -16.508941451  2146.0557   1   7   0.0025   0.0013   0.0133  -0.0014   0.0033  -0.0037   0.00  612.0
2024/05/09 13:08:31.000   28.276225104  -16.508941455  2146.0532   1   7   0.0029   0.0014   0.0137  -0.0017   0.0036  -0.0042   1.00  244.4
2024/05/09 13:08:32.000   28.276225105  -16.508941455  2146.0531   1   7   0.0029   0.0014   0.0137  -0.0017   0.0036  -0.0042   2.00  345.0
2024/05/09 13:08:33.000   28.276225105  -16.508941456  2146.0529   1   7   0.0029   0.0014   0.0137  -0.0017   0.0036  -0.0042   3.00  434.3
2024/05/09 13:08:34.000   28.276225105  -16.508941456  2146.0529   1   7   0.0029   0.0014   0.0137  -0.0017   0.0036  -0.0042   4.00  481.9
2024/05/09 13:08:35.000   28.276225105  -16.508941456  2146.0530   1   7   0.0029   0.0014   0.0137  -0.0017   0.0036  -0.0042   5.00  510.2
2024/05/09 13:08:36.000   28.276225105  -16.508941456  2146.0529   1   7   0.0029   0.0014   0.0137  -0.0017   0.0036  -0.0042   6.00  541.2
2024/05/09 13:08:37.000   28.276225105  -16.508941456  2146.0529   1   7   0.0029   0.0014   0.0137  -0.0017   0.0036  -0.0042   7.00  560.7
2024/05/09 13:08:38.000   28.276225106  -16.508941456  2146.0529   1   7   0.0029   0.0014   0.0137  -0.0017   0.0036  -0.0043   8.00  577.6
2024/05/09 13:08:39.000   28.276225106  -16.508941456  2146.0529   1   7   0.0029   0.0014   0.0137  -0.0017   0.0036  -0.0043   9.00  587.6
2024/05/09 13:08:40.000   28.276225106  -16.508941456  2146.0529   1   7   0.0029   0.0014   0.0137  -0.0017   0.0036  -0.0043  10.00  590.1
2024/05/09 13:08:41.000   28.276225106  -16.508941456  2146.0529   1   7   0.0029   0.0014   0.0137  -0.0017   0.0036  -0.0043  11.00  594.7
2024/05/09 13:08:42.000   28.276225106  -16.508941456  2146.0529   1   7   0.0029   0.0014   0.0137  -0.0017   0.0036  -0.0043  12.00  600.6
2024/05/09 13:08:43.000   28.276225106  -16.508941456  2146.0529   1   7   0.0029   0.0014   0.0137  -0.0017   0.0036  -0.0043  13.00  608.4
2024/05/09 13:08:44.000   28.276225106  -16.508941456  2146.0530   1   7   0.0029   0.0014   0.0137  -0.0017   0.0036  -0.0043  14.00  616.8
2024/05/09 13:08:45.000   28.276225106  -16.508941456  2146.0530   1   7   0.0029   0.0014   0.0137  -0.0017   0.0036  -0.0043 -15.00  622.0
2024/05/09 13:08:46.000   28.276225106  -16.508941456  2146.0530   1   7   0.0029   0.0014   0.0137  -0.0017   0.0036  -0.0043 -14.00  626.8
2024/05/09 13:08:47.000   28.276225106  -16.508941456  2146.0530   1   7   0.0029   0.0014   0.0137  -0.0017   0.0036  -0.0042 -13.00  632.5
2024/05/09 13:08:48.000   28.276225106  -16.508941456  2146.0531   1   7   0.0029   0.0014   0.0137  -0.0017   0.0036  -0.0042 -12.00  640.2
2024/05/09 13:08:49.000   28.276225106  -16.508941456  2146.0531   1   7   0.0029   0.0014   0.0137  -0.0017   0.0036  -0.0042 -11.00  645.5
2024/05/09 13:08:50.000   28.276225106  -16.508941456  2146.0531   1   7   0.0029   0.0014   0.0137  -0.0017   0.0036  -0.0042 -10.00  647.1
2024/05/09 13:08:51.000   28.276225106  -16.508941456  2146.0532   1   7   0.0029   0.0014   0.0136  -0.0017   0.0036  -0.0042  -9.00  657.0
2024/05/09 13:08:52.000   28.276225106  -16.508941456  2146.0532   1   7   0.0029   0.0014   0.0136  -0.0017   0.0036  -0.0042  -8.00  660.5
2024/05/09 13:08:53.000   28.276225106  -16.508941456  2146.0532   1   7   0.0029   0.0014   0.0136  -0.0017   0.0036  -0.0042  -7.00  660.0
2024/05/09 13:08:54.000   28.276225106  -16.508941456  2146.0532   1   7   0.0029   0.0014   0.0136  -0.0017   0.0036  -0.0042  -6.00  661.5
2024/05/09 13:08:55.000   28.276225106  -16.508941456  2146.0533   1   7   0.0029   0.0014   0.0136  -0.0017   0.0036  -0.0042  -5.00  659.1
2024/05/09 13:08:56.000   28.276225106  -16.508941456  2146.0533   1   7   0.0029   0.0014   0.0136  -0.0017   0.0036  -0.0042  -4.00  654.4
2024/05/09 13:08:57.000   28.276225106  -16.508941456  2146.0534   1   7   0.0029   0.0014   0.0136  -0.0017   0.0036  -0.0042  -3.00  654.2
2024/05/09 13:08:58.000   28.276225105  -16.508941455  2146.0535   1   7   0.0029   0.0014   0.0136  -0.0017   0.0036  -0.0042  -2.00  623.0
2024/05/09 13:08:59.000   28.276225105  -16.508941455  2146.0536   1   7   0.0029   0.0014   0.0136  -0.0017   0.0036  -0.0042  -1.00  566.4
2024/05/09 13:09:00.000   28.276225087  -16.508941448  2146.0577   1   7   0.0027   0.0014   0.0134  -0.0015   0.0034  -0.0039   0.00  536.5
2024/05/09 13:09:01.000   28.276225098  -16.508941452  2146.0552   1   7   0.0029   0.0014   0.0136  -0.0017   0.0036  -0.0042   1.00  191.1
2024/05/09 13:09:02.000   28.276225098  -16.508941452  2146.0552   1   7   0.0029   0.0014   0.0136  -0.0017   0.0036  -0.0042   2.00  259.7
2024/05/09 13:09:03.000   28.276225098  -16.508941452  2146.0551   1   7   0.0029   0.0014   0.0136  -0.0017   0.0036  -0.0042   3.00  273.8
2024/05/09 13:09:04.000   28.276225098  -16.508941452  2146.0550   1   7   0.0029   0.0014   0.0136  -0.0017   0.0036  -0.0042   4.00  282.1
2024/05/09 13:09:05.000   28.276225099  -16.508941453  2146.0549   1   7   0.0029   0.0014   0.0136  -0.0017   0.0036  -0.0042   5.00  302.3
2024/05/09 13:09:06.000   28.276225098  -16.508941453  2146.0549   1   7   0.0029   0.0014   0.0136  -0.0017   0.0036  -0.0042   6.00  312.1
2024/05/09 13:09:07.000   28.276225099  -16.508941453  2146.0548   1   7   0.0029   0.0014   0.0136  -0.0017   0.0036  -0.0042   7.00  319.6
2024/05/09 13:09:08.000   28.276225099  -16.508941453  2146.0548   1   7   0.0029   0.0014   0.0136  -0.0017   0.0036  -0.0042   8.00  328.9
2024/05/09 13:09:09.000   28.276225099  -16.508941453  2146.0548   1   7   0.0029   0.0014   0.0136  -0.0017   0.0036  -0.0042   9.00  336.8
2024/05/09 13:09:10.000   28.276225099  -16.508941453  2146.0548   1   7   0.0029   0.0014   0.0136  -0.0017   0.0036  -0.0042  10.00  343.1
2024/05/09 13:09:11.000   28.276225099  -16.508941453  2146.0548   1   7   0.0029   0.0014   0.0136  -0.0017   0.0036  -0.0042  11.00  347.7
2024/05/09 13:09:12.000   28.276225099  -16.508941453  2146.0548   1   7   0.0029   0.0014   0.0136  -0.0017   0.0036  -0.0042  12.00  351.1
2024/05/09 13:09:13.000   28.276225099  -16.508941453  2146.0548   1   7   0.0029   0.0014   0.0136  -0.0017   0.0036  -0.0042  13.00  352.6
2024/05/09 13:09:14.000   28.276225099  -16.508941453  2146.0548   1   7   0.0029   0.0014   0.0136  -0.0017   0.0036  -0.0042  14.00  354.3
2024/05/09 13:09:15.000   28.276225099  -16.508941453  2146.0548   1   7   0.0029   0.0014   0.0136  -0.0017   0.0036  -0.0042 -15.00  358.3
2024/05/09 13:09:16.000   28.276225099  -16.508941453  2146.0548   1   7   0.0029   0.0014   0.0136  -0.0017   0.0036  -0.0042 -14.00  360.7
2024/05/09 13:09:17.000   28.276225099  -16.508941453  2146.0549   1   7   0.0029   0.0014   0.0136  -0.0017   0.0036  -0.0042 -13.00  364.3
2024/05/09 13:09:18.000   28.276225099  -16.508941453  2146.0549   1   7   0.0029   0.0014   0.0136  -0.0017   0.0036  -0.0042 -12.00  367.3
2024/05/09 13:09:19.000   28.276225099  -16.508941453  2146.0549   1   7   0.0029   0.0014   0.0136  -0.0017   0.0036  -0.0042 -11.00  373.0
2024/05/09 13:09:20.000   28.276225099  -16.508941453  2146.0550   1   7   0.0029   0.0014   0.0135  -0.0017   0.0036  -0.0042 -10.00  374.9
2024/05/09 13:09:21.000   28.276225099  -16.508941453  2146.0550   1   7   0.0029   0.0014   0.0135  -0.0017   0.0036  -0.0042  -9.00  379.5
2024/05/09 13:09:22.000   28.276225099  -16.508941453  2146.0551   1   7   0.0029   0.0014   0.0135  -0.0017   0.0036  -0.0042  -8.00  381.5
2024/05/09 13:09:23.000   28.276225099  -16.508941453  2146.0551   1   7   0.0029   0.0014   0.0135  -0.0017   0.0036  -0.0042  -7.00  383.8
2024/05/09 13:09:24.000   28.276225099  -16.508941453  2146.0551   1   7   0.0029   0.0014   0.0135  -0.0017   0.0036  -0.0042  -6.00  390.0
2024/05/09 13:09:25.000   28.276225099  -16.508941453  2146.0552   1   7   0.0029   0.0014   0.0135  -0.0017   0.0036  -0.0042  -5.00  390.7
2024/05/09 13:09:26.000   28.276225099  -16.508941453  2146.0552   1   7   0.0029   0.0014   0.0135  -0.0017   0.0036  -0.0042  -4.00  387.5
2024/05/09 13:09:27.000   28.276225098  -16.508941452  2146.0553   1   7   0.0029   0.0014   0.0135  -0.0017   0.0036  -0.0042  -3.00  377.7
2024/05/09 13:09:28.000   28.276225098  -16.508941452  2146.0555   1   7   0.0029   0.0014   0.0135  -0.0017   0.0036  -0.0042  -2.00  363.1
2024/05/09 13:09:29.000   28.276225098  -16.508941452  2146.0556   1   7   0.0029   0.0014   0.0135  -0.0017   0.0036  -0.0042  -1.00  340.9
2024/05/09 13:09:30.000   28.276225079  -16.508941444  2146.0599   1   7   0.0025   0.0013   0.0132  -0.0014   0.0033  -0.0037   0.00  335.2
2024/05/09 13:09:31.000   28.276225078  -16.508941444  2146.0600   1   7   0.0025   0.0013   0.0132  -0.0014   0.0033  -0.0037   1.00  323.2
2024/05/09 13:09:32.000   28.276225079  -16.508941444  2146.0600   1   7   0.0025   0.0013   0.0132  -0.0014   0.0033  -0.0037   2.00  316.0
2024/05/09 13:09:33.000   28.276225079  -16.508941444  2146.0599   1   7   0.0025   0.0013   0.0132  -0.0014   0.0033  -0.0037   3.00  312.5
2024/05/09 13:09:34.000   28.276225079  -16.508941444  2146.0598   1   7   0.0025   0.0013   0.0132  -0.0014   0.0033  -0.0037   4.00  312.3
2024/05/09 13:09:35.000   28.276225079  -16.508941444  2146.0598   1   7   0.0025   0.0013   0.0132  -0.0014   0.0033  -0.0037   5.00  312.1
2024/05/09 13:09:36.000   28.276225079  -16.508941444  2146.0598   1   7   0.0025   0.0013   0.0132  -0.0014   0.0033  -0.0037   6.00  312.0
2024/05/09 13:09:37.000   28.276225079  -16.508941444  2146.0598   1   7   0.0025   0.0013   0.0131  -0.0014   0.0033  -0.0037   7.00  311.7
