% program   : RTKPOST-EX 2.5.0
% inp file  : C:\Users\SallyHenry\Desktop\Sally Internship\GNSS gravi\DATA\Survey Rover Obs\FA12.24o
% inp file  : C:\Users\SallyHenry\Desktop\Sally Internship\GNSS gravi\DATA\BaseStations\IZAN\IZAN00ESP_R_20241300000_01D_30S_MO.rnx
% inp file  : C:\Users\SallyHenry\Desktop\Sally Internship\GNSS gravi\DATA\BaseStations\IZAN\IZAN00ESP_R_20241300000_01D_MN.rnx
% inp file  : C:\Users\SallyHenry\Desktop\Sally Internship\GNSS gravi\DATA\aux_files\Survey\IGS0OPSFIN_20241300000_01D_15M_ORB.SP3
% inp file  : C:\Users\SallyHenry\Desktop\Sally Internship\GNSS gravi\DATA\aux_files\Survey\IGS0OPSFIN_20241300000_01D_30S_CLK.CLK
% obs start : 2024/05/09 13:37:53.0 GPST (week2313 394673.0s)
% obs end   : 2024/05/09 13:52:53.0 GPST (week2313 395573.0s)
% pos mode  : Static
% freqs     : L1+L2/E5b
% solution  : Combined-No Phase Reset
% elev mask : 15.0 deg
% dynamics  : on
% tidecorr  : solid
% ionos opt : Estimate TEC
% tropo opt : Estimate ZTD+Grad
% ephemeris : Precise
% navi sys  : GPS GLONASS Galileo QZSS BDS
% amb res   : Fix and Hold
% amb glo   : Fix and Hold
% amb bds   : on
% val thres : 3.0
% antenna1  :                       ( 0.0000  0.0000  1.8000)
% antenna2  :                       ( 0.0000  0.0000  0.0000)
% ref pos   :  28.308069410  -16.499677180  2417.4044
%
% (lat/lon/height=WGS84/ellipsoidal,Q=1:fix,2:float,3:sbas,4:dgps,5:single,6:ppp,ns=# of satellites)
%  GPST                  latitude(deg) longitude(deg)  height(m)   Q  ns   sdn(m)   sde(m)   sdu(m)  sdne(m)  sdeu(m)  sdun(m) age(s)  ratio
2024/05/09 13:37:53.000   28.268633225  -16.495895570  1782.4942   1   7   0.0017   0.0015   0.0157  -0.0010   0.0033  -0.0024  -7.00  216.4
2024/05/09 13:37:54.000   28.268633226  -16.495895570  1782.4941   1   7   0.0017   0.0015   0.0157  -0.0010   0.0033  -0.0024  -6.00  207.6
2024/05/09 13:37:55.000   28.268633226  -16.495895570  1782.4940   1   7   0.0017   0.0015   0.0157  -0.0010   0.0033  -0.0024  -5.00  199.6
2024/05/09 13:37:56.000   28.268633226  -16.495895570  1782.4940   1   7   0.0017   0.0015   0.0158  -0.0010   0.0033  -0.0023  -4.00  189.5
2024/05/09 13:37:57.000   28.268633226  -16.495895570  1782.4940   1   7   0.0017   0.0015   0.0158  -0.0010   0.0033  -0.0023  -3.00  155.5
2024/05/09 13:37:58.000   28.268633226  -16.495895570  1782.4938   1   7   0.0017   0.0015   0.0158  -0.0010   0.0033  -0.0023  -2.00  110.9
2024/05/09 13:37:59.000   28.268633227  -16.495895570  1782.4937   1   7   0.0017   0.0015   0.0158  -0.0010   0.0034  -0.0023  -1.00   64.6
2024/05/09 13:38:00.000   28.268633224  -16.495895569  1782.4917   1   7   0.0017   0.0015   0.0158  -0.0010   0.0034  -0.0025   0.00  294.4
2024/05/09 13:38:01.000   28.268633224  -16.495895569  1782.4913   1   7   0.0017   0.0015   0.0158  -0.0010   0.0034  -0.0024   1.00  288.5
2024/05/09 13:38:02.000   28.268633225  -16.495895569  1782.4910   1   7   0.0017   0.0015   0.0158  -0.0010   0.0034  -0.0024   2.00  280.3
2024/05/09 13:38:03.000   28.268633225  -16.495895569  1782.4905   1   7   0.0017   0.0015   0.0159  -0.0010   0.0034  -0.0024   3.00  275.6
2024/05/09 13:38:04.000   28.268633225  -16.495895569  1782.4902   1   7   0.0017   0.0015   0.0159  -0.0010   0.0034  -0.0024   4.00  270.9
2024/05/09 13:38:05.000   28.268633226  -16.495895569  1782.4899   1   7   0.0017   0.0015   0.0159  -0.0010   0.0034  -0.0024   5.00  267.1
2024/05/09 13:38:06.000   28.268633226  -16.495895570  1782.4896   1   7   0.0017   0.0015   0.0159  -0.0010   0.0034  -0.0024   6.00  264.0
2024/05/09 13:38:07.000   28.268633226  -16.495895570  1782.4894   1   7   0.0017   0.0015   0.0159  -0.0010   0.0034  -0.0024   7.00  259.9
2024/05/09 13:38:08.000   28.268633226  -16.495895570  1782.4892   1   7   0.0017   0.0015   0.0159  -0.0010   0.0034  -0.0024   8.00  256.7
2024/05/09 13:38:09.000   28.268633227  -16.495895570  1782.4890   1   7   0.0017   0.0015   0.0159  -0.0010   0.0034  -0.0024   9.00  253.1
2024/05/09 13:38:10.000   28.268633227  -16.495895570  1782.4889   1   7   0.0017   0.0015   0.0159  -0.0010   0.0034  -0.0024  10.00  249.3
2024/05/09 13:38:11.000   28.268633227  -16.495895570  1782.4888   1   7   0.0017   0.0015   0.0159  -0.0010   0.0034  -0.0024  11.00  246.1
2024/05/09 13:38:12.000   28.268633227  -16.495895570  1782.4886   1   7   0.0017   0.0015   0.0159  -0.0010   0.0034  -0.0024  12.00  242.6
2024/05/09 13:38:13.000   28.268633227  -16.495895570  1782.4885   1   7   0.0017   0.0015   0.0159  -0.0010   0.0034  -0.0024  13.00  237.7
2024/05/09 13:38:14.000   28.268633227  -16.495895570  1782.4884   1   7   0.0017   0.0015   0.0159  -0.0010   0.0034  -0.0024  14.00  232.8
2024/05/09 13:38:15.000   28.268633227  -16.495895570  1782.4883   1   7   0.0017   0.0015   0.0159  -0.0010   0.0034  -0.0024  15.00  228.0
2024/05/09 13:38:16.000   28.268633227  -16.495895570  1782.4882   1   7   0.0017   0.0015   0.0159  -0.0010   0.0034  -0.0024 -14.00  223.9
2024/05/09 13:38:17.000   28.268633227  -16.495895570  1782.4881   1   7   0.0017   0.0015   0.0159  -0.0010   0.0034  -0.0024 -13.00  219.5
2024/05/09 13:38:18.000   28.268633228  -16.495895570  1782.4880   1   7   0.0017   0.0015   0.0159  -0.0010   0.0034  -0.0024 -12.00  216.1
2024/05/09 13:38:19.000   28.268633228  -16.495895570  1782.4879   1   7   0.0017   0.0015   0.0159  -0.0010   0.0034  -0.0024 -11.00  212.0
2024/05/09 13:38:20.000   28.268633228  -16.495895570  1782.4878   1   7   0.0017   0.0015   0.0159  -0.0010   0.0034  -0.0024 -10.00  208.1
2024/05/09 13:38:21.000   28.268633228  -16.495895570  1782.4877   1   7   0.0017   0.0015   0.0159  -0.0010   0.0034  -0.0024  -9.00  204.4
2024/05/09 13:38:22.000   28.268633228  -16.495895570  1782.4875   1   7   0.0017   0.0015   0.0159  -0.0010   0.0034  -0.0024  -8.00  199.4
2024/05/09 13:38:23.000   28.268633228  -16.495895571  1782.4874   1   7   0.0017   0.0015   0.0159  -0.0010   0.0034  -0.0024  -7.00  194.8
2024/05/09 13:38:24.000   28.268633229  -16.495895571  1782.4872   1   7   0.0017   0.0015   0.0159  -0.0010   0.0034  -0.0024  -6.00  189.1
2024/05/09 13:38:25.000   28.268633229  -16.495895571  1782.4869   1   7   0.0017   0.0015   0.0159  -0.0010   0.0034  -0.0024  -5.00  182.9
2024/05/09 13:38:26.000   28.268633229  -16.495895571  1782.4865   1   7   0.0017   0.0015   0.0160  -0.0010   0.0034  -0.0024  -4.00  172.0
2024/05/09 13:38:27.000   28.268633229  -16.495895571  1782.4862   1   7   0.0017   0.0015   0.0160  -0.0010   0.0034  -0.0024  -3.00  139.7
2024/05/09 13:38:28.000   28.268633230  -16.495895571  1782.4859   1   7   0.0017   0.0015   0.0160  -0.0010   0.0034  -0.0024  -2.00  100.4
2024/05/09 13:38:29.000   28.268633230  -16.495895571  1782.4855   1   7   0.0017   0.0015   0.0160  -0.0010   0.0034  -0.0024  -1.00   53.8
2024/05/09 13:38:30.000   28.268633228  -16.495895570  1782.4833   1   7   0.0017   0.0015   0.0160  -0.0010   0.0034  -0.0025   0.00  228.1
2024/05/09 13:38:31.000   28.268633228  -16.495895571  1782.4827   1   7   0.0017   0.0015   0.0160  -0.0010   0.0034  -0.0025   1.00  222.7
2024/05/09 13:38:32.000   28.268633228  -16.495895571  1782.4820   1   7   0.0017   0.0015   0.0160  -0.0010   0.0034  -0.0025   2.00  215.7
2024/05/09 13:38:33.000   28.268633229  -16.495895572  1782.4815   1   7   0.0017   0.0015   0.0160  -0.0010   0.0034  -0.0025   3.00  210.5
2024/05/09 13:38:34.000   28.268633229  -16.495895572  1782.4810   1   7   0.0017   0.0015   0.0161  -0.0010   0.0034  -0.0025   4.00  206.9
2024/05/09 13:38:35.000   28.268633230  -16.495895572  1782.4807   1   7   0.0017   0.0015   0.0161  -0.0010   0.0034  -0.0025   5.00  203.6
2024/05/09 13:38:36.000   28.268633230  -16.495895572  1782.4804   1   7   0.0017   0.0015   0.0161  -0.0010   0.0034  -0.0025   6.00  201.8
2024/05/09 13:38:37.000   28.268633230  -16.495895573  1782.4801   1   7   0.0017   0.0015   0.0161  -0.0010   0.0034  -0.0025   7.00  200.7
2024/05/09 13:38:38.000   28.268633231  -16.495895573  1782.4799   1   7   0.0017   0.0015   0.0161  -0.0010   0.0034  -0.0025   8.00  198.8
2024/05/09 13:38:39.000   28.268633231  -16.495895573  1782.4797   1   7   0.0017   0.0015   0.0161  -0.0010   0.0034  -0.0025   9.00  197.7
2024/05/09 13:38:40.000   28.268633231  -16.495895573  1782.4795   1   7   0.0017   0.0015   0.0161  -0.0010   0.0034  -0.0025  10.00  196.6
2024/05/09 13:38:41.000   28.268633231  -16.495895573  1782.4795   1   7   0.0017   0.0015   0.0161  -0.0010   0.0034  -0.0025  11.00  194.5
2024/05/09 13:38:42.000   28.268633232  -16.495895573  1782.4794   1   7   0.0017   0.0015   0.0161  -0.0010   0.0034  -0.0025  12.00  192.4
2024/05/09 13:38:43.000   28.268633232  -16.495895573  1782.4793   1   7   0.0017   0.0015   0.0161  -0.0010   0.0034  -0.0025  13.00  190.1
2024/05/09 13:38:44.000   28.268633232  -16.495895573  1782.4792   1   7   0.0017   0.0015   0.0161  -0.0010   0.0034  -0.0025  14.00  187.6
2024/05/09 13:38:45.000   28.268633232  -16.495895573  1782.4791   1   7   0.0017   0.0015   0.0161  -0.0010   0.0034  -0.0025  15.00  184.9
2024/05/09 13:38:46.000   28.268633232  -16.495895574  1782.4790   1   7   0.0017   0.0015   0.0161  -0.0010   0.0034  -0.0025 -14.00  182.1
2024/05/09 13:38:47.000   28.268633232  -16.495895574  1782.4790   1   7   0.0017   0.0015   0.0161  -0.0010   0.0034  -0.0025 -13.00  179.6
2024/05/09 13:38:48.000   28.268633232  -16.495895574  1782.4789   1   7   0.0017   0.0015   0.0161  -0.0010   0.0034  -0.0025 -12.00  176.6
2024/05/09 13:38:49.000   28.268633232  -16.495895574  1782.4788   1   7   0.0017   0.0015   0.0161  -0.0010   0.0034  -0.0025 -11.00  173.3
2024/05/09 13:38:50.000   28.268633232  -16.495895574  1782.4787   1   7   0.0017   0.0015   0.0161  -0.0010   0.0034  -0.0025 -10.00  170.7
2024/05/09 13:38:51.000   28.268633232  -16.495895574  1782.4786   1   7   0.0017   0.0015   0.0161  -0.0010   0.0034  -0.0025  -9.00  167.4
2024/05/09 13:38:52.000   28.268633233  -16.495895574  1782.4785   1   7   0.0017   0.0015   0.0161  -0.0010   0.0034  -0.0025  -8.00  163.6
2024/05/09 13:38:53.000   28.268633233  -16.495895574  1782.4784   1   7   0.0017   0.0015   0.0161  -0.0010   0.0034  -0.0025  -7.00  160.1
2024/05/09 13:38:54.000   28.268633233  -16.495895574  1782.4783   1   7   0.0017   0.0015   0.0161  -0.0010   0.0034  -0.0025  -6.00  154.0
2024/05/09 13:38:55.000   28.268633233  -16.495895575  1782.4782   1   7   0.0017   0.0015   0.0161  -0.0010   0.0034  -0.0025  -5.00  146.5
2024/05/09 13:38:56.000   28.268633233  -16.495895575  1782.4780   1   7   0.0017   0.0015   0.0161  -0.0010   0.0034  -0.0025  -4.00  138.0
2024/05/09 13:38:57.000   28.268633233  -16.495895575  1782.4778   1   7   0.0017   0.0015   0.0162  -0.0010   0.0034  -0.0025  -3.00  114.2
2024/05/09 13:38:58.000   28.268633233  -16.495895575  1782.4776   1   7   0.0017   0.0015   0.0162  -0.0010   0.0034  -0.0025  -2.00   81.5
2024/05/09 13:38:59.000   28.268633233  -16.495895575  1782.4774   1   7   0.0017   0.0015   0.0162  -0.0010   0.0034  -0.0025  -1.00   46.4
2024/05/09 13:39:00.000   28.268633232  -16.495895575  1782.4765   1   7   0.0017   0.0015   0.0161  -0.0010   0.0034  -0.0026   0.00  224.9
2024/05/09 13:39:01.000   28.268633232  -16.495895575  1782.4764   1   7   0.0017   0.0015   0.0162  -0.0010   0.0034  -0.0026   1.00  218.3
2024/05/09 13:39:02.000   28.268633232  -16.495895576  1782.4761   1   7   0.0017   0.0015   0.0162  -0.0010   0.0034  -0.0026   2.00  211.9
2024/05/09 13:39:03.000   28.268633232  -16.495895576  1782.4760   1   7   0.0017   0.0015   0.0162  -0.0010   0.0034  -0.0026   3.00  206.0
2024/05/09 13:39:04.000   28.268633232  -16.495895576  1782.4758   1   7   0.0017   0.0015   0.0163  -0.0010   0.0034  -0.0026   4.00  200.5
2024/05/09 13:39:05.000   28.268633232  -16.495895576  1782.4756   1   7   0.0017   0.0015   0.0163  -0.0010   0.0034  -0.0026   5.00  196.2
2024/05/09 13:39:06.000   28.268633233  -16.495895576  1782.4756   1   7   0.0017   0.0015   0.0163  -0.0010   0.0034  -0.0026   6.00  192.8
2024/05/09 13:39:07.000   28.268633233  -16.495895576  1782.4755   1   7   0.0017   0.0015   0.0163  -0.0010   0.0034  -0.0026   7.00  189.2
2024/05/09 13:39:08.000   28.268633233  -16.495895577  1782.4754   1   7   0.0017   0.0015   0.0163  -0.0010   0.0034  -0.0026   8.00  186.6
2024/05/09 13:39:09.000   28.268633233  -16.495895577  1782.4753   1   7   0.0017   0.0015   0.0163  -0.0010   0.0034  -0.0026   9.00  183.4
2024/05/09 13:39:10.000   28.268633233  -16.495895577  1782.4753   1   7   0.0017   0.0015   0.0163  -0.0010   0.0034  -0.0026  10.00  180.2
2024/05/09 13:39:11.000   28.268633233  -16.495895577  1782.4752   1   7   0.0017   0.0015   0.0163  -0.0010   0.0034  -0.0026  11.00  177.4
2024/05/09 13:39:12.000   28.268633233  -16.495895577  1782.4751   1   7   0.0017   0.0015   0.0163  -0.0010   0.0034  -0.0026  12.00  174.3
2024/05/09 13:39:13.000   28.268633233  -16.495895577  1782.4750   1   7   0.0017   0.0015   0.0163  -0.0010   0.0034  -0.0026  13.00  171.8
2024/05/09 13:39:14.000   28.268633233  -16.495895577  1782.4750   1   7   0.0017   0.0015   0.0163  -0.0010   0.0034  -0.0026  14.00  169.2
2024/05/09 13:39:15.000   28.268633233  -16.495895577  1782.4749   1   7   0.0017   0.0015   0.0163  -0.0010   0.0034  -0.0026  15.00  166.8
2024/05/09 13:39:16.000   28.268633233  -16.495895577  1782.4749   1   7   0.0017   0.0015   0.0163  -0.0010   0.0034  -0.0026 -14.00  164.2
2024/05/09 13:39:17.000   28.268633233  -16.495895577  1782.4748   1   7   0.0017   0.0015   0.0163  -0.0010   0.0034  -0.0026 -13.00  161.8
2024/05/09 13:39:18.000   28.268633233  -16.495895577  1782.4747   1   7   0.0017   0.0015   0.0163  -0.0010   0.0034  -0.0026 -12.00  159.2
2024/05/09 13:39:19.000   28.268633233  -16.495895577  1782.4746   1   7   0.0017   0.0015   0.0163  -0.0010   0.0034  -0.0026 -11.00  156.5
2024/05/09 13:39:20.000   28.268633234  -16.495895577  1782.4745   1   7   0.0017   0.0015   0.0163  -0.0010   0.0034  -0.0026 -10.00  153.0
2024/05/09 13:39:21.000   28.268633234  -16.495895578  1782.4744   1   7   0.0017   0.0015   0.0163  -0.0010   0.0034  -0.0026  -9.00  150.0
2024/05/09 13:39:22.000   28.268633234  -16.495895578  1782.4743   1   7   0.0017   0.0015   0.0163  -0.0010   0.0034  -0.0026  -8.00  147.0
2024/05/09 13:39:23.000   28.268633234  -16.495895578  1782.4741   1   7   0.0017   0.0015   0.0163  -0.0010   0.0034  -0.0026  -7.00  142.9
2024/05/09 13:39:24.000   28.268633234  -16.495895578  1782.4740   1   7   0.0017   0.0015   0.0163  -0.0010   0.0034  -0.0026  -6.00  138.6
2024/05/09 13:39:25.000   28.268633234  -16.495895578  1782.4738   1   7   0.0017   0.0015   0.0163  -0.0010   0.0034  -0.0026  -5.00  133.1
2024/05/09 13:39:26.000   28.268633234  -16.495895578  1782.4735   1   7   0.0017   0.0015   0.0163  -0.0010   0.0034  -0.0026  -4.00  126.0
2024/05/09 13:39:27.000   28.268633234  -16.495895578  1782.4733   1   7   0.0017   0.0015   0.0163  -0.0010   0.0034  -0.0026  -3.00  103.9
2024/05/09 13:39:28.000   28.268633235  -16.495895578  1782.4731   1   7   0.0017   0.0015   0.0164  -0.0011   0.0034  -0.0026  -2.00   75.8
2024/05/09 13:39:29.000   28.268633235  -16.495895579  1782.4729   1   7   0.0017   0.0015   0.0164  -0.0011   0.0034  -0.0026  -1.00   41.5
2024/05/09 13:39:30.000   28.268633237  -16.495895579  1782.4737   1   7   0.0017   0.0015   0.0163  -0.0010   0.0034  -0.0027   0.00  232.5
2024/05/09 13:39:31.000   28.268633237  -16.495895579  1782.4736   1   7   0.0017   0.0015   0.0164  -0.0010   0.0035  -0.0027   1.00  226.7
2024/05/09 13:39:32.000   28.268633237  -16.495895579  1782.4734   1   7   0.0017   0.0015   0.0164  -0.0010   0.0035  -0.0027   2.00  220.9
2024/05/09 13:39:33.000   28.268633237  -16.495895579  1782.4734   1   7   0.0017   0.0015   0.0164  -0.0010   0.0035  -0.0027   3.00  214.3
2024/05/09 13:39:34.000   28.268633237  -16.495895579  1782.4733   1   7   0.0017   0.0015   0.0164  -0.0010   0.0035  -0.0027   4.00  210.6
2024/05/09 13:39:35.000   28.268633237  -16.495895579  1782.4734   1   7   0.0017   0.0015   0.0164  -0.0011   0.0035  -0.0027   5.00  205.7
2024/05/09 13:39:36.000   28.268633237  -16.495895579  1782.4734   1   7   0.0017   0.0015   0.0165  -0.0011   0.0035  -0.0027   6.00  201.4
2024/05/09 13:39:37.000   28.268633237  -16.495895579  1782.4733   1   7   0.0017   0.0015   0.0165  -0.0011   0.0035  -0.0027   7.00  197.8
2024/05/09 13:39:38.000   28.268633236  -16.495895579  1782.4732   1   7   0.0017   0.0015   0.0165  -0.0011   0.0035  -0.0027   8.00  195.1
2024/05/09 13:39:39.000   28.268633236  -16.495895579  1782.4732   1   7   0.0017   0.0015   0.0165  -0.0011   0.0035  -0.0027   9.00  191.8
2024/05/09 13:39:40.000   28.268633236  -16.495895579  1782.4732   1   7   0.0017   0.0015   0.0165  -0.0011   0.0035  -0.0027  10.00  188.3
2024/05/09 13:39:41.000   28.268633236  -16.495895579  1782.4732   1   7   0.0017   0.0015   0.0165  -0.0011   0.0035  -0.0027  11.00  184.7
2024/05/09 13:39:42.000   28.268633236  -16.495895579  1782.4732   1   7   0.0017   0.0015   0.0165  -0.0011   0.0035  -0.0027  12.00  181.6
2024/05/09 13:39:43.000   28.268633236  -16.495895579  1782.4733   1   7   0.0017   0.0015   0.0165  -0.0011   0.0035  -0.0027  13.00  178.9
2024/05/09 13:39:44.000   28.268633236  -16.495895579  1782.4733   1   7   0.0017   0.0015   0.0165  -0.0011   0.0035  -0.0027  14.00  176.1
2024/05/09 13:39:45.000   28.268633236  -16.495895579  1782.4733   1   7   0.0017   0.0015   0.0165  -0.0011   0.0035  -0.0027  15.00  173.2
2024/05/09 13:39:46.000   28.268633236  -16.495895579  1782.4733   1   7   0.0017   0.0015   0.0165  -0.0011   0.0035  -0.0027 -14.00  170.3
2024/05/09 13:39:47.000   28.268633236  -16.495895579  1782.4733   1   7   0.0017   0.0015   0.0165  -0.0011   0.0034  -0.0026 -13.00  167.3
2024/05/09 13:39:48.000   28.268633236  -16.495895579  1782.4732   1   7   0.0017   0.0015   0.0165  -0.0011   0.0034  -0.0026 -12.00  164.6
2024/05/09 13:39:49.000   28.268633236  -16.495895579  1782.4732   1   7   0.0017   0.0015   0.0165  -0.0011   0.0034  -0.0026 -11.00  161.1
2024/05/09 13:39:50.000   28.268633236  -16.495895579  1782.4732   1   7   0.0017   0.0015   0.0165  -0.0011   0.0034  -0.0026 -10.00  157.9
2024/05/09 13:39:51.000   28.268633236  -16.495895579  1782.4732   1   7   0.0017   0.0015   0.0165  -0.0011   0.0034  -0.0026  -9.00  154.7
2024/05/09 13:39:52.000   28.268633235  -16.495895579  1782.4732   1   7   0.0017   0.0015   0.0165  -0.0011   0.0034  -0.0026  -8.00  150.8
2024/05/09 13:39:53.000   28.268633235  -16.495895579  1782.4732   1   7   0.0017   0.0015   0.0165  -0.0011   0.0034  -0.0026  -7.00  146.3
2024/05/09 13:39:54.000   28.268633235  -16.495895579  1782.4733   1   7   0.0017   0.0015   0.0165  -0.0011   0.0034  -0.0026  -6.00  141.2
2024/05/09 13:39:55.000   28.268633235  -16.495895579  1782.4732   1   7   0.0017   0.0015   0.0165  -0.0011   0.0034  -0.0026  -5.00  135.7
2024/05/09 13:39:56.000   28.268633235  -16.495895578  1782.4732   1   7   0.0017   0.0015   0.0165  -0.0011   0.0034  -0.0026  -4.00  122.9
2024/05/09 13:39:57.000   28.268633234  -16.495895578  1782.4733   1   7   0.0017   0.0015   0.0165  -0.0011   0.0034  -0.0026  -3.00  102.2
2024/05/09 13:39:58.000   28.268633234  -16.495895578  1782.4733   1   7   0.0017   0.0015   0.0165  -0.0011   0.0034  -0.0026  -2.00   74.4
2024/05/09 13:39:59.000   28.268633234  -16.495895578  1782.4732   1   7   0.0017   0.0015   0.0165  -0.0011   0.0034  -0.0026  -1.00   40.9
2024/05/09 13:40:00.000   28.268633236  -16.495895579  1782.4746   1   7   0.0017   0.0015   0.0165  -0.0010   0.0035  -0.0027   0.00  198.5
2024/05/09 13:40:01.000   28.268633235  -16.495895578  1782.4745   1   7   0.0017   0.0015   0.0165  -0.0010   0.0035  -0.0027   1.00  193.1
2024/05/09 13:40:02.000   28.268633235  -16.495895578  1782.4744   1   7   0.0017   0.0015   0.0166  -0.0011   0.0035  -0.0027   2.00  188.3
2024/05/09 13:40:03.000   28.268633235  -16.495895578  1782.4743   1   7   0.0017   0.0015   0.0166  -0.0011   0.0035  -0.0027   3.00  183.1
2024/05/09 13:40:04.000   28.268633235  -16.495895578  1782.4743   1   7   0.0017   0.0015   0.0166  -0.0011   0.0035  -0.0027   4.00  178.7
2024/05/09 13:40:05.000   28.268633235  -16.495895578  1782.4742   1   7   0.0017   0.0015   0.0166  -0.0011   0.0035  -0.0027   5.00  174.5
2024/05/09 13:40:06.000   28.268633235  -16.495895578  1782.4740   1   7   0.0017   0.0015   0.0166  -0.0011   0.0035  -0.0027   6.00  171.2
2024/05/09 13:40:07.000   28.268633235  -16.495895578  1782.4739   1   7   0.0017   0.0015   0.0166  -0.0011   0.0035  -0.0027   7.00  168.1
2024/05/09 13:40:08.000   28.268633237  -16.495895575  1782.4829   1   7   0.0017   0.0014   0.0158  -0.0010   0.0032  -0.0027   8.00    3.3
2024/05/09 13:40:09.000   28.268633237  -16.495895575  1782.4828   1   7   0.0017   0.0014   0.0158  -0.0010   0.0032  -0.0027   9.00    3.3
2024/05/09 13:40:10.000   28.268633237  -16.495895575  1782.4828   1   7   0.0017   0.0014   0.0158  -0.0010   0.0032  -0.0027  10.00    3.3
2024/05/09 13:40:11.000   28.268633237  -16.495895575  1782.4827   1   7   0.0017   0.0014   0.0158  -0.0010   0.0032  -0.0027  11.00    3.2
2024/05/09 13:40:12.000   28.268633237  -16.495895575  1782.4826   1   7   0.0017   0.0014   0.0158  -0.0010   0.0032  -0.0027  12.00    3.2
2024/05/09 13:40:13.000   28.268633237  -16.495895575  1782.4825   1   7   0.0017   0.0014   0.0157  -0.0010   0.0032  -0.0027  13.00    3.2
2024/05/09 13:40:14.000   28.268633237  -16.495895575  1782.4825   1   7   0.0017   0.0014   0.0157  -0.0010   0.0032  -0.0027  14.00    3.2
2024/05/09 13:40:15.000   28.268633237  -16.495895575  1782.4824   1   7   0.0017   0.0014   0.0157  -0.0010   0.0032  -0.0027 -15.00    3.2
2024/05/09 13:40:16.000   28.268633237  -16.495895575  1782.4824   1   7   0.0017   0.0014   0.0157  -0.0010   0.0032  -0.0027 -14.00    3.1
2024/05/09 13:40:17.000   28.268633237  -16.495895575  1782.4824   1   7   0.0017   0.0014   0.0157  -0.0010   0.0032  -0.0027 -13.00    3.1
2024/05/09 13:40:18.000   28.268633237  -16.495895575  1782.4824   1   7   0.0017   0.0014   0.0157  -0.0010   0.0032  -0.0027 -12.00    3.1
2024/05/09 13:40:19.000   28.268633237  -16.495895575  1782.4824   1   7   0.0017   0.0014   0.0157  -0.0010   0.0032  -0.0027 -11.00    3.0
2024/05/09 13:40:20.000   28.268633237  -16.495895575  1782.4824   1   7   0.0017   0.0014   0.0157  -0.0010   0.0031  -0.0027 -10.00    3.0
2024/05/09 13:40:21.000   28.268633234  -16.495895577  1782.4735   1   7   0.0017   0.0015   0.0166  -0.0011   0.0035  -0.0027  -9.00  127.1
2024/05/09 13:40:22.000   28.268633234  -16.495895577  1782.4736   1   7   0.0017   0.0015   0.0166  -0.0011   0.0035  -0.0027  -8.00  123.6
2024/05/09 13:40:23.000   28.268633233  -16.495895577  1782.4736   1   7   0.0017   0.0015   0.0166  -0.0011   0.0035  -0.0027  -7.00  120.0
2024/05/09 13:40:24.000   28.268633233  -16.495895577  1782.4738   1   7   0.0017   0.0015   0.0166  -0.0011   0.0035  -0.0027  -6.00  116.3
2024/05/09 13:40:25.000   28.268633233  -16.495895576  1782.4739   1   7   0.0017   0.0015   0.0166  -0.0011   0.0035  -0.0027  -5.00  110.7
2024/05/09 13:40:26.000   28.268633233  -16.495895576  1782.4741   1   7   0.0017   0.0015   0.0167  -0.0011   0.0035  -0.0027  -4.00  100.9
2024/05/09 13:40:27.000   28.268633233  -16.495895576  1782.4742   1   7   0.0017   0.0015   0.0167  -0.0011   0.0035  -0.0027  -3.00   85.8
2024/05/09 13:40:28.000   28.268633232  -16.495895576  1782.4743   1   7   0.0017   0.0015   0.0167  -0.0011   0.0035  -0.0027  -2.00   62.1
2024/05/09 13:40:29.000   28.268633232  -16.495895575  1782.4744   1   7   0.0017   0.0015   0.0167  -0.0011   0.0035  -0.0027  -1.00   34.1
2024/05/09 13:40:30.000   28.268633233  -16.495895576  1782.4756   1   7   0.0017   0.0015   0.0167  -0.0011   0.0035  -0.0028   0.00  174.6
2024/05/09 13:40:31.000   28.268633233  -16.495895575  1782.4760   1   7   0.0017   0.0015   0.0167  -0.0011   0.0035  -0.0028   1.00  172.1
2024/05/09 13:40:32.000   28.268633233  -16.495895575  1782.4761   1   7   0.0017   0.0015   0.0167  -0.0011   0.0035  -0.0028   2.00  169.8
2024/05/09 13:40:33.000   28.268633232  -16.495895575  1782.4762   1   7   0.0017   0.0015   0.0167  -0.0011   0.0035  -0.0028   3.00  166.7
2024/05/09 13:40:34.000   28.268633232  -16.495895575  1782.4764   1   7   0.0017   0.0015   0.0168  -0.0011   0.0035  -0.0028   4.00  163.2
2024/05/09 13:40:35.000   28.268633231  -16.495895574  1782.4765   1   7   0.0017   0.0015   0.0168  -0.0011   0.0035  -0.0028   5.00  159.6
2024/05/09 13:40:36.000   28.268633231  -16.495895574  1782.4765   1   7   0.0017   0.0015   0.0168  -0.0011   0.0035  -0.0028   6.00  156.3
2024/05/09 13:40:37.000   28.268633231  -16.495895574  1782.4766   1   7   0.0017   0.0015   0.0168  -0.0011   0.0035  -0.0028   7.00  152.8
2024/05/09 13:40:38.000   28.268633231  -16.495895574  1782.4765   1   7   0.0017   0.0015   0.0168  -0.0011   0.0035  -0.0028   8.00  149.8
2024/05/09 13:40:39.000   28.268633231  -16.495895574  1782.4765   1   7   0.0017   0.0015   0.0168  -0.0011   0.0035  -0.0028   9.00  146.7
2024/05/09 13:40:40.000   28.268633231  -16.495895574  1782.4765   1   7   0.0017   0.0015   0.0168  -0.0011   0.0035  -0.0028  10.00  143.8
2024/05/09 13:40:41.000   28.268633230  -16.495895574  1782.4765   1   7   0.0017   0.0015   0.0168  -0.0011   0.0035  -0.0028  11.00  141.0
2024/05/09 13:40:42.000   28.268633230  -16.495895574  1782.4765   1   7   0.0017   0.0015   0.0168  -0.0011   0.0035  -0.0028  12.00  138.3
2024/05/09 13:40:43.000   28.268633230  -16.495895574  1782.4765   1   7   0.0017   0.0015   0.0168  -0.0011   0.0035  -0.0028  13.00  135.7
2024/05/09 13:40:44.000   28.268633230  -16.495895574  1782.4765   1   7   0.0017   0.0015   0.0168  -0.0011   0.0035  -0.0028  14.00  133.3
2024/05/09 13:40:45.000   28.268633230  -16.495895574  1782.4765   1   7   0.0017   0.0015   0.0168  -0.0011   0.0035  -0.0028  15.00  130.8
2024/05/09 13:40:46.000   28.268633230  -16.495895574  1782.4765   1   7   0.0017   0.0015   0.0168  -0.0011   0.0035  -0.0028 -14.00  128.5
2024/05/09 13:40:47.000   28.268633230  -16.495895574  1782.4765   1   7   0.0017   0.0015   0.0168  -0.0011   0.0035  -0.0028 -13.00  126.2
2024/05/09 13:40:48.000   28.268633230  -16.495895574  1782.4765   1   7   0.0017   0.0015   0.0168  -0.0011   0.0035  -0.0028 -12.00  123.8
2024/05/09 13:40:49.000   28.268633230  -16.495895574  1782.4765   1   7   0.0017   0.0015   0.0168  -0.0011   0.0035  -0.0028 -11.00  121.2
2024/05/09 13:40:50.000   28.268633230  -16.495895574  1782.4765   1   7   0.0017   0.0015   0.0168  -0.0011   0.0035  -0.0028 -10.00  118.4
2024/05/09 13:40:51.000   28.268633230  -16.495895574  1782.4764   1   7   0.0017   0.0015   0.0168  -0.0011   0.0035  -0.0028  -9.00  115.3
2024/05/09 13:40:52.000   28.268633230  -16.495895574  1782.4765   1   7   0.0017   0.0015   0.0168  -0.0011   0.0035  -0.0028  -8.00  112.3
2024/05/09 13:40:53.000   28.268633230  -16.495895575  1782.4765   1   7   0.0017   0.0015   0.0168  -0.0011   0.0035  -0.0028  -7.00  108.8
2024/05/09 13:40:54.000   28.268633230  -16.495895574  1782.4766   1   7   0.0017   0.0015   0.0168  -0.0011   0.0035  -0.0028  -6.00  104.9
2024/05/09 13:40:55.000   28.268633230  -16.495895574  1782.4766   1   7   0.0017   0.0015   0.0168  -0.0011   0.0035  -0.0028  -5.00  100.1
2024/05/09 13:40:56.000   28.268633229  -16.495895574  1782.4767   1   7   0.0017   0.0015   0.0168  -0.0011   0.0035  -0.0028  -4.00   92.7
2024/05/09 13:40:57.000   28.268633229  -16.495895574  1782.4769   1   7   0.0017   0.0015   0.0168  -0.0011   0.0035  -0.0028  -3.00   79.7
2024/05/09 13:40:58.000   28.268633229  -16.495895574  1782.4772   1   7   0.0017   0.0015   0.0168  -0.0011   0.0035  -0.0028  -2.00   57.2
2024/05/09 13:40:59.000   28.268633229  -16.495895574  1782.4775   1   7   0.0017   0.0015   0.0169  -0.0011   0.0035  -0.0028  -1.00   31.1
2024/05/09 13:41:00.000   28.268633228  -16.495895573  1782.4778   1   7   0.0017   0.0015   0.0168  -0.0011   0.0035  -0.0029   0.00  158.3
2024/05/09 13:41:01.000   28.268633228  -16.495895573  1782.4782   1   7   0.0017   0.0015   0.0169  -0.0011   0.0035  -0.0029   1.00  156.0
2024/05/09 13:41:02.000   28.268633227  -16.495895572  1782.4788   1   7   0.0017   0.0015   0.0169  -0.0011   0.0035  -0.0029   2.00  153.6
2024/05/09 13:41:03.000   28.268633227  -16.495895572  1782.4792   1   7   0.0017   0.0015   0.0169  -0.0011   0.0035  -0.0029   3.00  153.0
2024/05/09 13:41:04.000   28.268633227  -16.495895572  1782.4795   1   7   0.0017   0.0015   0.0169  -0.0011   0.0035  -0.0029   4.00  152.2
2024/05/09 13:41:05.000   28.268633227  -16.495895571  1782.4797   1   7   0.0017   0.0015   0.0169  -0.0011   0.0035  -0.0029   5.00  151.1
2024/05/09 13:41:06.000   28.268633226  -16.495895571  1782.4797   1   7   0.0017   0.0015   0.0170  -0.0011   0.0035  -0.0029   6.00  149.2
2024/05/09 13:41:07.000   28.268633226  -16.495895571  1782.4798   1   7   0.0017   0.0015   0.0170  -0.0011   0.0035  -0.0029   7.00  147.2
2024/05/09 13:41:08.000   28.268633226  -16.495895571  1782.4799   1   7   0.0017   0.0015   0.0170  -0.0011   0.0035  -0.0029   8.00  145.5
2024/05/09 13:41:09.000   28.268633226  -16.495895571  1782.4799   1   7   0.0017   0.0015   0.0170  -0.0011   0.0035  -0.0029   9.00  143.3
2024/05/09 13:41:10.000   28.268633226  -16.495895571  1782.4799   1   7   0.0017   0.0015   0.0170  -0.0011   0.0035  -0.0029  10.00  141.5
2024/05/09 13:41:11.000   28.268633226  -16.495895571  1782.4799   1   7   0.0017   0.0015   0.0170  -0.0011   0.0035  -0.0029  11.00  139.6
2024/05/09 13:41:12.000   28.268633226  -16.495895570  1782.4799   1   7   0.0017   0.0015   0.0170  -0.0011   0.0035  -0.0029  12.00  137.2
2024/05/09 13:41:13.000   28.268633226  -16.495895570  1782.4799   1   7   0.0017   0.0015   0.0170  -0.0011   0.0035  -0.0029  13.00  135.1
2024/05/09 13:41:14.000   28.268633226  -16.495895570  1782.4799   1   7   0.0017   0.0015   0.0170  -0.0011   0.0035  -0.0029  14.00  132.9
2024/05/09 13:41:15.000   28.268633226  -16.495895570  1782.4799   1   7   0.0017   0.0015   0.0170  -0.0011   0.0035  -0.0029  15.00  130.7
2024/05/09 13:41:16.000   28.268633226  -16.495895570  1782.4799   1   7   0.0017   0.0015   0.0170  -0.0011   0.0035  -0.0029 -14.00  128.4
2024/05/09 13:41:17.000   28.268633226  -16.495895570  1782.4799   1   7   0.0017   0.0015   0.0169  -0.0011   0.0035  -0.0029 -13.00  126.1
2024/05/09 13:41:18.000   28.268633226  -16.495895570  1782.4799   1   7   0.0017   0.0015   0.0169  -0.0011   0.0035  -0.0029 -12.00  123.6
2024/05/09 13:41:19.000   28.268633226  -16.495895570  1782.4800   1   7   0.0017   0.0015   0.0169  -0.0011   0.0035  -0.0029 -11.00  121.7
2024/05/09 13:41:20.000   28.268633226  -16.495895570  1782.4800   1   7   0.0017   0.0015   0.0169  -0.0011   0.0035  -0.0029 -10.00  119.8
2024/05/09 13:41:21.000   28.268633226  -16.495895570  1782.4801   1   7   0.0017   0.0015   0.0169  -0.0011   0.0035  -0.0028  -9.00  117.1
2024/05/09 13:41:22.000   28.268633226  -16.495895570  1782.4802   1   7   0.0017   0.0015   0.0169  -0.0011   0.0035  -0.0028  -8.00  114.6
2024/05/09 13:41:23.000   28.268633226  -16.495895570  1782.4802   1   7   0.0017   0.0015   0.0169  -0.0011   0.0035  -0.0028  -7.00  111.5
2024/05/09 13:41:24.000   28.268633226  -16.495895570  1782.4803   1   7   0.0017   0.0015   0.0169  -0.0011   0.0035  -0.0028  -6.00  109.0
2024/05/09 13:41:25.000   28.268633226  -16.495895570  1782.4804   1   7   0.0017   0.0015   0.0170  -0.0011   0.0035  -0.0028  -5.00  106.9
2024/05/09 13:41:26.000   28.268633227  -16.495895570  1782.4806   1   7   0.0017   0.0015   0.0170  -0.0011   0.0035  -0.0028  -4.00  101.2
2024/05/09 13:41:27.000   28.268633227  -16.495895569  1782.4808   1   7   0.0017   0.0015   0.0170  -0.0011   0.0035  -0.0028  -3.00   86.5
2024/05/09 13:41:28.000   28.268633227  -16.495895569  1782.4811   1   7   0.0017   0.0015   0.0170  -0.0011   0.0035  -0.0028  -2.00   63.8
2024/05/09 13:41:29.000   28.268633227  -16.495895569  1782.4814   1   7   0.0017   0.0015   0.0170  -0.0011   0.0035  -0.0028  -1.00   33.6
2024/05/09 13:41:30.000   28.268633225  -16.495895568  1782.4803   1   7   0.0017   0.0015   0.0170  -0.0011   0.0035  -0.0029   0.00  161.3
2024/05/09 13:41:31.000   28.268633225  -16.495895568  1782.4806   1   7   0.0017   0.0015   0.0170  -0.0011   0.0035  -0.0029   1.00  161.7
2024/05/09 13:41:32.000   28.268633225  -16.495895568  1782.4809   1   7   0.0017   0.0015   0.0170  -0.0011   0.0035  -0.0029   2.00  160.4
2024/05/09 13:41:33.000   28.268633225  -16.495895567  1782.4813   1   7   0.0017   0.0015   0.0171  -0.0011   0.0035  -0.0029   3.00  158.6
2024/05/09 13:41:34.000   28.268633226  -16.495895567  1782.4815   1   7   0.0017   0.0015   0.0171  -0.0011   0.0035  -0.0029   4.00  157.7
2024/05/09 13:41:35.000   28.268633226  -16.495895567  1782.4816   1   7   0.0017   0.0015   0.0171  -0.0011   0.0035  -0.0029   5.00  157.3
2024/05/09 13:41:36.000   28.268633226  -16.495895567  1782.4818   1   7   0.0017   0.0015   0.0171  -0.0011   0.0035  -0.0029   6.00  155.6
2024/05/09 13:41:37.000   28.268633226  -16.495895567  1782.4819   1   7   0.0017   0.0015   0.0171  -0.0011   0.0035  -0.0029   7.00  154.6
2024/05/09 13:41:38.000   28.268633227  -16.495895567  1782.4820   1   7   0.0017   0.0015   0.0171  -0.0011   0.0035  -0.0029   8.00  153.5
2024/05/09 13:41:39.000   28.268633227  -16.495895567  1782.4821   1   7   0.0017   0.0015   0.0171  -0.0011   0.0035  -0.0029   9.00  152.1
2024/05/09 13:41:40.000   28.268633227  -16.495895567  1782.4820   1   7   0.0017   0.0015   0.0171  -0.0011   0.0035  -0.0029  10.00  151.1
2024/05/09 13:41:41.000   28.268633227  -16.495895567  1782.4820   1   7   0.0017   0.0015   0.0171  -0.0011   0.0035  -0.0029  11.00  149.7
2024/05/09 13:41:42.000   28.268633228  -16.495895567  1782.4820   1   7   0.0017   0.0015   0.0171  -0.0011   0.0035  -0.0029  12.00  148.2
2024/05/09 13:41:43.000   28.268633228  -16.495895567  1782.4820   1   7   0.0017   0.0015   0.0171  -0.0011   0.0035  -0.0029  13.00  146.1
2024/05/09 13:41:44.000   28.268633228  -16.495895567  1782.4820   1   7   0.0017   0.0015   0.0171  -0.0011   0.0035  -0.0029  14.00  144.2
2024/05/09 13:41:45.000   28.268633228  -16.495895567  1782.4820   1   7   0.0017   0.0015   0.0171  -0.0011   0.0035  -0.0029  15.00  142.4
2024/05/09 13:41:46.000   28.268633228  -16.495895567  1782.4820   1   7   0.0017   0.0015   0.0171  -0.0011   0.0035  -0.0029 -14.00  140.4
2024/05/09 13:41:47.000   28.268633228  -16.495895567  1782.4820   1   7   0.0017   0.0015   0.0171  -0.0011   0.0035  -0.0029 -13.00  138.0
2024/05/09 13:41:48.000   28.268633228  -16.495895567  1782.4820   1   7   0.0017   0.0015   0.0171  -0.0011   0.0035  -0.0029 -12.00  135.6
2024/05/09 13:41:49.000   28.268633228  -16.495895567  1782.4820   1   7   0.0017   0.0015   0.0171  -0.0011   0.0035  -0.0029 -11.00  133.2
2024/05/09 13:41:50.000   28.268633228  -16.495895567  1782.4820   1   7   0.0017   0.0015   0.0171  -0.0011   0.0035  -0.0029 -10.00  130.2
2024/05/09 13:41:51.000   28.268633229  -16.495895567  1782.4821   1   7   0.0017   0.0015   0.0171  -0.0011   0.0035  -0.0029  -9.00  128.0
2024/05/09 13:41:52.000   28.268633229  -16.495895567  1782.4821   1   7   0.0017   0.0015   0.0171  -0.0011   0.0035  -0.0029  -8.00  125.7
2024/05/09 13:41:53.000   28.268633229  -16.495895567  1782.4821   1   7   0.0017   0.0015   0.0171  -0.0011   0.0035  -0.0029  -7.00  122.9
2024/05/09 13:41:54.000   28.268633229  -16.495895566  1782.4822   1   7   0.0017   0.0015   0.0171  -0.0011   0.0035  -0.0029  -6.00  121.4
2024/05/09 13:41:55.000   28.268633230  -16.495895566  1782.4823   1   7   0.0017   0.0015   0.0171  -0.0011   0.0035  -0.0029  -5.00  119.8
2024/05/09 13:41:56.000   28.268633230  -16.495895566  1782.4824   1   7   0.0017   0.0015   0.0171  -0.0011   0.0035  -0.0029  -4.00  116.2
2024/05/09 13:41:57.000   28.268633230  -16.495895566  1782.4825   1   7   0.0017   0.0015   0.0171  -0.0011   0.0035  -0.0029  -3.00  101.2
2024/05/09 13:41:58.000   28.268633231  -16.495895566  1782.4826   1   7   0.0017   0.0015   0.0171  -0.0011   0.0035  -0.0029  -2.00   76.9
2024/05/09 13:41:59.000   28.268633231  -16.495895566  1782.4826   1   7   0.0017   0.0015   0.0172  -0.0011   0.0035  -0.0029  -1.00   43.3
2024/05/09 13:42:00.000   28.268633231  -16.495895574  1782.4789   1   7   0.0016   0.0013   0.0156  -0.0009   0.0030  -0.0029   0.00    3.0
2024/05/09 13:42:01.000   28.268633231  -16.495895565  1782.4823   1   7   0.0017   0.0015   0.0171  -0.0011   0.0036  -0.0030   1.00  226.3
2024/05/09 13:42:02.000   28.268633231  -16.495895564  1782.4823   1   7   0.0017   0.0015   0.0172  -0.0011   0.0036  -0.0030   2.00  224.5
2024/05/09 13:42:03.000   28.268633232  -16.495895564  1782.4825   1   7   0.0017   0.0015   0.0172  -0.0011   0.0036  -0.0030   3.00  223.3
2024/05/09 13:42:04.000   28.268633232  -16.495895564  1782.4826   1   7   0.0017   0.0015   0.0172  -0.0011   0.0036  -0.0030   4.00  223.2
2024/05/09 13:42:05.000   28.268633232  -16.495895564  1782.4826   1   7   0.0017   0.0015   0.0172  -0.0011   0.0036  -0.0030   5.00  220.4
2024/05/09 13:42:06.000   28.268633233  -16.495895564  1782.4826   1   7   0.0017   0.0015   0.0172  -0.0011   0.0036  -0.0030   6.00  219.6
2024/05/09 13:42:07.000   28.268633237  -16.495895569  1782.4843   1   7   0.0017   0.0014   0.0164  -0.0009   0.0033  -0.0030   7.00    3.2
2024/05/09 13:42:08.000   28.268633237  -16.495895569  1782.4842   1   7   0.0017   0.0014   0.0164  -0.0009   0.0033  -0.0030   8.00    3.2
2024/05/09 13:42:09.000   28.268633237  -16.495895569  1782.4841   1   7   0.0017   0.0014   0.0164  -0.0009   0.0033  -0.0030   9.00    3.3
2024/05/09 13:42:10.000   28.268633237  -16.495895569  1782.4840   1   7   0.0017   0.0014   0.0164  -0.0009   0.0033  -0.0030  10.00    3.3
2024/05/09 13:42:11.000   28.268633237  -16.495895569  1782.4840   1   7   0.0017   0.0014   0.0164  -0.0009   0.0033  -0.0030  11.00    3.3
2024/05/09 13:42:12.000   28.268633237  -16.495895569  1782.4840   1   7   0.0017   0.0014   0.0164  -0.0009   0.0033  -0.0030  12.00    3.3
2024/05/09 13:42:13.000   28.268633237  -16.495895569  1782.4840   1   7   0.0017   0.0014   0.0164  -0.0009   0.0033  -0.0030  13.00    3.3
2024/05/09 13:42:14.000   28.268633237  -16.495895569  1782.4839   1   7   0.0017   0.0014   0.0164  -0.0009   0.0033  -0.0030  14.00    3.3
2024/05/09 13:42:15.000   28.268633237  -16.495895569  1782.4839   1   7   0.0017   0.0014   0.0164  -0.0009   0.0033  -0.0030 -15.00    3.3
2024/05/09 13:42:16.000   28.268633237  -16.495895569  1782.4839   1   7   0.0017   0.0014   0.0164  -0.0009   0.0033  -0.0030 -14.00    3.3
2024/05/09 13:42:17.000   28.268633238  -16.495895569  1782.4838   1   7   0.0017   0.0014   0.0164  -0.0009   0.0033  -0.0030 -13.00    3.3
2024/05/09 13:42:18.000   28.268633238  -16.495895569  1782.4838   1   7   0.0017   0.0014   0.0164  -0.0009   0.0033  -0.0030 -12.00    3.3
2024/05/09 13:42:19.000   28.268633238  -16.495895569  1782.4837   1   7   0.0016   0.0014   0.0163  -0.0009   0.0033  -0.0030 -11.00    3.3
2024/05/09 13:42:20.000   28.268633238  -16.495895569  1782.4836   1   7   0.0016   0.0014   0.0163  -0.0009   0.0033  -0.0030 -10.00    3.3
2024/05/09 13:42:21.000   28.268633238  -16.495895569  1782.4835   1   7   0.0016   0.0014   0.0163  -0.0009   0.0033  -0.0030  -9.00    3.3
2024/05/09 13:42:22.000   28.268633238  -16.495895569  1782.4835   1   7   0.0016   0.0014   0.0163  -0.0009   0.0033  -0.0030  -8.00    3.3
2024/05/09 13:42:23.000   28.268633238  -16.495895569  1782.4834   1   7   0.0016   0.0014   0.0163  -0.0009   0.0033  -0.0030  -7.00    3.3
2024/05/09 13:42:24.000   28.268633238  -16.495895569  1782.4834   1   7   0.0016   0.0014   0.0163  -0.0009   0.0033  -0.0030  -6.00    3.2
2024/05/09 13:42:25.000   28.268633238  -16.495895569  1782.4834   1   7   0.0016   0.0014   0.0163  -0.0009   0.0033  -0.0030  -5.00    3.2
2024/05/09 13:42:26.000   28.268633238  -16.495895568  1782.4834   1   7   0.0016   0.0014   0.0163  -0.0009   0.0033  -0.0030  -4.00    3.2
2024/05/09 13:42:27.000   28.268633239  -16.495895575  1782.4748   1   7   0.0016   0.0013   0.0156  -0.0009   0.0030  -0.0029  -3.00    6.4
2024/05/09 13:42:28.000   28.268633239  -16.495895575  1782.4744   1   7   0.0016   0.0013   0.0156  -0.0009   0.0030  -0.0029  -2.00    9.2
2024/05/09 13:42:29.000   28.268633239  -16.495895575  1782.4741   1   7   0.0016   0.0013   0.0156  -0.0009   0.0030  -0.0029  -1.00   11.7
2024/05/09 13:42:30.000   28.268633239  -16.495895575  1782.4735   1   7   0.0016   0.0013   0.0156  -0.0009   0.0030  -0.0030   0.00   13.9
2024/05/09 13:42:31.000   28.268633243  -16.495895576  1782.4730   1   7   0.0017   0.0013   0.0156  -0.0009   0.0030  -0.0030   1.00   15.0
2024/05/09 13:42:32.000   28.268633243  -16.495895576  1782.4727   1   7   0.0017   0.0013   0.0156  -0.0009   0.0030  -0.0030   2.00   17.9
2024/05/09 13:42:33.000   28.268633244  -16.495895576  1782.4723   1   7   0.0017   0.0013   0.0156  -0.0009   0.0030  -0.0030   3.00   20.3
2024/05/09 13:42:34.000   28.268633244  -16.495895576  1782.4721   1   7   0.0017   0.0013   0.0156  -0.0009   0.0030  -0.0030   4.00   22.7
2024/05/09 13:42:35.000   28.268633244  -16.495895576  1782.4718   1   7   0.0017   0.0013   0.0156  -0.0009   0.0030  -0.0030   5.00   25.0
2024/05/09 13:42:36.000   28.268633244  -16.495895576  1782.4715   1   7   0.0017   0.0013   0.0156  -0.0009   0.0030  -0.0030   6.00   27.3
2024/05/09 13:42:37.000   28.268633244  -16.495895576  1782.4713   1   7   0.0017   0.0013   0.0156  -0.0009   0.0030  -0.0030   7.00   29.6
2024/05/09 13:42:38.000   28.268633245  -16.495895576  1782.4710   1   7   0.0017   0.0013   0.0156  -0.0009   0.0030  -0.0030   8.00   32.0
2024/05/09 13:42:39.000   28.268633245  -16.495895576  1782.4708   1   7   0.0017   0.0013   0.0156  -0.0009   0.0030  -0.0030   9.00   34.3
2024/05/09 13:42:40.000   28.268633245  -16.495895576  1782.4707   1   7   0.0017   0.0013   0.0156  -0.0009   0.0030  -0.0030  10.00   36.7
2024/05/09 13:42:41.000   28.268633245  -16.495895576  1782.4706   1   7   0.0017   0.0013   0.0156  -0.0009   0.0030  -0.0030  11.00   39.2
2024/05/09 13:42:42.000   28.268633245  -16.495895576  1782.4704   1   7   0.0017   0.0013   0.0156  -0.0009   0.0030  -0.0030  12.00   41.6
2024/05/09 13:42:43.000   28.268633245  -16.495895576  1782.4703   1   7   0.0017   0.0013   0.0156  -0.0009   0.0030  -0.0030  13.00   44.0
2024/05/09 13:42:44.000   28.268633245  -16.495895576  1782.4702   1   7   0.0017   0.0013   0.0156  -0.0009   0.0030  -0.0030  14.00   46.4
2024/05/09 13:42:45.000   28.268633245  -16.495895576  1782.4701   1   7   0.0017   0.0013   0.0156  -0.0009   0.0030  -0.0030 -15.00   48.9
2024/05/09 13:42:46.000   28.268633245  -16.495895576  1782.4700   1   7   0.0016   0.0013   0.0156  -0.0009   0.0030  -0.0030 -14.00   51.4
2024/05/09 13:42:47.000   28.268633246  -16.495895576  1782.4699   1   7   0.0016   0.0013   0.0156  -0.0009   0.0030  -0.0030 -13.00   53.8
2024/05/09 13:42:48.000   28.268633246  -16.495895576  1782.4698   1   7   0.0016   0.0013   0.0156  -0.0009   0.0030  -0.0030 -12.00   56.1
2024/05/09 13:42:49.000   28.268633246  -16.495895576  1782.4697   1   7   0.0016   0.0013   0.0156  -0.0009   0.0030  -0.0030 -11.00   58.4
2024/05/09 13:42:50.000   28.268633246  -16.495895576  1782.4696   1   7   0.0016   0.0013   0.0156  -0.0009   0.0030  -0.0030 -10.00   60.7
2024/05/09 13:42:51.000   28.268633246  -16.495895576  1782.4696   1   7   0.0016   0.0013   0.0155  -0.0009   0.0030  -0.0030  -9.00   62.9
2024/05/09 13:42:52.000   28.268633246  -16.495895576  1782.4695   1   7   0.0016   0.0013   0.0155  -0.0009   0.0030  -0.0030  -8.00   65.1
2024/05/09 13:42:53.000   28.268633246  -16.495895576  1782.4693   1   7   0.0016   0.0013   0.0155  -0.0009   0.0030  -0.0030  -7.00   67.2
2024/05/09 13:42:54.000   28.268633246  -16.495895576  1782.4692   1   7   0.0016   0.0013   0.0155  -0.0009   0.0030  -0.0030  -6.00   69.0
2024/05/09 13:42:55.000   28.268633246  -16.495895576  1782.4690   1   7   0.0016   0.0013   0.0155  -0.0009   0.0030  -0.0030  -5.00   70.4
2024/05/09 13:42:56.000   28.268633246  -16.495895576  1782.4688   1   7   0.0016   0.0013   0.0155  -0.0009   0.0030  -0.0030  -4.00   71.7
2024/05/09 13:42:57.000   28.268633246  -16.495895576  1782.4685   1   7   0.0016   0.0013   0.0155  -0.0009   0.0030  -0.0030  -3.00   73.0
2024/05/09 13:42:58.000   28.268633246  -16.495895576  1782.4682   1   7   0.0016   0.0013   0.0155  -0.0009   0.0030  -0.0030  -2.00   74.0
2024/05/09 13:42:59.000   28.268633246  -16.495895576  1782.4677   1   7   0.0016   0.0013   0.0155  -0.0009   0.0030  -0.0030  -1.00   73.6
2024/05/09 13:43:00.000   28.268633227  -16.495895574  1782.4858   1   7   0.0015   0.0013   0.0138  -0.0009   0.0029  -0.0021   0.00    3.5
2024/05/09 13:43:01.000   28.268633228  -16.495895574  1782.4861   1   7   0.0015   0.0013   0.0138  -0.0009   0.0029  -0.0020   1.00    3.3
2024/05/09 13:43:02.000   28.268633228  -16.495895574  1782.4858   1   7   0.0015   0.0013   0.0138  -0.0009   0.0029  -0.0020   2.00    4.7
2024/05/09 13:43:03.000   28.268633228  -16.495895574  1782.4858   1   7   0.0015   0.0013   0.0138  -0.0009   0.0029  -0.0020   3.00    6.0
2024/05/09 13:43:04.000   28.268633228  -16.495895574  1782.4858   1   7   0.0015   0.0013   0.0138  -0.0009   0.0029  -0.0020   4.00    7.3
2024/05/09 13:43:05.000   28.268633228  -16.495895574  1782.4857   1   7   0.0015   0.0013   0.0138  -0.0009   0.0029  -0.0020   5.00    8.6
2024/05/09 13:43:06.000   28.268633228  -16.495895574  1782.4857   1   7   0.0015   0.0013   0.0138  -0.0009   0.0029  -0.0020   6.00    9.9
2024/05/09 13:43:07.000   28.268633228  -16.495895574  1782.4857   1   7   0.0015   0.0013   0.0138  -0.0009   0.0029  -0.0020   7.00   11.2
2024/05/09 13:43:08.000   28.268633228  -16.495895574  1782.4857   1   7   0.0015   0.0013   0.0138  -0.0009   0.0029  -0.0020   8.00   12.5
2024/05/09 13:43:09.000   28.268633228  -16.495895574  1782.4857   1   7   0.0015   0.0013   0.0138  -0.0009   0.0029  -0.0020   9.00   13.9
2024/05/09 13:43:10.000   28.268633228  -16.495895574  1782.4857   1   7   0.0015   0.0013   0.0138  -0.0009   0.0029  -0.0020  10.00   15.2
2024/05/09 13:43:11.000   28.268633228  -16.495895573  1782.4856   1   7   0.0015   0.0013   0.0138  -0.0009   0.0029  -0.0020  11.00   16.5
2024/05/09 13:43:12.000   28.268633228  -16.495895573  1782.4856   1   7   0.0015   0.0013   0.0138  -0.0009   0.0029  -0.0020  12.00   18.0
2024/05/09 13:43:13.000   28.268633228  -16.495895573  1782.4857   1   7   0.0015   0.0013   0.0138  -0.0009   0.0029  -0.0020  13.00   19.4
2024/05/09 13:43:14.000   28.268633228  -16.495895573  1782.4857   1   7   0.0015   0.0013   0.0138  -0.0009   0.0029  -0.0020  14.00   20.9
2024/05/09 13:43:15.000   28.268633228  -16.495895573  1782.4857   1   7   0.0015   0.0013   0.0138  -0.0009   0.0029  -0.0020 -15.00   22.3
2024/05/09 13:43:16.000   28.268633228  -16.495895573  1782.4857   1   7   0.0015   0.0013   0.0138  -0.0009   0.0029  -0.0020 -14.00   23.8
2024/05/09 13:43:17.000   28.268633228  -16.495895573  1782.4857   1   7   0.0015   0.0013   0.0138  -0.0009   0.0029  -0.0020 -13.00   25.3
2024/05/09 13:43:18.000   28.268633228  -16.495895573  1782.4857   1   7   0.0015   0.0013   0.0138  -0.0009   0.0029  -0.0020 -12.00   26.8
2024/05/09 13:43:19.000   28.268633228  -16.495895573  1782.4857   1   7   0.0015   0.0013   0.0138  -0.0009   0.0029  -0.0020 -11.00   28.4
2024/05/09 13:43:20.000   28.268633228  -16.495895573  1782.4856   1   7   0.0015   0.0013   0.0138  -0.0009   0.0029  -0.0020 -10.00   29.9
2024/05/09 13:43:21.000   28.268633228  -16.495895573  1782.4856   1   7   0.0015   0.0013   0.0138  -0.0009   0.0029  -0.0020  -9.00   31.5
2024/05/09 13:43:22.000   28.268633228  -16.495895573  1782.4856   1   7   0.0015   0.0013   0.0138  -0.0009   0.0029  -0.0020  -8.00   33.1
2024/05/09 13:43:23.000   28.268633228  -16.495895573  1782.4855   1   7   0.0015   0.0013   0.0138  -0.0009   0.0029  -0.0020  -7.00   34.7
2024/05/09 13:43:24.000   28.268633228  -16.495895573  1782.4855   1   7   0.0015   0.0013   0.0138  -0.0009   0.0029  -0.0020  -6.00   36.4
2024/05/09 13:43:25.000   28.268633228  -16.495895573  1782.4855   1   7   0.0015   0.0013   0.0137  -0.0009   0.0029  -0.0020  -5.00   37.9
2024/05/09 13:43:26.000   28.268633228  -16.495895573  1782.4854   1   7   0.0015   0.0013   0.0137  -0.0009   0.0029  -0.0020  -4.00   39.6
2024/05/09 13:43:27.000   28.268633228  -16.495895573  1782.4853   1   7   0.0015   0.0013   0.0137  -0.0009   0.0029  -0.0020  -3.00   41.2
2024/05/09 13:43:28.000   28.268633228  -16.495895573  1782.4851   1   7   0.0015   0.0013   0.0137  -0.0009   0.0029  -0.0020  -2.00   42.8
2024/05/09 13:43:29.000   28.268633228  -16.495895573  1782.4850   1   7   0.0015   0.0013   0.0137  -0.0009   0.0029  -0.0020  -1.00   44.3
2024/05/09 13:43:30.000   28.268633226  -16.495895572  1782.4837   1   7   0.0014   0.0013   0.0137  -0.0009   0.0029  -0.0020   0.00   46.0
2024/05/09 13:43:31.000   28.268633228  -16.495895573  1782.4849   1   7   0.0015   0.0013   0.0137  -0.0009   0.0029  -0.0020   1.00   24.5
2024/05/09 13:43:32.000   28.268633228  -16.495895573  1782.4849   1   7   0.0015   0.0013   0.0137  -0.0009   0.0029  -0.0020   2.00   43.7
2024/05/09 13:43:33.000   28.268633228  -16.495895573  1782.4848   1   7   0.0015   0.0013   0.0137  -0.0009   0.0029  -0.0020   3.00   47.3
2024/05/09 13:43:34.000   28.268633228  -16.495895573  1782.4848   1   7   0.0015   0.0013   0.0137  -0.0009   0.0029  -0.0020   4.00   49.4
2024/05/09 13:43:35.000   28.268633228  -16.495895573  1782.4847   1   7   0.0015   0.0013   0.0137  -0.0009   0.0029  -0.0020   5.00   51.5
2024/05/09 13:43:36.000   28.268633228  -16.495895573  1782.4847   1   7   0.0015   0.0013   0.0137  -0.0009   0.0029  -0.0020   6.00   53.6
2024/05/09 13:43:37.000   28.268633228  -16.495895573  1782.4847   1   7   0.0015   0.0013   0.0137  -0.0009   0.0029  -0.0020   7.00   55.5
2024/05/09 13:43:38.000   28.268633228  -16.495895573  1782.4847   1   7   0.0015   0.0013   0.0137  -0.0009   0.0029  -0.0020   8.00   57.3
2024/05/09 13:43:39.000   28.268633228  -16.495895573  1782.4847   1   7   0.0015   0.0013   0.0137  -0.0009   0.0029  -0.0020   9.00   59.1
2024/05/09 13:43:40.000   28.268633228  -16.495895573  1782.4847   1   7   0.0015   0.0013   0.0137  -0.0009   0.0029  -0.0020  10.00   60.8
2024/05/09 13:43:41.000   28.268633229  -16.495895573  1782.4847   1   7   0.0015   0.0013   0.0137  -0.0009   0.0029  -0.0020  11.00   62.5
2024/05/09 13:43:42.000   28.268633229  -16.495895573  1782.4847   1   7   0.0015   0.0013   0.0137  -0.0009   0.0029  -0.0020  12.00   64.1
2024/05/09 13:43:43.000   28.268633229  -16.495895573  1782.4847   1   7   0.0015   0.0013   0.0137  -0.0009   0.0029  -0.0020  13.00   65.7
2024/05/09 13:43:44.000   28.268633229  -16.495895573  1782.4847   1   7   0.0015   0.0013   0.0137  -0.0009   0.0029  -0.0020  14.00   67.2
2024/05/09 13:43:45.000   28.268633229  -16.495895572  1782.4847   1   7   0.0015   0.0013   0.0137  -0.0009   0.0029  -0.0020 -15.00   68.7
2024/05/09 13:43:46.000   28.268633229  -16.495895572  1782.4847   1   7   0.0015   0.0013   0.0137  -0.0009   0.0029  -0.0020 -14.00   70.3
2024/05/09 13:43:47.000   28.268633229  -16.495895572  1782.4847   1   7   0.0015   0.0013   0.0137  -0.0009   0.0029  -0.0020 -13.00   71.9
2024/05/09 13:43:48.000   28.268633229  -16.495895572  1782.4847   1   7   0.0015   0.0013   0.0137  -0.0009   0.0029  -0.0020 -12.00   73.6
2024/05/09 13:43:49.000   28.268633229  -16.495895572  1782.4847   1   7   0.0015   0.0013   0.0137  -0.0009   0.0029  -0.0020 -11.00   75.5
2024/05/09 13:43:50.000   28.268633229  -16.495895572  1782.4847   1   7   0.0015   0.0013   0.0137  -0.0009   0.0029  -0.0020 -10.00   77.2
2024/05/09 13:43:51.000   28.268633229  -16.495895572  1782.4847   1   7   0.0015   0.0013   0.0137  -0.0009   0.0029  -0.0020  -9.00   79.1
2024/05/09 13:43:52.000   28.268633229  -16.495895572  1782.4846   1   7   0.0015   0.0013   0.0137  -0.0009   0.0029  -0.0020  -8.00   81.2
2024/05/09 13:43:53.000   28.268633229  -16.495895572  1782.4845   1   7   0.0015   0.0013   0.0137  -0.0009   0.0029  -0.0020  -7.00   83.5
2024/05/09 13:43:54.000   28.268633229  -16.495895572  1782.4845   1   7   0.0015   0.0013   0.0137  -0.0009   0.0029  -0.0020  -6.00   85.8
2024/05/09 13:43:55.000   28.268633229  -16.495895572  1782.4844   1   7   0.0015   0.0013   0.0137  -0.0009   0.0029  -0.0020  -5.00   88.7
2024/05/09 13:43:56.000   28.268633229  -16.495895572  1782.4844   1   7   0.0014   0.0013   0.0137  -0.0009   0.0029  -0.0020  -4.00   92.1
2024/05/09 13:43:57.000   28.268633229  -16.495895572  1782.4843   1   7   0.0014   0.0013   0.0136  -0.0009   0.0029  -0.0020  -3.00   95.1
2024/05/09 13:43:58.000   28.268633229  -16.495895572  1782.4842   1   7   0.0014   0.0013   0.0136  -0.0009   0.0029  -0.0020  -2.00   98.3
2024/05/09 13:43:59.000   28.268633229  -16.495895572  1782.4843   1   7   0.0014   0.0013   0.0136  -0.0009   0.0029  -0.0020  -1.00  100.9
2024/05/09 13:44:00.000   28.268633227  -16.495895572  1782.4835   1   7   0.0014   0.0013   0.0136  -0.0009   0.0029  -0.0020   0.00  103.5
2024/05/09 13:44:01.000   28.268633230  -16.495895572  1782.4848   1   7   0.0014   0.0013   0.0136  -0.0009   0.0029  -0.0020   1.00   28.6
2024/05/09 13:44:02.000   28.268633230  -16.495895572  1782.4847   1   7   0.0014   0.0013   0.0136  -0.0009   0.0029  -0.0020   2.00   52.7
2024/05/09 13:44:03.000   28.268633230  -16.495895572  1782.4847   1   7   0.0014   0.0013   0.0136  -0.0009   0.0029  -0.0020   3.00   70.7
2024/05/09 13:44:04.000   28.268633230  -16.495895572  1782.4846   1   7   0.0014   0.0013   0.0136  -0.0009   0.0029  -0.0020   4.00   81.0
2024/05/09 13:44:05.000   28.268633230  -16.495895572  1782.4846   1   7   0.0014   0.0013   0.0136  -0.0009   0.0029  -0.0020   5.00   85.5
2024/05/09 13:44:06.000   28.268633230  -16.495895572  1782.4846   1   7   0.0014   0.0013   0.0136  -0.0009   0.0029  -0.0020   6.00   90.3
2024/05/09 13:44:07.000   28.268633230  -16.495895572  1782.4846   1   7   0.0014   0.0013   0.0136  -0.0009   0.0029  -0.0020   7.00   93.8
2024/05/09 13:44:08.000   28.268633230  -16.495895572  1782.4845   1   7   0.0014   0.0013   0.0136  -0.0009   0.0029  -0.0020   8.00   97.3
2024/05/09 13:44:09.000   28.268633230  -16.495895572  1782.4845   1   7   0.0014   0.0013   0.0136  -0.0009   0.0029  -0.0020   9.00  100.5
2024/05/09 13:44:10.000   28.268633230  -16.495895572  1782.4845   1   7   0.0014   0.0013   0.0136  -0.0009   0.0029  -0.0020  10.00  103.5
2024/05/09 13:44:11.000   28.268633230  -16.495895572  1782.4845   1   7   0.0014   0.0013   0.0136  -0.0009   0.0029  -0.0020  11.00  106.6
2024/05/09 13:44:12.000   28.268633230  -16.495895572  1782.4845   1   7   0.0014   0.0013   0.0136  -0.0009   0.0029  -0.0020  12.00  109.4
2024/05/09 13:44:13.000   28.268633230  -16.495895572  1782.4845   1   7   0.0014   0.0013   0.0136  -0.0009   0.0029  -0.0020  13.00  112.2
2024/05/09 13:44:14.000   28.268633230  -16.495895572  1782.4845   1   7   0.0014   0.0013   0.0136  -0.0009   0.0029  -0.0020  14.00  114.9
2024/05/09 13:44:15.000   28.268633230  -16.495895572  1782.4845   1   7   0.0014   0.0013   0.0136  -0.0009   0.0029  -0.0020 -15.00  116.9
2024/05/09 13:44:16.000   28.268633231  -16.495895572  1782.4845   1   7   0.0014   0.0012   0.0136  -0.0009   0.0029  -0.0020 -14.00  119.1
2024/05/09 13:44:17.000   28.268633231  -16.495895572  1782.4845   1   7   0.0014   0.0012   0.0136  -0.0009   0.0029  -0.0020 -13.00  121.4
2024/05/09 13:44:18.000   28.268633231  -16.495895572  1782.4845   1   7   0.0014   0.0012   0.0136  -0.0009   0.0029  -0.0020 -12.00  123.8
2024/05/09 13:44:19.000   28.268633231  -16.495895572  1782.4845   1   7   0.0014   0.0012   0.0136  -0.0009   0.0029  -0.0020 -11.00  126.1
2024/05/09 13:44:20.000   28.268633231  -16.495895572  1782.4845   1   7   0.0014   0.0012   0.0136  -0.0009   0.0029  -0.0020 -10.00  128.9
2024/05/09 13:44:21.000   28.268633231  -16.495895572  1782.4845   1   7   0.0014   0.0012   0.0136  -0.0009   0.0029  -0.0020  -9.00  131.9
2024/05/09 13:44:22.000   28.268633231  -16.495895572  1782.4845   1   7   0.0014   0.0012   0.0136  -0.0009   0.0029  -0.0020  -8.00  135.3
2024/05/09 13:44:23.000   28.268633231  -16.495895572  1782.4845   1   7   0.0014   0.0012   0.0136  -0.0009   0.0029  -0.0020  -7.00  139.1
2024/05/09 13:44:24.000   28.268633231  -16.495895572  1782.4845   1   7   0.0014   0.0012   0.0136  -0.0009   0.0029  -0.0020  -6.00  141.9
2024/05/09 13:44:25.000   28.268633231  -16.495895572  1782.4845   1   7   0.0014   0.0012   0.0136  -0.0009   0.0029  -0.0020  -5.00  146.0
2024/05/09 13:44:26.000   28.268633231  -16.495895572  1782.4845   1   7   0.0014   0.0012   0.0136  -0.0009   0.0029  -0.0020  -4.00  149.9
2024/05/09 13:44:27.000   28.268633231  -16.495895572  1782.4845   1   7   0.0014   0.0012   0.0136  -0.0009   0.0029  -0.0020  -3.00  153.4
2024/05/09 13:44:28.000   28.268633231  -16.495895572  1782.4844   1   7   0.0014   0.0012   0.0136  -0.0009   0.0029  -0.0020  -2.00  158.2
2024/05/09 13:44:29.000   28.268633231  -16.495895572  1782.4843   1   7   0.0014   0.0012   0.0136  -0.0009   0.0029  -0.0020  -1.00  162.0
2024/05/09 13:44:30.000   28.268633230  -16.495895571  1782.4834   1   7   0.0014   0.0012   0.0135  -0.0009   0.0029  -0.0020   0.00  166.8
2024/05/09 13:44:31.000   28.268633231  -16.495895571  1782.4844   1   7   0.0014   0.0012   0.0136  -0.0009   0.0029  -0.0020   1.00   35.3
2024/05/09 13:44:32.000   28.268633231  -16.495895572  1782.4843   1   7   0.0014   0.0012   0.0136  -0.0009   0.0029  -0.0020   2.00   64.5
2024/05/09 13:44:33.000   28.268633231  -16.495895572  1782.4842   1   7   0.0014   0.0012   0.0136  -0.0009   0.0029  -0.0020   3.00   87.0
2024/05/09 13:44:34.000   28.268633231  -16.495895572  1782.4843   1   7   0.0014   0.0012   0.0136  -0.0009   0.0029  -0.0020   4.00  102.7
2024/05/09 13:44:35.000   28.268633231  -16.495895572  1782.4842   1   7   0.0014   0.0012   0.0136  -0.0009   0.0029  -0.0020   5.00  110.0
2024/05/09 13:44:36.000   28.268633231  -16.495895572  1782.4842   1   7   0.0014   0.0012   0.0136  -0.0009   0.0029  -0.0020   6.00  115.1
2024/05/09 13:44:37.000   28.268633231  -16.495895572  1782.4842   1   7   0.0014   0.0012   0.0136  -0.0009   0.0028  -0.0020   7.00  119.2
2024/05/09 13:44:38.000   28.268633231  -16.495895572  1782.4842   1   7   0.0014   0.0012   0.0136  -0.0009   0.0028  -0.0020   8.00  122.4
2024/05/09 13:44:39.000   28.268633232  -16.495895572  1782.4842   1   7   0.0014   0.0012   0.0136  -0.0009   0.0028  -0.0020   9.00  125.3
2024/05/09 13:44:40.000   28.268633232  -16.495895572  1782.4842   1   7   0.0014   0.0012   0.0135  -0.0009   0.0028  -0.0020  10.00  128.0
2024/05/09 13:44:41.000   28.268633232  -16.495895572  1782.4842   1   7   0.0014   0.0012   0.0135  -0.0009   0.0028  -0.0020  11.00  130.6
2024/05/09 13:44:42.000   28.268633232  -16.495895571  1782.4842   1   7   0.0014   0.0012   0.0135  -0.0009   0.0028  -0.0020  12.00  133.1
2024/05/09 13:44:43.000   28.268633232  -16.495895571  1782.4842   1   7   0.0014   0.0012   0.0135  -0.0009   0.0028  -0.0020  13.00  135.3
