% program   : RTKPOST-EX 2.5.0
% inp file  : C:\Users\SallyHenry\Desktop\Sally Internship\GNSS gravi\DATA\Survey Rover Obs\FA13.24o
% inp file  : C:\Users\SallyHenry\Desktop\Sally Internship\GNSS gravi\DATA\BaseStations\IZAN\IZAN00ESP_R_20241300000_01D_30S_MO.rnx
% inp file  : C:\Users\SallyHenry\Desktop\Sally Internship\GNSS gravi\DATA\BaseStations\IZAN\IZAN00ESP_R_20241300000_01D_MN.rnx
% inp file  : C:\Users\SallyHenry\Desktop\Sally Internship\GNSS gravi\DATA\aux_files\Survey\IGS0OPSFIN_20241300000_01D_15M_ORB.SP3
% inp file  : C:\Users\SallyHenry\Desktop\Sally Internship\GNSS gravi\DATA\aux_files\Survey\IGS0OPSFIN_20241300000_01D_30S_CLK.CLK
% obs start : 2024/05/09 14:09:02.0 GPST (week2313 396542.0s)
% obs end   : 2024/05/09 14:30:39.0 GPST (week2313 397839.0s)
% pos mode  : Static
% freqs     : L1+L2/E5b
% solution  : Combined-No Phase Reset
% elev mask : 15.0 deg
% dynamics  : on
% tidecorr  : solid
% ionos opt : Estimate TEC
% tropo opt : Estimate ZTD+Grad
% ephemeris : Precise
% navi sys  : GPS GLONASS Galileo QZSS BDS
% amb res   : Fix and Hold
% amb glo   : Fix and Hold
% amb bds   : on
% val thres : 3.0
% antenna1  :                       ( 0.0000  0.0000  1.8000)
% antenna2  :                       ( 0.0000  0.0000  0.0000)
% ref pos   :  28.308069410  -16.499677180  2417.4044
%
% (lat/lon/height=WGS84/ellipsoidal,Q=1:fix,2:float,3:sbas,4:dgps,5:single,6:ppp,ns=# of satellites)
%  GPST                  latitude(deg) longitude(deg)  height(m)   Q  ns   sdn(m)   sde(m)   sdu(m)  sdne(m)  sdeu(m)  sdun(m) age(s)  ratio
2024/05/09 14:09:02.001   28.258312942  -16.484563951  1390.7612   1   7   0.0026   0.0019   0.0132   0.0013   0.0014  -0.0039   2.00  341.1
2024/05/09 14:09:03.000   28.258312942  -16.484563951  1390.7612   1   7   0.0026   0.0019   0.0132   0.0013   0.0014  -0.0039   3.00  331.9
2024/05/09 14:09:04.000   28.258312942  -16.484563952  1390.7611   1   7   0.0026   0.0019   0.0132   0.0013   0.0014  -0.0039   4.00  324.3
2024/05/09 14:09:05.000   28.258312942  -16.484563952  1390.7610   1   7   0.0026   0.0019   0.0132   0.0013   0.0014  -0.0039   5.00  316.7
2024/05/09 14:09:06.000   28.258312942  -16.484563952  1390.7610   1   7   0.0026   0.0019   0.0132   0.0013   0.0014  -0.0039   6.00  307.2
2024/05/09 14:09:07.000   28.258312942  -16.484563952  1390.7610   1   7   0.0026   0.0019   0.0132   0.0013   0.0014  -0.0039   7.00  299.4
2024/05/09 14:09:08.000   28.258312942  -16.484563952  1390.7610   1   7   0.0026   0.0019   0.0132   0.0013   0.0014  -0.0039   8.00  292.5
2024/05/09 14:09:09.000   28.258312942  -16.484563952  1390.7609   1   7   0.0026   0.0019   0.0132   0.0013   0.0014  -0.0039   9.00  284.7
2024/05/09 14:09:10.000   28.258312942  -16.484563952  1390.7609   1   7   0.0026   0.0019   0.0132   0.0013   0.0014  -0.0039  10.00  278.5
2024/05/09 14:09:11.000   28.258312942  -16.484563952  1390.7609   1   7   0.0026   0.0019   0.0132   0.0013   0.0014  -0.0039  11.00  272.0
2024/05/09 14:09:12.000   28.258312942  -16.484563952  1390.7609   1   7   0.0026   0.0019   0.0132   0.0013   0.0014  -0.0039  12.00  265.6
2024/05/09 14:09:13.000   28.258312942  -16.484563952  1390.7609   1   7   0.0026   0.0019   0.0132   0.0013   0.0014  -0.0039  13.00  259.9
2024/05/09 14:09:14.000   28.258312942  -16.484563952  1390.7608   1   7   0.0026   0.0019   0.0132   0.0013   0.0014  -0.0039  14.00  254.5
2024/05/09 14:09:15.000   28.258312942  -16.484563952  1390.7608   1   7   0.0026   0.0019   0.0132   0.0013   0.0014  -0.0039  15.00  248.8
2024/05/09 14:09:16.000   28.258312942  -16.484563952  1390.7608   1   7   0.0026   0.0019   0.0132   0.0013   0.0014  -0.0039 -14.00  243.3
2024/05/09 14:09:17.000   28.258312942  -16.484563952  1390.7608   1   7   0.0026   0.0019   0.0132   0.0013   0.0014  -0.0039 -13.00  237.5
2024/05/09 14:09:18.000   28.258312942  -16.484563952  1390.7608   1   7   0.0026   0.0019   0.0132   0.0013   0.0014  -0.0039 -12.00  231.5
2024/05/09 14:09:19.000   28.258312942  -16.484563952  1390.7607   1   7   0.0026   0.0019   0.0132   0.0013   0.0014  -0.0039 -11.00  226.8
2024/05/09 14:09:20.000   28.258312942  -16.484563952  1390.7607   1   7   0.0026   0.0019   0.0132   0.0013   0.0014  -0.0039 -10.00  221.3
2024/05/09 14:09:21.000   28.258312942  -16.484563952  1390.7607   1   7   0.0026   0.0019   0.0132   0.0013   0.0014  -0.0039  -9.00  216.2
2024/05/09 14:09:22.000   28.258312942  -16.484563952  1390.7606   1   7   0.0026   0.0019   0.0132   0.0013   0.0014  -0.0039  -8.00  209.0
2024/05/09 14:09:23.000   28.258312942  -16.484563952  1390.7606   1   7   0.0026   0.0019   0.0132   0.0013   0.0014  -0.0039  -7.00  203.5
2024/05/09 14:09:24.000   28.258312942  -16.484563952  1390.7605   1   7   0.0026   0.0019   0.0132   0.0013   0.0014  -0.0039  -6.00  196.1
2024/05/09 14:09:25.000   28.258312942  -16.484563952  1390.7605   1   7   0.0026   0.0019   0.0132   0.0013   0.0014  -0.0039  -5.00  186.6
2024/05/09 14:09:26.000   28.258312941  -16.484563953  1390.7605   1   7   0.0026   0.0019   0.0132   0.0014   0.0014  -0.0039  -4.00  179.8
2024/05/09 14:09:27.000   28.258312941  -16.484563953  1390.7604   1   7   0.0026   0.0019   0.0132   0.0014   0.0014  -0.0039  -3.00  164.6
2024/05/09 14:09:28.000   28.258312941  -16.484563953  1390.7604   1   7   0.0027   0.0019   0.0132   0.0014   0.0014  -0.0039  -2.00  118.8
2024/05/09 14:09:29.000   28.258312941  -16.484563953  1390.7604   1   7   0.0027   0.0019   0.0132   0.0014   0.0014  -0.0038  -1.00   63.6
2024/05/09 14:09:30.000   28.258312947  -16.484563948  1390.7617   1   7   0.0026   0.0019   0.0132   0.0013   0.0013  -0.0039   0.00  248.2
2024/05/09 14:09:31.000   28.258312947  -16.484563949  1390.7618   1   7   0.0026   0.0019   0.0132   0.0013   0.0013  -0.0039   1.00  240.8
2024/05/09 14:09:32.000   28.258312946  -16.484563949  1390.7618   1   7   0.0026   0.0019   0.0133   0.0013   0.0013  -0.0039   2.00  235.0
2024/05/09 14:09:33.000   28.258312946  -16.484563949  1390.7618   1   7   0.0026   0.0019   0.0133   0.0013   0.0013  -0.0039   3.00  229.8
2024/05/09 14:09:34.000   28.258312945  -16.484563949  1390.7617   1   7   0.0026   0.0019   0.0133   0.0013   0.0014  -0.0039   4.00  224.8
2024/05/09 14:09:35.000   28.258312945  -16.484563950  1390.7617   1   7   0.0026   0.0019   0.0133   0.0013   0.0014  -0.0039   5.00  221.4
2024/05/09 14:09:36.000   28.258312945  -16.484563950  1390.7617   1   7   0.0026   0.0019   0.0133   0.0013   0.0014  -0.0039   6.00  218.5
2024/05/09 14:09:37.000   28.258312944  -16.484563950  1390.7617   1   7   0.0026   0.0019   0.0133   0.0013   0.0014  -0.0039   7.00  212.7
2024/05/09 14:09:38.000   28.258312944  -16.484563950  1390.7617   1   7   0.0026   0.0019   0.0133   0.0013   0.0014  -0.0039   8.00  207.7
2024/05/09 14:09:39.000   28.258312944  -16.484563950  1390.7616   1   7   0.0026   0.0019   0.0133   0.0013   0.0014  -0.0039   9.00  203.2
2024/05/09 14:09:40.000   28.258312944  -16.484563950  1390.7616   1   7   0.0026   0.0019   0.0133   0.0014   0.0014  -0.0039  10.00  199.4
2024/05/09 14:09:41.000   28.258312944  -16.484563951  1390.7616   1   7   0.0026   0.0019   0.0133   0.0014   0.0014  -0.0039  11.00  196.2
2024/05/09 14:09:42.000   28.258312944  -16.484563951  1390.7615   1   7   0.0026   0.0019   0.0133   0.0014   0.0014  -0.0039  12.00  193.0
2024/05/09 14:09:43.000   28.258312943  -16.484563951  1390.7615   1   7   0.0026   0.0019   0.0133   0.0014   0.0014  -0.0039  13.00  189.9
2024/05/09 14:09:44.000   28.258312943  -16.484563951  1390.7615   1   7   0.0027   0.0019   0.0133   0.0014   0.0014  -0.0039  14.00  185.9
2024/05/09 14:09:45.000   28.258312943  -16.484563951  1390.7614   1   7   0.0027   0.0019   0.0133   0.0014   0.0014  -0.0039  15.00  182.1
2024/05/09 14:09:46.000   28.258312943  -16.484563951  1390.7614   1   7   0.0027   0.0019   0.0133   0.0014   0.0014  -0.0039 -14.00  178.5
2024/05/09 14:09:47.000   28.258312943  -16.484563951  1390.7614   1   7   0.0027   0.0019   0.0133   0.0014   0.0014  -0.0039 -13.00  174.5
2024/05/09 14:09:48.000   28.258312943  -16.484563951  1390.7614   1   7   0.0027   0.0019   0.0133   0.0014   0.0014  -0.0039 -12.00  170.7
2024/05/09 14:09:49.000   28.258312943  -16.484563951  1390.7613   1   7   0.0027   0.0019   0.0133   0.0014   0.0014  -0.0039 -11.00  166.4
2024/05/09 14:09:50.000   28.258312942  -16.484563951  1390.7613   1   7   0.0027   0.0019   0.0133   0.0014   0.0014  -0.0039 -10.00  162.9
2024/05/09 14:09:51.000   28.258312942  -16.484563951  1390.7613   1   7   0.0027   0.0019   0.0133   0.0014   0.0014  -0.0039  -9.00  158.6
2024/05/09 14:09:52.000   28.258312942  -16.484563951  1390.7613   1   7   0.0027   0.0019   0.0133   0.0014   0.0014  -0.0039  -8.00  154.6
2024/05/09 14:09:53.000   28.258312942  -16.484563952  1390.7612   1   7   0.0027   0.0019   0.0133   0.0014   0.0014  -0.0039  -7.00  152.1
2024/05/09 14:09:54.000   28.258312941  -16.484563952  1390.7612   1   7   0.0027   0.0019   0.0133   0.0014   0.0014  -0.0039  -6.00  150.7
2024/05/09 14:09:55.000   28.258312941  -16.484563952  1390.7611   1   7   0.0027   0.0019   0.0133   0.0014   0.0014  -0.0038  -5.00  144.2
2024/05/09 14:09:56.000   28.258312941  -16.484563952  1390.7611   1   7   0.0027   0.0019   0.0133   0.0014   0.0014  -0.0038  -4.00  138.9
2024/05/09 14:09:57.000   28.258312940  -16.484563953  1390.7610   1   7   0.0027   0.0019   0.0133   0.0014   0.0014  -0.0038  -3.00  127.7
2024/05/09 14:09:58.000   28.258312939  -16.484563953  1390.7608   1   7   0.0027   0.0019   0.0133   0.0014   0.0014  -0.0038  -2.00   96.5
2024/05/09 14:09:59.000   28.258312938  -16.484563954  1390.7608   1   7   0.0027   0.0019   0.0133   0.0014   0.0014  -0.0038  -1.00   58.2
2024/05/09 14:10:00.000   28.258312946  -16.484563949  1390.7623   1   7   0.0026   0.0019   0.0133   0.0013   0.0012  -0.0039   0.00  214.6
2024/05/09 14:10:01.000   28.258312946  -16.484563949  1390.7622   1   7   0.0026   0.0019   0.0133   0.0013   0.0012  -0.0039   1.00  213.8
2024/05/09 14:10:02.000   28.258312945  -16.484563950  1390.7621   1   7   0.0026   0.0019   0.0133   0.0014   0.0013  -0.0039   2.00  214.8
2024/05/09 14:10:03.000   28.258312944  -16.484563951  1390.7620   1   7   0.0027   0.0019   0.0134   0.0014   0.0013  -0.0039   3.00  215.4
2024/05/09 14:10:04.000   28.258312944  -16.484563951  1390.7620   1   7   0.0027   0.0019   0.0134   0.0014   0.0013  -0.0039   4.00  214.3
2024/05/09 14:10:05.000   28.258312943  -16.484563952  1390.7621   1   7   0.0027   0.0019   0.0134   0.0014   0.0013  -0.0039   5.00  212.1
2024/05/09 14:10:06.000   28.258312943  -16.484563952  1390.7620   1   7   0.0027   0.0019   0.0134   0.0014   0.0013  -0.0039   6.00  210.9
2024/05/09 14:10:07.000   28.258312943  -16.484563952  1390.7620   1   7   0.0027   0.0019   0.0134   0.0014   0.0013  -0.0039   7.00  208.3
2024/05/09 14:10:08.000   28.258312942  -16.484563953  1390.7620   1   7   0.0027   0.0019   0.0134   0.0014   0.0013  -0.0039   8.00  206.0
2024/05/09 14:10:09.000   28.258312942  -16.484563953  1390.7620   1   7   0.0027   0.0019   0.0134   0.0014   0.0013  -0.0039   9.00  202.3
2024/05/09 14:10:10.000   28.258312942  -16.484563953  1390.7620   1   7   0.0027   0.0019   0.0134   0.0014   0.0013  -0.0039  10.00  198.6
2024/05/09 14:10:11.000   28.258312942  -16.484563953  1390.7620   1   7   0.0027   0.0019   0.0134   0.0014   0.0013  -0.0039  11.00  194.2
2024/05/09 14:10:12.000   28.258312942  -16.484563953  1390.7620   1   7   0.0027   0.0019   0.0134   0.0014   0.0013  -0.0039  12.00  190.0
2024/05/09 14:10:13.000   28.258312942  -16.484563953  1390.7620   1   7   0.0027   0.0019   0.0134   0.0014   0.0013  -0.0039  13.00  185.3
2024/05/09 14:10:14.000   28.258312942  -16.484563953  1390.7620   1   7   0.0027   0.0019   0.0134   0.0014   0.0013  -0.0039  14.00  180.9
2024/05/09 14:10:15.000   28.258312942  -16.484563953  1390.7620   1   7   0.0027   0.0019   0.0134   0.0014   0.0013  -0.0039  15.00  176.7
2024/05/09 14:10:16.000   28.258312942  -16.484563953  1390.7620   1   7   0.0027   0.0019   0.0134   0.0014   0.0013  -0.0039 -14.00  172.7
2024/05/09 14:10:17.000   28.258312942  -16.484563954  1390.7620   1   7   0.0027   0.0019   0.0134   0.0014   0.0013  -0.0039 -13.00  168.2
2024/05/09 14:10:18.000   28.258312942  -16.484563954  1390.7620   1   7   0.0027   0.0019   0.0134   0.0014   0.0013  -0.0038 -12.00  163.5
2024/05/09 14:10:19.000   28.258312942  -16.484563954  1390.7620   1   7   0.0027   0.0019   0.0134   0.0014   0.0013  -0.0038 -11.00  158.7
2024/05/09 14:10:20.000   28.258312941  -16.484563954  1390.7620   1   7   0.0027   0.0019   0.0134   0.0014   0.0013  -0.0038 -10.00  154.4
2024/05/09 14:10:21.000   28.258312941  -16.484563954  1390.7619   1   7   0.0027   0.0019   0.0134   0.0014   0.0013  -0.0038  -9.00  150.1
2024/05/09 14:10:22.000   28.258312941  -16.484563954  1390.7619   1   7   0.0027   0.0019   0.0134   0.0014   0.0013  -0.0038  -8.00  145.4
2024/05/09 14:10:23.000   28.258312941  -16.484563954  1390.7619   1   7   0.0027   0.0019   0.0134   0.0014   0.0013  -0.0038  -7.00  141.1
2024/05/09 14:10:24.000   28.258312940  -16.484563955  1390.7619   1   7   0.0027   0.0019   0.0134   0.0014   0.0013  -0.0038  -6.00  139.1
2024/05/09 14:10:25.000   28.258312940  -16.484563955  1390.7618   1   7   0.0027   0.0019   0.0134   0.0014   0.0013  -0.0038  -5.00  134.7
2024/05/09 14:10:26.000   28.258312939  -16.484563956  1390.7619   1   7   0.0027   0.0019   0.0134   0.0014   0.0013  -0.0038  -4.00  128.6
2024/05/09 14:10:27.000   28.258312938  -16.484563956  1390.7618   1   7   0.0027   0.0019   0.0134   0.0015   0.0013  -0.0038  -3.00  112.8
2024/05/09 14:10:28.000   28.258312937  -16.484563957  1390.7618   1   7   0.0027   0.0020   0.0134   0.0015   0.0013  -0.0038  -2.00   83.4
2024/05/09 14:10:29.000   28.258312936  -16.484563958  1390.7617   1   7   0.0028   0.0020   0.0134   0.0015   0.0013  -0.0038  -1.00   44.5
2024/05/09 14:10:30.000   28.258312943  -16.484563952  1390.7633   1   7   0.0027   0.0019   0.0134   0.0014   0.0011  -0.0039   0.00  231.3
2024/05/09 14:10:31.000   28.258312943  -16.484563953  1390.7633   1   7   0.0027   0.0019   0.0134   0.0014   0.0011  -0.0039   1.00  231.6
2024/05/09 14:10:32.000   28.258312942  -16.484563954  1390.7634   1   7   0.0027   0.0019   0.0134   0.0014   0.0012  -0.0039   2.00  232.5
2024/05/09 14:10:33.000   28.258312941  -16.484563954  1390.7635   1   7   0.0027   0.0019   0.0135   0.0014   0.0012  -0.0039   3.00  230.6
2024/05/09 14:10:34.000   28.258312940  -16.484563955  1390.7636   1   7   0.0027   0.0019   0.0135   0.0014   0.0012  -0.0039   4.00  229.8
2024/05/09 14:10:35.000   28.258312940  -16.484563956  1390.7637   1   7   0.0027   0.0019   0.0135   0.0014   0.0012  -0.0039   5.00  225.2
2024/05/09 14:10:36.000   28.258312940  -16.484563955  1390.7635   1   7   0.0027   0.0019   0.0135   0.0014   0.0012  -0.0039   6.00  218.0
2024/05/09 14:10:37.000   28.258312940  -16.484563956  1390.7634   1   7   0.0027   0.0019   0.0135   0.0014   0.0012  -0.0039   7.00  212.5
2024/05/09 14:10:38.000   28.258312939  -16.484563956  1390.7633   1   7   0.0027   0.0020   0.0135   0.0014   0.0012  -0.0039   8.00  207.5
2024/05/09 14:10:39.000   28.258312939  -16.484563956  1390.7632   1   7   0.0027   0.0020   0.0135   0.0014   0.0012  -0.0038   9.00  202.2
2024/05/09 14:10:40.000   28.258312939  -16.484563956  1390.7631   1   7   0.0027   0.0020   0.0135   0.0014   0.0012  -0.0038  10.00  196.5
2024/05/09 14:10:41.000   28.258312939  -16.484563956  1390.7630   1   7   0.0027   0.0020   0.0135   0.0014   0.0012  -0.0038  11.00  191.6
2024/05/09 14:10:42.000   28.258312939  -16.484563956  1390.7629   1   7   0.0027   0.0020   0.0135   0.0015   0.0012  -0.0038  12.00  186.4
2024/05/09 14:10:43.000   28.258312939  -16.484563956  1390.7629   1   7   0.0027   0.0020   0.0135   0.0015   0.0012  -0.0038  13.00  181.2
2024/05/09 14:10:44.000   28.258312938  -16.484563956  1390.7628   1   7   0.0027   0.0020   0.0135   0.0015   0.0012  -0.0038  14.00  176.4
2024/05/09 14:10:45.000   28.258312938  -16.484563957  1390.7628   1   7   0.0027   0.0020   0.0135   0.0015   0.0012  -0.0038  15.00  171.8
2024/05/09 14:10:46.000   28.258312938  -16.484563957  1390.7628   1   7   0.0028   0.0020   0.0135   0.0015   0.0012  -0.0038 -14.00  167.5
2024/05/09 14:10:47.000   28.258312938  -16.484563957  1390.7628   1   7   0.0028   0.0020   0.0135   0.0015   0.0012  -0.0038 -13.00  163.8
2024/05/09 14:10:48.000   28.258312938  -16.484563957  1390.7628   1   7   0.0028   0.0020   0.0135   0.0015   0.0012  -0.0038 -12.00  159.8
2024/05/09 14:10:49.000   28.258312938  -16.484563957  1390.7627   1   7   0.0028   0.0020   0.0135   0.0015   0.0012  -0.0038 -11.00  156.0
2024/05/09 14:10:50.000   28.258312937  -16.484563957  1390.7627   1   7   0.0028   0.0020   0.0135   0.0015   0.0012  -0.0038 -10.00  152.3
2024/05/09 14:10:51.000   28.258312937  -16.484563957  1390.7627   1   7   0.0028   0.0020   0.0135   0.0015   0.0012  -0.0038  -9.00  148.4
2024/05/09 14:10:52.000   28.258312937  -16.484563958  1390.7626   1   7   0.0028   0.0020   0.0135   0.0015   0.0012  -0.0038  -8.00  143.9
2024/05/09 14:10:53.000   28.258312936  -16.484563958  1390.7626   1   7   0.0028   0.0020   0.0135   0.0015   0.0012  -0.0038  -7.00  138.7
2024/05/09 14:10:54.000   28.258312936  -16.484563958  1390.7625   1   7   0.0028   0.0020   0.0135   0.0015   0.0012  -0.0038  -6.00  135.1
2024/05/09 14:10:55.000   28.258312935  -16.484563959  1390.7626   1   7   0.0028   0.0020   0.0135   0.0015   0.0012  -0.0038  -5.00  128.0
2024/05/09 14:10:56.000   28.258312935  -16.484563959  1390.7625   1   7   0.0028   0.0020   0.0135   0.0015   0.0012  -0.0038  -4.00  120.4
2024/05/09 14:10:57.000   28.258312934  -16.484563960  1390.7625   1   7   0.0028   0.0020   0.0135   0.0015   0.0012  -0.0038  -3.00  104.9
2024/05/09 14:10:58.000   28.258312933  -16.484563960  1390.7626   1   7   0.0028   0.0020   0.0135   0.0015   0.0012  -0.0038  -2.00   76.9
2024/05/09 14:10:59.000   28.258312931  -16.484563961  1390.7625   1   7   0.0028   0.0020   0.0136   0.0015   0.0012  -0.0038  -1.00   44.4
2024/05/09 14:11:00.000   28.258312940  -16.484563955  1390.7644   1   7   0.0027   0.0019   0.0135   0.0014   0.0010  -0.0039   0.00  132.6
2024/05/09 14:11:01.000   28.258312939  -16.484563956  1390.7644   1   7   0.0027   0.0019   0.0136   0.0014   0.0010  -0.0039   1.00  132.9
2024/05/09 14:11:02.000   28.258312938  -16.484563957  1390.7644   1   7   0.0027   0.0020   0.0136   0.0014   0.0010  -0.0039   2.00  131.2
2024/05/09 14:11:03.000   28.258312937  -16.484563958  1390.7645   1   7   0.0028   0.0020   0.0136   0.0015   0.0011  -0.0038   3.00  131.6
2024/05/09 14:11:04.000   28.258312936  -16.484563958  1390.7645   1   7   0.0028   0.0020   0.0136   0.0015   0.0011  -0.0038   4.00  131.9
2024/05/09 14:11:05.000   28.258312935  -16.484563959  1390.7646   1   7   0.0028   0.0020   0.0136   0.0015   0.0011  -0.0038   5.00  131.7
2024/05/09 14:11:06.000   28.258312935  -16.484563959  1390.7647   1   7   0.0028   0.0020   0.0136   0.0015   0.0011  -0.0038   6.00  131.8
2024/05/09 14:11:07.000   28.258312934  -16.484563959  1390.7648   1   7   0.0028   0.0020   0.0136   0.0015   0.0011  -0.0038   7.00  130.0
2024/05/09 14:11:08.000   28.258312934  -16.484563960  1390.7648   1   7   0.0028   0.0020   0.0136   0.0015   0.0011  -0.0038   8.00  128.6
2024/05/09 14:11:09.000   28.258312934  -16.484563960  1390.7648   1   7   0.0028   0.0020   0.0136   0.0015   0.0011  -0.0038   9.00  127.6
2024/05/09 14:11:10.000   28.258312933  -16.484563960  1390.7648   1   7   0.0028   0.0020   0.0137   0.0015   0.0011  -0.0038  10.00  126.2
2024/05/09 14:11:11.000   28.258312933  -16.484563960  1390.7648   1   7   0.0028   0.0020   0.0137   0.0015   0.0011  -0.0038  11.00  124.3
2024/05/09 14:11:12.000   28.258312933  -16.484563960  1390.7648   1   7   0.0028   0.0020   0.0137   0.0015   0.0011  -0.0038  12.00  122.3
2024/05/09 14:11:13.000   28.258312933  -16.484563960  1390.7648   1   7   0.0028   0.0020   0.0137   0.0015   0.0011  -0.0038  13.00  119.9
2024/05/09 14:11:14.000   28.258312933  -16.484563960  1390.7648   1   7   0.0028   0.0020   0.0136   0.0015   0.0011  -0.0038  14.00  117.6
2024/05/09 14:11:15.000   28.258312933  -16.484563960  1390.7649   1   7   0.0028   0.0020   0.0136   0.0015   0.0011  -0.0038  15.00  115.0
2024/05/09 14:11:16.000   28.258312933  -16.484563961  1390.7649   1   7   0.0028   0.0020   0.0136   0.0015   0.0011  -0.0038 -14.00  112.2
2024/05/09 14:11:17.000   28.258312933  -16.484563961  1390.7649   1   7   0.0028   0.0020   0.0136   0.0015   0.0011  -0.0038 -13.00  109.5
2024/05/09 14:11:18.000   28.258312933  -16.484563961  1390.7649   1   7   0.0028   0.0020   0.0136   0.0015   0.0011  -0.0038 -12.00  107.2
2024/05/09 14:11:19.000   28.258312932  -16.484563961  1390.7649   1   7   0.0028   0.0020   0.0136   0.0015   0.0011  -0.0038 -11.00  105.4
2024/05/09 14:11:20.000   28.258312932  -16.484563961  1390.7650   1   7   0.0028   0.0020   0.0136   0.0015   0.0011  -0.0038 -10.00  103.8
2024/05/09 14:11:21.000   28.258312932  -16.484563961  1390.7650   1   7   0.0028   0.0020   0.0136   0.0015   0.0011  -0.0037  -9.00  102.4
2024/05/09 14:11:22.000   28.258312932  -16.484563961  1390.7650   1   7   0.0028   0.0020   0.0136   0.0015   0.0011  -0.0037  -8.00  101.5
2024/05/09 14:11:23.000   28.258312932  -16.484563961  1390.7651   1   7   0.0028   0.0020   0.0136   0.0015   0.0011  -0.0037  -7.00  100.4
2024/05/09 14:11:24.000   28.258312932  -16.484563962  1390.7652   1   7   0.0029   0.0020   0.0137   0.0016   0.0011  -0.0037  -6.00   99.3
2024/05/09 14:11:25.000   28.258312932  -16.484563962  1390.7652   1   7   0.0029   0.0020   0.0137   0.0016   0.0011  -0.0037  -5.00   99.2
2024/05/09 14:11:26.000   28.258312932  -16.484563962  1390.7653   1   7   0.0029   0.0020   0.0137   0.0016   0.0011  -0.0037  -4.00   97.9
2024/05/09 14:11:27.000   28.258312932  -16.484563962  1390.7655   1   7   0.0029   0.0020   0.0137   0.0016   0.0011  -0.0037  -3.00   95.9
2024/05/09 14:11:28.000   28.258312931  -16.484563962  1390.7655   1   7   0.0029   0.0020   0.0137   0.0016   0.0012  -0.0037  -2.00   93.3
2024/05/09 14:11:29.000   28.258312931  -16.484563963  1390.7657   1   7   0.0029   0.0020   0.0137   0.0016   0.0012  -0.0037  -1.00   53.6
2024/05/09 14:11:30.000   28.258312938  -16.484563958  1390.7674   1   7   0.0028   0.0020   0.0137   0.0015   0.0009  -0.0038   0.00   82.0
2024/05/09 14:11:31.000   28.258312938  -16.484563959  1390.7676   1   7   0.0028   0.0020   0.0137   0.0015   0.0009  -0.0038   1.00   80.4
2024/05/09 14:11:32.000   28.258312938  -16.484563959  1390.7678   1   7   0.0028   0.0020   0.0137   0.0015   0.0009  -0.0038   2.00   79.5
2024/05/09 14:11:33.000   28.258312938  -16.484563959  1390.7680   1   7   0.0028   0.0020   0.0138   0.0015   0.0009  -0.0038   3.00   78.8
2024/05/09 14:11:34.000   28.258312938  -16.484563960  1390.7682   1   7   0.0029   0.0020   0.0138   0.0015   0.0010  -0.0038   4.00   77.0
2024/05/09 14:11:35.000   28.258312938  -16.484563960  1390.7683   1   7   0.0029   0.0020   0.0138   0.0015   0.0010  -0.0038   5.00   75.5
2024/05/09 14:11:36.000   28.258312938  -16.484563960  1390.7684   1   7   0.0029   0.0020   0.0138   0.0016   0.0010  -0.0038   6.00   73.5
2024/05/09 14:11:37.000   28.258312938  -16.484563961  1390.7685   1   7   0.0029   0.0020   0.0138   0.0016   0.0010  -0.0037   7.00   70.9
2024/05/09 14:11:38.000   28.258312938  -16.484563961  1390.7686   1   7   0.0029   0.0020   0.0138   0.0016   0.0010  -0.0037   8.00   68.4
2024/05/09 14:11:39.000   28.258312938  -16.484563961  1390.7687   1   7   0.0029   0.0020   0.0138   0.0016   0.0010  -0.0037   9.00   65.6
2024/05/09 14:11:40.000   28.258312938  -16.484563961  1390.7688   1   7   0.0029   0.0020   0.0138   0.0016   0.0010  -0.0037  10.00   62.6
2024/05/09 14:11:41.000   28.258312939  -16.484563961  1390.7689   1   7   0.0029   0.0020   0.0138   0.0016   0.0010  -0.0037  11.00   59.5
2024/05/09 14:11:42.000   28.258312939  -16.484563961  1390.7689   1   7   0.0029   0.0020   0.0138   0.0016   0.0010  -0.0037  12.00   56.1
2024/05/09 14:11:43.000   28.258312939  -16.484563961  1390.7690   1   7   0.0029   0.0020   0.0138   0.0016   0.0010  -0.0037  13.00   52.8
2024/05/09 14:11:44.000   28.258312939  -16.484563962  1390.7691   1   7   0.0029   0.0020   0.0138   0.0016   0.0010  -0.0037  14.00   49.6
2024/05/09 14:11:45.000   28.258312939  -16.484563962  1390.7691   1   7   0.0029   0.0020   0.0138   0.0016   0.0010  -0.0037  15.00   46.2
2024/05/09 14:11:46.000   28.258312939  -16.484563962  1390.7691   1   7   0.0029   0.0020   0.0138   0.0016   0.0010  -0.0037 -14.00   42.9
2024/05/09 14:11:47.000   28.258312939  -16.484563962  1390.7691   1   7   0.0029   0.0020   0.0138   0.0016   0.0010  -0.0037 -13.00   39.6
2024/05/09 14:11:48.000   28.258312939  -16.484563962  1390.7692   1   7   0.0029   0.0020   0.0138   0.0016   0.0010  -0.0037 -12.00   36.1
2024/05/09 14:11:49.000   28.258312939  -16.484563962  1390.7692   1   7   0.0029   0.0020   0.0138   0.0016   0.0010  -0.0037 -11.00   32.8
2024/05/09 14:11:50.000   28.258312939  -16.484563962  1390.7693   1   7   0.0029   0.0020   0.0138   0.0016   0.0010  -0.0036 -10.00   29.3
2024/05/09 14:11:51.000   28.258312939  -16.484563962  1390.7693   1   7   0.0030   0.0020   0.0138   0.0016   0.0011  -0.0036  -9.00   25.7
2024/05/09 14:11:52.000   28.258312939  -16.484563963  1390.7694   1   7   0.0030   0.0020   0.0138   0.0016   0.0011  -0.0036  -8.00   22.3
2024/05/09 14:11:53.000   28.258312938  -16.484563963  1390.7694   1   7   0.0030   0.0020   0.0139   0.0016   0.0011  -0.0036  -7.00   18.8
2024/05/09 14:11:54.000   28.258312938  -16.484563963  1390.7694   1   7   0.0030   0.0020   0.0139   0.0016   0.0011  -0.0036  -6.00   15.3
2024/05/09 14:11:55.000   28.258312938  -16.484563964  1390.7694   1   7   0.0030   0.0020   0.0139   0.0017   0.0011  -0.0036  -5.00   11.9
2024/05/09 14:11:56.000   28.258312937  -16.484563964  1390.7694   1   7   0.0030   0.0020   0.0139   0.0017   0.0011  -0.0036  -4.00    8.5
2024/05/09 14:11:57.000   28.258312937  -16.484563965  1390.7695   1   7   0.0031   0.0021   0.0139   0.0017   0.0012  -0.0035  -3.00    4.9
2024/05/09 14:11:58.000   28.258312936  -16.484563966  1390.7695   1   7   0.0031   0.0021   0.0140   0.0017   0.0012  -0.0035  -2.00    3.3
2024/05/09 14:11:59.000   28.258312934  -16.484563967  1390.7693   1   7   0.0031   0.0021   0.0140   0.0017   0.0012  -0.0035  -1.00   55.6
2024/05/09 14:12:00.000   28.258312944  -16.484563961  1390.7713   1   7   0.0030   0.0020   0.0139   0.0016   0.0009  -0.0036   0.00  212.2
2024/05/09 14:12:01.000   28.258312941  -16.484563966  1390.7718   1   6   0.0029   0.0018   0.0137   0.0016  -0.0008  -0.0036   1.00    3.2
2024/05/09 14:12:02.000   28.258312941  -16.484563965  1390.7717   1   6   0.0029   0.0018   0.0137   0.0016  -0.0008  -0.0035   2.00    3.4
2024/05/09 14:12:03.000   28.258312941  -16.484563965  1390.7716   1   6   0.0029   0.0018   0.0137   0.0016  -0.0007  -0.0035   3.00    3.2
2024/05/09 14:12:04.000   28.258312942  -16.484563965  1390.7715   1   6   0.0029   0.0018   0.0137   0.0016  -0.0007  -0.0035   4.00    3.1
2024/05/09 14:12:05.000   28.258312942  -16.484563965  1390.7714   1   6   0.0029   0.0018   0.0137   0.0016  -0.0007  -0.0035   5.00    3.1
2024/05/09 14:12:06.000   28.258312942  -16.484563965  1390.7713   1   6   0.0029   0.0018   0.0137   0.0016  -0.0006  -0.0035   6.00    3.0
2024/05/09 14:12:07.000   28.258312942  -16.484563965  1390.7712   1   6   0.0029   0.0018   0.0137   0.0016  -0.0006  -0.0035   7.00    3.0
2024/05/09 14:12:08.000   28.258312940  -16.484563964  1390.7710   1   6   0.0030   0.0021   0.0141   0.0017   0.0010  -0.0036   8.00  191.0
2024/05/09 14:12:09.000   28.258312939  -16.484563965  1390.7710   1   6   0.0030   0.0021   0.0141   0.0017   0.0010  -0.0036   9.00  188.1
2024/05/09 14:12:10.000   28.258312939  -16.484563965  1390.7710   1   6   0.0030   0.0021   0.0141   0.0017   0.0010  -0.0036  10.00  185.2
2024/05/09 14:12:11.000   28.258312939  -16.484563965  1390.7710   1   6   0.0030   0.0021   0.0141   0.0017   0.0010  -0.0036  11.00  183.1
2024/05/09 14:12:12.000   28.258312939  -16.484563965  1390.7710   1   6   0.0030   0.0021   0.0141   0.0017   0.0010  -0.0036  12.00  180.2
2024/05/09 14:12:13.000   28.258312939  -16.484563965  1390.7710   1   6   0.0030   0.0021   0.0141   0.0017   0.0010  -0.0036  13.00  177.2
2024/05/09 14:12:14.000   28.258312939  -16.484563965  1390.7709   1   6   0.0030   0.0021   0.0141   0.0017   0.0010  -0.0036  14.00  174.1
2024/05/09 14:12:15.000   28.258312938  -16.484563965  1390.7709   1   6   0.0030   0.0021   0.0141   0.0017   0.0010  -0.0036  15.00  171.5
2024/05/09 14:12:16.000   28.258312938  -16.484563965  1390.7709   1   6   0.0030   0.0021   0.0141   0.0017   0.0010  -0.0036 -14.00  168.6
2024/05/09 14:12:17.000   28.258312938  -16.484563965  1390.7709   1   6   0.0030   0.0021   0.0141   0.0017   0.0010  -0.0036 -13.00  165.7
2024/05/09 14:12:18.000   28.258312938  -16.484563966  1390.7709   1   6   0.0031   0.0021   0.0141   0.0017   0.0010  -0.0036 -12.00  163.0
2024/05/09 14:12:19.000   28.258312938  -16.484563966  1390.7709   1   6   0.0031   0.0021   0.0141   0.0017   0.0010  -0.0036 -11.00  160.3
2024/05/09 14:12:20.000   28.258312938  -16.484563966  1390.7708   1   6   0.0031   0.0021   0.0141   0.0017   0.0010  -0.0036 -10.00  158.1
2024/05/09 14:12:21.000   28.258312938  -16.484563966  1390.7708   1   6   0.0031   0.0021   0.0141   0.0017   0.0010  -0.0035  -9.00  155.5
2024/05/09 14:12:22.000   28.258312937  -16.484563966  1390.7708   1   6   0.0031   0.0021   0.0141   0.0017   0.0010  -0.0035  -8.00  153.3
2024/05/09 14:12:23.000   28.258312937  -16.484563967  1390.7708   1   6   0.0031   0.0021   0.0141   0.0017   0.0010  -0.0035  -7.00  151.0
2024/05/09 14:12:24.000   28.258312936  -16.484563967  1390.7707   1   6   0.0031   0.0021   0.0141   0.0017   0.0010  -0.0035  -6.00  147.6
2024/05/09 14:12:25.000   28.258312936  -16.484563967  1390.7707   1   6   0.0031   0.0021   0.0141   0.0017   0.0010  -0.0035  -5.00  144.3
2024/05/09 14:12:26.000   28.258312935  -16.484563968  1390.7706   1   6   0.0031   0.0021   0.0141   0.0017   0.0010  -0.0035  -4.00  135.7
2024/05/09 14:12:27.000   28.258312935  -16.484563968  1390.7706   1   6   0.0031   0.0021   0.0141   0.0017   0.0010  -0.0035  -3.00  122.1
2024/05/09 14:12:28.000   28.258312934  -16.484563969  1390.7705   1   6   0.0031   0.0021   0.0141   0.0018   0.0010  -0.0035  -2.00   91.0
2024/05/09 14:12:29.000   28.258312933  -16.484563970  1390.7703   1   6   0.0031   0.0021   0.0141   0.0018   0.0010  -0.0035  -1.00   52.9
2024/05/09 14:12:30.000   28.258312947  -16.484563961  1390.7729   1   6   0.0030   0.0020   0.0141   0.0016   0.0005  -0.0037   0.00  167.7
2024/05/09 14:12:31.000   28.258312946  -16.484563962  1390.7728   1   6   0.0030   0.0021   0.0141   0.0017   0.0005  -0.0037   1.00  165.8
2024/05/09 14:12:32.000   28.258312946  -16.484563962  1390.7726   1   6   0.0030   0.0021   0.0142   0.0017   0.0006  -0.0037   2.00  163.0
2024/05/09 14:12:33.000   28.258312945  -16.484563963  1390.7724   1   6   0.0030   0.0021   0.0142   0.0017   0.0006  -0.0037   3.00  163.3
2024/05/09 14:12:34.000   28.258312944  -16.484563964  1390.7722   1   6   0.0030   0.0021   0.0142   0.0017   0.0006  -0.0037   4.00  162.5
2024/05/09 14:12:35.000   28.258312943  -16.484563964  1390.7721   1   6   0.0030   0.0021   0.0142   0.0017   0.0006  -0.0037   5.00  163.2
2024/05/09 14:12:36.000   28.258312942  -16.484563965  1390.7720   1   6   0.0030   0.0021   0.0142   0.0017   0.0006  -0.0037   6.00  161.4
2024/05/09 14:12:37.000   28.258312942  -16.484563965  1390.7720   1   6   0.0030   0.0021   0.0142   0.0017   0.0006  -0.0036   7.00  160.3
2024/05/09 14:12:38.000   28.258312941  -16.484563965  1390.7720   1   6   0.0030   0.0021   0.0142   0.0017   0.0006  -0.0036   8.00  159.0
2024/05/09 14:12:39.000   28.258312941  -16.484563966  1390.7719   1   6   0.0031   0.0021   0.0142   0.0017   0.0006  -0.0036   9.00  157.2
2024/05/09 14:12:40.000   28.258312940  -16.484563966  1390.7719   1   6   0.0031   0.0021   0.0142   0.0017   0.0006  -0.0036  10.00  156.8
2024/05/09 14:12:41.000   28.258312940  -16.484563966  1390.7719   1   6   0.0031   0.0021   0.0142   0.0017   0.0006  -0.0036  11.00  155.1
2024/05/09 14:12:42.000   28.258312940  -16.484563966  1390.7718   1   6   0.0031   0.0021   0.0142   0.0017   0.0006  -0.0036  12.00  153.2
2024/05/09 14:12:43.000   28.258312945  -16.484563965  1390.7721   1   6   0.0029   0.0018   0.0139   0.0016  -0.0010  -0.0035  13.00    3.0
2024/05/09 14:12:44.000   28.258312945  -16.484563965  1390.7721   1   6   0.0029   0.0018   0.0139   0.0016  -0.0010  -0.0035  14.00    3.0
2024/05/09 14:12:45.000   28.258312945  -16.484563965  1390.7721   1   6   0.0029   0.0018   0.0139   0.0016  -0.0010  -0.0035 -15.00    3.0
2024/05/09 14:12:46.000   28.258312945  -16.484563965  1390.7721   1   6   0.0029   0.0018   0.0139   0.0016  -0.0010  -0.0035 -14.00    3.0
2024/05/09 14:12:47.000   28.258312945  -16.484563965  1390.7720   1   6   0.0029   0.0018   0.0139   0.0016  -0.0010  -0.0034 -13.00    3.0
2024/05/09 14:12:48.000   28.258312945  -16.484563965  1390.7720   1   6   0.0029   0.0018   0.0139   0.0016  -0.0010  -0.0034 -12.00    3.0
2024/05/09 14:12:49.000   28.258312945  -16.484563965  1390.7719   1   6   0.0029   0.0018   0.0139   0.0016  -0.0010  -0.0034 -11.00    3.0
2024/05/09 14:12:50.000   28.258312945  -16.484563965  1390.7718   1   6   0.0029   0.0018   0.0139   0.0016  -0.0010  -0.0034 -10.00    3.0
2024/05/09 14:12:51.000   28.258312945  -16.484563965  1390.7718   1   6   0.0029   0.0018   0.0139   0.0016  -0.0010  -0.0034  -9.00    3.0
2024/05/09 14:12:52.000   28.258312945  -16.484563965  1390.7717   1   6   0.0029   0.0018   0.0139   0.0016  -0.0010  -0.0034  -8.00    3.0
2024/05/09 14:12:53.000   28.258312945  -16.484563965  1390.7715   1   6   0.0029   0.0018   0.0139   0.0016  -0.0010  -0.0034  -7.00    3.0
2024/05/09 14:12:54.000   28.258312937  -16.484563969  1390.7713   1   6   0.0031   0.0021   0.0143   0.0018   0.0006  -0.0036  -6.00  123.9
2024/05/09 14:12:55.000   28.258312936  -16.484563969  1390.7711   1   6   0.0031   0.0021   0.0143   0.0018   0.0006  -0.0036  -5.00  122.8
2024/05/09 14:12:56.000   28.258312935  -16.484563970  1390.7709   1   6   0.0031   0.0021   0.0143   0.0018   0.0006  -0.0036  -4.00  120.3
2024/05/09 14:12:57.000   28.258312934  -16.484563971  1390.7708   1   6   0.0031   0.0021   0.0143   0.0018   0.0006  -0.0036  -3.00  106.2
2024/05/09 14:12:58.000   28.258312933  -16.484563972  1390.7707   1   6   0.0031   0.0021   0.0143   0.0018   0.0006  -0.0036  -2.00   80.9
2024/05/09 14:12:59.000   28.258312931  -16.484563973  1390.7705   1   6   0.0031   0.0021   0.0143   0.0018   0.0006  -0.0036  -1.00   45.2
2024/05/09 14:13:00.000   28.258312946  -16.484563964  1390.7734   1   6   0.0030   0.0021   0.0143   0.0017  -0.0006  -0.0037   0.00  167.0
2024/05/09 14:13:01.000   28.258312945  -16.484563965  1390.7734   1   6   0.0030   0.0021   0.0143   0.0017  -0.0006  -0.0037   1.00  166.1
2024/05/09 14:13:02.000   28.258312944  -16.484563966  1390.7733   1   6   0.0030   0.0021   0.0144   0.0017  -0.0006  -0.0037   2.00  164.8
2024/05/09 14:13:03.000   28.258312942  -16.484563967  1390.7731   1   6   0.0030   0.0021   0.0144   0.0017  -0.0006  -0.0037   3.00  165.6
2024/05/09 14:13:04.000   28.258312941  -16.484563968  1390.7731   1   6   0.0030   0.0021   0.0144   0.0017  -0.0006  -0.0037   4.00  165.8
2024/05/09 14:13:05.000   28.258312941  -16.484563969  1390.7730   1   6   0.0030   0.0021   0.0144   0.0017  -0.0006  -0.0037   5.00  165.2
2024/05/09 14:13:06.000   28.258312940  -16.484563969  1390.7729   1   6   0.0031   0.0021   0.0144   0.0017  -0.0006  -0.0037   6.00  160.8
2024/05/09 14:13:07.000   28.258312940  -16.484563970  1390.7729   1   6   0.0031   0.0021   0.0144   0.0017  -0.0006  -0.0037   7.00  158.9
2024/05/09 14:13:08.000   28.258312939  -16.484563970  1390.7729   1   6   0.0031   0.0021   0.0145   0.0018  -0.0006  -0.0037   8.00  156.7
2024/05/09 14:13:09.000   28.258312939  -16.484563971  1390.7729   1   6   0.0031   0.0021   0.0145   0.0018  -0.0006  -0.0037   9.00  154.3
2024/05/09 14:13:10.000   28.258312939  -16.484563971  1390.7728   1   6   0.0031   0.0021   0.0145   0.0018  -0.0006  -0.0037  10.00  151.5
2024/05/09 14:13:11.000   28.258312938  -16.484563971  1390.7728   1   6   0.0031   0.0021   0.0145   0.0018  -0.0006  -0.0037  11.00  148.8
2024/05/09 14:13:12.000   28.258312938  -16.484563971  1390.7728   1   6   0.0031   0.0021   0.0145   0.0018  -0.0006  -0.0037  12.00  145.9
2024/05/09 14:13:13.000   28.258312938  -16.484563972  1390.7728   1   6   0.0031   0.0021   0.0145   0.0018  -0.0006  -0.0037  13.00  143.6
2024/05/09 14:13:14.000   28.258312938  -16.484563972  1390.7728   1   6   0.0031   0.0021   0.0145   0.0018  -0.0006  -0.0037  14.00  141.0
2024/05/09 14:13:15.000   28.258312938  -16.484563972  1390.7728   1   6   0.0031   0.0021   0.0145   0.0018  -0.0006  -0.0037  15.00  138.3
2024/05/09 14:13:16.000   28.258312938  -16.484563972  1390.7727   1   6   0.0031   0.0021   0.0145   0.0018  -0.0006  -0.0037 -14.00  135.3
2024/05/09 14:13:17.000   28.258312937  -16.484563972  1390.7727   1   6   0.0031   0.0021   0.0145   0.0018  -0.0006  -0.0037 -13.00  132.6
2024/05/09 14:13:18.000   28.258312937  -16.484563972  1390.7727   1   6   0.0031   0.0021   0.0145   0.0018  -0.0006  -0.0037 -12.00  129.9
2024/05/09 14:13:19.000   28.258312937  -16.484563973  1390.7727   1   6   0.0031   0.0021   0.0145   0.0018  -0.0006  -0.0037 -11.00  127.1
2024/05/09 14:13:20.000   28.258312937  -16.484563973  1390.7726   1   6   0.0031   0.0021   0.0145   0.0018  -0.0006  -0.0037 -10.00  124.5
2024/05/09 14:13:21.000   28.258312936  -16.484563973  1390.7726   1   6   0.0031   0.0021   0.0145   0.0018  -0.0006  -0.0037  -9.00  122.1
2024/05/09 14:13:22.000   28.258312936  -16.484563974  1390.7726   1   6   0.0031   0.0021   0.0145   0.0018  -0.0006  -0.0037  -8.00  118.7
2024/05/09 14:13:23.000   28.258312936  -16.484563974  1390.7726   1   6   0.0031   0.0021   0.0145   0.0018  -0.0006  -0.0037  -7.00  114.5
2024/05/09 14:13:24.000   28.258312935  -16.484563975  1390.7725   1   6   0.0031   0.0021   0.0145   0.0018  -0.0006  -0.0037  -6.00  111.4
2024/05/09 14:13:25.000   28.258312934  -16.484563975  1390.7725   1   6   0.0031   0.0021   0.0145   0.0018  -0.0006  -0.0037  -5.00  108.5
2024/05/09 14:13:26.000   28.258312933  -16.484563976  1390.7722   1   6   0.0031   0.0022   0.0145   0.0018  -0.0006  -0.0036  -4.00  105.4
2024/05/09 14:13:27.000   28.258312932  -16.484563977  1390.7720   1   6   0.0031   0.0022   0.0145   0.0018  -0.0006  -0.0036  -3.00   92.2
2024/05/09 14:13:28.000   28.258312931  -16.484563978  1390.7718   1   6   0.0031   0.0022   0.0146   0.0018  -0.0006  -0.0036  -2.00   70.0
2024/05/09 14:13:29.000   28.258312930  -16.484563979  1390.7715   1   6   0.0032   0.0022   0.0146   0.0019  -0.0006  -0.0036  -1.00   38.7
2024/05/09 14:13:30.000   28.258312950  -16.484563966  1390.7750   1   6   0.0030   0.0021   0.0145   0.0017  -0.0011  -0.0038   0.00  115.2
2024/05/09 14:13:31.000   28.258312949  -16.484563967  1390.7749   1   6   0.0030   0.0021   0.0146   0.0017  -0.0011  -0.0038   1.00  114.5
2024/05/09 14:13:32.000   28.258312947  -16.484563968  1390.7746   1   6   0.0030   0.0021   0.0146   0.0017  -0.0011  -0.0038   2.00  114.7
2024/05/09 14:13:33.000   28.258312946  -16.484563969  1390.7744   1   6   0.0030   0.0021   0.0146   0.0018  -0.0011  -0.0038   3.00  115.5
2024/05/09 14:13:34.000   28.258312945  -16.484563970  1390.7742   1   6   0.0031   0.0021   0.0147   0.0018  -0.0011  -0.0038   4.00  115.4
2024/05/09 14:13:35.000   28.258312944  -16.484563971  1390.7741   1   6   0.0031   0.0021   0.0147   0.0018  -0.0011  -0.0038   5.00  115.2
2024/05/09 14:13:36.000   28.258312943  -16.484563971  1390.7739   1   6   0.0031   0.0022   0.0147   0.0018  -0.0011  -0.0038   6.00  115.2
2024/05/09 14:13:37.000   28.258312942  -16.484563972  1390.7738   1   6   0.0031   0.0022   0.0147   0.0018  -0.0011  -0.0038   7.00  114.5
2024/05/09 14:13:38.000   28.258312942  -16.484563972  1390.7737   1   6   0.0031   0.0022   0.0147   0.0018  -0.0011  -0.0038   8.00  113.4
2024/05/09 14:13:39.000   28.258312941  -16.484563973  1390.7735   1   6   0.0031   0.0022   0.0147   0.0018  -0.0011  -0.0038   9.00  112.5
2024/05/09 14:13:40.000   28.258312941  -16.484563973  1390.7734   1   6   0.0031   0.0022   0.0147   0.0018  -0.0011  -0.0038  10.00  112.0
2024/05/09 14:13:41.000   28.258312940  -16.484563973  1390.7733   1   6   0.0031   0.0022   0.0147   0.0018  -0.0011  -0.0038  11.00  111.2
2024/05/09 14:13:42.000   28.258312940  -16.484563973  1390.7732   1   6   0.0031   0.0022   0.0147   0.0018  -0.0011  -0.0038  12.00  110.1
2024/05/09 14:13:43.000   28.258312940  -16.484563973  1390.7732   1   6   0.0031   0.0022   0.0147   0.0018  -0.0011  -0.0038  13.00  109.0
2024/05/09 14:13:44.000   28.258312940  -16.484563974  1390.7731   1   6   0.0031   0.0022   0.0147   0.0018  -0.0011  -0.0038  14.00  107.5
2024/05/09 14:13:45.000   28.258312939  -16.484563974  1390.7730   1   6   0.0031   0.0022   0.0147   0.0018  -0.0011  -0.0038  15.00  106.2
2024/05/09 14:13:46.000   28.258312939  -16.484563974  1390.7730   1   6   0.0031   0.0022   0.0147   0.0018  -0.0011  -0.0038 -14.00  104.8
2024/05/09 14:13:47.000   28.258312939  -16.484563974  1390.7729   1   6   0.0031   0.0022   0.0147   0.0018  -0.0011  -0.0038 -13.00  103.5
2024/05/09 14:13:48.000   28.258312939  -16.484563974  1390.7728   1   6   0.0031   0.0022   0.0147   0.0018  -0.0011  -0.0038 -12.00  102.1
2024/05/09 14:13:49.000   28.258312939  -16.484563974  1390.7728   1   6   0.0031   0.0022   0.0147   0.0018  -0.0011  -0.0038 -11.00  100.9
2024/05/09 14:13:50.000   28.258312938  -16.484563975  1390.7726   1   6   0.0031   0.0022   0.0147   0.0018  -0.0011  -0.0037 -10.00  100.0
2024/05/09 14:13:51.000   28.258312938  -16.484563975  1390.7725   1   6   0.0031   0.0022   0.0147   0.0018  -0.0011  -0.0037  -9.00   99.0
2024/05/09 14:13:52.000   28.258312937  -16.484563975  1390.7723   1   6   0.0031   0.0022   0.0147   0.0018  -0.0011  -0.0037  -8.00   98.2
2024/05/09 14:13:53.000   28.258312937  -16.484563975  1390.7722   1   6   0.0031   0.0022   0.0147   0.0018  -0.0011  -0.0037  -7.00   97.2
2024/05/09 14:13:54.000   28.258312937  -16.484563976  1390.7720   1   6   0.0031   0.0022   0.0148   0.0018  -0.0011  -0.0037  -6.00   95.7
2024/05/09 14:13:55.000   28.258312936  -16.484563976  1390.7717   1   6   0.0031   0.0022   0.0148   0.0019  -0.0011  -0.0037  -5.00   94.9
2024/05/09 14:13:56.000   28.258312935  -16.484563977  1390.7715   1   6   0.0031   0.0022   0.0148   0.0019  -0.0011  -0.0037  -4.00   94.9
2024/05/09 14:13:57.000   28.258312934  -16.484563977  1390.7711   1   6   0.0031   0.0022   0.0148   0.0019  -0.0011  -0.0037  -3.00   85.5
2024/05/09 14:13:58.000   28.258312932  -16.484563978  1390.7707   1   6   0.0032   0.0022   0.0148   0.0019  -0.0011  -0.0037  -2.00   66.1
2024/05/09 14:13:59.000   28.258312931  -16.484563979  1390.7703   1   6   0.0032   0.0022   0.0149   0.0019  -0.0011  -0.0037  -1.00   36.7
2024/05/09 14:14:00.000   28.258312952  -16.484563965  1390.7736   1   6   0.0030   0.0021   0.0148   0.0018  -0.0015  -0.0039   0.00  116.5
2024/05/09 14:14:01.000   28.258312951  -16.484563966  1390.7731   1   6   0.0030   0.0022   0.0149   0.0018  -0.0015  -0.0039   1.00  117.0
2024/05/09 14:14:02.000   28.258312950  -16.484563967  1390.7728   1   6   0.0031   0.0022   0.0149   0.0018  -0.0015  -0.0039   2.00  118.2
2024/05/09 14:14:03.000   28.258312949  -16.484563967  1390.7725   1   6   0.0031   0.0022   0.0149   0.0018  -0.0015  -0.0039   3.00  118.2
2024/05/09 14:14:04.000   28.258312948  -16.484563968  1390.7721   1   6   0.0031   0.0022   0.0150   0.0018  -0.0015  -0.0039   4.00  119.3
2024/05/09 14:14:05.000   28.258312947  -16.484563969  1390.7718   1   6   0.0031   0.0022   0.0150   0.0018  -0.0015  -0.0039   5.00  120.4
2024/05/09 14:14:06.000   28.258312946  -16.484563969  1390.7715   1   6   0.0031   0.0022   0.0150   0.0018  -0.0015  -0.0039   6.00  120.7
2024/05/09 14:14:07.000   28.258312946  -16.484563969  1390.7713   1   6   0.0031   0.0022   0.0150   0.0018  -0.0015  -0.0039   7.00  121.0
2024/05/09 14:14:08.000   28.258312945  -16.484563970  1390.7711   1   6   0.0031   0.0022   0.0150   0.0018  -0.0015  -0.0039   8.00  120.8
2024/05/09 14:14:09.000   28.258312945  -16.484563970  1390.7710   1   6   0.0031   0.0022   0.0150   0.0018  -0.0015  -0.0039   9.00  119.9
2024/05/09 14:14:10.000   28.258312945  -16.484563970  1390.7709   1   6   0.0031   0.0022   0.0150   0.0018  -0.0015  -0.0039  10.00  119.0
2024/05/09 14:14:11.000   28.258312950  -16.484563967  1390.7752   1   6   0.0029   0.0018   0.0146   0.0017  -0.0019  -0.0037  11.00    3.3
2024/05/09 14:14:12.000   28.258312950  -16.484563967  1390.7752   1   6   0.0029   0.0018   0.0146   0.0017  -0.0019  -0.0036  12.00    3.3
2024/05/09 14:14:13.000   28.258312950  -16.484563967  1390.7751   1   6   0.0029   0.0018   0.0146   0.0017  -0.0019  -0.0036  13.00    3.2
2024/05/09 14:14:14.000   28.258312950  -16.484563967  1390.7750   1   6   0.0029   0.0018   0.0146   0.0017  -0.0019  -0.0036  14.00    3.2
2024/05/09 14:14:15.000   28.258312950  -16.484563967  1390.7750   1   6   0.0029   0.0018   0.0146   0.0017  -0.0019  -0.0036 -15.00    3.2
2024/05/09 14:14:16.000   28.258312950  -16.484563967  1390.7749   1   6   0.0029   0.0018   0.0146   0.0017  -0.0019  -0.0036 -14.00    3.2
2024/05/09 14:14:17.000   28.258312951  -16.484563967  1390.7749   1   6   0.0029   0.0018   0.0146   0.0017  -0.0019  -0.0036 -13.00    3.2
2024/05/09 14:14:18.000   28.258312951  -16.484563967  1390.7748   1   6   0.0029   0.0018   0.0146   0.0017  -0.0019  -0.0036 -12.00    3.2
2024/05/09 14:14:19.000   28.258312951  -16.484563967  1390.7748   1   6   0.0029   0.0018   0.0146   0.0016  -0.0019  -0.0036 -11.00    3.2
2024/05/09 14:14:20.000   28.258312951  -16.484563966  1390.7747   1   6   0.0029   0.0018   0.0146   0.0016  -0.0018  -0.0036 -10.00    3.2
2024/05/09 14:14:21.000   28.258312951  -16.484563966  1390.7745   1   6   0.0029   0.0018   0.0146   0.0016  -0.0018  -0.0036  -9.00    3.1
2024/05/09 14:14:22.000   28.258312951  -16.484563966  1390.7743   1   6   0.0029   0.0018   0.0146   0.0016  -0.0018  -0.0036  -8.00    3.1
2024/05/09 14:14:23.000   28.258312952  -16.484563966  1390.7741   1   6   0.0029   0.0018   0.0146   0.0016  -0.0018  -0.0036  -7.00    3.1
2024/05/09 14:14:24.000   28.258312952  -16.484563966  1390.7739   1   6   0.0029   0.0018   0.0146   0.0016  -0.0018  -0.0036  -6.00    3.1
2024/05/09 14:14:25.000   28.258312952  -16.484563966  1390.7736   1   6   0.0029   0.0018   0.0146   0.0016  -0.0018  -0.0036  -5.00    3.1
2024/05/09 14:14:26.000   28.258312953  -16.484563965  1390.7732   1   6   0.0029   0.0018   0.0146   0.0016  -0.0018  -0.0035  -4.00    3.0
2024/05/09 14:14:27.000   28.258312953  -16.484563965  1390.7729   1   6   0.0029   0.0018   0.0147   0.0016  -0.0018  -0.0035  -3.00    3.1
2024/05/09 14:14:28.000   28.258312953  -16.484563965  1390.7724   1   6   0.0029   0.0018   0.0147   0.0016  -0.0018  -0.0035  -2.00    3.1
2024/05/09 14:14:29.000   28.258312953  -16.484563965  1390.7719   1   6   0.0029   0.0018   0.0147   0.0016  -0.0018  -0.0035  -1.00    3.1
2024/05/09 14:14:30.000   28.258312968  -16.484563957  1390.7745   1   6   0.0028   0.0018   0.0147   0.0015  -0.0019  -0.0036   0.00    3.1
2024/05/09 14:14:31.000   28.258312947  -16.484563971  1390.7790   1   6   0.0029   0.0019   0.0146   0.0017  -0.0021  -0.0038   1.00    3.5
2024/05/09 14:14:32.000   28.258312948  -16.484563971  1390.7785   1   6   0.0029   0.0019   0.0147   0.0017  -0.0021  -0.0038   2.00    6.7
2024/05/09 14:14:33.000   28.258312878  -16.484564035  1390.8531   1   6   0.0028   0.0017   0.0124   0.0015   0.0010  -0.0028   3.00    6.7
2024/05/09 14:14:34.000   28.258312879  -16.484564034  1390.8538   1   6   0.0028   0.0017   0.0124   0.0015   0.0010  -0.0028   4.00   10.0
2024/05/09 14:14:35.000   28.258312879  -16.484564034  1390.8543   1   6   0.0028   0.0017   0.0124   0.0015   0.0010  -0.0027   5.00   13.1
2024/05/09 14:14:36.000   28.258312880  -16.484564034  1390.8547   1   6   0.0028   0.0017   0.0124   0.0015   0.0010  -0.0027   6.00   16.2
2024/05/09 14:14:37.000   28.258312880  -16.484564034  1390.8550   1   6   0.0028   0.0017   0.0124   0.0015   0.0010  -0.0027   7.00   19.4
2024/05/09 14:14:38.000   28.258312881  -16.484564033  1390.8553   1   6   0.0028   0.0017   0.0124   0.0015   0.0010  -0.0027   8.00   22.6
2024/05/09 14:14:39.000   28.258312881  -16.484564033  1390.8555   1   6   0.0028   0.0017   0.0124   0.0015   0.0010  -0.0027   9.00   25.8
2024/05/09 14:14:40.000   28.258312882  -16.484564033  1390.8557   1   6   0.0028   0.0017   0.0124   0.0015   0.0010  -0.0027  10.00   29.1
2024/05/09 14:14:41.000   28.258312882  -16.484564033  1390.8559   1   6   0.0028   0.0017   0.0124   0.0015   0.0010  -0.0027  11.00   32.5
2024/05/09 14:14:42.000   28.258312882  -16.484564033  1390.8561   1   6   0.0028   0.0017   0.0124   0.0015   0.0010  -0.0027  12.00   36.1
2024/05/09 14:14:43.000   28.258312883  -16.484564033  1390.8562   1   6   0.0028   0.0017   0.0124   0.0015   0.0010  -0.0027  13.00   39.4
2024/05/09 14:14:44.000   28.258312883  -16.484564033  1390.8563   1   6   0.0028   0.0017   0.0124   0.0015   0.0010  -0.0027  14.00   42.9
2024/05/09 14:14:45.000   28.258312883  -16.484564033  1390.8564   1   6   0.0028   0.0017   0.0124   0.0015   0.0010  -0.0027 -15.00   46.5
2024/05/09 14:14:46.000   28.258312884  -16.484564033  1390.8565   1   6   0.0028   0.0017   0.0124   0.0015   0.0010  -0.0027 -14.00   50.1
2024/05/09 14:14:47.000   28.258312884  -16.484564033  1390.8566   1   6   0.0028   0.0017   0.0124   0.0015   0.0010  -0.0027 -13.00   53.8
2024/05/09 14:14:48.000   28.258312884  -16.484564032  1390.8567   1   6   0.0028   0.0017   0.0124   0.0015   0.0010  -0.0027 -12.00   57.3
2024/05/09 14:14:49.000   28.258312885  -16.484564032  1390.8569   1   6   0.0028   0.0017   0.0124   0.0015   0.0010  -0.0027 -11.00   60.9
2024/05/09 14:14:50.000   28.258312885  -16.484564032  1390.8571   1   6   0.0028   0.0017   0.0124   0.0015   0.0010  -0.0027 -10.00   64.6
2024/05/09 14:14:51.000   28.258312886  -16.484564032  1390.8573   1   6   0.0028   0.0017   0.0124   0.0015   0.0010  -0.0027  -9.00   68.1
2024/05/09 14:14:52.000   28.258312887  -16.484564032  1390.8577   1   6   0.0028   0.0017   0.0124   0.0015   0.0010  -0.0027  -8.00   69.8
2024/05/09 14:14:53.000   28.258312887  -16.484564031  1390.8580   1   6   0.0028   0.0017   0.0124   0.0015   0.0010  -0.0027  -7.00   71.4
2024/05/09 14:14:54.000   28.258312888  -16.484564031  1390.8585   1   6   0.0028   0.0017   0.0124   0.0015   0.0009  -0.0027  -6.00   72.7
2024/05/09 14:14:55.000   28.258312889  -16.484564031  1390.8590   1   6   0.0028   0.0017   0.0124   0.0015   0.0009  -0.0027  -5.00   74.3
2024/05/09 14:14:56.000   28.258312890  -16.484564030  1390.8596   1   6   0.0028   0.0017   0.0124   0.0015   0.0009  -0.0027  -4.00   75.8
2024/05/09 14:14:57.000   28.258312892  -16.484564030  1390.8604   1   6   0.0028   0.0017   0.0124   0.0015   0.0009  -0.0027  -3.00   76.6
2024/05/09 14:14:58.000   28.258312893  -16.484564029  1390.8613   1   6   0.0028   0.0017   0.0124   0.0015   0.0009  -0.0027  -2.00   76.5
2024/05/09 14:14:59.000   28.258312895  -16.484564028  1390.8624   1   6   0.0028   0.0017   0.0124   0.0015   0.0009  -0.0027  -1.00   77.1
2024/05/09 14:15:00.000   28.258312912  -16.484564019  1390.8665   1   6   0.0027   0.0017   0.0123   0.0014   0.0005  -0.0029   0.00   78.2
2024/05/09 14:15:01.000   28.258312878  -16.484564039  1390.8616   1   6   0.0028   0.0017   0.0124   0.0015   0.0008  -0.0028   1.00   97.7
2024/05/09 14:15:02.000   28.258312879  -16.484564039  1390.8627   1   6   0.0028   0.0017   0.0124   0.0015   0.0009  -0.0027   2.00  126.5
2024/05/09 14:15:03.000   28.258312880  -16.484564039  1390.8633   1   6   0.0028   0.0017   0.0124   0.0015   0.0009  -0.0027   3.00  138.3
2024/05/09 14:15:04.000   28.258312881  -16.484564038  1390.8640   1   6   0.0028   0.0017   0.0124   0.0015   0.0009  -0.0027   4.00  131.5
2024/05/09 14:15:05.000   28.258312864  -16.484564040  1390.8661   1   7   0.0027   0.0017   0.0124   0.0015   0.0009  -0.0026   5.00  124.1
2024/05/09 14:15:06.000   28.258312865  -16.484564040  1390.8666   1   7   0.0027   0.0017   0.0124   0.0015   0.0009  -0.0026   6.00  120.3
2024/05/09 14:15:07.000   28.258312865  -16.484564040  1390.8670   1   7   0.0027   0.0017   0.0124   0.0015   0.0009  -0.0026   7.00  118.9
2024/05/09 14:15:08.000   28.258312866  -16.484564040  1390.8673   1   7   0.0027   0.0017   0.0124   0.0015   0.0009  -0.0026   8.00  118.3
2024/05/09 14:15:09.000   28.258312866  -16.484564039  1390.8675   1   7   0.0027   0.0017   0.0124   0.0015   0.0009  -0.0026   9.00  118.6
2024/05/09 14:15:10.000   28.258312867  -16.484564039  1390.8678   1   7   0.0027   0.0017   0.0124   0.0015   0.0009  -0.0026  10.00  119.4
2024/05/09 14:15:11.000   28.258312867  -16.484564039  1390.8680   1   7   0.0027   0.0017   0.0124   0.0015   0.0009  -0.0026  11.00  120.1
2024/05/09 14:15:12.000   28.258312868  -16.484564039  1390.8682   1   7   0.0027   0.0017   0.0124   0.0015   0.0009  -0.0026  12.00  121.3
2024/05/09 14:15:13.000   28.258312868  -16.484564039  1390.8683   1   7   0.0027   0.0017   0.0124   0.0015   0.0009  -0.0026  13.00  123.4
2024/05/09 14:15:14.000   28.258312868  -16.484564039  1390.8684   1   7   0.0027   0.0017   0.0124   0.0015   0.0009  -0.0026  14.00  124.6
2024/05/09 14:15:15.000   28.258312868  -16.484564039  1390.8685   1   7   0.0027   0.0017   0.0124   0.0015   0.0009  -0.0026 -15.00  126.4
2024/05/09 14:15:16.000   28.258312869  -16.484564039  1390.8686   1   7   0.0027   0.0017   0.0124   0.0015   0.0009  -0.0026 -14.00  127.8
2024/05/09 14:15:17.000   28.258312869  -16.484564038  1390.8687   1   7   0.0027   0.0017   0.0124   0.0015   0.0009  -0.0026 -13.00  128.8
2024/05/09 14:15:18.000   28.258312870  -16.484564038  1390.8689   1   7   0.0027   0.0017   0.0124   0.0015   0.0009  -0.0026 -12.00  129.1
2024/05/09 14:15:19.000   28.258312870  -16.484564038  1390.8691   1   7   0.0027   0.0017   0.0124   0.0015   0.0009  -0.0026 -11.00  129.4
2024/05/09 14:15:20.000   28.258312871  -16.484564038  1390.8693   1   7   0.0027   0.0017   0.0124   0.0015   0.0009  -0.0026 -10.00  129.3
2024/05/09 14:15:21.000   28.258312871  -16.484564038  1390.8696   1   7   0.0027   0.0017   0.0124   0.0015   0.0009  -0.0026  -9.00  128.4
2024/05/09 14:15:22.000   28.258312872  -16.484564037  1390.8698   1   7   0.0027   0.0017   0.0124   0.0015   0.0009  -0.0026  -8.00  128.2
2024/05/09 14:15:23.000   28.258312872  -16.484564037  1390.8702   1   7   0.0027   0.0017   0.0124   0.0015   0.0009  -0.0026  -7.00  127.1
2024/05/09 14:15:24.000   28.258312873  -16.484564037  1390.8706   1   7   0.0027   0.0017   0.0124   0.0015   0.0008  -0.0026  -6.00  126.1
2024/05/09 14:15:25.000   28.258312874  -16.484564036  1390.8712   1   7   0.0027   0.0017   0.0124   0.0015   0.0008  -0.0026  -5.00  125.1
2024/05/09 14:15:26.000   28.258312876  -16.484564036  1390.8719   1   7   0.0027   0.0017   0.0124   0.0015   0.0008  -0.0026  -4.00  124.3
2024/05/09 14:15:27.000   28.258312877  -16.484564035  1390.8729   1   7   0.0027   0.0017   0.0124   0.0015   0.0008  -0.0026  -3.00  122.2
2024/05/09 14:15:28.000   28.258312878  -16.484564035  1390.8739   1   7   0.0027   0.0017   0.0124   0.0015   0.0008  -0.0025  -2.00  122.3
2024/05/09 14:15:29.000   28.258312880  -16.484564034  1390.8751   1   7   0.0027   0.0017   0.0124   0.0015   0.0008  -0.0025  -1.00  121.9
2024/05/09 14:15:30.000   28.258312898  -16.484564024  1390.8797   1   7   0.0025   0.0017   0.0123   0.0014   0.0003  -0.0028   0.00  121.7
2024/05/09 14:15:31.000   28.258312860  -16.484564048  1390.8729   1   7   0.0027   0.0017   0.0124   0.0015   0.0008  -0.0026   1.00  533.7
2024/05/09 14:15:32.000   28.258312858  -16.484564049  1390.8734   1   7   0.0027   0.0017   0.0124   0.0015   0.0008  -0.0026   2.00  546.0
2024/05/09 14:15:33.000   28.258312859  -16.484564049  1390.8743   1   7   0.0027   0.0017   0.0124   0.0015   0.0008  -0.0026   3.00    4.3
2024/05/09 14:15:34.000   28.258312858  -16.484564050  1390.8745   1   7   0.0027   0.0017   0.0125   0.0015   0.0008  -0.0025   4.00    9.1
2024/05/09 14:15:35.000   28.258312868  -16.484564044  1390.8771   1   7   0.0027   0.0017   0.0124   0.0015   0.0008  -0.0026   5.00    5.9
2024/05/09 14:15:36.000   28.258312868  -16.484564044  1390.8776   1   7   0.0027   0.0017   0.0125   0.0015   0.0008  -0.0026   6.00    7.5
2024/05/09 14:15:37.000   28.258312869  -16.484564044  1390.8781   1   7   0.0027   0.0017   0.0125   0.0015   0.0008  -0.0026   7.00    9.1
2024/05/09 14:15:38.000   28.258312869  -16.484564044  1390.8784   1   7   0.0027   0.0017   0.0125   0.0015   0.0008  -0.0026   8.00   10.7
2024/05/09 14:15:39.000   28.258312870  -16.484564044  1390.8786   1   7   0.0027   0.0017   0.0125   0.0015   0.0008  -0.0026   9.00   12.2
2024/05/09 14:15:40.000   28.258312870  -16.484564043  1390.8789   1   7   0.0027   0.0017   0.0125   0.0015   0.0008  -0.0026  10.00   13.8
2024/05/09 14:15:41.000   28.258312870  -16.484564043  1390.8790   1   7   0.0027   0.0017   0.0125   0.0015   0.0008  -0.0025  11.00   15.5
2024/05/09 14:15:42.000   28.258312871  -16.484564043  1390.8791   1   7   0.0027   0.0017   0.0125   0.0015   0.0008  -0.0025  12.00   17.1
2024/05/09 14:15:43.000   28.258312871  -16.484564043  1390.8793   1   7   0.0027   0.0017   0.0125   0.0015   0.0007  -0.0025  13.00   18.7
2024/05/09 14:15:44.000   28.258312871  -16.484564043  1390.8794   1   7   0.0027   0.0017   0.0125   0.0015   0.0007  -0.0025  14.00   20.3
2024/05/09 14:15:45.000   28.258312872  -16.484564043  1390.8794   1   7   0.0027   0.0017   0.0125   0.0015   0.0007  -0.0025 -15.00   21.8
2024/05/09 14:15:46.000   28.258312872  -16.484564043  1390.8795   1   7   0.0027   0.0017   0.0125   0.0015   0.0007  -0.0025 -14.00   23.3
2024/05/09 14:15:47.000   28.258312872  -16.484564043  1390.8796   1   7   0.0027   0.0017   0.0125   0.0015   0.0007  -0.0025 -13.00   24.7
2024/05/09 14:15:48.000   28.258312873  -16.484564043  1390.8797   1   7   0.0027   0.0017   0.0125   0.0015   0.0007  -0.0025 -12.00   26.2
2024/05/09 14:15:49.000   28.258312873  -16.484564043  1390.8798   1   7   0.0027   0.0017   0.0125   0.0015   0.0007  -0.0025 -11.00   27.5
2024/05/09 14:15:50.000   28.258312874  -16.484564042  1390.8800   1   7   0.0027   0.0017   0.0125   0.0015   0.0007  -0.0025 -10.00   28.8
2024/05/09 14:15:51.000   28.258312874  -16.484564042  1390.8803   1   7   0.0027   0.0017   0.0125   0.0015   0.0007  -0.0025  -9.00   29.9
2024/05/09 14:15:52.000   28.258312875  -16.484564042  1390.8806   1   7   0.0027   0.0017   0.0125   0.0015   0.0007  -0.0025  -8.00   30.7
