% program   : RTKPOST-EX 2.5.0
% inp file  : C:\Users\SallyHenry\Desktop\Sally Internship\GNSS gravi\DATA\Survey Rover Obs\FA14.24o
% inp file  : C:\Users\SallyHenry\Desktop\Sally Internship\GNSS gravi\DATA\BaseStations\IZAN\IZAN00ESP_R_20241300000_01D_30S_MO.rnx
% inp file  : C:\Users\SallyHenry\Desktop\Sally Internship\GNSS gravi\DATA\BaseStations\IZAN\IZAN00ESP_R_20241300000_01D_MN.rnx
% inp file  : C:\Users\SallyHenry\Desktop\Sally Internship\GNSS gravi\DATA\aux_files\Survey\IGS0OPSFIN_20241300000_01D_15M_ORB.SP3
% inp file  : C:\Users\SallyHenry\Desktop\Sally Internship\GNSS gravi\DATA\aux_files\Survey\IGS0OPSFIN_20241300000_01D_30S_CLK.CLK
% obs start : 2024/05/09 14:44:59.0 GPST (week2313 398699.0s)
% obs end   : 2024/05/09 14:59:59.0 GPST (week2313 399599.0s)
% pos mode  : Static
% freqs     : L1+L2/E5b
% solution  : Combined-No Phase Reset
% elev mask : 15.0 deg
% dynamics  : on
% tidecorr  : solid
% ionos opt : Estimate TEC
% tropo opt : Estimate ZTD+Grad
% ephemeris : Precise
% navi sys  : GPS GLONASS Galileo QZSS BDS
% amb res   : Fix and Hold
% amb glo   : Fix and Hold
% amb bds   : on
% val thres : 3.0
% antenna1  :                       ( 0.0000  0.0000  1.8000)
% antenna2  :                       ( 0.0000  0.0000  0.0000)
% ref pos   :  28.308069410  -16.499677180  2417.4044
%
% (lat/lon/height=WGS84/ellipsoidal,Q=1:fix,2:float,3:sbas,4:dgps,5:single,6:ppp,ns=# of satellites)
%  GPST                  latitude(deg) longitude(deg)  height(m)   Q  ns   sdn(m)   sde(m)   sdu(m)  sdne(m)  sdeu(m)  sdun(m) age(s)  ratio
2024/05/09 14:44:59.000   28.269411011  -16.481004067  1433.5620   1   6   0.0030   0.0030   0.0499   0.0024  -0.0044   0.0052  -1.00   57.2
2024/05/09 14:45:00.000   28.269411032  -16.481004045  1433.5699   1   6   0.0027   0.0027   0.0477   0.0021  -0.0048   0.0036   0.00  176.5
2024/05/09 14:45:01.000   28.269411031  -16.481004046  1433.5699   1   6   0.0027   0.0027   0.0479   0.0021  -0.0048   0.0037   1.00  173.7
2024/05/09 14:45:02.000   28.269411030  -16.481004047  1433.5691   1   6   0.0028   0.0028   0.0481   0.0021  -0.0048   0.0039   2.00  172.3
2024/05/09 14:45:03.000   28.269411029  -16.481004047  1433.5684   1   6   0.0028   0.0028   0.0483   0.0021  -0.0047   0.0040   3.00  170.0
2024/05/09 14:45:04.000   28.269411029  -16.481004048  1433.5682   1   6   0.0028   0.0028   0.0484   0.0021  -0.0047   0.0041   4.00  168.7
2024/05/09 14:45:05.000   28.269411028  -16.481004049  1433.5679   1   6   0.0028   0.0028   0.0486   0.0022  -0.0047   0.0042   5.00  168.1
2024/05/09 14:45:06.000   28.269411027  -16.481004050  1433.5674   1   6   0.0028   0.0028   0.0487   0.0022  -0.0047   0.0043   6.00  166.3
2024/05/09 14:45:07.000   28.269411027  -16.481004050  1433.5670   1   6   0.0029   0.0028   0.0488   0.0022  -0.0046   0.0043   7.00  163.6
2024/05/09 14:45:08.000   28.269411026  -16.481004051  1433.5667   1   6   0.0029   0.0028   0.0489   0.0022  -0.0046   0.0044   8.00  162.4
2024/05/09 14:45:09.000   28.269411026  -16.481004051  1433.5665   1   6   0.0029   0.0028   0.0489   0.0022  -0.0046   0.0044   9.00  160.3
2024/05/09 14:45:10.000   28.269411025  -16.481004052  1433.5662   1   6   0.0029   0.0028   0.0490   0.0022  -0.0046   0.0045  10.00  158.0
2024/05/09 14:45:11.000   28.269411025  -16.481004052  1433.5660   1   6   0.0029   0.0029   0.0490   0.0022  -0.0046   0.0045  11.00  155.3
2024/05/09 14:45:12.000   28.269411024  -16.481004053  1433.5658   1   6   0.0029   0.0029   0.0491   0.0022  -0.0046   0.0045  12.00  152.9
2024/05/09 14:45:13.000   28.269411024  -16.481004053  1433.5657   1   6   0.0029   0.0029   0.0491   0.0022  -0.0046   0.0046  13.00  150.1
2024/05/09 14:45:14.000   28.269411024  -16.481004053  1433.5655   1   6   0.0029   0.0029   0.0491   0.0022  -0.0046   0.0046  14.00  147.3
2024/05/09 14:45:15.000   28.269411024  -16.481004053  1433.5653   1   6   0.0029   0.0029   0.0492   0.0022  -0.0046   0.0046  15.00  144.4
2024/05/09 14:45:16.000   28.269411023  -16.481004054  1433.5652   1   6   0.0029   0.0029   0.0492   0.0022  -0.0046   0.0046 -14.00  141.6
2024/05/09 14:45:17.000   28.269411023  -16.481004054  1433.5651   1   6   0.0029   0.0029   0.0492   0.0022  -0.0046   0.0046 -13.00  138.7
2024/05/09 14:45:18.000   28.269411023  -16.481004054  1433.5650   1   6   0.0029   0.0029   0.0492   0.0022  -0.0046   0.0047 -12.00  136.1
2024/05/09 14:45:19.000   28.269411022  -16.481004055  1433.5648   1   6   0.0029   0.0029   0.0493   0.0022  -0.0045   0.0047 -11.00  133.2
2024/05/09 14:45:20.000   28.269411022  -16.481004055  1433.5646   1   6   0.0029   0.0029   0.0493   0.0022  -0.0045   0.0047 -10.00  130.4
2024/05/09 14:45:21.000   28.269411022  -16.481004055  1433.5642   1   6   0.0029   0.0029   0.0494   0.0022  -0.0045   0.0048  -9.00  127.6
2024/05/09 14:45:22.000   28.269411021  -16.481004056  1433.5637   1   6   0.0029   0.0029   0.0494   0.0023  -0.0045   0.0048  -8.00  124.3
2024/05/09 14:45:23.000   28.269411020  -16.481004057  1433.5632   1   6   0.0029   0.0029   0.0495   0.0023  -0.0045   0.0048  -7.00  121.5
2024/05/09 14:45:24.000   28.269411020  -16.481004058  1433.5631   1   6   0.0029   0.0029   0.0496   0.0023  -0.0045   0.0049  -6.00  116.9
2024/05/09 14:45:25.000   28.269411019  -16.481004059  1433.5628   1   6   0.0030   0.0029   0.0497   0.0023  -0.0045   0.0050  -5.00  110.1
2024/05/09 14:45:26.000   28.269411017  -16.481004060  1433.5620   1   6   0.0030   0.0029   0.0498   0.0023  -0.0045   0.0050  -4.00  100.2
2024/05/09 14:45:27.000   28.269411016  -16.481004062  1433.5616   1   6   0.0030   0.0029   0.0500   0.0023  -0.0044   0.0051  -3.00   93.2
2024/05/09 14:45:28.000   28.269411015  -16.481004063  1433.5609   1   6   0.0030   0.0030   0.0502   0.0023  -0.0044   0.0053  -2.00   76.8
2024/05/09 14:45:29.000   28.269411012  -16.481004066  1433.5595   1   6   0.0031   0.0030   0.0504   0.0024  -0.0043   0.0054  -1.00   48.0
2024/05/09 14:45:30.000   28.269411037  -16.481004033  1433.5629   1   6   0.0027   0.0027   0.0483   0.0021  -0.0048   0.0038   0.00  128.5
2024/05/09 14:45:31.000   28.269411036  -16.481004034  1433.5623   1   6   0.0027   0.0028   0.0485   0.0021  -0.0048   0.0039   1.00  128.6
2024/05/09 14:45:32.000   28.269411035  -16.481004036  1433.5619   1   6   0.0028   0.0028   0.0487   0.0021  -0.0047   0.0041   2.00  129.6
2024/05/09 14:45:33.000   28.269411033  -16.481004039  1433.5610   1   6   0.0028   0.0028   0.0489   0.0021  -0.0047   0.0042   3.00  132.4
2024/05/09 14:45:34.000   28.269411032  -16.481004041  1433.5607   1   6   0.0028   0.0028   0.0490   0.0021  -0.0047   0.0043   4.00  134.0
2024/05/09 14:45:35.000   28.269411031  -16.481004042  1433.5607   1   6   0.0028   0.0028   0.0492   0.0022  -0.0046   0.0044   5.00  135.4
2024/05/09 14:45:36.000   28.269411030  -16.481004044  1433.5605   1   6   0.0028   0.0028   0.0493   0.0022  -0.0046   0.0044   6.00  136.9
2024/05/09 14:45:37.000   28.269411029  -16.481004045  1433.5603   1   6   0.0029   0.0028   0.0494   0.0022  -0.0046   0.0045   7.00  137.1
2024/05/09 14:45:38.000   28.269411028  -16.481004046  1433.5601   1   6   0.0029   0.0028   0.0494   0.0022  -0.0046   0.0046   8.00  137.3
2024/05/09 14:45:39.000   28.269411027  -16.481004048  1433.5601   1   6   0.0029   0.0029   0.0495   0.0022  -0.0046   0.0046   9.00  137.9
2024/05/09 14:45:40.000   28.269411027  -16.481004048  1433.5600   1   6   0.0029   0.0029   0.0496   0.0022  -0.0046   0.0046  10.00  137.4
2024/05/09 14:45:41.000   28.269411026  -16.481004049  1433.5600   1   6   0.0029   0.0029   0.0496   0.0022  -0.0046   0.0047  11.00  136.8
2024/05/09 14:45:42.000   28.269411026  -16.481004050  1433.5602   1   6   0.0029   0.0029   0.0496   0.0022  -0.0045   0.0047  12.00  135.5
2024/05/09 14:45:43.000   28.269411026  -16.481004050  1433.5604   1   6   0.0029   0.0029   0.0497   0.0022  -0.0045   0.0047  13.00  134.0
2024/05/09 14:45:44.000   28.269411025  -16.481004050  1433.5604   1   6   0.0029   0.0029   0.0497   0.0022  -0.0045   0.0047  14.00  132.8
2024/05/09 14:45:45.000   28.269411025  -16.481004051  1433.5605   1   6   0.0029   0.0029   0.0497   0.0022  -0.0045   0.0048  15.00  131.2
2024/05/09 14:45:46.000   28.269411025  -16.481004051  1433.5606   1   6   0.0029   0.0029   0.0497   0.0022  -0.0045   0.0048 -14.00  129.4
2024/05/09 14:45:47.000   28.269411024  -16.481004052  1433.5606   1   6   0.0029   0.0029   0.0498   0.0022  -0.0045   0.0048 -13.00  127.6
2024/05/09 14:45:48.000   28.269411024  -16.481004052  1433.5607   1   6   0.0029   0.0029   0.0498   0.0022  -0.0045   0.0048 -12.00  125.9
2024/05/09 14:45:49.000   28.269411024  -16.481004053  1433.5607   1   6   0.0029   0.0029   0.0498   0.0022  -0.0045   0.0049 -11.00  124.3
2024/05/09 14:45:50.000   28.269411023  -16.481004053  1433.5607   1   6   0.0029   0.0029   0.0499   0.0022  -0.0045   0.0049 -10.00  123.0
2024/05/09 14:45:51.000   28.269411023  -16.481004054  1433.5607   1   6   0.0029   0.0029   0.0499   0.0023  -0.0045   0.0049  -9.00  121.7
2024/05/09 14:45:52.000   28.269411022  -16.481004055  1433.5605   1   6   0.0029   0.0029   0.0500   0.0023  -0.0045   0.0050  -8.00  120.3
2024/05/09 14:45:53.000   28.269411021  -16.481004056  1433.5604   1   6   0.0029   0.0029   0.0500   0.0023  -0.0045   0.0050  -7.00  118.5
2024/05/09 14:45:54.000   28.269411021  -16.481004057  1433.5603   1   6   0.0030   0.0029   0.0501   0.0023  -0.0044   0.0051  -6.00  113.7
2024/05/09 14:45:55.000   28.269411020  -16.481004058  1433.5600   1   6   0.0030   0.0029   0.0502   0.0023  -0.0044   0.0051  -5.00  109.5
2024/05/09 14:45:56.000   28.269411018  -16.481004060  1433.5596   1   6   0.0030   0.0029   0.0503   0.0023  -0.0044   0.0052  -4.00  101.7
2024/05/09 14:45:57.000   28.269411017  -16.481004062  1433.5592   1   6   0.0030   0.0030   0.0505   0.0023  -0.0043   0.0053  -3.00   91.9
2024/05/09 14:45:58.000   28.269411015  -16.481004064  1433.5581   1   6   0.0030   0.0030   0.0506   0.0024  -0.0043   0.0054  -2.00   79.0
2024/05/09 14:45:59.000   28.269411012  -16.481004067  1433.5568   1   6   0.0031   0.0030   0.0509   0.0024  -0.0042   0.0055  -1.00   50.0
2024/05/09 14:46:00.000   28.269411039  -16.481004034  1433.5634   1   6   0.0025   0.0026   0.0481   0.0018  -0.0055   0.0024   0.00  149.3
2024/05/09 14:46:01.000   28.269411038  -16.481004036  1433.5626   1   6   0.0025   0.0026   0.0483   0.0019  -0.0055   0.0025   1.00  154.3
2024/05/09 14:46:02.000   28.269411037  -16.481004038  1433.5627   1   6   0.0025   0.0027   0.0484   0.0019  -0.0055   0.0027   2.00  159.1
2024/05/09 14:46:03.000   28.269411036  -16.481004040  1433.5625   1   6   0.0025   0.0027   0.0485   0.0019  -0.0055   0.0028   3.00  162.9
2024/05/09 14:46:04.000   28.269411036  -16.481004041  1433.5622   1   6   0.0026   0.0027   0.0487   0.0019  -0.0054   0.0029   4.00  166.3
2024/05/09 14:46:05.000   28.269411035  -16.481004042  1433.5620   1   6   0.0026   0.0027   0.0488   0.0019  -0.0054   0.0029   5.00  169.3
2024/05/09 14:46:06.000   28.269411034  -16.481004044  1433.5620   1   6   0.0026   0.0027   0.0488   0.0019  -0.0054   0.0030   6.00  171.3
2024/05/09 14:46:07.000   28.269411034  -16.481004044  1433.5620   1   6   0.0026   0.0027   0.0489   0.0019  -0.0054   0.0031   7.00  172.5
2024/05/09 14:46:08.000   28.269411034  -16.481004045  1433.5618   1   6   0.0026   0.0027   0.0490   0.0019  -0.0054   0.0031   8.00  172.1
2024/05/09 14:46:09.000   28.269411033  -16.481004046  1433.5616   1   6   0.0026   0.0027   0.0490   0.0019  -0.0054   0.0031   9.00  172.4
2024/05/09 14:46:10.000   28.269411033  -16.481004046  1433.5618   1   6   0.0026   0.0027   0.0490   0.0019  -0.0054   0.0032  10.00  172.0
2024/05/09 14:46:11.000   28.269411033  -16.481004047  1433.5619   1   6   0.0026   0.0027   0.0491   0.0020  -0.0054   0.0032  11.00  171.3
2024/05/09 14:46:12.000   28.269411033  -16.481004047  1433.5619   1   6   0.0026   0.0027   0.0491   0.0020  -0.0054   0.0032  12.00  170.1
2024/05/09 14:46:13.000   28.269411032  -16.481004048  1433.5620   1   6   0.0026   0.0027   0.0491   0.0020  -0.0054   0.0032  13.00  168.7
2024/05/09 14:46:14.000   28.269411032  -16.481004048  1433.5620   1   6   0.0026   0.0027   0.0491   0.0020  -0.0054   0.0033  14.00  166.9
2024/05/09 14:46:15.000   28.269411032  -16.481004048  1433.5620   1   6   0.0026   0.0027   0.0492   0.0020  -0.0054   0.0033  15.00  165.0
2024/05/09 14:46:16.000   28.269411032  -16.481004049  1433.5621   1   6   0.0026   0.0027   0.0492   0.0020  -0.0054   0.0033 -14.00  162.8
2024/05/09 14:46:17.000   28.269411032  -16.481004049  1433.5621   1   6   0.0026   0.0027   0.0492   0.0020  -0.0054   0.0033 -13.00  160.8
2024/05/09 14:46:18.000   28.269411032  -16.481004049  1433.5621   1   6   0.0026   0.0027   0.0492   0.0020  -0.0054   0.0033 -12.00  158.6
2024/05/09 14:46:19.000   28.269411031  -16.481004049  1433.5621   1   6   0.0026   0.0027   0.0492   0.0020  -0.0054   0.0034 -11.00  156.1
2024/05/09 14:46:20.000   28.269411031  -16.481004050  1433.5622   1   6   0.0026   0.0027   0.0492   0.0020  -0.0054   0.0034 -10.00  153.1
2024/05/09 14:46:21.000   28.269411031  -16.481004050  1433.5623   1   6   0.0026   0.0028   0.0493   0.0020  -0.0054   0.0034  -9.00  150.9
2024/05/09 14:46:22.000   28.269411031  -16.481004051  1433.5625   1   6   0.0026   0.0028   0.0493   0.0020  -0.0054   0.0035  -8.00  149.1
2024/05/09 14:46:23.000   28.269411030  -16.481004051  1433.5626   1   6   0.0026   0.0028   0.0494   0.0020  -0.0054   0.0035  -7.00  147.0
2024/05/09 14:46:24.000   28.269411030  -16.481004052  1433.5626   1   6   0.0026   0.0028   0.0494   0.0020  -0.0054   0.0035  -6.00  141.2
2024/05/09 14:46:25.000   28.269411030  -16.481004052  1433.5627   1   6   0.0026   0.0028   0.0495   0.0020  -0.0054   0.0036  -5.00  133.2
2024/05/09 14:46:26.000   28.269411029  -16.481004053  1433.5623   1   6   0.0027   0.0028   0.0496   0.0020  -0.0054   0.0036  -4.00  124.9
2024/05/09 14:46:27.000   28.269411028  -16.481004055  1433.5620   1   6   0.0027   0.0028   0.0497   0.0020  -0.0054   0.0037  -3.00  112.6
2024/05/09 14:46:28.000   28.269411028  -16.481004056  1433.5619   1   6   0.0027   0.0028   0.0498   0.0020  -0.0054   0.0038  -2.00   84.9
2024/05/09 14:46:29.000   28.269411027  -16.481004057  1433.5610   1   6   0.0027   0.0028   0.0500   0.0021  -0.0054   0.0039  -1.00   50.3
2024/05/09 14:46:30.000   28.269411028  -16.481004044  1433.5455   1   6   0.0027   0.0027   0.0495   0.0021  -0.0048   0.0042   0.00  190.0
2024/05/09 14:46:31.000   28.269411028  -16.481004045  1433.5447   1   6   0.0028   0.0028   0.0497   0.0021  -0.0047   0.0043   1.00  196.2
2024/05/09 14:46:32.000   28.269411027  -16.481004047  1433.5444   1   6   0.0028   0.0028   0.0499   0.0021  -0.0047   0.0044   2.00  198.7
2024/05/09 14:46:33.000   28.269411026  -16.481004048  1433.5441   1   6   0.0028   0.0028   0.0500   0.0021  -0.0046   0.0045   3.00  199.3
2024/05/09 14:46:34.000   28.269411026  -16.481004049  1433.5438   1   6   0.0028   0.0028   0.0502   0.0022  -0.0046   0.0046   4.00  198.2
2024/05/09 14:46:35.000   28.269411025  -16.481004050  1433.5438   1   6   0.0029   0.0028   0.0503   0.0022  -0.0046   0.0047   5.00  199.6
2024/05/09 14:46:36.000   28.269411025  -16.481004051  1433.5435   1   6   0.0029   0.0028   0.0504   0.0022  -0.0045   0.0048   6.00  198.2
2024/05/09 14:46:37.000   28.269411024  -16.481004052  1433.5434   1   6   0.0029   0.0029   0.0505   0.0022  -0.0045   0.0048   7.00  197.1
2024/05/09 14:46:38.000   28.269411024  -16.481004053  1433.5436   1   6   0.0029   0.0029   0.0505   0.0022  -0.0045   0.0049   8.00  197.0
2024/05/09 14:46:39.000   28.269411023  -16.481004053  1433.5436   1   6   0.0029   0.0029   0.0506   0.0022  -0.0045   0.0049   9.00  193.9
2024/05/09 14:46:40.000   28.269411023  -16.481004054  1433.5437   1   6   0.0029   0.0029   0.0506   0.0022  -0.0045   0.0050  10.00  190.4
2024/05/09 14:46:41.000   28.269411023  -16.481004054  1433.5439   1   6   0.0029   0.0029   0.0507   0.0022  -0.0045   0.0050  11.00  188.5
2024/05/09 14:46:42.000   28.269411023  -16.481004055  1433.5440   1   6   0.0029   0.0029   0.0507   0.0022  -0.0045   0.0050  12.00  186.3
2024/05/09 14:46:43.000   28.269411023  -16.481004055  1433.5440   1   6   0.0029   0.0029   0.0507   0.0022  -0.0044   0.0050  13.00  183.3
2024/05/09 14:46:44.000   28.269411022  -16.481004055  1433.5440   1   6   0.0029   0.0029   0.0507   0.0022  -0.0044   0.0051  14.00  180.5
2024/05/09 14:46:45.000   28.269411022  -16.481004056  1433.5442   1   6   0.0029   0.0029   0.0507   0.0022  -0.0044   0.0051  15.00  178.0
2024/05/09 14:46:46.000   28.269411022  -16.481004056  1433.5443   1   6   0.0029   0.0029   0.0508   0.0022  -0.0044   0.0051 -14.00  175.6
2024/05/09 14:46:47.000   28.269411022  -16.481004056  1433.5445   1   6   0.0029   0.0029   0.0508   0.0023  -0.0044   0.0051 -13.00  173.3
2024/05/09 14:46:48.000   28.269411022  -16.481004057  1433.5447   1   6   0.0029   0.0029   0.0508   0.0023  -0.0044   0.0051 -12.00  170.8
2024/05/09 14:46:49.000   28.269411022  -16.481004057  1433.5448   1   6   0.0029   0.0029   0.0508   0.0023  -0.0044   0.0052 -11.00  168.0
2024/05/09 14:46:50.000   28.269411021  -16.481004058  1433.5449   1   6   0.0029   0.0029   0.0509   0.0023  -0.0044   0.0052 -10.00  166.1
2024/05/09 14:46:51.000   28.269411021  -16.481004058  1433.5450   1   6   0.0029   0.0029   0.0509   0.0023  -0.0044   0.0052  -9.00  164.3
2024/05/09 14:46:52.000   28.269411021  -16.481004059  1433.5451   1   6   0.0030   0.0029   0.0509   0.0023  -0.0043   0.0053  -8.00  160.5
2024/05/09 14:46:53.000   28.269411021  -16.481004060  1433.5453   1   6   0.0030   0.0029   0.0510   0.0023  -0.0043   0.0053  -7.00  156.5
2024/05/09 14:46:54.000   28.269411020  -16.481004061  1433.5456   1   6   0.0030   0.0029   0.0511   0.0023  -0.0043   0.0054  -6.00  152.7
2024/05/09 14:46:55.000   28.269411020  -16.481004062  1433.5460   1   6   0.0030   0.0029   0.0512   0.0023  -0.0043   0.0054  -5.00  147.0
2024/05/09 14:46:56.000   28.269411019  -16.481004063  1433.5459   1   6   0.0030   0.0030   0.0513   0.0023  -0.0042   0.0055  -4.00  139.0
2024/05/09 14:46:57.000   28.269411018  -16.481004065  1433.5457   1   6   0.0030   0.0030   0.0514   0.0024  -0.0042   0.0056  -3.00  128.3
2024/05/09 14:46:58.000   28.269411016  -16.481004067  1433.5450   1   6   0.0031   0.0030   0.0515   0.0024  -0.0041   0.0057  -2.00  106.5
2024/05/09 14:46:59.000   28.269411015  -16.481004070  1433.5439   1   6   0.0031   0.0030   0.0517   0.0024  -0.0040   0.0058  -1.00   65.4
2024/05/09 14:47:00.000   28.269411040  -16.481004033  1433.5457   1   6   0.0027   0.0028   0.0501   0.0021  -0.0048   0.0043   0.00  130.0
2024/05/09 14:47:01.000   28.269411038  -16.481004035  1433.5444   1   6   0.0028   0.0028   0.0503   0.0021  -0.0047   0.0045   1.00  134.7
2024/05/09 14:47:02.000   28.269411037  -16.481004037  1433.5435   1   6   0.0028   0.0028   0.0504   0.0021  -0.0047   0.0046   2.00  138.5
2024/05/09 14:47:03.000   28.269411036  -16.481004039  1433.5430   1   6   0.0028   0.0028   0.0506   0.0021  -0.0046   0.0047   3.00  143.3
2024/05/09 14:47:04.000   28.269411034  -16.481004040  1433.5427   1   6   0.0028   0.0028   0.0507   0.0022  -0.0046   0.0048   4.00  147.8
2024/05/09 14:47:05.000   28.269411033  -16.481004042  1433.5425   1   6   0.0029   0.0028   0.0508   0.0022  -0.0045   0.0049   5.00  153.7
2024/05/09 14:47:06.000   28.269411032  -16.481004043  1433.5422   1   6   0.0029   0.0029   0.0509   0.0022  -0.0045   0.0049   6.00  155.1
2024/05/09 14:47:07.000   28.269411032  -16.481004044  1433.5421   1   6   0.0029   0.0029   0.0510   0.0022  -0.0045   0.0050   7.00  156.7
2024/05/09 14:47:08.000   28.269411031  -16.481004045  1433.5423   1   6   0.0029   0.0029   0.0510   0.0022  -0.0045   0.0050   8.00  157.8
2024/05/09 14:47:09.000   28.269411031  -16.481004046  1433.5425   1   6   0.0029   0.0029   0.0511   0.0022  -0.0044   0.0051   9.00  159.3
2024/05/09 14:47:10.000   28.269411030  -16.481004047  1433.5427   1   6   0.0029   0.0029   0.0511   0.0022  -0.0044   0.0051  10.00  161.1
2024/05/09 14:47:11.000   28.269411030  -16.481004048  1433.5430   1   6   0.0029   0.0029   0.0511   0.0022  -0.0044   0.0051  11.00  162.4
2024/05/09 14:47:12.000   28.269411029  -16.481004048  1433.5432   1   6   0.0029   0.0029   0.0512   0.0022  -0.0044   0.0052  12.00  162.2
2024/05/09 14:47:13.000   28.269411029  -16.481004049  1433.5434   1   6   0.0029   0.0029   0.0512   0.0022  -0.0044   0.0052  13.00  161.5
2024/05/09 14:47:14.000   28.269411029  -16.481004049  1433.5436   1   6   0.0029   0.0029   0.0512   0.0023  -0.0044   0.0052  14.00  161.2
2024/05/09 14:47:15.000   28.269411029  -16.481004050  1433.5439   1   6   0.0029   0.0029   0.0512   0.0023  -0.0044   0.0052  15.00  160.5
2024/05/09 14:47:16.000   28.269411028  -16.481004050  1433.5440   1   6   0.0029   0.0029   0.0512   0.0023  -0.0044   0.0052 -14.00  159.1
2024/05/09 14:47:17.000   28.269411028  -16.481004051  1433.5441   1   6   0.0029   0.0029   0.0513   0.0023  -0.0044   0.0053 -13.00  157.8
2024/05/09 14:47:18.000   28.269411028  -16.481004051  1433.5443   1   6   0.0029   0.0029   0.0513   0.0023  -0.0043   0.0053 -12.00  156.9
2024/05/09 14:47:19.000   28.269411028  -16.481004052  1433.5444   1   6   0.0029   0.0029   0.0513   0.0023  -0.0043   0.0053 -11.00  156.3
2024/05/09 14:47:20.000   28.269411027  -16.481004053  1433.5446   1   6   0.0030   0.0029   0.0513   0.0023  -0.0043   0.0053 -10.00  155.4
2024/05/09 14:47:21.000   28.269411027  -16.481004054  1433.5447   1   6   0.0030   0.0029   0.0514   0.0023  -0.0043   0.0054  -9.00  154.2
2024/05/09 14:47:22.000   28.269411026  -16.481004055  1433.5449   1   6   0.0030   0.0029   0.0514   0.0023  -0.0043   0.0054  -8.00  152.5
2024/05/09 14:47:23.000   28.269411025  -16.481004056  1433.5451   1   6   0.0030   0.0029   0.0514   0.0023  -0.0043   0.0054  -7.00  151.6
2024/05/09 14:47:24.000   28.269411025  -16.481004057  1433.5453   1   6   0.0030   0.0029   0.0515   0.0023  -0.0042   0.0055  -6.00  149.7
2024/05/09 14:47:25.000   28.269411024  -16.481004059  1433.5453   1   6   0.0030   0.0030   0.0516   0.0023  -0.0042   0.0055  -5.00  147.1
2024/05/09 14:47:26.000   28.269411022  -16.481004061  1433.5450   1   6   0.0030   0.0030   0.0517   0.0023  -0.0042   0.0056  -4.00  142.3
2024/05/09 14:47:27.000   28.269411021  -16.481004063  1433.5450   1   6   0.0030   0.0030   0.0518   0.0024  -0.0041   0.0057  -3.00  135.3
2024/05/09 14:47:28.000   28.269411019  -16.481004066  1433.5447   1   6   0.0031   0.0030   0.0519   0.0024  -0.0040   0.0058  -2.00  115.1
2024/05/09 14:47:29.000   28.269411017  -16.481004069  1433.5440   1   6   0.0031   0.0030   0.0521   0.0024  -0.0040   0.0059  -1.00   75.2
2024/05/09 14:47:30.000   28.269411086  -16.481003988  1433.5573   1   6   0.0015   0.0021   0.0505   0.0003  -0.0060   0.0020   0.00   79.3
2024/05/09 14:47:31.000   28.269411086  -16.481003989  1433.5579   1   6   0.0015   0.0021   0.0506   0.0003  -0.0060   0.0021   1.00   80.6
2024/05/09 14:47:32.000   28.269411086  -16.481003990  1433.5582   1   6   0.0015   0.0021   0.0507   0.0003  -0.0060   0.0021   2.00   81.3
2024/05/09 14:47:33.000   28.269411087  -16.481003991  1433.5590   1   6   0.0015   0.0021   0.0508   0.0003  -0.0061   0.0021   3.00   82.1
2024/05/09 14:47:34.000   28.269411087  -16.481003992  1433.5599   1   6   0.0015   0.0021   0.0509   0.0002  -0.0061   0.0022   4.00   82.4
2024/05/09 14:47:35.000   28.269411087  -16.481003993  1433.5606   1   6   0.0015   0.0021   0.0510   0.0002  -0.0061   0.0022   5.00   82.6
2024/05/09 14:47:36.000   28.269411087  -16.481003993  1433.5617   1   6   0.0015   0.0021   0.0511   0.0002  -0.0061   0.0022   6.00   82.9
2024/05/09 14:47:37.000   28.269411087  -16.481003994  1433.5623   1   6   0.0015   0.0021   0.0511   0.0002  -0.0061   0.0022   7.00   82.8
2024/05/09 14:47:38.000   28.269411088  -16.481003995  1433.5632   1   6   0.0015   0.0021   0.0511   0.0002  -0.0061   0.0023   8.00   82.8
2024/05/09 14:47:39.000   28.269411088  -16.481003995  1433.5639   1   6   0.0015   0.0021   0.0512   0.0002  -0.0061   0.0023   9.00   82.5
2024/05/09 14:47:40.000   28.269411088  -16.481003995  1433.5646   1   6   0.0015   0.0021   0.0512   0.0002  -0.0061   0.0023  10.00   81.8
2024/05/09 14:47:41.000   28.269411088  -16.481003996  1433.5650   1   6   0.0015   0.0021   0.0512   0.0002  -0.0061   0.0023  11.00   80.9
2024/05/09 14:47:42.000   28.269411088  -16.481003996  1433.5654   1   6   0.0015   0.0021   0.0512   0.0002  -0.0062   0.0023  12.00   80.0
2024/05/09 14:47:43.000   28.269411088  -16.481003996  1433.5660   1   6   0.0015   0.0021   0.0512   0.0002  -0.0062   0.0023  13.00   79.4
2024/05/09 14:47:44.000   28.269411088  -16.481003997  1433.5664   1   6   0.0015   0.0021   0.0512   0.0002  -0.0062   0.0023  14.00   78.4
2024/05/09 14:47:45.000   28.269411088  -16.481003997  1433.5670   1   6   0.0015   0.0021   0.0512   0.0002  -0.0062   0.0023  15.00   77.6
2024/05/09 14:47:46.000   28.269411088  -16.481003997  1433.5674   1   6   0.0015   0.0021   0.0512   0.0002  -0.0062   0.0023 -14.00   76.7
2024/05/09 14:47:47.000   28.269411088  -16.481003997  1433.5679   1   6   0.0015   0.0021   0.0512   0.0002  -0.0062   0.0023 -13.00   75.9
2024/05/09 14:47:48.000   28.269411089  -16.481003998  1433.5685   1   6   0.0015   0.0021   0.0513   0.0002  -0.0062   0.0024 -12.00   75.1
2024/05/09 14:47:49.000   28.269411089  -16.481003998  1433.5690   1   6   0.0015   0.0021   0.0513   0.0001  -0.0062   0.0024 -11.00   73.9
2024/05/09 14:47:50.000   28.269411089  -16.481003998  1433.5695   1   6   0.0015   0.0021   0.0513   0.0001  -0.0062   0.0024 -10.00   72.7
2024/05/09 14:47:51.000   28.269411089  -16.481003999  1433.5701   1   6   0.0015   0.0021   0.0513   0.0001  -0.0062   0.0024  -9.00   71.8
2024/05/09 14:47:52.000   28.269411089  -16.481003999  1433.5708   1   6   0.0015   0.0021   0.0513   0.0001  -0.0062   0.0024  -8.00   70.6
2024/05/09 14:47:53.000   28.269411089  -16.481004000  1433.5717   1   6   0.0015   0.0021   0.0513   0.0001  -0.0062   0.0024  -7.00   68.7
2024/05/09 14:47:54.000   28.269411089  -16.481004000  1433.5726   1   6   0.0015   0.0021   0.0514   0.0001  -0.0062   0.0024  -6.00   65.8
2024/05/09 14:47:55.000   28.269411090  -16.481004001  1433.5736   1   6   0.0015   0.0021   0.0514   0.0001  -0.0062   0.0024  -5.00   62.3
2024/05/09 14:47:56.000   28.269411090  -16.481004002  1433.5747   1   6   0.0015   0.0021   0.0515  -0.0000  -0.0062   0.0025  -4.00   57.8
2024/05/09 14:47:57.000   28.269411090  -16.481004003  1433.5756   1   6   0.0015   0.0021   0.0515  -0.0001  -0.0063   0.0025  -3.00   49.0
2024/05/09 14:47:58.000   28.269411090  -16.481004004  1433.5770   1   6   0.0015   0.0021   0.0516  -0.0001  -0.0063   0.0025  -2.00   37.4
2024/05/09 14:47:59.000   28.269411091  -16.481004005  1433.5787   1   6   0.0015   0.0021   0.0517  -0.0001  -0.0063   0.0026  -1.00   22.3
2024/05/09 14:48:00.000   28.269411088  -16.481003992  1433.5632   1   6   0.0015   0.0021   0.0514   0.0002  -0.0060   0.0024   0.00   90.5
2024/05/09 14:48:01.000   28.269411088  -16.481003993  1433.5645   1   6   0.0015   0.0021   0.0516   0.0002  -0.0061   0.0025   1.00   91.9
2024/05/09 14:48:02.000   28.269411088  -16.481003994  1433.5656   1   6   0.0015   0.0021   0.0517   0.0002  -0.0061   0.0025   2.00   93.5
2024/05/09 14:48:03.000   28.269411089  -16.481003995  1433.5672   1   6   0.0015   0.0021   0.0517   0.0002  -0.0061   0.0025   3.00   95.6
2024/05/09 14:48:04.000   28.269411089  -16.481003996  1433.5692   1   6   0.0015   0.0021   0.0518   0.0002  -0.0061   0.0026   4.00   96.6
2024/05/09 14:48:05.000   28.269411089  -16.481003997  1433.5708   1   6   0.0015   0.0021   0.0519   0.0002  -0.0061   0.0026   5.00   97.3
2024/05/09 14:48:06.000   28.269411090  -16.481003998  1433.5718   1   6   0.0015   0.0021   0.0519   0.0001  -0.0061   0.0026   6.00   98.1
2024/05/09 14:48:07.000   28.269411083  -16.481003997  1433.6056   1   6   0.0015   0.0019   0.0487   0.0005  -0.0058   0.0031   7.00    3.5
2024/05/09 14:48:08.000   28.269411083  -16.481003997  1433.6060   1   6   0.0015   0.0019   0.0487   0.0005  -0.0058   0.0031   8.00    3.5
2024/05/09 14:48:09.000   28.269411083  -16.481003997  1433.6064   1   6   0.0015   0.0019   0.0487   0.0005  -0.0057   0.0032   9.00    3.5
2024/05/09 14:48:10.000   28.269411083  -16.481003997  1433.6065   1   6   0.0015   0.0019   0.0487   0.0005  -0.0057   0.0032  10.00    3.5
2024/05/09 14:48:11.000   28.269411083  -16.481003997  1433.6068   1   6   0.0015   0.0019   0.0487   0.0005  -0.0057   0.0032  11.00    3.5
2024/05/09 14:48:12.000   28.269411083  -16.481003997  1433.6070   1   6   0.0015   0.0019   0.0486   0.0005  -0.0057   0.0032  12.00    3.5
2024/05/09 14:48:13.000   28.269411083  -16.481003997  1433.6072   1   6   0.0015   0.0019   0.0486   0.0005  -0.0057   0.0032  13.00    3.5
2024/05/09 14:48:14.000   28.269411083  -16.481003997  1433.6073   1   6   0.0015   0.0019   0.0486   0.0005  -0.0057   0.0032  14.00    3.5
2024/05/09 14:48:15.000   28.269411083  -16.481003997  1433.6075   1   6   0.0015   0.0019   0.0486   0.0005  -0.0057   0.0032 -15.00    3.5
2024/05/09 14:48:16.000   28.269411083  -16.481003997  1433.6075   1   6   0.0015   0.0019   0.0486   0.0005  -0.0057   0.0032 -14.00    3.5
2024/05/09 14:48:17.000   28.269411083  -16.481003997  1433.6076   1   6   0.0015   0.0019   0.0486   0.0005  -0.0057   0.0032 -13.00    3.6
2024/05/09 14:48:18.000   28.269411083  -16.481003997  1433.6075   1   6   0.0015   0.0019   0.0486   0.0005  -0.0057   0.0032 -12.00    3.6
2024/05/09 14:48:19.000   28.269411081  -16.481003998  1433.6026   1   6   0.0014   0.0019   0.0485   0.0005  -0.0057   0.0031 -11.00    3.7
2024/05/09 14:48:20.000   28.269411081  -16.481003998  1433.6025   1   6   0.0014   0.0019   0.0485   0.0005  -0.0057   0.0031 -10.00    3.7
2024/05/09 14:48:21.000   28.269411081  -16.481003998  1433.6023   1   6   0.0014   0.0019   0.0484   0.0005  -0.0057   0.0031  -9.00    3.7
2024/05/09 14:48:22.000   28.269411080  -16.481003998  1433.6022   1   6   0.0014   0.0019   0.0484   0.0005  -0.0057   0.0031  -8.00    3.7
2024/05/09 14:48:23.000   28.269411081  -16.481003998  1433.6019   1   6   0.0014   0.0019   0.0484   0.0005  -0.0057   0.0031  -7.00    3.7
2024/05/09 14:48:24.000   28.269411080  -16.481003998  1433.6019   1   6   0.0014   0.0019   0.0484   0.0005  -0.0057   0.0031  -6.00    3.7
2024/05/09 14:48:25.000   28.269411080  -16.481003998  1433.6018   1   6   0.0014   0.0019   0.0484   0.0005  -0.0056   0.0031  -5.00    3.6
2024/05/09 14:48:26.000   28.269411080  -16.481003998  1433.6018   1   6   0.0014   0.0019   0.0483   0.0005  -0.0056   0.0031  -4.00    3.5
2024/05/09 14:48:27.000   28.269411084  -16.481003997  1433.6118   1   6   0.0013   0.0019   0.0455   0.0003  -0.0059  -0.0010  -3.00    4.8
2024/05/09 14:48:28.000   28.269411084  -16.481003997  1433.6128   1   6   0.0013   0.0019   0.0454   0.0003  -0.0059  -0.0010  -2.00    6.7
2024/05/09 14:48:29.000   28.269411084  -16.481003997  1433.6133   1   6   0.0013   0.0019   0.0454   0.0003  -0.0059  -0.0010  -1.00    8.5
2024/05/09 14:48:30.000   28.269411082  -16.481003987  1433.6033   1   6   0.0013   0.0018   0.0452   0.0004  -0.0057  -0.0012   0.00   10.3
2024/05/09 14:48:31.000   28.269411085  -16.481004000  1433.6205   1   6   0.0013   0.0019   0.0459   0.0002  -0.0061  -0.0006   1.00   19.6
2024/05/09 14:48:32.000   28.269411084  -16.481004000  1433.6200   1   6   0.0013   0.0019   0.0458   0.0002  -0.0061  -0.0006   2.00   22.0
2024/05/09 14:48:33.000   28.269411084  -16.481004000  1433.6205   1   6   0.0013   0.0019   0.0458   0.0002  -0.0061  -0.0007   3.00   24.1
2024/05/09 14:48:34.000   28.269411084  -16.481004000  1433.6211   1   6   0.0013   0.0019   0.0458   0.0002  -0.0061  -0.0007   4.00   26.3
2024/05/09 14:48:35.000   28.269411084  -16.481004000  1433.6212   1   6   0.0013   0.0019   0.0458   0.0002  -0.0061  -0.0007   5.00   28.5
2024/05/09 14:48:36.000   28.269411084  -16.481004000  1433.6213   1   6   0.0013   0.0019   0.0458   0.0002  -0.0061  -0.0007   6.00   30.2
2024/05/09 14:48:37.000   28.269411084  -16.481004000  1433.6216   1   6   0.0013   0.0019   0.0458   0.0002  -0.0060  -0.0007   7.00   32.6
2024/05/09 14:48:38.000   28.269411084  -16.481004000  1433.6217   1   6   0.0013   0.0019   0.0457   0.0002  -0.0060  -0.0007   8.00   34.7
2024/05/09 14:48:39.000   28.269411084  -16.481004000  1433.6218   1   6   0.0013   0.0019   0.0457   0.0002  -0.0060  -0.0007   9.00   37.0
2024/05/09 14:48:40.000   28.269411084  -16.481004000  1433.6220   1   6   0.0013   0.0019   0.0457   0.0002  -0.0060  -0.0007  10.00   39.3
2024/05/09 14:48:41.000   28.269411084  -16.481004000  1433.6221   1   6   0.0013   0.0019   0.0457   0.0002  -0.0060  -0.0007  11.00   41.6
2024/05/09 14:48:42.000   28.269411084  -16.481004000  1433.6223   1   6   0.0013   0.0019   0.0457   0.0002  -0.0060  -0.0007  12.00   44.3
2024/05/09 14:48:43.000   28.269411084  -16.481004000  1433.6224   1   6   0.0013   0.0019   0.0457   0.0002  -0.0060  -0.0007  13.00   46.8
2024/05/09 14:48:44.000   28.269411084  -16.481004000  1433.6225   1   6   0.0013   0.0019   0.0457   0.0002  -0.0060  -0.0007  14.00   49.2
2024/05/09 14:48:45.000   28.269411084  -16.481004000  1433.6227   1   6   0.0013   0.0019   0.0457   0.0002  -0.0060  -0.0006 -15.00   51.7
2024/05/09 14:48:46.000   28.269411084  -16.481004000  1433.6227   1   6   0.0013   0.0019   0.0457   0.0002  -0.0060  -0.0006 -14.00   54.0
2024/05/09 14:48:47.000   28.269411084  -16.481004000  1433.6228   1   6   0.0013   0.0019   0.0457   0.0002  -0.0060  -0.0006 -13.00   56.5
2024/05/09 14:48:48.000   28.269411084  -16.481004000  1433.6228   1   6   0.0013   0.0019   0.0456   0.0002  -0.0060  -0.0006 -12.00   58.9
2024/05/09 14:48:49.000   28.269411084  -16.481004000  1433.6227   1   6   0.0013   0.0019   0.0456   0.0002  -0.0060  -0.0006 -11.00   60.8
2024/05/09 14:48:50.000   28.269411084  -16.481004000  1433.6228   1   6   0.0013   0.0019   0.0456   0.0002  -0.0060  -0.0006 -10.00   62.8
2024/05/09 14:48:51.000   28.269411084  -16.481004000  1433.6229   1   6   0.0013   0.0019   0.0456   0.0002  -0.0060  -0.0006  -9.00   64.8
2024/05/09 14:48:52.000   28.269411084  -16.481004000  1433.6230   1   6   0.0013   0.0019   0.0456   0.0002  -0.0060  -0.0006  -8.00   66.6
2024/05/09 14:48:53.000   28.269411084  -16.481004000  1433.6229   1   6   0.0013   0.0019   0.0456   0.0002  -0.0060  -0.0006  -7.00   68.0
2024/05/09 14:48:54.000   28.269411084  -16.481004000  1433.6228   1   6   0.0013   0.0019   0.0456   0.0002  -0.0060  -0.0006  -6.00   68.8
2024/05/09 14:48:55.000   28.269411084  -16.481004000  1433.6230   1   6   0.0013   0.0019   0.0455   0.0002  -0.0059  -0.0007  -5.00   70.8
2024/05/09 14:48:56.000   28.269411084  -16.481004000  1433.6230   1   6   0.0013   0.0019   0.0455   0.0002  -0.0059  -0.0007  -4.00   72.3
2024/05/09 14:48:57.000   28.269411084  -16.481003999  1433.6227   1   6   0.0013   0.0019   0.0455   0.0003  -0.0059  -0.0007  -3.00   72.9
2024/05/09 14:48:58.000   28.269411084  -16.481003999  1433.6228   1   6   0.0013   0.0019   0.0455   0.0003  -0.0059  -0.0007  -2.00   73.9
2024/05/09 14:48:59.000   28.269411084  -16.481003999  1433.6231   1   6   0.0013   0.0019   0.0454   0.0003  -0.0059  -0.0007  -1.00   75.8
2024/05/09 14:49:00.000   28.269411083  -16.481003991  1433.6153   1   6   0.0013   0.0018   0.0452   0.0003  -0.0058  -0.0009   0.00   77.1
2024/05/09 14:49:01.000   28.269411085  -16.481004003  1433.6302   1   6   0.0013   0.0019   0.0458   0.0002  -0.0061   0.0003   1.00   46.4
2024/05/09 14:49:02.000   28.269411085  -16.481004003  1433.6302   1   6   0.0013   0.0019   0.0458   0.0002  -0.0061   0.0003   2.00   75.6
2024/05/09 14:49:03.000   28.269411085  -16.481004003  1433.6300   1   6   0.0013   0.0019   0.0457   0.0002  -0.0061   0.0002   3.00   89.0
2024/05/09 14:49:04.000   28.269411085  -16.481004003  1433.6300   1   6   0.0013   0.0019   0.0457   0.0002  -0.0061   0.0002   4.00   97.8
2024/05/09 14:49:05.000   28.269411085  -16.481004003  1433.6298   1   6   0.0013   0.0019   0.0457   0.0002  -0.0061   0.0001   5.00  100.7
2024/05/09 14:49:06.000   28.269411085  -16.481004003  1433.6299   1   6   0.0013   0.0019   0.0457   0.0002  -0.0060   0.0001   6.00  103.5
2024/05/09 14:49:07.000   28.269411085  -16.481004003  1433.6297   1   6   0.0013   0.0019   0.0457   0.0002  -0.0060   0.0001   7.00  106.6
2024/05/09 14:49:08.000   28.269411085  -16.481004003  1433.6297   1   6   0.0013   0.0019   0.0457   0.0002  -0.0060   0.0001   8.00  109.1
2024/05/09 14:49:09.000   28.269411085  -16.481004003  1433.6298   1   6   0.0013   0.0019   0.0457   0.0002  -0.0060   0.0001   9.00  111.9
2024/05/09 14:49:10.000   28.269411085  -16.481004003  1433.6297   1   6   0.0013   0.0019   0.0457   0.0002  -0.0060   0.0002  10.00  114.1
2024/05/09 14:49:11.000   28.269411085  -16.481004003  1433.6297   1   6   0.0013   0.0019   0.0457   0.0002  -0.0060   0.0002  11.00  116.3
2024/05/09 14:49:12.000   28.269411085  -16.481004003  1433.6298   1   6   0.0013   0.0019   0.0457   0.0002  -0.0060   0.0002  12.00  118.8
2024/05/09 14:49:13.000   28.269411085  -16.481004003  1433.6298   1   6   0.0013   0.0019   0.0456   0.0002  -0.0060   0.0002  13.00  121.7
2024/05/09 14:49:14.000   28.269411085  -16.481004003  1433.6298   1   6   0.0013   0.0019   0.0456   0.0002  -0.0060   0.0002  14.00  124.7
2024/05/09 14:49:15.000   28.269411085  -16.481004003  1433.6298   1   6   0.0013   0.0019   0.0456   0.0002  -0.0060   0.0003 -15.00  127.3
2024/05/09 14:49:16.000   28.269411085  -16.481004003  1433.6298   1   6   0.0013   0.0019   0.0456   0.0002  -0.0060   0.0003 -14.00  130.3
2024/05/09 14:49:17.000   28.269411085  -16.481004003  1433.6299   1   6   0.0013   0.0019   0.0456   0.0002  -0.0060   0.0003 -13.00  132.9
2024/05/09 14:49:18.000   28.269411085  -16.481004003  1433.6298   1   6   0.0013   0.0019   0.0456   0.0002  -0.0060   0.0003 -12.00  135.1
2024/05/09 14:49:19.000   28.269411085  -16.481004003  1433.6298   1   6   0.0013   0.0019   0.0456   0.0002  -0.0060   0.0003 -11.00  137.2
2024/05/09 14:49:20.000   28.269411085  -16.481004003  1433.6296   1   6   0.0013   0.0019   0.0456   0.0002  -0.0060   0.0003 -10.00  138.7
2024/05/09 14:49:21.000   28.269411085  -16.481004003  1433.6294   1   6   0.0013   0.0019   0.0456   0.0002  -0.0060   0.0003  -9.00  140.6
2024/05/09 14:49:22.000   28.269411085  -16.481004003  1433.6291   1   6   0.0013   0.0019   0.0455   0.0002  -0.0060   0.0003  -8.00  140.5
2024/05/09 14:49:23.000   28.269411085  -16.481004003  1433.6289   1   6   0.0013   0.0019   0.0455   0.0002  -0.0060   0.0003  -7.00  140.6
2024/05/09 14:49:24.000   28.269411085  -16.481004003  1433.6287   1   6   0.0013   0.0019   0.0455   0.0002  -0.0059   0.0003  -6.00  141.1
2024/05/09 14:49:25.000   28.269411085  -16.481004002  1433.6285   1   6   0.0013   0.0019   0.0455   0.0002  -0.0059   0.0003  -5.00  141.1
2024/05/09 14:49:26.000   28.269411085  -16.481004002  1433.6284   1   6   0.0012   0.0019   0.0455   0.0002  -0.0059   0.0003  -4.00  140.5
2024/05/09 14:49:27.000   28.269411085  -16.481004002  1433.6281   1   6   0.0012   0.0019   0.0454   0.0002  -0.0059   0.0002  -3.00  137.1
2024/05/09 14:49:28.000   28.269411085  -16.481004002  1433.6283   1   6   0.0012   0.0019   0.0454   0.0002  -0.0059   0.0002  -2.00  134.8
2024/05/09 14:49:29.000   28.269411085  -16.481004002  1433.6282   1   6   0.0012   0.0019   0.0454   0.0002  -0.0059   0.0002  -1.00  131.7
2024/05/09 14:49:30.000   28.269411083  -16.481003991  1433.6195   1   6   0.0012   0.0018   0.0453   0.0003  -0.0058  -0.0005   0.00  129.6
2024/05/09 14:49:31.000   28.269411085  -16.481004002  1433.6316   1   6   0.0012   0.0019   0.0457   0.0000  -0.0061   0.0008   1.00   45.6
2024/05/09 14:49:32.000   28.269411085  -16.481004001  1433.6313   1   6   0.0012   0.0019   0.0457   0.0001  -0.0061   0.0008   2.00   65.8
2024/05/09 14:49:33.000   28.269411085  -16.481004001  1433.6313   1   6   0.0012   0.0019   0.0457   0.0001  -0.0060   0.0008   3.00   80.6
2024/05/09 14:49:34.000   28.269411085  -16.481004001  1433.6310   1   6   0.0012   0.0019   0.0457   0.0001  -0.0060   0.0007   4.00   90.5
2024/05/09 14:49:35.000   28.269411085  -16.481004001  1433.6308   1   6   0.0012   0.0019   0.0457   0.0001  -0.0060   0.0007   5.00   94.1
2024/05/09 14:49:36.000   28.269411085  -16.481004001  1433.6309   1   6   0.0012   0.0019   0.0456   0.0001  -0.0060   0.0007   6.00   95.3
2024/05/09 14:49:37.000   28.269411085  -16.481004001  1433.6308   1   6   0.0012   0.0019   0.0456   0.0001  -0.0060   0.0007   7.00   96.7
2024/05/09 14:49:38.000   28.269411085  -16.481004001  1433.6308   1   6   0.0012   0.0019   0.0456   0.0001  -0.0060   0.0007   8.00   96.6
2024/05/09 14:49:39.000   28.269411085  -16.481004001  1433.6308   1   6   0.0012   0.0019   0.0456   0.0001  -0.0060   0.0007   9.00   96.6
2024/05/09 14:49:40.000   28.269411085  -16.481004001  1433.6307   1   6   0.0012   0.0019   0.0456   0.0001  -0.0060   0.0007  10.00   97.4
2024/05/09 14:49:41.000   28.269411085  -16.481004000  1433.6307   1   6   0.0012   0.0019   0.0456   0.0001  -0.0060   0.0008  11.00   98.4
2024/05/09 14:49:42.000   28.269411085  -16.481004000  1433.6307   1   6   0.0012   0.0019   0.0456   0.0001  -0.0060   0.0008  12.00   99.5
2024/05/09 14:49:43.000   28.269411085  -16.481004000  1433.6307   1   6   0.0012   0.0019   0.0456   0.0001  -0.0060   0.0008  13.00  100.7
2024/05/09 14:49:44.000   28.269411085  -16.481004000  1433.6307   1   6   0.0012   0.0019   0.0456   0.0001  -0.0060   0.0008  14.00  102.2
2024/05/09 14:49:45.000   28.269411085  -16.481004000  1433.6307   1   6   0.0012   0.0019   0.0456   0.0001  -0.0060   0.0008 -15.00  103.5
2024/05/09 14:49:46.000   28.269411085  -16.481004000  1433.6307   1   6   0.0012   0.0019   0.0456   0.0001  -0.0060   0.0008 -14.00  104.5
2024/05/09 14:49:47.000   28.269411085  -16.481004000  1433.6306   1   6   0.0012   0.0019   0.0456   0.0001  -0.0060   0.0008 -13.00  105.2
2024/05/09 14:49:48.000   28.269411085  -16.481004000  1433.6306   1   6   0.0012   0.0019   0.0456   0.0001  -0.0060   0.0008 -12.00  106.2
2024/05/09 14:49:49.000   28.269411085  -16.481004000  1433.6306   1   6   0.0012   0.0019   0.0455   0.0001  -0.0060   0.0008 -11.00  107.0
2024/05/09 14:49:50.000   28.269411085  -16.481004000  1433.6305   1   6   0.0012   0.0019   0.0455   0.0001  -0.0060   0.0008 -10.00  108.0
2024/05/09 14:49:51.000   28.269411085  -16.481004000  1433.6304   1   6   0.0012   0.0019   0.0455   0.0001  -0.0059   0.0008  -9.00  108.4
2024/05/09 14:49:52.000   28.269411085  -16.481004000  1433.6302   1   6   0.0012   0.0019   0.0455   0.0001  -0.0059   0.0008  -8.00  108.1
2024/05/09 14:49:53.000   28.269411085  -16.481004000  1433.6301   1   6   0.0012   0.0018   0.0455   0.0001  -0.0059   0.0008  -7.00  108.1
2024/05/09 14:49:54.000   28.269411085  -16.481004000  1433.6298   1   6   0.0012   0.0018   0.0455   0.0001  -0.0059   0.0008  -6.00  108.1
2024/05/09 14:49:55.000   28.269411085  -16.481004000  1433.6294   1   6   0.0012   0.0018   0.0455   0.0001  -0.0059   0.0008  -5.00  107.4
2024/05/09 14:49:56.000   28.269411085  -16.481004000  1433.6295   1   6   0.0012   0.0018   0.0454   0.0001  -0.0059   0.0008  -4.00  108.0
2024/05/09 14:49:57.000   28.269411085  -16.481004000  1433.6292   1   6   0.0012   0.0018   0.0454   0.0001  -0.0059   0.0008  -3.00  109.5
2024/05/09 14:49:58.000   28.269411085  -16.481003999  1433.6285   1   6   0.0012   0.0018   0.0454   0.0001  -0.0059   0.0008  -2.00  107.4
2024/05/09 14:49:59.000   28.269411085  -16.481003999  1433.6284   1   6   0.0012   0.0018   0.0454   0.0001  -0.0059   0.0008  -1.00  107.1
2024/05/09 14:50:00.000   28.269411084  -16.481003991  1433.6227   1   6   0.0012   0.0018   0.0453   0.0002  -0.0058   0.0006   0.00  107.1
2024/05/09 14:50:01.000   28.269411087  -16.481004005  1433.6372   1   6   0.0012   0.0019   0.0457  -0.0001  -0.0060   0.0011   1.00   43.5
2024/05/09 14:50:02.000   28.269411086  -16.481004004  1433.6364   1   6   0.0012   0.0019   0.0456  -0.0001  -0.0060   0.0011   2.00   66.7
2024/05/09 14:50:03.000   28.269411086  -16.481004004  1433.6359   1   6   0.0012   0.0019   0.0456  -0.0001  -0.0060   0.0011   3.00   81.7
2024/05/09 14:50:04.000   28.269411086  -16.481004004  1433.6354   1   6   0.0012   0.0019   0.0456  -0.0001  -0.0060   0.0011   4.00   92.3
2024/05/09 14:50:05.000   28.269411086  -16.481004004  1433.6351   1   6   0.0012   0.0019   0.0456  -0.0001  -0.0060   0.0011   5.00   98.6
2024/05/09 14:50:06.000   28.269411086  -16.481004004  1433.6347   1   6   0.0012   0.0019   0.0456  -0.0001  -0.0060   0.0011   6.00  102.5
2024/05/09 14:50:07.000   28.269411086  -16.481004004  1433.6346   1   6   0.0012   0.0019   0.0456  -0.0001  -0.0060   0.0011   7.00  105.8
2024/05/09 14:50:08.000   28.269411086  -16.481004004  1433.6345   1   6   0.0012   0.0018   0.0456  -0.0001  -0.0060   0.0011   8.00  109.1
2024/05/09 14:50:09.000   28.269411086  -16.481004004  1433.6344   1   6   0.0012   0.0018   0.0456  -0.0001  -0.0060   0.0011   9.00  111.9
2024/05/09 14:50:10.000   28.269411086  -16.481004004  1433.6343   1   6   0.0012   0.0018   0.0456  -0.0001  -0.0060   0.0011  10.00  113.7
2024/05/09 14:50:11.000   28.269411086  -16.481004004  1433.6342   1   6   0.0012   0.0018   0.0456  -0.0001  -0.0060   0.0011  11.00  115.5
2024/05/09 14:50:12.000   28.269411086  -16.481004004  1433.6342   1   6   0.0012   0.0018   0.0455  -0.0001  -0.0060   0.0011  12.00  117.5
2024/05/09 14:50:13.000   28.269411086  -16.481004004  1433.6341   1   6   0.0012   0.0018   0.0455  -0.0001  -0.0060   0.0011  13.00  119.1
2024/05/09 14:50:14.000   28.269411086  -16.481004004  1433.6341   1   6   0.0012   0.0018   0.0455  -0.0001  -0.0060   0.0011  14.00  120.4
2024/05/09 14:50:15.000   28.269411086  -16.481004004  1433.6340   1   6   0.0012   0.0018   0.0455  -0.0001  -0.0060   0.0011 -15.00  121.6
2024/05/09 14:50:16.000   28.269411086  -16.481004003  1433.6340   1   6   0.0012   0.0018   0.0455  -0.0001  -0.0059   0.0011 -14.00  122.4
2024/05/09 14:50:17.000   28.269411086  -16.481004003  1433.6340   1   6   0.0012   0.0018   0.0455  -0.0001  -0.0059   0.0011 -13.00  124.0
2024/05/09 14:50:18.000   28.269411086  -16.481004003  1433.6339   1   6   0.0012   0.0018   0.0455  -0.0001  -0.0059   0.0011 -12.00  125.7
2024/05/09 14:50:19.000   28.269411086  -16.481004003  1433.6339   1   6   0.0012   0.0018   0.0455  -0.0001  -0.0059   0.0011 -11.00  127.4
2024/05/09 14:50:20.000   28.269411086  -16.481004003  1433.6338   1   6   0.0012   0.0018   0.0455  -0.0001  -0.0059   0.0011 -10.00  128.7
2024/05/09 14:50:21.000   28.269411086  -16.481004003  1433.6337   1   6   0.0012   0.0018   0.0455  -0.0001  -0.0059   0.0011  -9.00  130.4
2024/05/09 14:50:22.000   28.269411086  -16.481004003  1433.6335   1   6   0.0012   0.0018   0.0455  -0.0001  -0.0059   0.0011  -8.00  131.1
2024/05/09 14:50:23.000   28.269411086  -16.481004003  1433.6334   1   6   0.0012   0.0018   0.0455  -0.0001  -0.0059   0.0011  -7.00  131.9
2024/05/09 14:50:24.000   28.269411086  -16.481004003  1433.6332   1   6   0.0012   0.0018   0.0454  -0.0001  -0.0059   0.0011  -6.00  132.6
2024/05/09 14:50:25.000   28.269411086  -16.481004003  1433.6330   1   6   0.0012   0.0018   0.0454  -0.0001  -0.0059   0.0011  -5.00  133.0
2024/05/09 14:50:26.000   28.269411086  -16.481004003  1433.6327   1   6   0.0012   0.0018   0.0454  -0.0001  -0.0059   0.0011  -4.00  134.0
2024/05/09 14:50:27.000   28.269411086  -16.481004003  1433.6324   1   6   0.0012   0.0018   0.0454  -0.0001  -0.0059   0.0011  -3.00  134.2
2024/05/09 14:50:28.000   28.269411086  -16.481004003  1433.6321   1   6   0.0012   0.0018   0.0454  -0.0000  -0.0059   0.0011  -2.00  132.9
2024/05/09 14:50:29.000   28.269411086  -16.481004002  1433.6317   1   6   0.0012   0.0018   0.0454  -0.0000  -0.0059   0.0011  -1.00  131.5
2024/05/09 14:50:30.000   28.269411085  -16.481003997  1433.6288   1   6   0.0012   0.0018   0.0453   0.0002  -0.0058   0.0010   0.00  131.3
2024/05/09 14:50:31.000   28.269411088  -16.481004009  1433.6402   1   6   0.0012   0.0018   0.0456  -0.0002  -0.0060   0.0013   1.00   41.4
2024/05/09 14:50:32.000   28.269411088  -16.481004009  1433.6397   1   6   0.0012   0.0018   0.0456  -0.0002  -0.0060   0.0013   2.00   69.2
2024/05/09 14:50:33.000   28.269411088  -16.481004009  1433.6396   1   6   0.0012   0.0018   0.0456  -0.0002  -0.0060   0.0013   3.00   88.2
2024/05/09 14:50:34.000   28.269411088  -16.481004009  1433.6393   1   6   0.0012   0.0018   0.0455  -0.0002  -0.0060   0.0013   4.00  105.5
2024/05/09 14:50:35.000   28.269411088  -16.481004008  1433.6390   1   6   0.0012   0.0018   0.0455  -0.0002  -0.0060   0.0013   5.00  114.7
2024/05/09 14:50:36.000   28.269411088  -16.481004008  1433.6389   1   6   0.0012   0.0018   0.0455  -0.0002  -0.0060   0.0013   6.00  119.9
2024/05/09 14:50:37.000   28.269411088  -16.481004008  1433.6387   1   6   0.0012   0.0018   0.0455  -0.0002  -0.0060   0.0013   7.00  123.7
2024/05/09 14:50:38.000   28.269411088  -16.481004008  1433.6386   1   6   0.0012   0.0018   0.0455  -0.0002  -0.0060   0.0013   8.00  128.1
2024/05/09 14:50:39.000   28.269411088  -16.481004008  1433.6385   1   6   0.0012   0.0018   0.0455  -0.0002  -0.0059   0.0013   9.00  132.6
2024/05/09 14:50:40.000   28.269411088  -16.481004008  1433.6384   1   6   0.0012   0.0018   0.0455  -0.0002  -0.0059   0.0013  10.00  136.7
2024/05/09 14:50:41.000   28.269411088  -16.481004008  1433.6383   1   6   0.0012   0.0018   0.0455  -0.0002  -0.0059   0.0013  11.00  139.4
2024/05/09 14:50:42.000   28.269411088  -16.481004008  1433.6383   1   6   0.0012   0.0018   0.0455  -0.0002  -0.0059   0.0013  12.00  142.8
2024/05/09 14:50:43.000   28.269411088  -16.481004008  1433.6382   1   6   0.0012   0.0018   0.0455  -0.0002  -0.0059   0.0013  13.00  145.6
2024/05/09 14:50:44.000   28.269411088  -16.481004008  1433.6382   1   6   0.0012   0.0018   0.0455  -0.0002  -0.0059   0.0013  14.00  148.3
2024/05/09 14:50:45.000   28.269411088  -16.481004008  1433.6381   1   6   0.0012   0.0018   0.0455  -0.0002  -0.0059   0.0013 -15.00  150.9
2024/05/09 14:50:46.000   28.269411088  -16.481004008  1433.6381   1   6   0.0012   0.0018   0.0455  -0.0002  -0.0059   0.0013 -14.00  154.0
2024/05/09 14:50:47.000   28.269411088  -16.481004008  1433.6381   1   6   0.0012   0.0018   0.0455  -0.0002  -0.0059   0.0013 -13.00  156.3
2024/05/09 14:50:48.000   28.269411088  -16.481004008  1433.6380   1   6   0.0012   0.0018   0.0455  -0.0002  -0.0059   0.0014 -12.00  159.1
2024/05/09 14:50:49.000   28.269411088  -16.481004008  1433.6380   1   6   0.0012   0.0018   0.0455  -0.0002  -0.0059   0.0014 -11.00  161.5
2024/05/09 14:50:50.000   28.269411088  -16.481004008  1433.6379   1   6   0.0012   0.0018   0.0454  -0.0002  -0.0059   0.0014 -10.00  163.2
2024/05/09 14:50:51.000   28.269411088  -16.481004008  1433.6379   1   6   0.0012   0.0018   0.0454  -0.0002  -0.0059   0.0014  -9.00  166.1
2024/05/09 14:50:52.000   28.269411088  -16.481004008  1433.6379   1   6   0.0012   0.0018   0.0454  -0.0002  -0.0059   0.0014  -8.00  168.9
2024/05/09 14:50:53.000   28.269411088  -16.481004008  1433.6377   1   6   0.0012   0.0018   0.0454  -0.0002  -0.0059   0.0014  -7.00  171.1
2024/05/09 14:50:54.000   28.269411088  -16.481004008  1433.6376   1   6   0.0012   0.0018   0.0454  -0.0002  -0.0059   0.0014  -6.00  173.0
2024/05/09 14:50:55.000   28.269411088  -16.481004008  1433.6374   1   6   0.0012   0.0018   0.0454  -0.0002  -0.0059   0.0014  -5.00  175.0
2024/05/09 14:50:56.000   28.269411088  -16.481004008  1433.6374   1   6   0.0012   0.0018   0.0454  -0.0002  -0.0059   0.0014  -4.00  177.1
2024/05/09 14:50:57.000   28.269411088  -16.481004008  1433.6377   1   6   0.0012   0.0018   0.0454  -0.0002  -0.0059   0.0014  -3.00  182.9
2024/05/09 14:50:58.000   28.269411088  -16.481004008  1433.6374   1   6   0.0012   0.0018   0.0453  -0.0001  -0.0058   0.0014  -2.00  187.8
2024/05/09 14:50:59.000   28.269411088  -16.481004008  1433.6369   1   6   0.0012   0.0018   0.0453  -0.0001  -0.0058   0.0014  -1.00  193.8
2024/05/09 14:51:00.000   28.269411087  -16.481004002  1433.6343   1   6   0.0012   0.0018   0.0453   0.0001  -0.0058   0.0013   0.00  196.0
2024/05/09 14:51:01.000   28.269411088  -16.481004008  1433.6403   1   6   0.0012   0.0018   0.0455  -0.0002  -0.0060   0.0015   1.00   44.9
2024/05/09 14:51:02.000   28.269411088  -16.481004008  1433.6399   1   6   0.0012   0.0018   0.0455  -0.0002  -0.0060   0.0015   2.00   76.9
2024/05/09 14:51:03.000   28.269411088  -16.481004008  1433.6397   1   6   0.0012   0.0018   0.0455  -0.0002  -0.0060   0.0015   3.00  104.2
2024/05/09 14:51:04.000   28.269411088  -16.481004008  1433.6396   1   6   0.0012   0.0018   0.0455  -0.0002  -0.0059   0.0015   4.00  126.3
2024/05/09 14:51:05.000   28.269411088  -16.481004008  1433.6394   1   6   0.0012   0.0018   0.0455  -0.0002  -0.0059   0.0015   5.00  139.7
2024/05/09 14:51:06.000   28.269411088  -16.481004008  1433.6393   1   6   0.0012   0.0018   0.0455  -0.0002  -0.0059   0.0015   6.00  149.7
2024/05/09 14:51:07.000   28.269411088  -16.481004008  1433.6391   1   6   0.0012   0.0018   0.0455  -0.0002  -0.0059   0.0015   7.00  158.2
2024/05/09 14:51:08.000   28.269411088  -16.481004008  1433.6390   1   6   0.0012   0.0018   0.0455  -0.0002  -0.0059   0.0015   8.00  165.7
2024/05/09 14:51:09.000   28.269411088  -16.481004008  1433.6390   1   6   0.0012   0.0018   0.0455  -0.0002  -0.0059   0.0015   9.00  170.4
2024/05/09 14:51:10.000   28.269411088  -16.481004008  1433.6389   1   6   0.0012   0.0018   0.0455  -0.0002  -0.0059   0.0015  10.00  174.7
2024/05/09 14:51:11.000   28.269411088  -16.481004008  1433.6389   1   6   0.0012   0.0018   0.0455  -0.0002  -0.0059   0.0015  11.00  178.6
2024/05/09 14:51:12.000   28.269411088  -16.481004008  1433.6389   1   6   0.0012   0.0018   0.0454  -0.0002  -0.0059   0.0015  12.00  182.2
2024/05/09 14:51:13.000   28.269411088  -16.481004008  1433.6388   1   6   0.0012   0.0018   0.0454  -0.0002  -0.0059   0.0015  13.00  185.7
2024/05/09 14:51:14.000   28.269411088  -16.481004008  1433.6388   1   6   0.0012   0.0018   0.0454  -0.0002  -0.0059   0.0016  14.00  189.1
2024/05/09 14:51:15.000   28.269411088  -16.481004008  1433.6388   1   6   0.0012   0.0018   0.0454  -0.0002  -0.0059   0.0016 -15.00  192.6
2024/05/09 14:51:16.000   28.269411088  -16.481004008  1433.6387   1   6   0.0012   0.0018   0.0454  -0.0002  -0.0059   0.0016 -14.00  196.2
2024/05/09 14:51:17.000   28.269411088  -16.481004008  1433.6387   1   6   0.0012   0.0018   0.0454  -0.0002  -0.0059   0.0016 -13.00  199.1
2024/05/09 14:51:18.000   28.269411088  -16.481004008  1433.6386   1   6   0.0012   0.0018   0.0454  -0.0002  -0.0059   0.0016 -12.00  202.3
2024/05/09 14:51:19.000   28.269411088  -16.481004008  1433.6385   1   6   0.0012   0.0018   0.0454  -0.0002  -0.0059   0.0016 -11.00  205.4
2024/05/09 14:51:20.000   28.269411088  -16.481004008  1433.6384   1   6   0.0012   0.0018   0.0454  -0.0002  -0.0059   0.0016 -10.00  207.9
2024/05/09 14:51:21.000   28.269411088  -16.481004008  1433.6382   1   6   0.0012   0.0018   0.0454  -0.0002  -0.0059   0.0016  -9.00  210.4
2024/05/09 14:51:22.000   28.269411088  -16.481004008  1433.6380   1   6   0.0012   0.0018   0.0454  -0.0002  -0.0059   0.0016  -8.00  210.2
2024/05/09 14:51:23.000   28.269411088  -16.481004008  1433.6378   1   6   0.0012   0.0018   0.0454  -0.0002  -0.0059   0.0016  -7.00  210.7
2024/05/09 14:51:24.000   28.269411088  -16.481004008  1433.6375   1   6   0.0012   0.0018   0.0454  -0.0002  -0.0058   0.0016  -6.00  210.8
2024/05/09 14:51:25.000   28.269411088  -16.481004007  1433.6371   1   6   0.0012   0.0018   0.0454  -0.0002  -0.0058   0.0016  -5.00  210.1
2024/05/09 14:51:26.000   28.269411088  -16.481004007  1433.6367   1   6   0.0012   0.0018   0.0453  -0.0002  -0.0058   0.0016  -4.00  209.0
2024/05/09 14:51:27.000   28.269411088  -16.481004007  1433.6362   1   6   0.0012   0.0018   0.0453  -0.0002  -0.0058   0.0016  -3.00  204.4
2024/05/09 14:51:28.000   28.269411088  -16.481004007  1433.6357   1   6   0.0012   0.0018   0.0453  -0.0002  -0.0058   0.0016  -2.00  204.5
2024/05/09 14:51:29.000   28.269411088  -16.481004007  1433.6349   1   6   0.0012   0.0018   0.0453  -0.0002  -0.0058   0.0016  -1.00  199.9
2024/05/09 14:51:30.000   28.269411086  -16.481004000  1433.6334   1   6   0.0012   0.0017   0.0453  -0.0001  -0.0058   0.0016   0.00  198.5
2024/05/09 14:51:31.000   28.269411088  -16.481004007  1433.6387   1   6   0.0012   0.0018   0.0454  -0.0003  -0.0059   0.0017   1.00   42.2
2024/05/09 14:51:32.000   28.269411088  -16.481004007  1433.6386   1   6   0.0012   0.0018   0.0454  -0.0003  -0.0059   0.0017   2.00   71.8
2024/05/09 14:51:33.000   28.269411088  -16.481004006  1433.6379   1   6   0.0012   0.0018   0.0454  -0.0003  -0.0059   0.0017   3.00   94.6
2024/05/09 14:51:34.000   28.269411088  -16.481004006  1433.6377   1   6   0.0012   0.0018   0.0454  -0.0003  -0.0059   0.0017   4.00  110.5
2024/05/09 14:51:35.000   28.269411088  -16.481004006  1433.6376   1   6   0.0012   0.0018   0.0454  -0.0003  -0.0059   0.0017   5.00  119.4
2024/05/09 14:51:36.000   28.269411088  -16.481004006  1433.6374   1   6   0.0012   0.0018   0.0454  -0.0003  -0.0059   0.0017   6.00  127.0
2024/05/09 14:51:37.000   28.269411088  -16.481004006  1433.6372   1   6   0.0012   0.0018   0.0454  -0.0003  -0.0059   0.0017   7.00  133.4
2024/05/09 14:51:38.000   28.269411088  -16.481004006  1433.6369   1   6   0.0012   0.0018   0.0454  -0.0003  -0.0059   0.0017   8.00  138.4
2024/05/09 14:51:39.000   28.269411088  -16.481004006  1433.6368   1   6   0.0012   0.0018   0.0454  -0.0003  -0.0059   0.0017   9.00  143.7
2024/05/09 14:51:40.000   28.269411088  -16.481004006  1433.6367   1   6   0.0012   0.0018   0.0454  -0.0003  -0.0059   0.0017  10.00  148.1
2024/05/09 14:51:41.000   28.269411088  -16.481004006  1433.6366   1   6   0.0012   0.0018   0.0454  -0.0003  -0.0059   0.0017  11.00  151.8
2024/05/09 14:51:42.000   28.269411088  -16.481004006  1433.6366   1   6   0.0012   0.0018   0.0454  -0.0003  -0.0059   0.0017  12.00  154.7
2024/05/09 14:51:43.000   28.269411088  -16.481004006  1433.6365   1   6   0.0012   0.0018   0.0454  -0.0003  -0.0059   0.0017  13.00  157.9
2024/05/09 14:51:44.000   28.269411088  -16.481004006  1433.6364   1   6   0.0012   0.0018   0.0454  -0.0003  -0.0059   0.0017  14.00  160.8
2024/05/09 14:51:45.000   28.269411088  -16.481004006  1433.6364   1   6   0.0012   0.0018   0.0454  -0.0003  -0.0059   0.0018 -15.00  163.6
2024/05/09 14:51:46.000   28.269411088  -16.481004006  1433.6364   1   6   0.0012   0.0018   0.0454  -0.0003  -0.0059   0.0018 -14.00  166.4
2024/05/09 14:51:47.000   28.269411088  -16.481004006  1433.6363   1   6   0.0012   0.0018   0.0454  -0.0003  -0.0058   0.0018 -13.00  169.2
2024/05/09 14:51:48.000   28.269411088  -16.481004006  1433.6363   1   6   0.0012   0.0018   0.0454  -0.0003  -0.0058   0.0018 -12.00  172.4
2024/05/09 14:51:49.000   28.269411088  -16.481004006  1433.6362   1   6   0.0012   0.0018   0.0454  -0.0003  -0.0058   0.0018 -11.00  175.1
