% program   : RTKPOST-EX 2.5.0
% inp file  : C:\Users\SallyHenry\Desktop\Sally Internship\GNSS gravi\DATA\Survey Rover Obs\FA15.24o
% inp file  : C:\Users\SallyHenry\Desktop\Sally Internship\GNSS gravi\DATA\BaseStations\IZAN\IZAN00ESP_R_20241300000_01D_30S_MO.rnx
% inp file  : C:\Users\SallyHenry\Desktop\Sally Internship\GNSS gravi\DATA\BaseStations\IZAN\IZAN00ESP_R_20241300000_01D_MN.rnx
% inp file  : C:\Users\SallyHenry\Desktop\Sally Internship\GNSS gravi\DATA\aux_files\Survey\IGS0OPSFIN_20241300000_01D_15M_ORB.SP3
% inp file  : C:\Users\SallyHenry\Desktop\Sally Internship\GNSS gravi\DATA\aux_files\Survey\IGS0OPSFIN_20241300000_01D_30S_CLK.CLK
% obs start : 2024/05/09 15:14:55.0 GPST (week2313 400495.0s)
% obs end   : 2024/05/09 15:29:54.0 GPST (week2313 401394.0s)
% pos mode  : Static
% freqs     : L1+L2/E5b
% solution  : Combined-No Phase Reset
% elev mask : 15.0 deg
% dynamics  : on
% tidecorr  : solid
% ionos opt : Estimate TEC
% tropo opt : Estimate ZTD+Grad
% ephemeris : Precise
% navi sys  : GPS GLONASS Galileo QZSS BDS
% amb res   : Fix and Hold
% amb glo   : Fix and Hold
% amb bds   : on
% val thres : 3.0
% antenna1  :                       ( 0.0000  0.0000  1.8000)
% antenna2  :                       ( 0.0000  0.0000  0.0000)
% ref pos   :  28.308069410  -16.499677180  2417.4044
%
% (lat/lon/height=WGS84/ellipsoidal,Q=1:fix,2:float,3:sbas,4:dgps,5:single,6:ppp,ns=# of satellites)
%  GPST                  latitude(deg) longitude(deg)  height(m)   Q  ns   sdn(m)   sde(m)   sdu(m)  sdne(m)  sdeu(m)  sdun(m) age(s)  ratio
2024/05/09 15:14:55.000   28.252444181  -16.459840045   923.4681   2   7   0.0199   0.0277   0.0676  -0.0124   0.0301  -0.0276  -5.00    0.0
2024/05/09 15:14:56.000   28.252444183  -16.459840046   923.4679   2   7   0.0199   0.0277   0.0677  -0.0124   0.0301  -0.0276  -4.00    0.0
2024/05/09 15:14:57.000   28.252444183  -16.459840047   923.4681   2   7   0.0199   0.0277   0.0677  -0.0124   0.0302  -0.0276  -3.00    0.0
2024/05/09 15:14:58.000   28.252444183  -16.459840046   923.4684   2   7   0.0199   0.0278   0.0678  -0.0124   0.0302  -0.0276  -2.00    0.0
2024/05/09 15:14:59.000   28.252444185  -16.459840045   923.4687   2   7   0.0199   0.0278   0.0678  -0.0124   0.0302  -0.0276  -1.00    0.0
2024/05/09 15:15:00.000   28.252444185  -16.459840044   923.4687   2   7   0.0200   0.0278   0.0679  -0.0124   0.0302  -0.0276   0.00    0.0
2024/05/09 15:15:01.000   28.252444186  -16.459840043   923.4695   2   7   0.0200   0.0278   0.0680  -0.0123   0.0302  -0.0276   1.00    0.0
2024/05/09 15:15:02.000   28.252444187  -16.459840041   923.4697   2   7   0.0200   0.0278   0.0680  -0.0123   0.0302  -0.0276   2.00    0.0
2024/05/09 15:15:03.000   28.252444187  -16.459840038   923.4702   2   7   0.0200   0.0279   0.0681  -0.0123   0.0302  -0.0276   3.00    0.0
2024/05/09 15:15:04.000   28.252444187  -16.459840035   923.4705   2   7   0.0200   0.0279   0.0682  -0.0123   0.0302  -0.0277   4.00    0.0
2024/05/09 15:15:05.000   28.252444188  -16.459840033   923.4707   2   7   0.0200   0.0279   0.0682  -0.0123   0.0302  -0.0277   5.00    0.0
2024/05/09 15:15:06.000   28.252444188  -16.459840031   923.4709   2   7   0.0200   0.0279   0.0683  -0.0123   0.0302  -0.0277   6.00    0.0
2024/05/09 15:15:07.000   28.252444188  -16.459840029   923.4709   2   7   0.0200   0.0279   0.0683  -0.0123   0.0302  -0.0277   7.00    0.0
2024/05/09 15:15:08.000   28.252444189  -16.459840028   923.4708   2   7   0.0200   0.0279   0.0683  -0.0123   0.0302  -0.0277   8.00    0.0
2024/05/09 15:15:09.000   28.252444190  -16.459840026   923.4711   2   7   0.0200   0.0279   0.0683  -0.0123   0.0302  -0.0277   9.00    0.0
2024/05/09 15:15:10.000   28.252444190  -16.459840025   923.4711   2   7   0.0201   0.0279   0.0683  -0.0123   0.0302  -0.0277  10.00    0.0
2024/05/09 15:15:11.000   28.252444191  -16.459840024   923.4711   2   7   0.0201   0.0279   0.0684  -0.0123   0.0302  -0.0277  11.00    0.0
2024/05/09 15:15:12.000   28.252444191  -16.459840023   923.4711   2   7   0.0201   0.0279   0.0684  -0.0123   0.0302  -0.0277  12.00    0.0
2024/05/09 15:15:13.000   28.252444192  -16.459840023   923.4709   2   7   0.0201   0.0279   0.0684  -0.0123   0.0302  -0.0277  13.00    0.0
2024/05/09 15:15:14.000   28.252444192  -16.459840021   923.4710   2   7   0.0201   0.0279   0.0684  -0.0123   0.0302  -0.0277  14.00    0.0
2024/05/09 15:15:15.000   28.252444192  -16.459840020   923.4710   2   7   0.0201   0.0279   0.0684  -0.0123   0.0302  -0.0277 -15.00    0.0
2024/05/09 15:15:16.000   28.252444192  -16.459840020   923.4709   2   7   0.0201   0.0279   0.0684  -0.0123   0.0302  -0.0277 -14.00    0.0
2024/05/09 15:15:17.000   28.252444193  -16.459840020   923.4709   2   7   0.0201   0.0279   0.0684  -0.0123   0.0302  -0.0277 -13.00    0.0
2024/05/09 15:15:18.000   28.252444192  -16.459840019   923.4710   2   7   0.0201   0.0279   0.0684  -0.0122   0.0302  -0.0277 -12.00    0.0
2024/05/09 15:15:19.000   28.252444192  -16.459840019   923.4711   2   7   0.0201   0.0279   0.0684  -0.0122   0.0302  -0.0277 -11.00    0.0
2024/05/09 15:15:20.000   28.252444193  -16.459840018   923.4713   2   7   0.0201   0.0279   0.0684  -0.0122   0.0302  -0.0277 -10.00    0.0
2024/05/09 15:15:21.000   28.252444193  -16.459840018   923.4714   2   7   0.0201   0.0279   0.0684  -0.0122   0.0302  -0.0277  -9.00    0.0
2024/05/09 15:15:22.000   28.252444193  -16.459840017   923.4714   2   7   0.0201   0.0279   0.0684  -0.0122   0.0302  -0.0277  -8.00    0.0
2024/05/09 15:15:23.000   28.252444193  -16.459840015   923.4714   2   7   0.0201   0.0279   0.0685  -0.0122   0.0302  -0.0277  -7.00    0.0
2024/05/09 15:15:24.000   28.252444193  -16.459840014   923.4714   2   7   0.0201   0.0279   0.0685  -0.0122   0.0302  -0.0277  -6.00    0.0
2024/05/09 15:15:25.000   28.252444194  -16.459840013   923.4716   2   7   0.0201   0.0279   0.0685  -0.0122   0.0302  -0.0277  -5.00    0.0
2024/05/09 15:15:26.000   28.252444194  -16.459840012   923.4720   2   7   0.0201   0.0279   0.0685  -0.0122   0.0302  -0.0277  -4.00    0.0
2024/05/09 15:15:27.000   28.252444194  -16.459840010   923.4724   2   7   0.0201   0.0279   0.0686  -0.0122   0.0302  -0.0277  -3.00    0.0
2024/05/09 15:15:28.000   28.252444196  -16.459840008   923.4728   2   7   0.0201   0.0279   0.0686  -0.0122   0.0302  -0.0277  -2.00    0.0
2024/05/09 15:15:29.000   28.252444197  -16.459840006   923.4730   2   7   0.0201   0.0280   0.0687  -0.0122   0.0302  -0.0277  -1.00    0.0
2024/05/09 15:15:30.000   28.252444198  -16.459840006   923.4728   2   7   0.0201   0.0280   0.0688  -0.0122   0.0303  -0.0277   0.00    0.0
2024/05/09 15:15:31.000   28.252444200  -16.459840007   923.4721   2   7   0.0201   0.0280   0.0689  -0.0122   0.0303  -0.0277   1.00    0.0
2024/05/09 15:15:32.000   28.252444201  -16.459840006   923.4721   2   7   0.0202   0.0280   0.0689  -0.0122   0.0303  -0.0277   2.00    0.0
2024/05/09 15:15:33.000   28.252444203  -16.459840010   923.4721   2   7   0.0202   0.0280   0.0690  -0.0121   0.0303  -0.0277   3.00    0.0
2024/05/09 15:15:34.000   28.252444204  -16.459840011   923.4721   2   7   0.0202   0.0280   0.0690  -0.0121   0.0303  -0.0277   4.00    0.0
2024/05/09 15:15:35.000   28.252444206  -16.459840012   923.4723   2   7   0.0202   0.0281   0.0691  -0.0121   0.0303  -0.0277   5.00    0.0
2024/05/09 15:15:36.000   28.252444207  -16.459840013   923.4722   2   7   0.0202   0.0281   0.0691  -0.0121   0.0303  -0.0277   6.00    0.0
2024/05/09 15:15:37.000   28.252444208  -16.459840015   923.4721   2   7   0.0202   0.0281   0.0692  -0.0121   0.0303  -0.0277   7.00    0.0
2024/05/09 15:15:38.000   28.252444209  -16.459840016   923.4718   2   7   0.0202   0.0281   0.0692  -0.0121   0.0303  -0.0277   8.00    0.0
2024/05/09 15:15:39.000   28.252444210  -16.459840017   923.4717   2   7   0.0202   0.0281   0.0692  -0.0121   0.0303  -0.0277   9.00    0.0
2024/05/09 15:15:40.000   28.252444211  -16.459840017   923.4717   2   7   0.0202   0.0281   0.0692  -0.0121   0.0303  -0.0277  10.00    0.0
2024/05/09 15:15:41.000   28.252444211  -16.459840018   923.4717   2   7   0.0202   0.0281   0.0692  -0.0121   0.0303  -0.0277  11.00    0.0
2024/05/09 15:15:42.000   28.252444212  -16.459840019   923.4718   2   7   0.0202   0.0281   0.0692  -0.0121   0.0303  -0.0277  12.00    0.0
2024/05/09 15:15:43.000   28.252444212  -16.459840020   923.4717   2   7   0.0202   0.0281   0.0692  -0.0121   0.0303  -0.0277  13.00    0.0
2024/05/09 15:15:44.000   28.252444212  -16.459840021   923.4717   2   7   0.0202   0.0281   0.0693  -0.0121   0.0303  -0.0277  14.00    0.0
2024/05/09 15:15:45.000   28.252444213  -16.459840022   923.4717   2   7   0.0202   0.0281   0.0693  -0.0121   0.0303  -0.0277 -15.00    0.0
2024/05/09 15:15:46.000   28.252444213  -16.459840023   923.4716   2   7   0.0202   0.0281   0.0693  -0.0121   0.0303  -0.0277 -14.00    0.0
2024/05/09 15:15:47.000   28.252444213  -16.459840024   923.4716   2   7   0.0202   0.0281   0.0693  -0.0121   0.0303  -0.0277 -13.00    0.0
2024/05/09 15:15:48.000   28.252444213  -16.459840025   923.4715   2   7   0.0202   0.0281   0.0693  -0.0121   0.0303  -0.0277 -12.00    0.0
2024/05/09 15:15:49.000   28.252444213  -16.459840026   923.4717   2   7   0.0202   0.0281   0.0693  -0.0121   0.0303  -0.0277 -11.00    0.0
2024/05/09 15:15:50.000   28.252444213  -16.459840026   923.4717   2   7   0.0202   0.0281   0.0693  -0.0121   0.0303  -0.0277 -10.00    0.0
2024/05/09 15:15:51.000   28.252444213  -16.459840026   923.4717   2   7   0.0202   0.0281   0.0693  -0.0121   0.0303  -0.0277  -9.00    0.0
2024/05/09 15:15:52.000   28.252444214  -16.459840026   923.4715   2   7   0.0202   0.0281   0.0693  -0.0120   0.0303  -0.0277  -8.00    0.0
2024/05/09 15:15:53.000   28.252444215  -16.459840027   923.4711   2   7   0.0202   0.0281   0.0693  -0.0120   0.0303  -0.0277  -7.00    0.0
2024/05/09 15:15:54.000   28.252444215  -16.459840027   923.4707   2   7   0.0202   0.0281   0.0694  -0.0120   0.0303  -0.0277  -6.00    0.0
2024/05/09 15:15:55.000   28.252444215  -16.459840026   923.4704   2   7   0.0203   0.0281   0.0694  -0.0120   0.0303  -0.0277  -5.00    0.0
2024/05/09 15:15:56.000   28.252444215  -16.459840024   923.4702   2   7   0.0203   0.0281   0.0694  -0.0120   0.0303  -0.0278  -4.00    0.0
2024/05/09 15:15:57.000   28.252444216  -16.459840023   923.4700   2   7   0.0203   0.0281   0.0695  -0.0120   0.0303  -0.0278  -3.00    0.0
2024/05/09 15:15:58.000   28.252444217  -16.459840022   923.4695   2   7   0.0203   0.0281   0.0695  -0.0120   0.0303  -0.0278  -2.00    0.0
2024/05/09 15:15:59.000   28.252444218  -16.459840020   923.4688   2   7   0.0203   0.0281   0.0696  -0.0120   0.0303  -0.0278  -1.00    0.0
2024/05/09 15:16:00.000   28.252444219  -16.459840020   923.4680   2   7   0.0203   0.0281   0.0696  -0.0120   0.0303  -0.0278   0.00    0.0
2024/05/09 15:16:01.000   28.252444221  -16.459840020   923.4673   2   7   0.0203   0.0282   0.0697  -0.0120   0.0303  -0.0278   1.00    0.0
2024/05/09 15:16:02.000   28.252444223  -16.459840023   923.4668   2   7   0.0203   0.0282   0.0698  -0.0120   0.0303  -0.0278   2.00    0.0
2024/05/09 15:16:03.000   28.252444226  -16.459840026   923.4667   2   7   0.0203   0.0282   0.0698  -0.0120   0.0303  -0.0278   3.00    0.0
2024/05/09 15:16:04.000   28.252444226  -16.459840029   923.4660   2   7   0.0204   0.0282   0.0699  -0.0119   0.0304  -0.0278   4.00    0.0
2024/05/09 15:16:05.000   28.252444227  -16.459840032   923.4651   2   7   0.0204   0.0282   0.0699  -0.0119   0.0304  -0.0278   5.00    0.0
2024/05/09 15:16:06.000   28.252444228  -16.459840034   923.4645   2   7   0.0204   0.0282   0.0700  -0.0119   0.0304  -0.0278   6.00    0.0
2024/05/09 15:16:07.000   28.252444229  -16.459840035   923.4643   2   7   0.0204   0.0282   0.0700  -0.0119   0.0304  -0.0278   7.00    0.0
2024/05/09 15:16:08.000   28.252444230  -16.459840037   923.4639   2   7   0.0204   0.0282   0.0700  -0.0119   0.0304  -0.0278   8.00    0.0
2024/05/09 15:16:09.000   28.252444231  -16.459840039   923.4634   2   7   0.0204   0.0282   0.0700  -0.0119   0.0304  -0.0278   9.00    0.0
2024/05/09 15:16:10.000   28.252444231  -16.459840040   923.4629   2   7   0.0204   0.0282   0.0700  -0.0119   0.0304  -0.0278  10.00    0.0
2024/05/09 15:16:11.000   28.252444232  -16.459840042   923.4626   2   7   0.0204   0.0282   0.0701  -0.0119   0.0304  -0.0278  11.00    0.0
2024/05/09 15:16:12.000   28.252444233  -16.459840043   923.4624   2   7   0.0204   0.0282   0.0701  -0.0119   0.0304  -0.0278  12.00    0.0
2024/05/09 15:16:13.000   28.252444233  -16.459840044   923.4623   2   7   0.0204   0.0282   0.0701  -0.0119   0.0303  -0.0278  13.00    0.0
2024/05/09 15:16:14.000   28.252444233  -16.459840044   923.4621   2   7   0.0204   0.0282   0.0701  -0.0119   0.0303  -0.0278  14.00    0.0
2024/05/09 15:16:15.000   28.252444234  -16.459840045   923.4620   2   7   0.0204   0.0282   0.0701  -0.0119   0.0303  -0.0278 -15.00    0.0
2024/05/09 15:16:16.000   28.252444234  -16.459840046   923.4620   2   7   0.0204   0.0282   0.0701  -0.0119   0.0303  -0.0278 -14.00    0.0
2024/05/09 15:16:17.000   28.252444234  -16.459840047   923.4619   2   7   0.0204   0.0282   0.0701  -0.0119   0.0303  -0.0278 -13.00    0.0
2024/05/09 15:16:18.000   28.252444234  -16.459840047   923.4619   2   7   0.0204   0.0282   0.0701  -0.0119   0.0303  -0.0278 -12.00    0.0
2024/05/09 15:16:19.000   28.252444234  -16.459840047   923.4621   2   7   0.0204   0.0282   0.0701  -0.0119   0.0303  -0.0278 -11.00    0.0
2024/05/09 15:16:20.000   28.252444234  -16.459840048   923.4620   2   7   0.0204   0.0282   0.0701  -0.0119   0.0303  -0.0278 -10.00    0.0
2024/05/09 15:16:21.000   28.252444234  -16.459840048   923.4620   2   7   0.0204   0.0282   0.0701  -0.0119   0.0303  -0.0278  -9.00    0.0
2024/05/09 15:16:22.000   28.252444234  -16.459840049   923.4620   2   7   0.0204   0.0282   0.0701  -0.0119   0.0303  -0.0278  -8.00    0.0
2024/05/09 15:16:23.000   28.252444234  -16.459840050   923.4621   2   7   0.0204   0.0282   0.0702  -0.0118   0.0303  -0.0278  -7.00    0.0
2024/05/09 15:16:24.000   28.252444234  -16.459840050   923.4621   2   7   0.0204   0.0282   0.0702  -0.0118   0.0303  -0.0278  -6.00    0.0
2024/05/09 15:16:25.000   28.252444234  -16.459840051   923.4620   2   7   0.0204   0.0282   0.0702  -0.0118   0.0303  -0.0278  -5.00    0.0
2024/05/09 15:16:26.000   28.252444235  -16.459840052   923.4619   2   7   0.0204   0.0282   0.0702  -0.0118   0.0303  -0.0278  -4.00    0.0
2024/05/09 15:16:27.000   28.252444236  -16.459840054   923.4615   2   7   0.0204   0.0282   0.0703  -0.0118   0.0303  -0.0278  -3.00    0.0
2024/05/09 15:16:28.000   28.252444236  -16.459840057   923.4610   2   7   0.0204   0.0283   0.0703  -0.0118   0.0303  -0.0278  -2.00    0.0
2024/05/09 15:16:29.000   28.252444236  -16.459840060   923.4610   2   7   0.0205   0.0283   0.0704  -0.0118   0.0303  -0.0278  -1.00    0.0
2024/05/09 15:16:30.000   28.252444235  -16.459840062   923.4607   2   7   0.0205   0.0283   0.0704  -0.0118   0.0303  -0.0278   0.00    0.0
2024/05/09 15:16:31.000   28.252444234  -16.459840067   923.4600   2   7   0.0205   0.0283   0.0705  -0.0118   0.0304  -0.0278   1.00    0.0
2024/05/09 15:16:32.000   28.252444234  -16.459840071   923.4597   2   7   0.0205   0.0283   0.0706  -0.0118   0.0304  -0.0278   2.00    0.0
2024/05/09 15:16:33.000   28.252444235  -16.459840073   923.4599   2   7   0.0205   0.0283   0.0706  -0.0118   0.0304  -0.0278   3.00    0.0
2024/05/09 15:16:34.000   28.252444236  -16.459840075   923.4596   2   7   0.0205   0.0283   0.0707  -0.0118   0.0304  -0.0278   4.00    0.0
2024/05/09 15:16:35.000   28.252444236  -16.459840077   923.4592   2   7   0.0205   0.0284   0.0707  -0.0117   0.0304  -0.0278   5.00    0.0
2024/05/09 15:16:36.000   28.252444236  -16.459840079   923.4588   2   7   0.0205   0.0284   0.0707  -0.0117   0.0304  -0.0278   6.00    0.0
2024/05/09 15:16:37.000   28.252444235  -16.459840080   923.4587   2   7   0.0205   0.0284   0.0708  -0.0117   0.0304  -0.0278   7.00    0.0
2024/05/09 15:16:38.000   28.252444235  -16.459840081   923.4584   2   7   0.0205   0.0284   0.0708  -0.0117   0.0304  -0.0278   8.00    0.0
2024/05/09 15:16:39.000   28.252444236  -16.459840082   923.4581   2   7   0.0205   0.0284   0.0708  -0.0117   0.0304  -0.0278   9.00    0.0
2024/05/09 15:16:40.000   28.252444236  -16.459840082   923.4578   2   7   0.0206   0.0284   0.0708  -0.0117   0.0304  -0.0278  10.00    0.0
2024/05/09 15:16:41.000   28.252444237  -16.459840082   923.4576   2   7   0.0206   0.0284   0.0708  -0.0117   0.0304  -0.0278  11.00    0.0
2024/05/09 15:16:42.000   28.252444237  -16.459840083   923.4572   2   7   0.0206   0.0284   0.0708  -0.0117   0.0304  -0.0278  12.00    0.0
2024/05/09 15:16:43.000   28.252444237  -16.459840084   923.4570   2   7   0.0206   0.0284   0.0708  -0.0117   0.0304  -0.0278  13.00    0.0
2024/05/09 15:16:44.000   28.252444237  -16.459840084   923.4567   2   7   0.0206   0.0284   0.0709  -0.0117   0.0304  -0.0278  14.00    0.0
2024/05/09 15:16:45.000   28.252444238  -16.459840085   923.4564   2   7   0.0206   0.0284   0.0709  -0.0117   0.0304  -0.0278 -15.00    0.0
2024/05/09 15:16:46.000   28.252444238  -16.459840085   923.4563   2   7   0.0206   0.0284   0.0709  -0.0117   0.0304  -0.0278 -14.00    0.0
2024/05/09 15:16:47.000   28.252444239  -16.459840086   923.4560   2   7   0.0206   0.0284   0.0709  -0.0117   0.0304  -0.0278 -13.00    0.0
2024/05/09 15:16:48.000   28.252444239  -16.459840087   923.4558   2   7   0.0206   0.0284   0.0709  -0.0117   0.0303  -0.0278 -12.00    0.0
2024/05/09 15:16:49.000   28.252444239  -16.459840088   923.4555   2   7   0.0206   0.0284   0.0709  -0.0117   0.0303  -0.0278 -11.00    0.0
2024/05/09 15:16:50.000   28.252444240  -16.459840089   923.4553   2   7   0.0206   0.0284   0.0709  -0.0117   0.0303  -0.0278 -10.00    0.0
2024/05/09 15:16:51.000   28.252444241  -16.459840090   923.4549   2   7   0.0206   0.0284   0.0709  -0.0117   0.0303  -0.0278  -9.00    0.0
2024/05/09 15:16:52.000   28.252444241  -16.459840091   923.4546   2   7   0.0206   0.0284   0.0709  -0.0117   0.0303  -0.0278  -8.00    0.0
2024/05/09 15:16:53.000   28.252444242  -16.459840092   923.4545   2   7   0.0206   0.0284   0.0709  -0.0116   0.0303  -0.0278  -7.00    0.0
2024/05/09 15:16:54.000   28.252444243  -16.459840094   923.4544   2   7   0.0206   0.0284   0.0709  -0.0116   0.0303  -0.0278  -6.00    1.0
2024/05/09 15:16:55.000   28.252444244  -16.459840096   923.4542   2   7   0.0206   0.0284   0.0709  -0.0116   0.0303  -0.0278  -5.00    1.2
2024/05/09 15:16:56.000   28.252444246  -16.459840098   923.4538   2   7   0.0206   0.0284   0.0710  -0.0116   0.0303  -0.0278  -4.00    1.0
2024/05/09 15:16:57.000   28.252444247  -16.459840101   923.4534   2   7   0.0206   0.0284   0.0710  -0.0116   0.0303  -0.0278  -3.00    1.1
2024/05/09 15:16:58.000   28.252444250  -16.459840103   923.4530   2   7   0.0206   0.0284   0.0711  -0.0116   0.0303  -0.0278  -2.00    1.1
2024/05/09 15:16:59.000   28.252444252  -16.459840104   923.4525   2   7   0.0206   0.0284   0.0711  -0.0116   0.0303  -0.0278  -1.00    1.0
2024/05/09 15:17:00.000   28.252444254  -16.459840107   923.4518   2   7   0.0206   0.0284   0.0712  -0.0116   0.0304  -0.0278   0.00    1.0
2024/05/09 15:17:01.000   28.252444256  -16.459840108   923.4517   2   7   0.0206   0.0284   0.0712  -0.0116   0.0304  -0.0278   1.00    1.0
2024/05/09 15:17:02.000   28.252444258  -16.459840109   923.4513   2   7   0.0206   0.0285   0.0713  -0.0116   0.0304  -0.0278   2.00    1.0
2024/05/09 15:17:03.000   28.252444259  -16.459840110   923.4507   2   7   0.0207   0.0285   0.0713  -0.0116   0.0304  -0.0278   3.00    1.1
2024/05/09 15:17:04.000   28.252444260  -16.459840109   923.4498   2   7   0.0207   0.0285   0.0714  -0.0115   0.0304  -0.0278   4.00    1.0
2024/05/09 15:17:05.000   28.252444261  -16.459840107   923.4491   2   7   0.0207   0.0285   0.0714  -0.0115   0.0304  -0.0278   5.00    1.1
2024/05/09 15:17:06.000   28.252444262  -16.459840106   923.4484   2   7   0.0207   0.0285   0.0715  -0.0115   0.0304  -0.0278   6.00    1.0
2024/05/09 15:17:07.000   28.252444262  -16.459840105   923.4478   2   7   0.0207   0.0285   0.0715  -0.0115   0.0304  -0.0278   7.00    1.0
2024/05/09 15:17:08.000   28.252444263  -16.459840103   923.4471   2   7   0.0207   0.0285   0.0715  -0.0115   0.0304  -0.0278   8.00    1.0
2024/05/09 15:17:09.000   28.252444265  -16.459840103   923.4463   2   7   0.0207   0.0285   0.0715  -0.0115   0.0304  -0.0278   9.00    1.1
2024/05/09 15:17:10.000   28.252444266  -16.459840102   923.4457   2   7   0.0207   0.0285   0.0715  -0.0115   0.0304  -0.0278  10.00    1.0
2024/05/09 15:17:11.000   28.252444267  -16.459840101   923.4451   2   7   0.0207   0.0285   0.0715  -0.0115   0.0304  -0.0278  11.00    1.0
2024/05/09 15:17:12.000   28.252444267  -16.459840100   923.4447   2   7   0.0207   0.0285   0.0715  -0.0115   0.0304  -0.0278  12.00    1.1
2024/05/09 15:17:13.000   28.252444268  -16.459840098   923.4444   2   7   0.0207   0.0285   0.0715  -0.0115   0.0304  -0.0278  13.00    1.0
2024/05/09 15:17:14.000   28.252444269  -16.459840097   923.4440   2   7   0.0207   0.0285   0.0715  -0.0115   0.0304  -0.0278  14.00    1.0
2024/05/09 15:17:15.000   28.252444269  -16.459840095   923.4437   2   7   0.0207   0.0285   0.0715  -0.0115   0.0304  -0.0278 -15.00    1.0
2024/05/09 15:17:16.000   28.252444269  -16.459840094   923.4433   2   7   0.0207   0.0285   0.0715  -0.0115   0.0304  -0.0278 -14.00    1.1
2024/05/09 15:17:17.000   28.252444270  -16.459840093   923.4429   2   7   0.0207   0.0285   0.0716  -0.0115   0.0304  -0.0278 -13.00    1.0
2024/05/09 15:17:18.000   28.252444270  -16.459840091   923.4425   2   7   0.0207   0.0285   0.0716  -0.0115   0.0303  -0.0278 -12.00    1.0
2024/05/09 15:17:19.000   28.252444270  -16.459840089   923.4420   2   7   0.0207   0.0285   0.0716  -0.0115   0.0303  -0.0278 -11.00    1.1
2024/05/09 15:17:20.000   28.252444271  -16.459840087   923.4415   2   7   0.0207   0.0285   0.0716  -0.0115   0.0303  -0.0278 -10.00    1.0
2024/05/09 15:17:21.000   28.252444271  -16.459840086   923.4409   2   7   0.0207   0.0285   0.0716  -0.0115   0.0303  -0.0278  -9.00    1.1
2024/05/09 15:17:22.000   28.252444272  -16.459840086   923.4402   2   7   0.0207   0.0285   0.0716  -0.0114   0.0303  -0.0278  -8.00    1.1
2024/05/09 15:17:23.000   28.252444272  -16.459840085   923.4396   2   7   0.0207   0.0285   0.0716  -0.0114   0.0303  -0.0278  -7.00    1.2
2024/05/09 15:17:24.000   28.252444272  -16.459840085   923.4389   2   7   0.0207   0.0285   0.0716  -0.0114   0.0303  -0.0278  -6.00    1.0
2024/05/09 15:17:25.000   28.252444273  -16.459840085   923.4378   2   7   0.0207   0.0285   0.0716  -0.0114   0.0303  -0.0278  -5.00    1.0
2024/05/09 15:17:26.000   28.252444274  -16.459840085   923.4364   2   7   0.0207   0.0285   0.0716  -0.0114   0.0303  -0.0278  -4.00    1.1
2024/05/09 15:17:27.000   28.252444275  -16.459840085   923.4351   2   7   0.0207   0.0285   0.0717  -0.0114   0.0303  -0.0278  -3.00    1.0
2024/05/09 15:17:28.000   28.252444276  -16.459840084   923.4337   2   7   0.0207   0.0285   0.0717  -0.0114   0.0303  -0.0278  -2.00    1.1
2024/05/09 15:17:29.000   28.252444276  -16.459840081   923.4329   2   7   0.0208   0.0285   0.0718  -0.0114   0.0303  -0.0278  -1.00    1.2
2024/05/09 15:17:30.000   28.252444277  -16.459840082   923.4320   2   7   0.0208   0.0285   0.0718  -0.0114   0.0303  -0.0278   0.00    1.3
2024/05/09 15:17:31.000   28.252444277  -16.459840087   923.4304   2   7   0.0208   0.0286   0.0719  -0.0114   0.0303  -0.0278   1.00    1.2
2024/05/09 15:17:32.000   28.252444277  -16.459840091   923.4298   2   7   0.0208   0.0286   0.0719  -0.0114   0.0304  -0.0278   2.00    1.1
2024/05/09 15:17:33.000   28.252444279  -16.459840096   923.4296   2   7   0.0208   0.0286   0.0720  -0.0113   0.0304  -0.0278   3.00    1.1
2024/05/09 15:17:34.000   28.252444280  -16.459840101   923.4300   2   7   0.0208   0.0286   0.0720  -0.0113   0.0304  -0.0278   4.00    1.1
2024/05/09 15:17:35.000   28.252444280  -16.459840105   923.4301   2   7   0.0208   0.0286   0.0720  -0.0113   0.0304  -0.0278   5.00    1.1
2024/05/09 15:17:36.000   28.252444280  -16.459840110   923.4303   2   7   0.0208   0.0286   0.0721  -0.0113   0.0304  -0.0278   6.00    1.1
2024/05/09 15:17:37.000   28.252444279  -16.459840114   923.4306   2   7   0.0208   0.0286   0.0721  -0.0113   0.0304  -0.0278   7.00    1.1
2024/05/09 15:17:38.000   28.252444280  -16.459840118   923.4308   2   7   0.0208   0.0286   0.0721  -0.0113   0.0304  -0.0278   8.00    1.1
2024/05/09 15:17:39.000   28.252444280  -16.459840120   923.4313   2   7   0.0208   0.0286   0.0721  -0.0113   0.0304  -0.0278   9.00    1.1
2024/05/09 15:17:40.000   28.252444280  -16.459840124   923.4317   2   7   0.0208   0.0286   0.0721  -0.0113   0.0304  -0.0278  10.00    1.2
2024/05/09 15:17:41.000   28.252444280  -16.459840127   923.4321   2   7   0.0208   0.0286   0.0721  -0.0113   0.0304  -0.0278  11.00    1.0
2024/05/09 15:17:42.000   28.252444280  -16.459840129   923.4324   2   7   0.0208   0.0286   0.0721  -0.0113   0.0303  -0.0278  12.00    1.1
2024/05/09 15:17:43.000   28.252444280  -16.459840132   923.4327   2   7   0.0208   0.0286   0.0721  -0.0113   0.0303  -0.0278  13.00    1.0
2024/05/09 15:17:44.000   28.252444280  -16.459840133   923.4329   2   7   0.0208   0.0286   0.0721  -0.0113   0.0303  -0.0278  14.00    1.2
2024/05/09 15:17:45.000   28.252444280  -16.459840135   923.4331   2   7   0.0208   0.0286   0.0722  -0.0113   0.0303  -0.0278 -15.00    1.0
2024/05/09 15:17:46.000   28.252444280  -16.459840136   923.4332   2   7   0.0208   0.0286   0.0722  -0.0113   0.0303  -0.0278 -14.00    1.1
2024/05/09 15:17:47.000   28.252444280  -16.459840137   923.4334   2   7   0.0208   0.0286   0.0722  -0.0113   0.0303  -0.0278 -13.00    1.2
2024/05/09 15:17:48.000   28.252444280  -16.459840139   923.4335   2   7   0.0208   0.0286   0.0722  -0.0113   0.0303  -0.0278 -12.00    1.0
2024/05/09 15:17:49.000   28.252444280  -16.459840141   923.4338   2   7   0.0208   0.0286   0.0722  -0.0113   0.0303  -0.0278 -11.00    1.1
2024/05/09 15:17:50.000   28.252444279  -16.459840143   923.4340   2   7   0.0208   0.0286   0.0722  -0.0112   0.0303  -0.0278 -10.00    1.0
2024/05/09 15:17:51.000   28.252444279  -16.459840147   923.4340   2   7   0.0208   0.0286   0.0722  -0.0112   0.0303  -0.0278  -9.00    1.1
2024/05/09 15:17:52.000   28.252444279  -16.459840149   923.4340   2   7   0.0208   0.0286   0.0722  -0.0112   0.0303  -0.0278  -8.00    1.1
2024/05/09 15:17:53.000   28.252444279  -16.459840153   923.4339   2   7   0.0208   0.0286   0.0722  -0.0112   0.0303  -0.0278  -7.00    1.1
2024/05/09 15:17:54.000   28.252444279  -16.459840156   923.4338   2   7   0.0209   0.0286   0.0722  -0.0112   0.0303  -0.0278  -6.00    1.2
2024/05/09 15:17:55.000   28.252444278  -16.459840160   923.4337   2   7   0.0209   0.0286   0.0722  -0.0112   0.0303  -0.0278  -5.00    1.0
2024/05/09 15:17:56.000   28.252444277  -16.459840163   923.4336   2   7   0.0209   0.0286   0.0722  -0.0112   0.0303  -0.0278  -4.00    1.1
2024/05/09 15:17:57.000   28.252444277  -16.459840168   923.4329   2   7   0.0209   0.0286   0.0722  -0.0112   0.0303  -0.0278  -3.00    1.0
2024/05/09 15:17:58.000   28.252444277  -16.459840171   923.4324   2   7   0.0209   0.0286   0.0723  -0.0112   0.0303  -0.0278  -2.00    1.2
2024/05/09 15:17:59.000   28.252444277  -16.459840175   923.4321   2   7   0.0209   0.0286   0.0723  -0.0112   0.0303  -0.0278  -1.00    1.1
2024/05/09 15:18:00.000   28.252444276  -16.459840179   923.4316   2   7   0.0209   0.0286   0.0724  -0.0112   0.0303  -0.0278   0.00    1.1
2024/05/09 15:18:01.000   28.252444274  -16.459840182   923.4315   2   7   0.0209   0.0286   0.0724  -0.0112   0.0303  -0.0278   1.00    1.1
2024/05/09 15:18:02.000   28.252444271  -16.459840183   923.4312   2   7   0.0209   0.0287   0.0725  -0.0112   0.0303  -0.0278   2.00    1.1
2024/05/09 15:18:03.000   28.252444271  -16.459840184   923.4309   2   7   0.0209   0.0287   0.0725  -0.0111   0.0303  -0.0278   3.00    1.1
2024/05/09 15:18:04.000   28.252444270  -16.459840183   923.4310   2   7   0.0209   0.0287   0.0725  -0.0111   0.0303  -0.0278   4.00    1.0
2024/05/09 15:18:05.000   28.252444270  -16.459840182   923.4309   2   7   0.0209   0.0287   0.0726  -0.0111   0.0303  -0.0278   5.00    1.0
2024/05/09 15:18:06.000   28.252444270  -16.459840182   923.4308   2   7   0.0209   0.0287   0.0726  -0.0111   0.0303  -0.0278   6.00    1.2
2024/05/09 15:18:07.000   28.252444270  -16.459840180   923.4309   2   7   0.0210   0.0287   0.0726  -0.0111   0.0303  -0.0278   7.00    1.1
2024/05/09 15:18:08.000   28.252444270  -16.459840178   923.4307   2   7   0.0210   0.0287   0.0726  -0.0111   0.0303  -0.0278   8.00    1.2
2024/05/09 15:18:09.000   28.252444269  -16.459840176   923.4304   2   7   0.0210   0.0287   0.0726  -0.0111   0.0303  -0.0278   9.00    1.1
2024/05/09 15:18:10.000   28.252444269  -16.459840174   923.4300   2   7   0.0210   0.0287   0.0726  -0.0111   0.0303  -0.0278  10.00    1.0
2024/05/09 15:18:11.000   28.252444270  -16.459840173   923.4295   2   7   0.0210   0.0287   0.0726  -0.0111   0.0303  -0.0278  11.00    1.0
2024/05/09 15:18:12.000   28.252444270  -16.459840171   923.4293   2   7   0.0210   0.0287   0.0727  -0.0111   0.0303  -0.0278  12.00    1.1
2024/05/09 15:18:13.000   28.252444270  -16.459840169   923.4292   2   7   0.0210   0.0287   0.0727  -0.0111   0.0303  -0.0278  13.00    1.1
2024/05/09 15:18:14.000   28.252444269  -16.459840168   923.4293   2   7   0.0210   0.0287   0.0727  -0.0111   0.0303  -0.0278  14.00    1.1
2024/05/09 15:18:15.000   28.252444269  -16.459840167   923.4293   2   7   0.0210   0.0287   0.0727  -0.0111   0.0303  -0.0278 -15.00    1.2
2024/05/09 15:18:16.000   28.252444269  -16.459840166   923.4292   2   7   0.0210   0.0287   0.0727  -0.0111   0.0303  -0.0278 -14.00    1.1
2024/05/09 15:18:17.000   28.252444270  -16.459840166   923.4291   2   7   0.0210   0.0287   0.0727  -0.0111   0.0303  -0.0278 -13.00    1.0
2024/05/09 15:18:18.000   28.252444270  -16.459840164   923.4293   2   7   0.0210   0.0287   0.0727  -0.0111   0.0303  -0.0278 -12.00    1.0
2024/05/09 15:18:19.000   28.252444270  -16.459840163   923.4295   2   7   0.0210   0.0287   0.0727  -0.0110   0.0303  -0.0278 -11.00    1.1
2024/05/09 15:18:20.000   28.252444270  -16.459840163   923.4296   2   7   0.0210   0.0287   0.0727  -0.0110   0.0303  -0.0278 -10.00    1.1
2024/05/09 15:18:21.000   28.252444270  -16.459840163   923.4297   2   7   0.0210   0.0287   0.0727  -0.0110   0.0302  -0.0278  -9.00    1.1
2024/05/09 15:18:22.000   28.252444270  -16.459840163   923.4298   2   7   0.0210   0.0287   0.0727  -0.0110   0.0302  -0.0278  -8.00    1.2
2024/05/09 15:18:23.000   28.252444270  -16.459840162   923.4301   2   7   0.0210   0.0287   0.0727  -0.0110   0.0302  -0.0278  -7.00    1.1
2024/05/09 15:18:24.000   28.252444271  -16.459840161   923.4303   2   7   0.0210   0.0287   0.0727  -0.0110   0.0302  -0.0278  -6.00    1.0
2024/05/09 15:18:25.000   28.252444272  -16.459840161   923.4302   2   7   0.0210   0.0287   0.0727  -0.0110   0.0302  -0.0278  -5.00    1.0
2024/05/09 15:18:26.000   28.252444272  -16.459840160   923.4302   2   7   0.0210   0.0287   0.0727  -0.0110   0.0302  -0.0278  -4.00    1.1
2024/05/09 15:18:27.000   28.252444273  -16.459840160   923.4301   2   7   0.0210   0.0287   0.0727  -0.0110   0.0302  -0.0278  -3.00    1.0
2024/05/09 15:18:28.000   28.252444274  -16.459840158   923.4306   2   7   0.0210   0.0287   0.0727  -0.0110   0.0302  -0.0278  -2.00    1.1
2024/05/09 15:18:29.000   28.252444275  -16.459840157   923.4308   2   7   0.0210   0.0287   0.0728  -0.0110   0.0302  -0.0278  -1.00    1.2
2024/05/09 15:18:30.000   28.252444276  -16.459840155   923.4313   2   7   0.0210   0.0287   0.0728  -0.0110   0.0302  -0.0278   0.00    1.1
2024/05/09 15:18:31.000   28.252444276  -16.459840152   923.4315   2   7   0.0210   0.0287   0.0729  -0.0110   0.0302  -0.0278   1.00    1.0
2024/05/09 15:18:32.000   28.252444278  -16.459840149   923.4316   2   7   0.0210   0.0287   0.0729  -0.0110   0.0302  -0.0278   2.00    1.1
2024/05/09 15:18:33.000   28.252444280  -16.459840147   923.4325   2   7   0.0210   0.0287   0.0729  -0.0109   0.0302  -0.0278   3.00    1.0
2024/05/09 15:18:34.000   28.252444281  -16.459840145   923.4330   2   7   0.0210   0.0287   0.0730  -0.0109   0.0302  -0.0278   4.00    1.3
2024/05/09 15:18:35.000   28.252444282  -16.459840142   923.4336   2   7   0.0211   0.0288   0.0730  -0.0109   0.0302  -0.0278   5.00    1.2
2024/05/09 15:18:36.000   28.252444282  -16.459840140   923.4341   2   7   0.0211   0.0288   0.0730  -0.0109   0.0302  -0.0278   6.00    1.1
2024/05/09 15:18:37.000   28.252444283  -16.459840139   923.4347   2   7   0.0211   0.0288   0.0730  -0.0109   0.0302  -0.0278   7.00    1.1
2024/05/09 15:18:38.000   28.252444284  -16.459840138   923.4351   2   7   0.0211   0.0288   0.0730  -0.0109   0.0302  -0.0278   8.00    1.1
2024/05/09 15:18:39.000   28.252444285  -16.459840138   923.4353   2   7   0.0211   0.0288   0.0730  -0.0109   0.0302  -0.0277   9.00    1.2
2024/05/09 15:18:40.000   28.252444285  -16.459840138   923.4355   2   7   0.0211   0.0288   0.0730  -0.0109   0.0302  -0.0277  10.00    1.0
2024/05/09 15:18:41.000   28.252444286  -16.459840138   923.4356   2   7   0.0211   0.0288   0.0731  -0.0109   0.0302  -0.0277  11.00    1.1
2024/05/09 15:18:42.000   28.252444287  -16.459840137   923.4359   2   7   0.0211   0.0288   0.0731  -0.0109   0.0302  -0.0277  12.00    1.1
2024/05/09 15:18:43.000   28.252444287  -16.459840137   923.4359   2   7   0.0211   0.0288   0.0731  -0.0109   0.0302  -0.0277  13.00    1.2
2024/05/09 15:18:44.000   28.252444287  -16.459840137   923.4361   2   7   0.0211   0.0288   0.0731  -0.0109   0.0302  -0.0277  14.00    1.2
2024/05/09 15:18:45.000   28.252444288  -16.459840136   923.4362   2   7   0.0211   0.0288   0.0731  -0.0109   0.0302  -0.0277 -15.00    1.1
2024/05/09 15:18:46.000   28.252444288  -16.459840135   923.4364   2   7   0.0211   0.0288   0.0731  -0.0109   0.0302  -0.0277 -14.00    1.2
2024/05/09 15:18:47.000   28.252444288  -16.459840135   923.4366   2   7   0.0211   0.0288   0.0731  -0.0109   0.0302  -0.0277 -13.00    1.0
2024/05/09 15:18:48.000   28.252444288  -16.459840134   923.4368   2   7   0.0211   0.0287   0.0730  -0.0109   0.0302  -0.0277 -12.00    1.1
2024/05/09 15:18:49.000   28.252444288  -16.459840133   923.4370   2   7   0.0211   0.0287   0.0730  -0.0109   0.0302  -0.0277 -11.00    1.1
2024/05/09 15:18:50.000   28.252444288  -16.459840132   923.4372   2   7   0.0211   0.0287   0.0730  -0.0108   0.0302  -0.0277 -10.00    1.2
2024/05/09 15:18:51.000   28.252444289  -16.459840131   923.4374   2   7   0.0211   0.0287   0.0730  -0.0108   0.0302  -0.0277  -9.00    1.1
2024/05/09 15:18:52.000   28.252444289  -16.459840129   923.4376   2   7   0.0211   0.0287   0.0731  -0.0108   0.0302  -0.0277  -8.00    1.1
2024/05/09 15:18:53.000   28.252444289  -16.459840127   923.4379   2   7   0.0211   0.0287   0.0731  -0.0108   0.0302  -0.0277  -7.00    1.2
2024/05/09 15:18:54.000   28.252444288  -16.459840126   923.4384   2   7   0.0211   0.0287   0.0731  -0.0108   0.0302  -0.0277  -6.00    1.0
2024/05/09 15:18:55.000   28.252444288  -16.459840125   923.4388   2   7   0.0211   0.0287   0.0731  -0.0108   0.0301  -0.0277  -5.00    1.0
2024/05/09 15:18:56.000   28.252444289  -16.459840123   923.4392   2   7   0.0211   0.0287   0.0731  -0.0108   0.0301  -0.0277  -4.00    1.1
2024/05/09 15:18:57.000   28.252444290  -16.459840122   923.4393   2   7   0.0211   0.0287   0.0731  -0.0108   0.0301  -0.0277  -3.00    1.2
2024/05/09 15:18:58.000   28.252444290  -16.459840121   923.4394   2   7   0.0211   0.0287   0.0731  -0.0108   0.0301  -0.0277  -2.00    1.1
2024/05/09 15:18:59.000   28.252444290  -16.459840119   923.4397   2   7   0.0211   0.0288   0.0731  -0.0108   0.0301  -0.0277  -1.00    1.1
2024/05/09 15:19:00.000   28.252444292  -16.459840116   923.4397   2   7   0.0211   0.0288   0.0732  -0.0108   0.0301  -0.0277   0.00    1.2
2024/05/09 15:19:01.000   28.252444293  -16.459840112   923.4400   2   7   0.0211   0.0288   0.0732  -0.0108   0.0301  -0.0277   1.00    1.1
2024/05/09 15:19:02.000   28.252444293  -16.459840109   923.4401   2   7   0.0211   0.0288   0.0732  -0.0108   0.0301  -0.0277   2.00    1.4
2024/05/09 15:19:03.000   28.252444294  -16.459840106   923.4402   2   7   0.0211   0.0288   0.0733  -0.0108   0.0301  -0.0277   3.00    1.2
2024/05/09 15:19:04.000   28.252444295  -16.459840103   923.4405   2   7   0.0211   0.0288   0.0733  -0.0107   0.0301  -0.0277   4.00    1.0
2024/05/09 15:19:05.000   28.252444296  -16.459840100   923.4408   2   7   0.0211   0.0288   0.0733  -0.0107   0.0301  -0.0277   5.00    1.0
2024/05/09 15:19:06.000   28.252444297  -16.459840098   923.4409   2   7   0.0211   0.0288   0.0733  -0.0107   0.0301  -0.0277   6.00    1.1
2024/05/09 15:19:07.000   28.252444297  -16.459840097   923.4409   2   7   0.0212   0.0288   0.0733  -0.0107   0.0301  -0.0277   7.00    1.1
2024/05/09 15:19:08.000   28.252444298  -16.459840096   923.4410   2   7   0.0212   0.0288   0.0733  -0.0107   0.0301  -0.0277   8.00    1.0
2024/05/09 15:19:09.000   28.252444298  -16.459840095   923.4410   2   7   0.0212   0.0288   0.0733  -0.0107   0.0301  -0.0277   9.00    1.1
2024/05/09 15:19:10.000   28.252444298  -16.459840094   923.4410   2   7   0.0212   0.0288   0.0733  -0.0107   0.0301  -0.0277  10.00    1.1
2024/05/09 15:19:11.000   28.252444298  -16.459840093   923.4410   2   7   0.0212   0.0288   0.0733  -0.0107   0.0301  -0.0277  11.00    1.0
2024/05/09 15:19:12.000   28.252444299  -16.459840093   923.4410   2   7   0.0212   0.0288   0.0733  -0.0107   0.0301  -0.0277  12.00    1.1
2024/05/09 15:19:13.000   28.252444299  -16.459840092   923.4410   2   7   0.0212   0.0288   0.0733  -0.0107   0.0301  -0.0277  13.00    1.1
2024/05/09 15:19:14.000   28.252444299  -16.459840092   923.4409   2   7   0.0212   0.0288   0.0733  -0.0107   0.0301  -0.0277  14.00    1.1
2024/05/09 15:19:15.000   28.252444300  -16.459840092   923.4408   2   7   0.0212   0.0288   0.0733  -0.0107   0.0301  -0.0277 -15.00    1.0
2024/05/09 15:19:16.000   28.252444300  -16.459840091   923.4407   2   7   0.0212   0.0288   0.0733  -0.0107   0.0301  -0.0277 -14.00    1.0
2024/05/09 15:19:17.000   28.252444301  -16.459840090   923.4406   2   7   0.0212   0.0288   0.0733  -0.0107   0.0301  -0.0277 -13.00    1.1
2024/05/09 15:19:18.000   28.252444301  -16.459840089   923.4406   2   7   0.0212   0.0288   0.0733  -0.0107   0.0301  -0.0277 -12.00    1.1
2024/05/09 15:19:19.000   28.252444301  -16.459840088   923.4405   2   7   0.0212   0.0288   0.0733  -0.0107   0.0301  -0.0277 -11.00    1.1
2024/05/09 15:19:20.000   28.252444301  -16.459840088   923.4405   2   7   0.0212   0.0288   0.0733  -0.0107   0.0301  -0.0277 -10.00    1.1
2024/05/09 15:19:21.000   28.252444301  -16.459840087   923.4404   2   7   0.0212   0.0288   0.0733  -0.0107   0.0301  -0.0277  -9.00    1.1
2024/05/09 15:19:22.000   28.252444302  -16.459840087   923.4401   2   7   0.0212   0.0288   0.0733  -0.0107   0.0301  -0.0277  -8.00    1.1
2024/05/09 15:19:23.000   28.252444302  -16.459840087   923.4400   2   7   0.0212   0.0288   0.0733  -0.0107   0.0301  -0.0277  -7.00    1.0
2024/05/09 15:19:24.000   28.252444302  -16.459840085   923.4399   2   7   0.0212   0.0288   0.0733  -0.0106   0.0300  -0.0277  -6.00    1.1
2024/05/09 15:19:25.000   28.252444303  -16.459840083   923.4395   2   7   0.0212   0.0288   0.0733  -0.0106   0.0300  -0.0276  -5.00    1.1
2024/05/09 15:19:26.000   28.252444304  -16.459840082   923.4391   2   7   0.0212   0.0288   0.0733  -0.0106   0.0300  -0.0276  -4.00    1.1
2024/05/09 15:19:27.000   28.252444306  -16.459840081   923.4385   2   7   0.0212   0.0288   0.0733  -0.0106   0.0300  -0.0276  -3.00    1.1
2024/05/09 15:19:28.000   28.252444308  -16.459840081   923.4377   2   7   0.0212   0.0288   0.0733  -0.0106   0.0300  -0.0276  -2.00    1.1
2024/05/09 15:19:29.000   28.252444310  -16.459840081   923.4369   2   7   0.0212   0.0288   0.0734  -0.0106   0.0300  -0.0276  -1.00    1.1
2024/05/09 15:19:30.000   28.252444313  -16.459840080   923.4363   2   7   0.0212   0.0288   0.0734  -0.0106   0.0300  -0.0276   0.00    1.1
2024/05/09 15:19:31.000   28.252444317  -16.459840080   923.4358   2   7   0.0212   0.0288   0.0734  -0.0106   0.0300  -0.0276   1.00    1.3
2024/05/09 15:19:32.000   28.252444321  -16.459840080   923.4357   2   7   0.0212   0.0288   0.0734  -0.0106   0.0300  -0.0276   2.00    1.0
2024/05/09 15:19:33.000   28.252444322  -16.459840079   923.4353   2   7   0.0212   0.0288   0.0735  -0.0106   0.0300  -0.0276   3.00    1.2
2024/05/09 15:19:34.000   28.252444323  -16.459840078   923.4351   2   7   0.0212   0.0288   0.0735  -0.0106   0.0300  -0.0276   4.00    1.1
2024/05/09 15:19:35.000   28.252444324  -16.459840076   923.4350   2   7   0.0212   0.0288   0.0735  -0.0106   0.0300  -0.0276   5.00    1.1
2024/05/09 15:19:36.000   28.252444325  -16.459840074   923.4347   2   7   0.0212   0.0288   0.0735  -0.0106   0.0300  -0.0276   6.00    1.0
2024/05/09 15:19:37.000   28.252444326  -16.459840072   923.4345   2   7   0.0212   0.0288   0.0735  -0.0106   0.0300  -0.0276   7.00    1.4
2024/05/09 15:19:38.000   28.252444326  -16.459840070   923.4343   2   7   0.0212   0.0288   0.0735  -0.0105   0.0300  -0.0276   8.00    1.3
2024/05/09 15:19:39.000   28.252444327  -16.459840069   923.4340   2   7   0.0212   0.0288   0.0735  -0.0105   0.0300  -0.0276   9.00    1.0
2024/05/09 15:19:40.000   28.252444327  -16.459840067   923.4338   2   7   0.0212   0.0288   0.0735  -0.0105   0.0300  -0.0276  10.00    1.0
2024/05/09 15:19:41.000   28.252444327  -16.459840065   923.4337   2   7   0.0212   0.0288   0.0735  -0.0105   0.0300  -0.0276  11.00    1.1
2024/05/09 15:19:42.000   28.252444327  -16.459840063   923.4336   2   7   0.0212   0.0288   0.0735  -0.0105   0.0300  -0.0276  12.00    1.1
2024/05/09 15:19:43.000   28.252444327  -16.459840061   923.4334   2   7   0.0212   0.0288   0.0735  -0.0105   0.0300  -0.0276  13.00    1.1
2024/05/09 15:19:44.000   28.252444328  -16.459840058   923.4335   2   7   0.0212   0.0288   0.0735  -0.0105   0.0300  -0.0276  14.00    1.3
2024/05/09 15:19:45.000   28.252444328  -16.459840056   923.4337   2   7   0.0212   0.0288   0.0735  -0.0105   0.0300  -0.0276 -15.00    1.3
2024/05/09 15:19:46.000   28.252444328  -16.459840053   923.4338   2   7   0.0212   0.0288   0.0735  -0.0105   0.0300  -0.0276 -14.00    1.0
2024/05/09 15:19:47.000   28.252444329  -16.459840050   923.4338   2   7   0.0212   0.0288   0.0735  -0.0105   0.0300  -0.0276 -13.00    1.1
2024/05/09 15:19:48.000   28.252444330  -16.459840046   923.4338   2   7   0.0212   0.0288   0.0735  -0.0105   0.0300  -0.0276 -12.00    1.1
2024/05/09 15:19:49.000   28.252444331  -16.459840042   923.4339   2   7   0.0212   0.0288   0.0735  -0.0105   0.0300  -0.0276 -11.00    1.2
2024/05/09 15:19:50.000   28.252444331  -16.459840038   923.4341   2   7   0.0212   0.0288   0.0735  -0.0105   0.0299  -0.0276 -10.00    1.1
2024/05/09 15:19:51.000   28.252444331  -16.459840034   923.4345   2   7   0.0212   0.0288   0.0735  -0.0105   0.0299  -0.0276  -9.00    1.2
2024/05/09 15:19:52.000   28.252444332  -16.459840030   923.4348   2   7   0.0212   0.0288   0.0735  -0.0105   0.0299  -0.0276  -8.00    1.3
2024/05/09 15:19:53.000   28.252444332  -16.459840026   923.4351   2   7   0.0212   0.0288   0.0735  -0.0105   0.0299  -0.0276  -7.00    1.0
2024/05/09 15:19:54.000   28.252444331  -16.459840023   923.4353   2   7   0.0212   0.0288   0.0735  -0.0105   0.0299  -0.0276  -6.00    1.2
2024/05/09 15:19:55.000   28.252444331  -16.459840021   923.4351   2   7   0.0212   0.0288   0.0735  -0.0105   0.0299  -0.0276  -5.00    1.1
2024/05/09 15:19:56.000   28.252444331  -16.459840019   923.4350   2   7   0.0212   0.0288   0.0735  -0.0105   0.0299  -0.0276  -4.00    1.3
2024/05/09 15:19:57.000   28.252444331  -16.459840019   923.4348   2   7   0.0212   0.0288   0.0735  -0.0105   0.0299  -0.0276  -3.00    1.0
2024/05/09 15:19:58.000   28.252444332  -16.459840019   923.4347   2   7   0.0212   0.0288   0.0735  -0.0105   0.0299  -0.0276  -2.00    1.0
2024/05/09 15:19:59.000   28.252444333  -16.459840019   923.4346   2   7   0.0212   0.0288   0.0735  -0.0105   0.0299  -0.0276  -1.00    1.2
2024/05/09 15:20:00.000   28.252444333  -16.459840019   923.4351   2   7   0.0212   0.0288   0.0735  -0.0105   0.0299  -0.0276   0.00    1.0
2024/05/09 15:20:01.000   28.252444334  -16.459840019   923.4355   2   7   0.0212   0.0288   0.0735  -0.0104   0.0299  -0.0276   1.00    1.1
2024/05/09 15:20:02.000   28.252444337  -16.459840018   923.4357   2   7   0.0213   0.0288   0.0735  -0.0104   0.0299  -0.0276   2.00    1.0
2024/05/09 15:20:03.000   28.252444340  -16.459840019   923.4355   2   7   0.0213   0.0288   0.0735  -0.0104   0.0299  -0.0276   3.00    1.3
2024/05/09 15:20:04.000   28.252444341  -16.459840022   923.4355   2   7   0.0213   0.0288   0.0735  -0.0104   0.0299  -0.0276   4.00    1.0
2024/05/09 15:20:05.000   28.252444343  -16.459840025   923.4351   2   7   0.0213   0.0288   0.0736  -0.0104   0.0299  -0.0276   5.00    1.4
2024/05/09 15:20:06.000   28.252444343  -16.459840027   923.4350   2   7   0.0213   0.0288   0.0736  -0.0104   0.0299  -0.0276   6.00    1.4
2024/05/09 15:20:07.000   28.252444344  -16.459840029   923.4345   2   7   0.0213   0.0288   0.0736  -0.0104   0.0299  -0.0276   7.00    1.0
2024/05/09 15:20:08.000   28.252444345  -16.459840032   923.4339   2   7   0.0213   0.0288   0.0736  -0.0104   0.0299  -0.0275   8.00    1.0
2024/05/09 15:20:09.000   28.252444346  -16.459840034   923.4335   2   7   0.0213   0.0288   0.0736  -0.0104   0.0299  -0.0275   9.00    1.0
2024/05/09 15:20:10.000   28.252444347  -16.459840035   923.4333   2   7   0.0213   0.0288   0.0736  -0.0104   0.0299  -0.0275  10.00    1.2
2024/05/09 15:20:11.000   28.252444348  -16.459840036   923.4331   2   7   0.0213   0.0288   0.0736  -0.0104   0.0298  -0.0275  11.00    1.1
2024/05/09 15:20:12.000   28.252444348  -16.459840038   923.4329   2   7   0.0213   0.0288   0.0736  -0.0104   0.0298  -0.0275  12.00    1.3
2024/05/09 15:20:13.000   28.252444348  -16.459840038   923.4327   2   7   0.0213   0.0288   0.0736  -0.0104   0.0298  -0.0275  13.00    1.3
2024/05/09 15:20:14.000   28.252444349  -16.459840040   923.4324   2   7   0.0213   0.0288   0.0736  -0.0104   0.0298  -0.0275  14.00    1.0
2024/05/09 15:20:15.000   28.252444349  -16.459840040   923.4323   2   7   0.0213   0.0288   0.0735  -0.0104   0.0298  -0.0275 -15.00    1.1
2024/05/09 15:20:16.000   28.252444349  -16.459840041   923.4322   2   7   0.0213   0.0288   0.0735  -0.0104   0.0298  -0.0275 -14.00    1.0
2024/05/09 15:20:17.000   28.252444349  -16.459840042   923.4319   2   7   0.0213   0.0288   0.0735  -0.0104   0.0298  -0.0275 -13.00    1.2
2024/05/09 15:20:18.000   28.252444350  -16.459840042   923.4316   2   7   0.0213   0.0288   0.0735  -0.0104   0.0298  -0.0275 -12.00    1.1
2024/05/09 15:20:19.000   28.252444350  -16.459840043   923.4313   2   7   0.0213   0.0288   0.0735  -0.0104   0.0298  -0.0275 -11.00    1.2
2024/05/09 15:20:20.000   28.252444350  -16.459840044   923.4309   2   7   0.0213   0.0288   0.0735  -0.0104   0.0298  -0.0275 -10.00    1.4
2024/05/09 15:20:21.000   28.252444349  -16.459840044   923.4307   2   7   0.0213   0.0288   0.0735  -0.0104   0.0298  -0.0275  -9.00    1.0
2024/05/09 15:20:22.000   28.252444349  -16.459840045   923.4306   2   7   0.0213   0.0288   0.0735  -0.0103   0.0298  -0.0275  -8.00    1.2
2024/05/09 15:20:23.000   28.252444348  -16.459840045   923.4307   2   7   0.0213   0.0288   0.0735  -0.0103   0.0298  -0.0275  -7.00    1.0
2024/05/09 15:20:24.000   28.252444348  -16.459840047   923.4305   2   7   0.0213   0.0288   0.0735  -0.0103   0.0298  -0.0275  -6.00    1.1
2024/05/09 15:20:25.000   28.252444348  -16.459840048   923.4305   2   7   0.0213   0.0288   0.0735  -0.0103   0.0298  -0.0275  -5.00    1.1
2024/05/09 15:20:26.000   28.252444348  -16.459840050   923.4308   2   7   0.0213   0.0288   0.0735  -0.0103   0.0298  -0.0275  -4.00    1.2
2024/05/09 15:20:27.000   28.252444347  -16.459840051   923.4311   2   7   0.0213   0.0288   0.0735  -0.0103   0.0298  -0.0275  -3.00    1.4
2024/05/09 15:20:28.000   28.252444345  -16.459840054   923.4311   2   7   0.0213   0.0288   0.0735  -0.0103   0.0297  -0.0275  -2.00    1.0
2024/05/09 15:20:29.000   28.252444343  -16.459840057   923.4312   2   7   0.0213   0.0288   0.0735  -0.0103   0.0297  -0.0275  -1.00    1.2
2024/05/09 15:20:30.000   28.252444342  -16.459840060   923.4314   2   7   0.0213   0.0288   0.0735  -0.0103   0.0297  -0.0275   0.00    1.0
2024/05/09 15:20:31.000   28.252444342  -16.459840061   923.4319   2   7   0.0213   0.0288   0.0735  -0.0103   0.0297  -0.0275   1.00    1.1
2024/05/09 15:20:32.000   28.252444341  -16.459840060   923.4327   2   7   0.0213   0.0288   0.0735  -0.0103   0.0297  -0.0275   2.00    1.1
2024/05/09 15:20:33.000   28.252444340  -16.459840060   923.4331   2   7   0.0213   0.0288   0.0735  -0.0103   0.0297  -0.0275   3.00    1.8
2024/05/09 15:20:34.000   28.252444339  -16.459840058   923.4335   2   7   0.0213   0.0288   0.0735  -0.0103   0.0297  -0.0275   4.00    1.0
2024/05/09 15:20:35.000   28.252444338  -16.459840057   923.4338   2   7   0.0213   0.0288   0.0735  -0.0103   0.0297  -0.0275   5.00    1.7
2024/05/09 15:20:36.000   28.252444337  -16.459840056   923.4339   2   7   0.0213   0.0288   0.0735  -0.0103   0.0297  -0.0275   6.00    1.3
2024/05/09 15:20:37.000   28.252444337  -16.459840055   923.4339   2   7   0.0213   0.0288   0.0735  -0.0103   0.0297  -0.0275   7.00    1.7
2024/05/09 15:20:38.000   28.252444337  -16.459840054   923.4339   2   7   0.0213   0.0288   0.0735  -0.0103   0.0297  -0.0275   8.00    1.6
2024/05/09 15:20:39.000   28.252444337  -16.459840053   923.4339   2   7   0.0213   0.0288   0.0735  -0.0103   0.0297  -0.0275   9.00    1.6
2024/05/09 15:20:40.000   28.252444337  -16.459840051   923.4340   2   7   0.0213   0.0288   0.0735  -0.0103   0.0297  -0.0275  10.00    1.3
2024/05/09 15:20:41.000   28.252444337  -16.459840049   923.4341   2   7   0.0213   0.0288   0.0735  -0.0103   0.0297  -0.0275  11.00    1.6
2024/05/09 15:20:42.000   28.252444337  -16.459840047   923.4341   2   7   0.0213   0.0288   0.0735  -0.0103   0.0297  -0.0275  12.00    1.2
2024/05/09 15:20:43.000   28.252444337  -16.459840045   923.4341   2   7   0.0213   0.0288   0.0735  -0.0103   0.0297  -0.0275  13.00    1.3
2024/05/09 15:20:44.000   28.252444337  -16.459840044   923.4341   2   7   0.0213   0.0288   0.0735  -0.0103   0.0297  -0.0275  14.00    1.1
2024/05/09 15:20:45.000   28.252444338  -16.459840042   923.4341   2   7   0.0213   0.0288   0.0735  -0.0102   0.0297  -0.0275 -15.00    1.5
2024/05/09 15:20:46.000   28.252444338  -16.459840040   923.4342   2   7   0.0213   0.0287   0.0735  -0.0102   0.0297  -0.0275 -14.00    1.6
2024/05/09 15:20:47.000   28.252444338  -16.459840039   923.4342   2   7   0.0213   0.0287   0.0735  -0.0102   0.0297  -0.0274 -13.00    1.0
2024/05/09 15:20:48.000   28.252444338  -16.459840036   923.4343   2   7   0.0213   0.0287   0.0735  -0.0102   0.0296  -0.0274 -12.00    1.0
2024/05/09 15:20:49.000   28.252444338  -16.459840034   923.4344   2   7   0.0213   0.0287   0.0735  -0.0102   0.0296  -0.0274 -11.00    1.0
2024/05/09 15:20:50.000   28.252444338  -16.459840032   923.4346   2   7   0.0213   0.0287   0.0734  -0.0102   0.0296  -0.0274 -10.00    1.2
2024/05/09 15:20:51.000   28.252444338  -16.459840030   923.4349   2   7   0.0213   0.0287   0.0734  -0.0102   0.0296  -0.0274  -9.00    1.1
2024/05/09 15:20:52.000   28.252444338  -16.459840028   923.4351   2   7   0.0213   0.0287   0.0734  -0.0102   0.0296  -0.0274  -8.00    1.4
2024/05/09 15:20:53.000   28.252444338  -16.459840027   923.4352   2   7   0.0213   0.0287   0.0734  -0.0102   0.0296  -0.0274  -7.00    1.6
2024/05/09 15:20:54.000   28.252444337  -16.459840025   923.4357   2   7   0.0213   0.0287   0.0734  -0.0102   0.0296  -0.0274  -6.00    1.0
2024/05/09 15:20:55.000   28.252444337  -16.459840023   923.4362   2   7   0.0213   0.0287   0.0734  -0.0102   0.0296  -0.0274  -5.00    1.0
2024/05/09 15:20:56.000   28.252444336  -16.459840022   923.4364   2   7   0.0213   0.0287   0.0734  -0.0102   0.0296  -0.0274  -4.00    1.1
2024/05/09 15:20:57.000   28.252444335  -16.459840022   923.4365   2   7   0.0213   0.0287   0.0734  -0.0102   0.0296  -0.0274  -3.00    1.2
2024/05/09 15:20:58.000   28.252444334  -16.459840022   923.4368   2   7   0.0213   0.0287   0.0734  -0.0102   0.0296  -0.0274  -2.00    1.2
2024/05/09 15:20:59.000   28.252444333  -16.459840024   923.4372   2   7   0.0213   0.0287   0.0734  -0.0102   0.0296  -0.0274  -1.00    1.3
2024/05/09 15:21:00.000   28.252444332  -16.459840023   923.4380   2   7   0.0213   0.0287   0.0733  -0.0102   0.0296  -0.0274   0.00    1.6
2024/05/09 15:21:01.000   28.252444332  -16.459840023   923.4386   2   7   0.0213   0.0287   0.0733  -0.0102   0.0295  -0.0274   1.00    1.1
2024/05/09 15:21:02.000   28.252444332  -16.459840023   923.4393   2   7   0.0213   0.0287   0.0733  -0.0102   0.0295  -0.0274   2.00    1.2
2024/05/09 15:21:03.000   28.252444332  -16.459840023   923.4397   2   7   0.0213   0.0287   0.0733  -0.0102   0.0295  -0.0274   3.00    1.2
2024/05/09 15:21:04.000   28.252444332  -16.459840023   923.4403   2   7   0.0213   0.0287   0.0733  -0.0102   0.0295  -0.0274   4.00    1.1
2024/05/09 15:21:05.000   28.252444331  -16.459840023   923.4405   2   7   0.0213   0.0287   0.0733  -0.0102   0.0295  -0.0274   5.00    1.0
2024/05/09 15:21:06.000   28.252444331  -16.459840023   923.4409   2   7   0.0213   0.0287   0.0733  -0.0102   0.0295  -0.0274   6.00    1.7
2024/05/09 15:21:07.000   28.252444331  -16.459840023   923.4410   2   7   0.0213   0.0287   0.0733  -0.0102   0.0295  -0.0274   7.00    1.1
2024/05/09 15:21:08.000   28.252444331  -16.459840023   923.4410   2   7   0.0213   0.0287   0.0733  -0.0102   0.0295  -0.0274   8.00    1.7
2024/05/09 15:21:09.000   28.252444331  -16.459840024   923.4413   2   7   0.0213   0.0287   0.0733  -0.0102   0.0295  -0.0274   9.00    1.4
2024/05/09 15:21:10.000   28.252444331  -16.459840025   923.4414   2   7   0.0213   0.0287   0.0733  -0.0102   0.0295  -0.0274  10.00    1.6
2024/05/09 15:21:11.000   28.252444331  -16.459840026   923.4414   2   7   0.0213   0.0287   0.0733  -0.0102   0.0295  -0.0274  11.00    1.6
2024/05/09 15:21:12.000   28.252444331  -16.459840027   923.4415   2   7   0.0213   0.0287   0.0733  -0.0102   0.0295  -0.0274  12.00    1.6
2024/05/09 15:21:13.000   28.252444331  -16.459840028   923.4414   2   7   0.0213   0.0287   0.0733  -0.0102   0.0295  -0.0274  13.00    1.4
2024/05/09 15:21:14.000   28.252444331  -16.459840030   923.4415   2   7   0.0213   0.0287   0.0733  -0.0102   0.0295  -0.0274  14.00    1.5
2024/05/09 15:21:15.000   28.252444331  -16.459840030   923.4415   2   7   0.0213   0.0287   0.0733  -0.0102   0.0295  -0.0274 -15.00    1.1
2024/05/09 15:21:16.000   28.252444331  -16.459840031   923.4418   2   7   0.0213   0.0287   0.0733  -0.0102   0.0295  -0.0274 -14.00    1.3
2024/05/09 15:21:17.000   28.252444331  -16.459840031   923.4419   2   7   0.0213   0.0287   0.0733  -0.0101   0.0295  -0.0274 -13.00    1.0
2024/05/09 15:21:18.000   28.252444331  -16.459840031   923.4422   2   7   0.0213   0.0287   0.0733  -0.0101   0.0295  -0.0274 -12.00    1.5
2024/05/09 15:21:19.000   28.252444331  -16.459840032   923.4424   2   7   0.0213   0.0287   0.0733  -0.0101   0.0295  -0.0274 -11.00    1.6
2024/05/09 15:21:20.000   28.252444331  -16.459840032   923.4425   2   7   0.0213   0.0287   0.0732  -0.0101   0.0294  -0.0274 -10.00    1.1
2024/05/09 15:21:21.000   28.252444332  -16.459840033   923.4426   2   7   0.0213   0.0287   0.0732  -0.0101   0.0294  -0.0274  -9.00    1.1
2024/05/09 15:21:22.000   28.252444332  -16.459840034   923.4429   2   7   0.0213   0.0287   0.0732  -0.0101   0.0294  -0.0274  -8.00    1.2
2024/05/09 15:21:23.000   28.252444333  -16.459840034   923.4434   2   7   0.0213   0.0287   0.0732  -0.0101   0.0294  -0.0274  -7.00    1.2
2024/05/09 15:21:24.000   28.252444333  -16.459840034   923.4437   2   7   0.0213   0.0287   0.0732  -0.0101   0.0294  -0.0274  -6.00    1.1
2024/05/09 15:21:25.000   28.252444334  -16.459840034   923.4441   2   7   0.0213   0.0286   0.0732  -0.0101   0.0294  -0.0274  -5.00    1.3
2024/05/09 15:21:26.000   28.252444334  -16.459840035   923.4444   2   7   0.0213   0.0286   0.0732  -0.0101   0.0294  -0.0274  -4.00    1.6
2024/05/09 15:21:27.000   28.252444335  -16.459840037   923.4444   2   7   0.0213   0.0286   0.0732  -0.0101   0.0294  -0.0274  -3.00    1.0
2024/05/09 15:21:28.000   28.252444335  -16.459840039   923.4444   2   7   0.0213   0.0286   0.0731  -0.0101   0.0294  -0.0274  -2.00    1.0
2024/05/09 15:21:29.000   28.252444336  -16.459840039   923.4449   2   7   0.0213   0.0286   0.0731  -0.0101   0.0294  -0.0274  -1.00    1.2
2024/05/09 15:21:30.000   28.252444337  -16.459840038   923.4454   2   7   0.0213   0.0286   0.0731  -0.0101   0.0294  -0.0274   0.00    1.2
2024/05/09 15:21:31.000   28.252444339  -16.459840039   923.4460   2   7   0.0213   0.0286   0.0731  -0.0101   0.0293  -0.0273   1.00    1.2
2024/05/09 15:21:32.000   28.252444341  -16.459840040   923.4463   2   7   0.0213   0.0286   0.0731  -0.0101   0.0293  -0.0273   2.00    1.5
2024/05/09 15:21:33.000   28.252444342  -16.459840039   923.4464   2   7   0.0213   0.0286   0.0731  -0.0101   0.0293  -0.0273   3.00    1.3
2024/05/09 15:21:34.000   28.252444343  -16.459840038   923.4467   2   7   0.0213   0.0286   0.0731  -0.0101   0.0293  -0.0273   4.00    1.1
2024/05/09 15:21:35.000   28.252444343  -16.459840037   923.4467   2   7   0.0213   0.0286   0.0730  -0.0101   0.0293  -0.0273   5.00    1.3
2024/05/09 15:21:36.000   28.252444343  -16.459840036   923.4467   2   7   0.0213   0.0286   0.0730  -0.0101   0.0293  -0.0273   6.00    1.2
2024/05/09 15:21:37.000   28.252444343  -16.459840035   923.4465   2   7   0.0213   0.0286   0.0730  -0.0101   0.0293  -0.0273   7.00    1.2
2024/05/09 15:21:38.000   28.252444343  -16.459840032   923.4463   2   7   0.0213   0.0286   0.0730  -0.0101   0.0293  -0.0273   8.00    1.1
2024/05/09 15:21:39.000   28.252444342  -16.459840030   923.4463   2   7   0.0213   0.0286   0.0730  -0.0101   0.0293  -0.0273   9.00    1.7
2024/05/09 15:21:40.000   28.252444343  -16.459840028   923.4463   2   7   0.0213   0.0286   0.0730  -0.0101   0.0293  -0.0273  10.00    1.1
2024/05/09 15:21:41.000   28.252444343  -16.459840026   923.4463   2   7   0.0213   0.0286   0.0730  -0.0101   0.0293  -0.0273  11.00    1.6
2024/05/09 15:21:42.000   28.252444343  -16.459840024   923.4463   2   7   0.0213   0.0286   0.0730  -0.0101   0.0293  -0.0273  12.00    1.4
2024/05/09 15:21:43.000   28.252444343  -16.459840023   923.4464   2   7   0.0213   0.0286   0.0730  -0.0101   0.0293  -0.0273  13.00    1.6
2024/05/09 15:21:44.000   28.252444343  -16.459840022   923.4465   2   7   0.0213   0.0286   0.0730  -0.0101   0.0293  -0.0273  14.00    1.6
2024/05/09 15:21:45.000   28.252444343  -16.459840021   923.4467   2   7   0.0213   0.0286   0.0730  -0.0101   0.0293  -0.0273 -15.00    1.6
