% program   : RTKPOST-EX 2.5.0
% inp file  : C:\Users\SallyHenry\Desktop\Sally Internship\GNSS gravi\DATA\Survey Rover Obs\GUI01.24o
% inp file  : C:\Users\SallyHenry\Desktop\Sally Internship\GNSS gravi\DATA\BaseStations\IZAN\IZAN00ESP_R_20241270000_01D_30S_MO.rnx
% inp file  : C:\Users\SallyHenry\Desktop\Sally Internship\GNSS gravi\DATA\BaseStations\IZAN\IZAN00ESP_R_20241270000_01D_MN.rnx
% inp file  : C:\Users\SallyHenry\Desktop\Sally Internship\GNSS gravi\DATA\aux_files\Survey\IGS0OPSFIN_20241270000_01D_15M_ORB.SP3
% inp file  : C:\Users\SallyHenry\Desktop\Sally Internship\GNSS gravi\DATA\aux_files\Survey\IGS0OPSFIN_20241270000_01D_30S_CLK.CLK
% obs start : 2024/05/06 12:43:53.0 GPST (week2313 132233.0s)
% obs end   : 2024/05/06 12:58:56.0 GPST (week2313 133136.0s)
% pos mode  : Static
% freqs     : L1+L2/E5b
% solution  : Combined-No Phase Reset
% elev mask : 15.0 deg
% dynamics  : on
% tidecorr  : solid
% ionos opt : Estimate TEC
% tropo opt : Estimate ZTD+Grad
% ephemeris : Precise
% navi sys  : GPS GLONASS Galileo QZSS BDS
% amb res   : Fix and Hold
% amb glo   : Fix and Hold
% amb bds   : on
% val thres : 3.0
% antenna1  :                       ( 0.0000  0.0000  1.8000)
% antenna2  :                       ( 0.0000  0.0000  0.0000)
% ref pos   :  28.308069410  -16.499677180  2417.4044
%
% (lat/lon/height=WGS84/ellipsoidal,Q=1:fix,2:float,3:sbas,4:dgps,5:single,6:ppp,ns=# of satellites)
%  GPST                  latitude(deg) longitude(deg)  height(m)   Q  ns   sdn(m)   sde(m)   sdu(m)  sdne(m)  sdeu(m)  sdun(m) age(s)  ratio
2024/05/06 12:43:53.000   28.320580912  -16.439889834   834.8373   1   8   0.0018   0.0011   0.0241  -0.0008  -0.0028   0.0040  -7.00   28.4
2024/05/06 12:43:54.000   28.320580912  -16.439889834   834.8366   1   8   0.0018   0.0011   0.0241  -0.0008  -0.0028   0.0040  -6.00   27.7
2024/05/06 12:43:55.000   28.320580912  -16.439889834   834.8358   1   8   0.0018   0.0011   0.0241  -0.0008  -0.0028   0.0040  -5.00   26.7
2024/05/06 12:43:56.000   28.320580912  -16.439889834   834.8349   1   8   0.0018   0.0011   0.0241  -0.0008  -0.0027   0.0040  -4.00   24.9
2024/05/06 12:43:57.000   28.320580912  -16.439889834   834.8339   1   8   0.0018   0.0011   0.0242  -0.0008  -0.0027   0.0040  -3.00   21.6
2024/05/06 12:43:58.000   28.320580912  -16.439889834   834.8329   1   8   0.0018   0.0011   0.0242  -0.0008  -0.0027   0.0040  -2.00   16.0
2024/05/06 12:43:59.000   28.320580912  -16.439889834   834.8313   1   8   0.0018   0.0012   0.0243  -0.0008  -0.0027   0.0040  -1.00    9.2
2024/05/06 12:44:00.000   28.320580910  -16.439889832   834.8400   1   8   0.0018   0.0011   0.0239  -0.0008  -0.0028   0.0040   0.00   41.3
2024/05/06 12:44:01.000   28.320580910  -16.439889832   834.8388   1   8   0.0018   0.0011   0.0239  -0.0008  -0.0028   0.0040   1.00   41.4
2024/05/06 12:44:02.000   28.320580910  -16.439889832   834.8375   1   8   0.0018   0.0012   0.0240  -0.0008  -0.0028   0.0040   2.00   41.4
2024/05/06 12:44:03.000   28.320580910  -16.439889832   834.8361   1   8   0.0018   0.0012   0.0240  -0.0008  -0.0028   0.0040   3.00   41.4
2024/05/06 12:44:04.000   28.320580910  -16.439889832   834.8350   1   8   0.0018   0.0012   0.0241  -0.0008  -0.0028   0.0040   4.00   41.3
2024/05/06 12:44:05.000   28.320580910  -16.439889832   834.8341   1   8   0.0018   0.0012   0.0241  -0.0008  -0.0028   0.0040   5.00   40.8
2024/05/06 12:44:06.000   28.320580910  -16.439889832   834.8332   1   8   0.0018   0.0012   0.0241  -0.0008  -0.0028   0.0040   6.00   40.4
2024/05/06 12:44:07.000   28.320580910  -16.439889832   834.8324   1   8   0.0018   0.0012   0.0241  -0.0008  -0.0028   0.0040   7.00   40.0
2024/05/06 12:44:08.000   28.320580910  -16.439889832   834.8317   1   8   0.0018   0.0012   0.0242  -0.0008  -0.0028   0.0040   8.00   39.5
2024/05/06 12:44:09.000   28.320580910  -16.439889832   834.8312   1   8   0.0018   0.0012   0.0242  -0.0008  -0.0028   0.0040   9.00   38.9
2024/05/06 12:44:10.000   28.320580910  -16.439889832   834.8307   1   8   0.0018   0.0012   0.0242  -0.0008  -0.0028   0.0040  10.00   38.3
2024/05/06 12:44:11.000   28.320580910  -16.439889832   834.8302   1   8   0.0018   0.0012   0.0242  -0.0008  -0.0028   0.0040  11.00   37.7
2024/05/06 12:44:12.000   28.320580910  -16.439889832   834.8298   1   8   0.0018   0.0012   0.0242  -0.0008  -0.0028   0.0040  12.00   37.1
2024/05/06 12:44:13.000   28.320580910  -16.439889832   834.8294   1   8   0.0018   0.0012   0.0242  -0.0008  -0.0028   0.0040  13.00   36.5
2024/05/06 12:44:14.000   28.320580910  -16.439889832   834.8290   1   8   0.0018   0.0012   0.0242  -0.0008  -0.0028   0.0040  14.00   35.8
2024/05/06 12:44:15.000   28.320580910  -16.439889832   834.8288   1   8   0.0018   0.0012   0.0242  -0.0008  -0.0028   0.0040  15.00   35.2
2024/05/06 12:44:16.000   28.320580910  -16.439889832   834.8285   1   8   0.0018   0.0012   0.0242  -0.0008  -0.0028   0.0040 -14.00   34.6
2024/05/06 12:44:17.000   28.320580910  -16.439889832   834.8282   1   8   0.0018   0.0012   0.0243  -0.0008  -0.0028   0.0040 -13.00   34.0
2024/05/06 12:44:18.000   28.320580910  -16.439889832   834.8279   1   8   0.0018   0.0011   0.0243  -0.0008  -0.0028   0.0040 -12.00   33.3
2024/05/06 12:44:19.000   28.320580910  -16.439889832   834.8275   1   8   0.0018   0.0011   0.0243  -0.0008  -0.0028   0.0040 -11.00   32.6
2024/05/06 12:44:20.000   28.320580910  -16.439889832   834.8271   1   8   0.0018   0.0011   0.0243  -0.0008  -0.0028   0.0040 -10.00   32.0
2024/05/06 12:44:21.000   28.320580910  -16.439889832   834.8266   1   8   0.0018   0.0011   0.0243  -0.0008  -0.0028   0.0040  -9.00   31.3
2024/05/06 12:44:22.000   28.320580910  -16.439889832   834.8261   1   8   0.0018   0.0011   0.0243  -0.0008  -0.0028   0.0040  -8.00   30.6
2024/05/06 12:44:23.000   28.320580910  -16.439889832   834.8256   1   8   0.0018   0.0011   0.0243  -0.0008  -0.0028   0.0040  -7.00   29.8
2024/05/06 12:44:24.000   28.320580910  -16.439889832   834.8249   1   8   0.0018   0.0011   0.0244  -0.0008  -0.0028   0.0040  -6.00   29.1
2024/05/06 12:44:25.000   28.320580910  -16.439889832   834.8241   1   8   0.0018   0.0011   0.0244  -0.0008  -0.0028   0.0040  -5.00   28.1
2024/05/06 12:44:26.000   28.320580910  -16.439889832   834.8232   1   8   0.0018   0.0011   0.0244  -0.0008  -0.0028   0.0040  -4.00   26.2
2024/05/06 12:44:27.000   28.320580910  -16.439889832   834.8222   1   8   0.0018   0.0011   0.0245  -0.0008  -0.0028   0.0040  -3.00   22.5
2024/05/06 12:44:28.000   28.320580910  -16.439889832   834.8210   1   8   0.0018   0.0012   0.0245  -0.0008  -0.0028   0.0040  -2.00   16.7
2024/05/06 12:44:29.000   28.320580910  -16.439889832   834.8197   1   8   0.0018   0.0012   0.0245  -0.0008  -0.0028   0.0040  -1.00    9.6
2024/05/06 12:44:30.000   28.320580908  -16.439889830   834.8284   1   8   0.0018   0.0011   0.0241  -0.0008  -0.0028   0.0040   0.00   43.8
2024/05/06 12:44:31.000   28.320580908  -16.439889830   834.8272   1   8   0.0018   0.0012   0.0242  -0.0008  -0.0028   0.0040   1.00   43.7
2024/05/06 12:44:32.000   28.320580908  -16.439889830   834.8259   1   8   0.0018   0.0012   0.0242  -0.0008  -0.0028   0.0040   2.00   43.7
2024/05/06 12:44:33.000   28.320580909  -16.439889830   834.8248   1   8   0.0018   0.0012   0.0243  -0.0008  -0.0028   0.0040   3.00   43.4
2024/05/06 12:44:34.000   28.320580909  -16.439889830   834.8238   1   8   0.0018   0.0012   0.0243  -0.0008  -0.0028   0.0040   4.00   43.2
2024/05/06 12:44:35.000   28.320580909  -16.439889830   834.8228   1   8   0.0018   0.0012   0.0244  -0.0008  -0.0028   0.0040   5.00   42.9
2024/05/06 12:44:36.000   28.320580909  -16.439889830   834.8218   1   8   0.0018   0.0012   0.0244  -0.0008  -0.0028   0.0040   6.00   42.6
2024/05/06 12:44:37.000   28.320580909  -16.439889830   834.8209   1   8   0.0018   0.0012   0.0244  -0.0008  -0.0028   0.0040   7.00   42.1
2024/05/06 12:44:38.000   28.320580909  -16.439889830   834.8201   1   8   0.0018   0.0012   0.0244  -0.0008  -0.0028   0.0040   8.00   41.6
2024/05/06 12:44:39.000   28.320580909  -16.439889830   834.8194   1   8   0.0018   0.0012   0.0245  -0.0008  -0.0028   0.0040   9.00   41.0
2024/05/06 12:44:40.000   28.320580910  -16.439889830   834.8187   1   8   0.0018   0.0012   0.0245  -0.0008  -0.0028   0.0040  10.00   40.3
2024/05/06 12:44:41.000   28.320580910  -16.439889830   834.8181   1   8   0.0018   0.0012   0.0245  -0.0008  -0.0028   0.0040  11.00   39.7
2024/05/06 12:44:42.000   28.320580910  -16.439889830   834.8176   1   8   0.0018   0.0012   0.0245  -0.0008  -0.0028   0.0040  12.00   39.0
2024/05/06 12:44:43.000   28.320580910  -16.439889830   834.8172   1   8   0.0018   0.0012   0.0245  -0.0008  -0.0028   0.0040  13.00   38.4
2024/05/06 12:44:44.000   28.320580910  -16.439889830   834.8168   1   8   0.0018   0.0012   0.0245  -0.0008  -0.0028   0.0040  14.00   37.7
2024/05/06 12:44:45.000   28.320580910  -16.439889830   834.8164   1   8   0.0018   0.0012   0.0245  -0.0008  -0.0028   0.0040  15.00   37.0
2024/05/06 12:44:46.000   28.320580910  -16.439889830   834.8161   1   8   0.0018   0.0012   0.0245  -0.0008  -0.0028   0.0040 -14.00   36.3
2024/05/06 12:44:47.000   28.320580910  -16.439889830   834.8157   1   8   0.0018   0.0012   0.0245  -0.0008  -0.0028   0.0040 -13.00   35.7
2024/05/06 12:44:48.000   28.320580910  -16.439889830   834.8153   1   8   0.0018   0.0012   0.0245  -0.0008  -0.0028   0.0040 -12.00   35.0
2024/05/06 12:44:49.000   28.320580910  -16.439889830   834.8149   1   8   0.0018   0.0012   0.0246  -0.0008  -0.0028   0.0040 -11.00   34.3
2024/05/06 12:44:50.000   28.320580910  -16.439889831   834.8144   1   8   0.0018   0.0011   0.0246  -0.0008  -0.0028   0.0040 -10.00   33.6
2024/05/06 12:44:51.000   28.320580910  -16.439889831   834.8139   1   8   0.0018   0.0011   0.0246  -0.0008  -0.0028   0.0040  -9.00   32.8
2024/05/06 12:44:52.000   28.320580910  -16.439889831   834.8133   1   8   0.0018   0.0011   0.0246  -0.0008  -0.0028   0.0040  -8.00   32.1
2024/05/06 12:44:53.000   28.320580910  -16.439889831   834.8128   1   8   0.0018   0.0011   0.0246  -0.0008  -0.0028   0.0040  -7.00   31.2
2024/05/06 12:44:54.000   28.320580911  -16.439889831   834.8121   1   8   0.0018   0.0011   0.0246  -0.0008  -0.0028   0.0040  -6.00   30.3
2024/05/06 12:44:55.000   28.320580911  -16.439889831   834.8113   1   8   0.0018   0.0011   0.0247  -0.0008  -0.0028   0.0040  -5.00   29.1
2024/05/06 12:44:56.000   28.320580911  -16.439889831   834.8104   1   8   0.0018   0.0011   0.0247  -0.0008  -0.0028   0.0040  -4.00   26.4
2024/05/06 12:44:57.000   28.320580911  -16.439889831   834.8094   1   8   0.0018   0.0012   0.0248  -0.0008  -0.0028   0.0040  -3.00   22.8
2024/05/06 12:44:58.000   28.320580911  -16.439889831   834.8082   1   8   0.0018   0.0012   0.0248  -0.0008  -0.0028   0.0040  -2.00   17.2
2024/05/06 12:44:59.000   28.320580911  -16.439889831   834.8068   1   8   0.0018   0.0012   0.0249  -0.0008  -0.0028   0.0040  -1.00   10.2
2024/05/06 12:45:00.000   28.320580910  -16.439889829   834.8173   1   8   0.0018   0.0012   0.0244  -0.0008  -0.0028   0.0041   0.00   44.3
2024/05/06 12:45:01.000   28.320580910  -16.439889829   834.8161   1   8   0.0018   0.0012   0.0245  -0.0008  -0.0028   0.0041   1.00   43.8
2024/05/06 12:45:02.000   28.320580910  -16.439889829   834.8150   1   8   0.0018   0.0012   0.0245  -0.0008  -0.0028   0.0041   2.00   43.2
2024/05/06 12:45:03.000   28.320580910  -16.439889829   834.8137   1   8   0.0018   0.0012   0.0245  -0.0008  -0.0028   0.0041   3.00   43.0
2024/05/06 12:45:04.000   28.320580910  -16.439889829   834.8129   1   8   0.0018   0.0012   0.0246  -0.0008  -0.0028   0.0041   4.00   42.7
2024/05/06 12:45:05.000   28.320580910  -16.439889829   834.8118   1   8   0.0018   0.0012   0.0246  -0.0008  -0.0028   0.0041   5.00   42.4
2024/05/06 12:45:06.000   28.320580910  -16.439889829   834.8111   1   8   0.0018   0.0012   0.0247  -0.0008  -0.0028   0.0041   6.00   41.8
2024/05/06 12:45:07.000   28.320580910  -16.439889829   834.8104   1   8   0.0018   0.0012   0.0247  -0.0008  -0.0028   0.0041   7.00   41.3
2024/05/06 12:45:08.000   28.320580910  -16.439889829   834.8099   1   8   0.0018   0.0012   0.0247  -0.0008  -0.0028   0.0041   8.00   40.8
2024/05/06 12:45:09.000   28.320580910  -16.439889829   834.8094   1   8   0.0018   0.0012   0.0247  -0.0008  -0.0028   0.0041   9.00   40.3
2024/05/06 12:45:10.000   28.320580910  -16.439889829   834.8090   1   8   0.0018   0.0012   0.0248  -0.0008  -0.0028   0.0041  10.00   39.7
2024/05/06 12:45:11.000   28.320580910  -16.439889829   834.8087   1   8   0.0018   0.0012   0.0248  -0.0008  -0.0028   0.0041  11.00   39.1
2024/05/06 12:45:12.000   28.320580910  -16.439889829   834.8083   1   8   0.0018   0.0012   0.0248  -0.0008  -0.0028   0.0041  12.00   38.4
2024/05/06 12:45:13.000   28.320580910  -16.439889829   834.8081   1   8   0.0018   0.0012   0.0248  -0.0008  -0.0028   0.0041  13.00   37.8
2024/05/06 12:45:14.000   28.320580910  -16.439889829   834.8078   1   8   0.0018   0.0012   0.0248  -0.0008  -0.0028   0.0041  14.00   37.1
2024/05/06 12:45:15.000   28.320580910  -16.439889829   834.8076   1   8   0.0018   0.0012   0.0248  -0.0008  -0.0028   0.0041  15.00   36.5
2024/05/06 12:45:16.000   28.320580910  -16.439889829   834.8073   1   8   0.0018   0.0012   0.0248  -0.0008  -0.0028   0.0041 -14.00   35.9
2024/05/06 12:45:17.000   28.320580910  -16.439889829   834.8071   1   8   0.0018   0.0012   0.0248  -0.0008  -0.0028   0.0041 -13.00   35.2
2024/05/06 12:45:18.000   28.320580910  -16.439889829   834.8068   1   8   0.0018   0.0012   0.0248  -0.0008  -0.0028   0.0041 -12.00   34.6
2024/05/06 12:45:19.000   28.320580910  -16.439889829   834.8065   1   8   0.0018   0.0012   0.0248  -0.0008  -0.0028   0.0041 -11.00   33.9
2024/05/06 12:45:20.000   28.320580910  -16.439889829   834.8062   1   8   0.0018   0.0012   0.0249  -0.0008  -0.0028   0.0041 -10.00   33.1
2024/05/06 12:45:21.000   28.320580910  -16.439889829   834.8058   1   8   0.0018   0.0012   0.0249  -0.0008  -0.0028   0.0041  -9.00   32.3
2024/05/06 12:45:22.000   28.320580910  -16.439889829   834.8053   1   8   0.0018   0.0012   0.0249  -0.0008  -0.0028   0.0041  -8.00   31.5
2024/05/06 12:45:23.000   28.320580910  -16.439889829   834.8048   1   8   0.0018   0.0012   0.0249  -0.0008  -0.0028   0.0041  -7.00   30.6
2024/05/06 12:45:24.000   28.320580910  -16.439889829   834.8041   1   8   0.0018   0.0012   0.0249  -0.0008  -0.0028   0.0041  -6.00   29.6
2024/05/06 12:45:25.000   28.320580910  -16.439889829   834.8035   1   8   0.0018   0.0012   0.0250  -0.0008  -0.0028   0.0041  -5.00   27.9
2024/05/06 12:45:26.000   28.320580910  -16.439889829   834.8026   1   8   0.0018   0.0012   0.0250  -0.0008  -0.0028   0.0041  -4.00   25.3
2024/05/06 12:45:27.000   28.320580910  -16.439889829   834.8016   1   8   0.0018   0.0012   0.0251  -0.0008  -0.0028   0.0041  -3.00   21.9
2024/05/06 12:45:28.000   28.320580910  -16.439889829   834.8004   1   8   0.0018   0.0012   0.0251  -0.0008  -0.0028   0.0041  -2.00   16.8
2024/05/06 12:45:29.000   28.320580910  -16.439889829   834.7988   1   8   0.0018   0.0012   0.0252  -0.0008  -0.0028   0.0041  -1.00    9.9
2024/05/06 12:45:30.000   28.320580909  -16.439889826   834.8121   1   8   0.0018   0.0012   0.0247  -0.0008  -0.0029   0.0041   0.00   41.9
2024/05/06 12:45:31.000   28.320580909  -16.439889827   834.8108   1   8   0.0018   0.0012   0.0247  -0.0008  -0.0029   0.0041   1.00   41.9
2024/05/06 12:45:32.000   28.320580909  -16.439889827   834.8097   1   8   0.0018   0.0012   0.0248  -0.0008  -0.0029   0.0041   2.00   41.8
2024/05/06 12:45:33.000   28.320580909  -16.439889827   834.8086   1   8   0.0018   0.0012   0.0248  -0.0008  -0.0029   0.0041   3.00   41.8
2024/05/06 12:45:34.000   28.320580909  -16.439889827   834.8076   1   8   0.0018   0.0012   0.0249  -0.0008  -0.0029   0.0041   4.00   41.6
2024/05/06 12:45:35.000   28.320580909  -16.439889827   834.8069   1   8   0.0018   0.0012   0.0249  -0.0008  -0.0029   0.0041   5.00   41.3
2024/05/06 12:45:36.000   28.320580909  -16.439889827   834.8061   1   8   0.0018   0.0012   0.0249  -0.0008  -0.0029   0.0041   6.00   41.1
2024/05/06 12:45:37.000   28.320580909  -16.439889827   834.8055   1   8   0.0018   0.0012   0.0250  -0.0008  -0.0028   0.0041   7.00   40.8
2024/05/06 12:45:38.000   28.320580909  -16.439889827   834.8050   1   8   0.0018   0.0012   0.0250  -0.0008  -0.0028   0.0041   8.00   40.3
2024/05/06 12:45:39.000   28.320580909  -16.439889827   834.8046   1   8   0.0018   0.0012   0.0250  -0.0008  -0.0028   0.0041   9.00   39.8
2024/05/06 12:45:40.000   28.320580910  -16.439889827   834.8042   1   8   0.0018   0.0012   0.0250  -0.0008  -0.0028   0.0041  10.00   39.3
2024/05/06 12:45:41.000   28.320580910  -16.439889827   834.8038   1   8   0.0018   0.0012   0.0251  -0.0008  -0.0028   0.0041  11.00   38.8
2024/05/06 12:45:42.000   28.320580910  -16.439889827   834.8035   1   8   0.0018   0.0012   0.0251  -0.0008  -0.0028   0.0041  12.00   38.2
2024/05/06 12:45:43.000   28.320580910  -16.439889827   834.8032   1   8   0.0018   0.0012   0.0251  -0.0008  -0.0028   0.0041  13.00   37.6
2024/05/06 12:45:44.000   28.320580910  -16.439889827   834.8030   1   8   0.0018   0.0012   0.0251  -0.0008  -0.0028   0.0041  14.00   37.0
2024/05/06 12:45:45.000   28.320580910  -16.439889827   834.8027   1   8   0.0018   0.0012   0.0251  -0.0008  -0.0028   0.0041  15.00   36.4
2024/05/06 12:45:46.000   28.320580910  -16.439889827   834.8025   1   8   0.0018   0.0012   0.0251  -0.0008  -0.0028   0.0041 -14.00   35.7
2024/05/06 12:45:47.000   28.320580910  -16.439889827   834.8023   1   8   0.0018   0.0012   0.0251  -0.0008  -0.0028   0.0041 -13.00   35.1
2024/05/06 12:45:48.000   28.320580910  -16.439889827   834.8021   1   8   0.0018   0.0012   0.0251  -0.0008  -0.0028   0.0041 -12.00   34.4
2024/05/06 12:45:49.000   28.320580910  -16.439889827   834.8018   1   8   0.0018   0.0012   0.0252  -0.0008  -0.0028   0.0041 -11.00   33.7
2024/05/06 12:45:50.000   28.320580910  -16.439889827   834.8015   1   8   0.0018   0.0012   0.0252  -0.0008  -0.0028   0.0041 -10.00   33.0
2024/05/06 12:45:51.000   28.320580910  -16.439889827   834.8010   1   8   0.0018   0.0012   0.0252  -0.0008  -0.0028   0.0041  -9.00   32.4
2024/05/06 12:45:52.000   28.320580910  -16.439889828   834.8006   1   8   0.0018   0.0012   0.0252  -0.0008  -0.0028   0.0041  -8.00   31.6
2024/05/06 12:45:53.000   28.320580910  -16.439889828   834.8001   1   8   0.0018   0.0012   0.0252  -0.0008  -0.0028   0.0041  -7.00   30.8
2024/05/06 12:45:54.000   28.320580910  -16.439889828   834.7995   1   8   0.0018   0.0012   0.0253  -0.0008  -0.0028   0.0041  -6.00   29.9
2024/05/06 12:45:55.000   28.320580910  -16.439889828   834.7987   1   8   0.0018   0.0012   0.0253  -0.0008  -0.0028   0.0041  -5.00   28.0
2024/05/06 12:45:56.000   28.320580911  -16.439889828   834.7979   1   8   0.0018   0.0012   0.0253  -0.0008  -0.0028   0.0041  -4.00   25.4
2024/05/06 12:45:57.000   28.320580911  -16.439889828   834.7970   1   8   0.0018   0.0012   0.0254  -0.0008  -0.0028   0.0041  -3.00   22.2
2024/05/06 12:45:58.000   28.320580911  -16.439889828   834.7958   1   8   0.0018   0.0012   0.0254  -0.0008  -0.0028   0.0041  -2.00   17.1
2024/05/06 12:45:59.000   28.320580911  -16.439889828   834.7944   1   8   0.0018   0.0012   0.0255  -0.0008  -0.0028   0.0041  -1.00   10.1
2024/05/06 12:46:00.000   28.320580910  -16.439889825   834.8114   1   8   0.0018   0.0012   0.0249  -0.0008  -0.0029   0.0041   0.00   39.7
2024/05/06 12:46:01.000   28.320580910  -16.439889825   834.8105   1   8   0.0018   0.0012   0.0250  -0.0008  -0.0029   0.0041   1.00   39.6
2024/05/06 12:46:02.000   28.320580910  -16.439889825   834.8095   1   8   0.0018   0.0012   0.0251  -0.0008  -0.0029   0.0041   2.00   39.7
2024/05/06 12:46:03.000   28.320580911  -16.439889825   834.8087   1   8   0.0018   0.0012   0.0251  -0.0008  -0.0029   0.0041   3.00   39.5
2024/05/06 12:46:04.000   28.320580911  -16.439889826   834.8079   1   8   0.0018   0.0012   0.0252  -0.0008  -0.0029   0.0041   4.00   39.2
2024/05/06 12:46:05.000   28.320580911  -16.439889826   834.8072   1   8   0.0018   0.0012   0.0252  -0.0008  -0.0029   0.0041   5.00   38.9
2024/05/06 12:46:06.000   28.320580911  -16.439889826   834.8063   1   8   0.0018   0.0012   0.0252  -0.0008  -0.0029   0.0041   6.00   38.7
2024/05/06 12:46:07.000   28.320580911  -16.439889826   834.8056   1   8   0.0018   0.0012   0.0253  -0.0008  -0.0029   0.0041   7.00   38.5
2024/05/06 12:46:08.000   28.320580911  -16.439889826   834.8053   1   8   0.0018   0.0012   0.0253  -0.0008  -0.0029   0.0041   8.00   38.0
2024/05/06 12:46:09.000   28.320580911  -16.439889826   834.8049   1   8   0.0018   0.0012   0.0253  -0.0008  -0.0029   0.0041   9.00   37.5
2024/05/06 12:46:10.000   28.320580911  -16.439889826   834.8046   1   8   0.0018   0.0012   0.0253  -0.0008  -0.0029   0.0041  10.00   37.0
2024/05/06 12:46:11.000   28.320580912  -16.439889826   834.8044   1   8   0.0018   0.0012   0.0254  -0.0008  -0.0029   0.0041  11.00   36.5
2024/05/06 12:46:12.000   28.320580912  -16.439889826   834.8041   1   8   0.0018   0.0012   0.0254  -0.0008  -0.0029   0.0041  12.00   35.9
2024/05/06 12:46:13.000   28.320580912  -16.439889826   834.8040   1   8   0.0018   0.0012   0.0254  -0.0008  -0.0029   0.0041  13.00   35.3
2024/05/06 12:46:14.000   28.320580912  -16.439889826   834.8038   1   8   0.0018   0.0012   0.0254  -0.0008  -0.0029   0.0041  14.00   34.8
2024/05/06 12:46:15.000   28.320580912  -16.439889826   834.8037   1   8   0.0018   0.0012   0.0254  -0.0008  -0.0029   0.0041  15.00   34.2
2024/05/06 12:46:16.000   28.320580912  -16.439889826   834.8036   1   8   0.0018   0.0012   0.0254  -0.0008  -0.0028   0.0041 -14.00   33.6
2024/05/06 12:46:17.000   28.320580912  -16.439889827   834.8035   1   8   0.0018   0.0012   0.0254  -0.0008  -0.0028   0.0041 -13.00   33.0
2024/05/06 12:46:18.000   28.320580912  -16.439889827   834.8034   1   8   0.0018   0.0012   0.0255  -0.0008  -0.0028   0.0041 -12.00   32.4
2024/05/06 12:46:19.000   28.320580912  -16.439889827   834.8032   1   8   0.0018   0.0012   0.0255  -0.0008  -0.0028   0.0041 -11.00   31.8
2024/05/06 12:46:20.000   28.320580912  -16.439889827   834.8031   1   8   0.0018   0.0012   0.0255  -0.0008  -0.0028   0.0041 -10.00   31.1
2024/05/06 12:46:21.000   28.320580912  -16.439889827   834.8029   1   8   0.0018   0.0012   0.0255  -0.0008  -0.0028   0.0041  -9.00   30.6
2024/05/06 12:46:22.000   28.320580912  -16.439889827   834.8027   1   8   0.0018   0.0012   0.0255  -0.0008  -0.0028   0.0041  -8.00   29.9
2024/05/06 12:46:23.000   28.320580926  -16.439889831   834.8135   1   8   0.0017   0.0011   0.0251  -0.0008  -0.0029   0.0039  -7.00    3.5
2024/05/06 12:46:24.000   28.320580927  -16.439889831   834.8135   1   8   0.0017   0.0011   0.0251  -0.0008  -0.0029   0.0039  -6.00    3.5
2024/05/06 12:46:25.000   28.320580927  -16.439889831   834.8137   1   8   0.0017   0.0011   0.0252  -0.0008  -0.0029   0.0039  -5.00    3.5
2024/05/06 12:46:26.000   28.320580928  -16.439889832   834.8133   1   8   0.0017   0.0011   0.0252  -0.0008  -0.0029   0.0039  -4.00    3.7
2024/05/06 12:46:27.000   28.320580928  -16.439889832   834.8132   1   8   0.0017   0.0011   0.0252  -0.0008  -0.0029   0.0039  -3.00    3.7
2024/05/06 12:46:28.000   28.320580929  -16.439889832   834.8130   1   8   0.0017   0.0011   0.0253  -0.0008  -0.0029   0.0039  -2.00    3.7
2024/05/06 12:46:29.000   28.320580929  -16.439889832   834.8127   1   8   0.0017   0.0011   0.0253  -0.0008  -0.0029   0.0039  -1.00    3.6
2024/05/06 12:46:30.000   28.320580928  -16.439889830   834.8310   1   8   0.0017   0.0011   0.0247  -0.0008  -0.0030   0.0040   0.00    3.6
2024/05/06 12:46:31.000   28.320580928  -16.439889832   834.8268   1   8   0.0017   0.0011   0.0250  -0.0008  -0.0029   0.0040   1.00    3.2
2024/05/06 12:46:32.000   28.320580929  -16.439889833   834.8270   1   8   0.0017   0.0011   0.0250  -0.0008  -0.0029   0.0040   2.00    3.2
2024/05/06 12:46:33.000   28.320580929  -16.439889833   834.8270   1   8   0.0017   0.0011   0.0250  -0.0008  -0.0029   0.0040   3.00    3.2
2024/05/06 12:46:34.000   28.320580930  -16.439889833   834.8270   1   8   0.0017   0.0011   0.0251  -0.0008  -0.0029   0.0040   4.00    3.2
2024/05/06 12:46:35.000   28.320580930  -16.439889833   834.8271   1   8   0.0017   0.0011   0.0251  -0.0008  -0.0029   0.0040   5.00    3.3
2024/05/06 12:46:36.000   28.320580930  -16.439889833   834.8272   1   8   0.0017   0.0011   0.0251  -0.0008  -0.0029   0.0040   6.00    3.2
2024/05/06 12:46:37.000   28.320580931  -16.439889833   834.8273   1   8   0.0017   0.0011   0.0251  -0.0008  -0.0029   0.0040   7.00    3.2
2024/05/06 12:46:38.000   28.320580931  -16.439889833   834.8274   1   8   0.0017   0.0011   0.0252  -0.0008  -0.0029   0.0040   8.00    3.1
2024/05/06 12:46:39.000   28.320580931  -16.439889833   834.8275   1   8   0.0017   0.0011   0.0252  -0.0008  -0.0030   0.0040   9.00    3.1
2024/05/06 12:46:40.000   28.320580931  -16.439889833   834.8277   1   8   0.0017   0.0011   0.0252  -0.0008  -0.0030   0.0040  10.00    3.1
2024/05/06 12:46:41.001   28.320580931  -16.439889833   834.8279   1   8   0.0017   0.0011   0.0252  -0.0008  -0.0030   0.0040  11.00    3.0
2024/05/06 12:46:42.000   28.320580931  -16.439889833   834.8280   1   8   0.0017   0.0011   0.0252  -0.0008  -0.0030   0.0040  12.00    3.0
2024/05/06 12:46:43.000   28.320580935  -16.439889843   834.8404   1   8   0.0017   0.0010   0.0247  -0.0008  -0.0026   0.0039  13.00    6.1
2024/05/06 12:46:44.000   28.320580935  -16.439889843   834.8406   1   8   0.0017   0.0010   0.0247  -0.0008  -0.0025   0.0039  14.00    8.3
2024/05/06 12:46:45.000   28.320580935  -16.439889843   834.8407   1   8   0.0017   0.0010   0.0247  -0.0008  -0.0025   0.0039 -15.00    9.5
2024/05/06 12:46:46.000   28.320580935  -16.439889843   834.8409   1   8   0.0017   0.0010   0.0247  -0.0008  -0.0025   0.0039 -14.00   10.6
2024/05/06 12:46:47.000   28.320580935  -16.439889843   834.8411   1   8   0.0017   0.0010   0.0247  -0.0008  -0.0025   0.0039 -13.00   11.7
2024/05/06 12:46:48.000   28.320580935  -16.439889843   834.8413   1   8   0.0017   0.0010   0.0247  -0.0008  -0.0025   0.0039 -12.00   12.7
2024/05/06 12:46:49.000   28.320580935  -16.439889843   834.8415   1   8   0.0017   0.0010   0.0247  -0.0008  -0.0025   0.0038 -11.00   13.8
2024/05/06 12:46:50.000   28.320580936  -16.439889843   834.8417   1   8   0.0017   0.0010   0.0247  -0.0008  -0.0025   0.0038 -10.00   14.9
2024/05/06 12:46:51.000   28.320580936  -16.439889843   834.8419   1   8   0.0017   0.0010   0.0247  -0.0008  -0.0025   0.0038  -9.00   15.9
2024/05/06 12:46:52.000   28.320580936  -16.439889843   834.8422   1   8   0.0017   0.0010   0.0247  -0.0008  -0.0025   0.0038  -8.00   16.8
2024/05/06 12:46:53.000   28.320580936  -16.439889844   834.8424   1   8   0.0017   0.0010   0.0247  -0.0008  -0.0025   0.0038  -7.00   17.8
2024/05/06 12:46:54.000   28.320580936  -16.439889844   834.8426   1   8   0.0017   0.0010   0.0247  -0.0008  -0.0025   0.0038  -6.00   18.8
2024/05/06 12:46:55.000   28.320580937  -16.439889844   834.8430   1   8   0.0017   0.0010   0.0247  -0.0008  -0.0025   0.0038  -5.00   19.7
2024/05/06 12:46:56.000   28.320580937  -16.439889844   834.8434   1   8   0.0017   0.0010   0.0247  -0.0008  -0.0025   0.0038  -4.00   20.6
2024/05/06 12:46:57.000   28.320580937  -16.439889844   834.8436   1   8   0.0017   0.0010   0.0248  -0.0008  -0.0025   0.0038  -3.00   21.5
2024/05/06 12:46:58.000   28.320580938  -16.439889844   834.8435   1   8   0.0017   0.0010   0.0248  -0.0008  -0.0025   0.0038  -2.00   22.4
2024/05/06 12:46:59.000   28.320580939  -16.439889845   834.8435   1   8   0.0017   0.0010   0.0248  -0.0008  -0.0025   0.0038  -1.00   23.4
2024/05/06 12:47:00.000   28.320580937  -16.439889843   834.8617   1   8   0.0017   0.0010   0.0241  -0.0008  -0.0026   0.0038   0.00   24.2
2024/05/06 12:47:01.000   28.320580937  -16.439889844   834.8536   1   8   0.0017   0.0010   0.0247  -0.0008  -0.0025   0.0039   1.00   22.9
2024/05/06 12:47:02.000   28.320580938  -16.439889844   834.8542   1   8   0.0017   0.0010   0.0247  -0.0008  -0.0025   0.0039   2.00   27.2
2024/05/06 12:47:03.000   28.320580938  -16.439889844   834.8544   1   8   0.0017   0.0010   0.0247  -0.0008  -0.0025   0.0039   3.00   28.0
2024/05/06 12:47:04.000   28.320580939  -16.439889844   834.8549   1   8   0.0017   0.0010   0.0247  -0.0008  -0.0025   0.0039   4.00   29.2
2024/05/06 12:47:05.000   28.320580939  -16.439889844   834.8550   1   8   0.0017   0.0010   0.0247  -0.0008  -0.0025   0.0039   5.00   30.1
2024/05/06 12:47:06.000   28.320580939  -16.439889845   834.8552   1   8   0.0017   0.0010   0.0247  -0.0008  -0.0025   0.0039   6.00   30.9
2024/05/06 12:47:07.000   28.320580940  -16.439889845   834.8554   1   8   0.0017   0.0010   0.0247  -0.0008  -0.0025   0.0038   7.00   31.9
2024/05/06 12:47:08.000   28.320580940  -16.439889845   834.8556   1   8   0.0017   0.0010   0.0247  -0.0008  -0.0025   0.0038   8.00   32.8
2024/05/06 12:47:09.000   28.320580940  -16.439889845   834.8559   1   8   0.0017   0.0010   0.0247  -0.0008  -0.0025   0.0038   9.00   33.6
2024/05/06 12:47:10.000   28.320580941  -16.439889845   834.8560   1   8   0.0017   0.0010   0.0247  -0.0008  -0.0025   0.0038  10.00   34.5
2024/05/06 12:47:11.000   28.320580941  -16.439889845   834.8561   1   8   0.0017   0.0010   0.0247  -0.0008  -0.0025   0.0038  11.00   35.5
2024/05/06 12:47:12.000   28.320580941  -16.439889845   834.8562   1   8   0.0017   0.0010   0.0248  -0.0008  -0.0025   0.0038  12.00   36.5
2024/05/06 12:47:13.000   28.320580941  -16.439889845   834.8564   1   8   0.0017   0.0010   0.0248  -0.0008  -0.0025   0.0038  13.00   37.6
2024/05/06 12:47:14.000   28.320580941  -16.439889845   834.8565   1   8   0.0017   0.0010   0.0248  -0.0008  -0.0025   0.0038  14.00   38.7
2024/05/06 12:47:15.000   28.320580941  -16.439889845   834.8566   1   8   0.0017   0.0010   0.0248  -0.0008  -0.0025   0.0038 -15.00   39.8
2024/05/06 12:47:16.000   28.320580941  -16.439889845   834.8567   1   8   0.0017   0.0010   0.0248  -0.0008  -0.0025   0.0038 -14.00   40.9
2024/05/06 12:47:17.000   28.320580942  -16.439889846   834.8568   1   8   0.0017   0.0010   0.0248  -0.0008  -0.0025   0.0038 -13.00   41.9
2024/05/06 12:47:18.000   28.320580942  -16.439889846   834.8569   1   8   0.0017   0.0010   0.0248  -0.0008  -0.0025   0.0038 -12.00   42.9
2024/05/06 12:47:19.000   28.320580942  -16.439889846   834.8571   1   8   0.0017   0.0010   0.0248  -0.0008  -0.0025   0.0038 -11.00   44.0
2024/05/06 12:47:20.000   28.320580942  -16.439889846   834.8573   1   8   0.0017   0.0010   0.0248  -0.0008  -0.0025   0.0038 -10.00   45.0
2024/05/06 12:47:21.000   28.320580942  -16.439889846   834.8575   1   8   0.0017   0.0010   0.0248  -0.0008  -0.0025   0.0038  -9.00   45.7
2024/05/06 12:47:22.000   28.320580942  -16.439889846   834.8577   1   8   0.0017   0.0010   0.0248  -0.0008  -0.0025   0.0038  -8.00   46.7
2024/05/06 12:47:23.000   28.320580943  -16.439889846   834.8576   1   8   0.0017   0.0010   0.0248  -0.0008  -0.0025   0.0038  -7.00   47.7
2024/05/06 12:47:24.000   28.320580943  -16.439889846   834.8578   1   8   0.0017   0.0010   0.0248  -0.0008  -0.0025   0.0038  -6.00   48.4
2024/05/06 12:47:25.000   28.320580943  -16.439889846   834.8580   1   8   0.0017   0.0010   0.0248  -0.0008  -0.0025   0.0038  -5.00   49.0
2024/05/06 12:47:26.000   28.320580944  -16.439889846   834.8580   1   8   0.0017   0.0010   0.0248  -0.0008  -0.0025   0.0038  -4.00   49.6
2024/05/06 12:47:27.000   28.320580944  -16.439889846   834.8581   1   8   0.0017   0.0010   0.0248  -0.0008  -0.0025   0.0038  -3.00   50.0
2024/05/06 12:47:28.000   28.320580945  -16.439889847   834.8584   1   8   0.0017   0.0010   0.0249  -0.0008  -0.0025   0.0038  -2.00   50.1
2024/05/06 12:47:29.000   28.320580946  -16.439889847   834.8585   1   8   0.0017   0.0010   0.0249  -0.0008  -0.0025   0.0038  -1.00   49.6
2024/05/06 12:47:30.000   28.320580945  -16.439889845   834.8765   1   8   0.0017   0.0010   0.0241  -0.0008  -0.0025   0.0038   0.00   49.8
2024/05/06 12:47:31.000   28.320580944  -16.439889846   834.8682   1   8   0.0017   0.0010   0.0247  -0.0008  -0.0025   0.0039   1.00   22.4
2024/05/06 12:47:32.000   28.320580945  -16.439889846   834.8686   1   8   0.0017   0.0010   0.0247  -0.0008  -0.0025   0.0039   2.00   36.2
2024/05/06 12:47:33.000   28.320580946  -16.439889847   834.8689   1   8   0.0017   0.0010   0.0247  -0.0008  -0.0025   0.0038   3.00   45.0
2024/05/06 12:47:34.000   28.320580946  -16.439889847   834.8692   1   8   0.0017   0.0010   0.0247  -0.0008  -0.0025   0.0038   4.00   49.8
2024/05/06 12:47:35.000   28.320580946  -16.439889847   834.8697   1   8   0.0017   0.0010   0.0247  -0.0008  -0.0025   0.0038   5.00   50.9
2024/05/06 12:47:36.000   28.320580947  -16.439889847   834.8698   1   8   0.0017   0.0010   0.0248  -0.0008  -0.0025   0.0038   6.00   51.2
2024/05/06 12:47:37.000   28.320580947  -16.439889848   834.8701   1   8   0.0017   0.0010   0.0248  -0.0008  -0.0025   0.0038   7.00   51.8
2024/05/06 12:47:38.000   28.320580947  -16.439889848   834.8703   1   8   0.0017   0.0010   0.0248  -0.0008  -0.0025   0.0038   8.00   52.4
2024/05/06 12:47:39.000   28.320580948  -16.439889848   834.8705   1   8   0.0017   0.0010   0.0248  -0.0008  -0.0025   0.0038   9.00   53.2
2024/05/06 12:47:40.000   28.320580948  -16.439889848   834.8707   1   8   0.0017   0.0010   0.0248  -0.0008  -0.0025   0.0038  10.00   54.0
2024/05/06 12:47:41.000   28.320580948  -16.439889848   834.8709   1   8   0.0017   0.0010   0.0248  -0.0008  -0.0025   0.0038  11.00   54.7
2024/05/06 12:47:42.000   28.320580948  -16.439889848   834.8711   1   8   0.0017   0.0010   0.0248  -0.0008  -0.0025   0.0038  12.00   55.6
2024/05/06 12:47:43.000   28.320580948  -16.439889848   834.8712   1   8   0.0017   0.0010   0.0248  -0.0008  -0.0025   0.0038  13.00   56.5
2024/05/06 12:47:44.000   28.320580948  -16.439889848   834.8714   1   8   0.0017   0.0010   0.0248  -0.0008  -0.0025   0.0038  14.00   57.3
2024/05/06 12:47:45.000   28.320580948  -16.439889848   834.8715   1   8   0.0017   0.0010   0.0248  -0.0008  -0.0025   0.0038 -15.00   58.2
2024/05/06 12:47:46.000   28.320580948  -16.439889848   834.8716   1   8   0.0017   0.0010   0.0248  -0.0008  -0.0025   0.0038 -14.00   59.0
2024/05/06 12:47:47.000   28.320580948  -16.439889848   834.8718   1   8   0.0017   0.0010   0.0248  -0.0008  -0.0025   0.0038 -13.00   59.7
2024/05/06 12:47:48.000   28.320580949  -16.439889848   834.8720   1   8   0.0016   0.0010   0.0248  -0.0008  -0.0025   0.0038 -12.00   60.5
2024/05/06 12:47:49.000   28.320580949  -16.439889848   834.8722   1   8   0.0016   0.0010   0.0248  -0.0008  -0.0025   0.0038 -11.00   61.1
2024/05/06 12:47:50.000   28.320580949  -16.439889848   834.8724   1   8   0.0016   0.0010   0.0248  -0.0008  -0.0025   0.0038 -10.00   61.6
2024/05/06 12:47:51.000   28.320580949  -16.439889848   834.8728   1   8   0.0016   0.0010   0.0248  -0.0008  -0.0025   0.0038  -9.00   61.9
2024/05/06 12:47:52.000   28.320580949  -16.439889848   834.8730   1   8   0.0016   0.0010   0.0248  -0.0008  -0.0025   0.0038  -8.00   62.4
2024/05/06 12:47:53.000   28.320580949  -16.439889849   834.8732   1   8   0.0016   0.0010   0.0248  -0.0008  -0.0025   0.0038  -7.00   62.5
2024/05/06 12:47:54.000   28.320580950  -16.439889849   834.8733   1   8   0.0016   0.0010   0.0248  -0.0008  -0.0025   0.0038  -6.00   63.0
2024/05/06 12:47:55.000   28.320580950  -16.439889849   834.8735   1   8   0.0016   0.0010   0.0249  -0.0008  -0.0025   0.0038  -5.00   63.2
2024/05/06 12:47:56.000   28.320580950  -16.439889849   834.8738   1   8   0.0016   0.0010   0.0249  -0.0008  -0.0025   0.0038  -4.00   63.6
2024/05/06 12:47:57.000   28.320580950  -16.439889849   834.8741   1   8   0.0016   0.0010   0.0249  -0.0008  -0.0024   0.0038  -3.00   63.3
2024/05/06 12:47:58.000   28.320580951  -16.439889849   834.8743   1   8   0.0016   0.0010   0.0249  -0.0008  -0.0024   0.0037  -2.00   63.0
2024/05/06 12:47:59.000   28.320580951  -16.439889849   834.8746   1   8   0.0016   0.0010   0.0249  -0.0008  -0.0024   0.0037  -1.00   62.6
2024/05/06 12:48:00.000   28.320580950  -16.439889848   834.8925   1   8   0.0016   0.0010   0.0241  -0.0008  -0.0025   0.0038   0.00   62.4
2024/05/06 12:48:01.000   28.320580949  -16.439889848   834.8841   1   8   0.0016   0.0010   0.0248  -0.0008  -0.0025   0.0038   1.00   18.7
2024/05/06 12:48:02.000   28.320580950  -16.439889849   834.8846   1   8   0.0016   0.0010   0.0248  -0.0008  -0.0025   0.0038   2.00   30.9
2024/05/06 12:48:03.000   28.320580950  -16.439889849   834.8849   1   8   0.0016   0.0010   0.0248  -0.0008  -0.0025   0.0038   3.00   39.6
2024/05/06 12:48:04.000   28.320580950  -16.439889849   834.8852   1   8   0.0016   0.0010   0.0248  -0.0008  -0.0025   0.0038   4.00   45.2
2024/05/06 12:48:05.000   28.320580951  -16.439889849   834.8855   1   8   0.0016   0.0010   0.0248  -0.0008  -0.0025   0.0038   5.00   48.9
2024/05/06 12:48:06.000   28.320580951  -16.439889849   834.8859   1   8   0.0016   0.0010   0.0248  -0.0008  -0.0025   0.0038   6.00   52.0
2024/05/06 12:48:07.000   28.320580951  -16.439889849   834.8862   1   8   0.0016   0.0010   0.0248  -0.0008  -0.0025   0.0038   7.00   54.6
2024/05/06 12:48:08.000   28.320580951  -16.439889849   834.8866   1   8   0.0016   0.0010   0.0248  -0.0008  -0.0024   0.0038   8.00   56.7
2024/05/06 12:48:09.000   28.320580951  -16.439889849   834.8869   1   8   0.0016   0.0010   0.0248  -0.0008  -0.0024   0.0038   9.00   58.8
2024/05/06 12:48:10.000   28.320580951  -16.439889850   834.8871   1   8   0.0016   0.0010   0.0248  -0.0008  -0.0024   0.0038  10.00   60.9
2024/05/06 12:48:11.000   28.320580951  -16.439889850   834.8873   1   8   0.0016   0.0010   0.0248  -0.0008  -0.0024   0.0038  11.00   62.7
2024/05/06 12:48:12.000   28.320580951  -16.439889850   834.8874   1   8   0.0016   0.0010   0.0248  -0.0008  -0.0024   0.0038  12.00   64.3
2024/05/06 12:48:13.000   28.320580951  -16.439889850   834.8876   1   8   0.0016   0.0010   0.0248  -0.0008  -0.0024   0.0038  13.00   65.7
2024/05/06 12:48:14.000   28.320580952  -16.439889850   834.8879   1   8   0.0016   0.0010   0.0248  -0.0008  -0.0024   0.0038  14.00   67.2
2024/05/06 12:48:15.000   28.320580952  -16.439889850   834.8879   1   8   0.0016   0.0010   0.0248  -0.0008  -0.0024   0.0038 -15.00   68.8
2024/05/06 12:48:16.000   28.320580952  -16.439889850   834.8880   1   8   0.0016   0.0010   0.0248  -0.0008  -0.0024   0.0038 -14.00   70.4
2024/05/06 12:48:17.000   28.320580951  -16.439889850   834.8880   1   8   0.0016   0.0010   0.0248  -0.0008  -0.0024   0.0038 -13.00   72.0
2024/05/06 12:48:18.000   28.320580952  -16.439889850   834.8880   1   8   0.0016   0.0010   0.0248  -0.0008  -0.0024   0.0038 -12.00   73.5
2024/05/06 12:48:19.000   28.320580952  -16.439889850   834.8880   1   8   0.0016   0.0010   0.0249  -0.0008  -0.0024   0.0038 -11.00   74.8
2024/05/06 12:48:20.000   28.320580952  -16.439889850   834.8879   1   8   0.0016   0.0010   0.0249  -0.0008  -0.0024   0.0038 -10.00   75.9
2024/05/06 12:48:21.000   28.320580952  -16.439889850   834.8879   1   8   0.0016   0.0010   0.0249  -0.0008  -0.0024   0.0038  -9.00   77.2
2024/05/06 12:48:22.000   28.320580952  -16.439889850   834.8877   1   8   0.0016   0.0010   0.0249  -0.0008  -0.0024   0.0037  -8.00   78.7
2024/05/06 12:48:23.000   28.320580951  -16.439889850   834.8875   1   8   0.0016   0.0010   0.0249  -0.0008  -0.0024   0.0037  -7.00   80.1
2024/05/06 12:48:24.000   28.320580951  -16.439889850   834.8872   1   8   0.0016   0.0010   0.0249  -0.0008  -0.0024   0.0037  -6.00   81.8
2024/05/06 12:48:25.000   28.320580951  -16.439889850   834.8869   1   8   0.0016   0.0010   0.0249  -0.0008  -0.0024   0.0037  -5.00   83.1
2024/05/06 12:48:26.000   28.320580951  -16.439889850   834.8864   1   8   0.0016   0.0010   0.0249  -0.0008  -0.0024   0.0037  -4.00   83.8
2024/05/06 12:48:27.000   28.320580951  -16.439889850   834.8862   1   8   0.0016   0.0010   0.0249  -0.0008  -0.0024   0.0037  -3.00   85.0
2024/05/06 12:48:28.000   28.320580951  -16.439889850   834.8857   1   8   0.0016   0.0010   0.0249  -0.0008  -0.0024   0.0037  -2.00   85.7
2024/05/06 12:48:29.000   28.320580952  -16.439889850   834.8850   1   8   0.0016   0.0010   0.0249  -0.0008  -0.0024   0.0037  -1.00   86.4
2024/05/06 12:48:30.000   28.320580950  -16.439889849   834.9034   1   8   0.0016   0.0010   0.0241  -0.0008  -0.0025   0.0037   0.00   86.7
2024/05/06 12:48:31.000   28.320580949  -16.439889849   834.8935   1   8   0.0016   0.0010   0.0248  -0.0008  -0.0024   0.0038   1.00   20.5
2024/05/06 12:48:32.000   28.320580949  -16.439889849   834.8934   1   8   0.0016   0.0010   0.0247  -0.0008  -0.0024   0.0038   2.00   34.2
2024/05/06 12:48:33.000   28.320580949  -16.439889849   834.8931   1   8   0.0016   0.0010   0.0248  -0.0008  -0.0024   0.0038   3.00   44.1
2024/05/06 12:48:34.000   28.320580949  -16.439889849   834.8923   1   8   0.0016   0.0010   0.0248  -0.0008  -0.0024   0.0038   4.00   50.8
2024/05/06 12:48:35.000   28.320580949  -16.439889849   834.8919   1   8   0.0016   0.0010   0.0248  -0.0008  -0.0024   0.0038   5.00   55.5
2024/05/06 12:48:36.000   28.320580950  -16.439889850   834.8915   1   8   0.0016   0.0010   0.0248  -0.0008  -0.0024   0.0038   6.00   58.6
2024/05/06 12:48:37.000   28.320580950  -16.439889850   834.8910   1   8   0.0016   0.0010   0.0248  -0.0008  -0.0024   0.0037   7.00   61.5
2024/05/06 12:48:38.000   28.320580950  -16.439889850   834.8907   1   8   0.0016   0.0010   0.0248  -0.0008  -0.0024   0.0037   8.00   63.9
2024/05/06 12:48:39.000   28.320580950  -16.439889850   834.8904   1   8   0.0016   0.0010   0.0248  -0.0008  -0.0024   0.0037   9.00   66.1
2024/05/06 12:48:40.000   28.320580950  -16.439889850   834.8900   1   8   0.0016   0.0010   0.0248  -0.0008  -0.0024   0.0037  10.00   68.0
2024/05/06 12:48:41.000   28.320580950  -16.439889850   834.8897   1   8   0.0016   0.0010   0.0248  -0.0008  -0.0024   0.0037  11.00   70.1
2024/05/06 12:48:42.000   28.320580950  -16.439889850   834.8895   1   8   0.0016   0.0010   0.0248  -0.0008  -0.0024   0.0037  12.00   71.7
2024/05/06 12:48:43.000   28.320580950  -16.439889850   834.8892   1   8   0.0016   0.0010   0.0248  -0.0008  -0.0024   0.0037  13.00   73.2
2024/05/06 12:48:44.000   28.320580950  -16.439889850   834.8892   1   8   0.0016   0.0010   0.0248  -0.0008  -0.0024   0.0037  14.00   74.4
2024/05/06 12:48:45.000   28.320580949  -16.439889850   834.8890   1   8   0.0016   0.0010   0.0248  -0.0008  -0.0024   0.0037 -15.00   75.6
2024/05/06 12:48:46.000   28.320580949  -16.439889850   834.8888   1   8   0.0016   0.0010   0.0248  -0.0008  -0.0024   0.0037 -14.00   76.9
2024/05/06 12:48:47.000   28.320580949  -16.439889850   834.8884   1   8   0.0016   0.0010   0.0248  -0.0008  -0.0024   0.0037 -13.00   78.4
2024/05/06 12:48:48.000   28.320580949  -16.439889850   834.8880   1   8   0.0016   0.0010   0.0248  -0.0008  -0.0024   0.0037 -12.00   79.9
2024/05/06 12:48:49.000   28.320580949  -16.439889850   834.8875   1   8   0.0016   0.0010   0.0248  -0.0008  -0.0024   0.0037 -11.00   81.5
2024/05/06 12:48:50.000   28.320580949  -16.439889850   834.8870   1   8   0.0016   0.0010   0.0248  -0.0008  -0.0024   0.0037 -10.00   83.1
2024/05/06 12:48:51.000   28.320580949  -16.439889850   834.8864   1   8   0.0016   0.0010   0.0248  -0.0008  -0.0024   0.0037  -9.00   84.3
2024/05/06 12:48:52.000   28.320580949  -16.439889850   834.8859   1   8   0.0016   0.0010   0.0248  -0.0008  -0.0024   0.0037  -8.00   85.6
2024/05/06 12:48:53.000   28.320580949  -16.439889850   834.8854   1   8   0.0016   0.0010   0.0248  -0.0008  -0.0024   0.0037  -7.00   86.9
2024/05/06 12:48:54.000   28.320580949  -16.439889850   834.8849   1   8   0.0016   0.0010   0.0248  -0.0008  -0.0024   0.0037  -6.00   88.3
2024/05/06 12:48:55.000   28.320580949  -16.439889850   834.8844   1   8   0.0016   0.0010   0.0248  -0.0008  -0.0024   0.0037  -5.00   89.2
2024/05/06 12:48:56.000   28.320580950  -16.439889850   834.8839   1   8   0.0016   0.0010   0.0249  -0.0008  -0.0024   0.0037  -4.00   89.9
2024/05/06 12:48:57.000   28.320580950  -16.439889850   834.8831   1   8   0.0016   0.0010   0.0249  -0.0008  -0.0024   0.0037  -3.00   90.2
2024/05/06 12:48:58.000   28.320580950  -16.439889850   834.8817   1   8   0.0016   0.0010   0.0249  -0.0008  -0.0024   0.0037  -2.00   90.7
2024/05/06 12:48:59.000   28.320580950  -16.439889850   834.8804   1   8   0.0016   0.0010   0.0249  -0.0008  -0.0024   0.0036  -1.00   89.5
2024/05/06 12:49:00.000   28.320580949  -16.439889849   834.8951   1   8   0.0016   0.0010   0.0240  -0.0008  -0.0024   0.0037   0.00   88.9
2024/05/06 12:49:01.000   28.320580947  -16.439889849   834.8808   1   8   0.0016   0.0010   0.0247  -0.0008  -0.0024   0.0037   1.00   22.9
2024/05/06 12:49:02.000   28.320580946  -16.439889849   834.8798   1   8   0.0016   0.0010   0.0247  -0.0008  -0.0024   0.0037   2.00   36.5
2024/05/06 12:49:03.000   28.320580946  -16.439889849   834.8786   1   8   0.0016   0.0010   0.0247  -0.0008  -0.0024   0.0037   3.00   45.6
2024/05/06 12:49:04.000   28.320580946  -16.439889849   834.8777   1   8   0.0016   0.0010   0.0247  -0.0008  -0.0024   0.0037   4.00   51.1
2024/05/06 12:49:05.000   28.320580946  -16.439889849   834.8768   1   8   0.0016   0.0010   0.0247  -0.0008  -0.0024   0.0037   5.00   54.6
2024/05/06 12:49:06.000   28.320580946  -16.439889849   834.8760   1   8   0.0016   0.0010   0.0247  -0.0008  -0.0024   0.0037   6.00   57.2
2024/05/06 12:49:07.000   28.320580946  -16.439889849   834.8754   1   8   0.0016   0.0010   0.0247  -0.0008  -0.0024   0.0037   7.00   59.0
2024/05/06 12:49:08.000   28.320580946  -16.439889849   834.8748   1   8   0.0016   0.0010   0.0247  -0.0008  -0.0024   0.0037   8.00   60.7
2024/05/06 12:49:09.000   28.320580946  -16.439889849   834.8741   1   8   0.0016   0.0010   0.0247  -0.0008  -0.0024   0.0037   9.00   62.1
2024/05/06 12:49:10.000   28.320580946  -16.439889849   834.8736   1   8   0.0016   0.0010   0.0247  -0.0008  -0.0024   0.0037  10.00   63.4
2024/05/06 12:49:11.000   28.320580946  -16.439889849   834.8731   1   8   0.0016   0.0010   0.0247  -0.0008  -0.0024   0.0037  11.00   64.6
2024/05/06 12:49:12.000   28.320580946  -16.439889849   834.8729   1   8   0.0016   0.0010   0.0247  -0.0008  -0.0024   0.0037  12.00   66.0
2024/05/06 12:49:13.000   28.320580946  -16.439889849   834.8728   1   8   0.0016   0.0010   0.0247  -0.0008  -0.0024   0.0037  13.00   67.1
2024/05/06 12:49:14.000   28.320580945  -16.439889849   834.8724   1   8   0.0016   0.0010   0.0247  -0.0008  -0.0024   0.0037  14.00   68.2
2024/05/06 12:49:15.000   28.320580945  -16.439889849   834.8722   1   8   0.0016   0.0010   0.0247  -0.0008  -0.0024   0.0037 -15.00   69.2
2024/05/06 12:49:16.000   28.320580945  -16.439889849   834.8719   1   8   0.0016   0.0010   0.0247  -0.0008  -0.0024   0.0037 -14.00   70.4
2024/05/06 12:49:17.000   28.320580945  -16.439889849   834.8717   1   8   0.0016   0.0010   0.0247  -0.0008  -0.0024   0.0037 -13.00   71.4
2024/05/06 12:49:18.000   28.320580945  -16.439889849   834.8714   1   8   0.0016   0.0010   0.0247  -0.0008  -0.0024   0.0037 -12.00   72.1
2024/05/06 12:49:19.000   28.320580945  -16.439889849   834.8709   1   8   0.0016   0.0010   0.0247  -0.0008  -0.0023   0.0037 -11.00   72.8
2024/05/06 12:49:20.000   28.320580945  -16.439889849   834.8704   1   8   0.0016   0.0010   0.0247  -0.0008  -0.0023   0.0037 -10.00   73.5
2024/05/06 12:49:21.000   28.320580945  -16.439889849   834.8698   1   8   0.0016   0.0010   0.0247  -0.0008  -0.0023   0.0036  -9.00   74.4
2024/05/06 12:49:22.000   28.320580945  -16.439889849   834.8692   1   8   0.0016   0.0010   0.0247  -0.0008  -0.0023   0.0036  -8.00   75.3
2024/05/06 12:49:23.000   28.320580945  -16.439889849   834.8686   1   8   0.0016   0.0010   0.0247  -0.0008  -0.0023   0.0036  -7.00   76.2
2024/05/06 12:49:24.000   28.320580945  -16.439889849   834.8678   1   8   0.0016   0.0010   0.0248  -0.0008  -0.0023   0.0036  -6.00   76.9
2024/05/06 12:49:25.000   28.320580945  -16.439889849   834.8672   1   8   0.0016   0.0010   0.0248  -0.0008  -0.0023   0.0036  -5.00   76.8
2024/05/06 12:49:26.000   28.320580945  -16.439889849   834.8661   1   8   0.0016   0.0010   0.0248  -0.0008  -0.0023   0.0036  -4.00   76.9
2024/05/06 12:49:27.000   28.320580945  -16.439889849   834.8652   1   8   0.0016   0.0010   0.0248  -0.0008  -0.0023   0.0036  -3.00   77.0
2024/05/06 12:49:28.000   28.320580945  -16.439889849   834.8645   1   8   0.0016   0.0010   0.0248  -0.0008  -0.0023   0.0036  -2.00   77.2
2024/05/06 12:49:29.000   28.320580945  -16.439889849   834.8634   1   8   0.0016   0.0010   0.0248  -0.0008  -0.0023   0.0036  -1.00   76.0
2024/05/06 12:49:30.000   28.320580945  -16.439889848   834.8772   1   8   0.0016   0.0010   0.0239  -0.0008  -0.0024   0.0036   0.00   75.6
2024/05/06 12:49:31.000   28.320580943  -16.439889849   834.8638   1   8   0.0016   0.0010   0.0246  -0.0008  -0.0024   0.0037   1.00   20.8
2024/05/06 12:49:32.000   28.320580943  -16.439889849   834.8638   1   8   0.0016   0.0010   0.0246  -0.0008  -0.0024   0.0037   2.00   33.2
2024/05/06 12:49:33.000   28.320580943  -16.439889849   834.8638   1   8   0.0016   0.0010   0.0246  -0.0008  -0.0023   0.0037   3.00   41.6
2024/05/06 12:49:34.000   28.320580943  -16.439889849   834.8635   1   8   0.0016   0.0010   0.0246  -0.0008  -0.0023   0.0037   4.00   47.7
2024/05/06 12:49:35.000   28.320580943  -16.439889849   834.8633   1   8   0.0016   0.0010   0.0246  -0.0008  -0.0023   0.0036   5.00   50.8
2024/05/06 12:49:36.000   28.320580943  -16.439889849   834.8627   1   8   0.0016   0.0010   0.0246  -0.0008  -0.0023   0.0036   6.00   52.8
2024/05/06 12:49:37.000   28.320580943  -16.439889849   834.8622   1   8   0.0016   0.0010   0.0246  -0.0008  -0.0023   0.0036   7.00   54.5
2024/05/06 12:49:38.000   28.320580943  -16.439889849   834.8619   1   8   0.0016   0.0010   0.0246  -0.0008  -0.0023   0.0036   8.00   55.7
2024/05/06 12:49:39.000   28.320580943  -16.439889849   834.8615   1   8   0.0016   0.0010   0.0246  -0.0008  -0.0023   0.0036   9.00   56.7
2024/05/06 12:49:40.000   28.320580943  -16.439889849   834.8612   1   8   0.0016   0.0010   0.0246  -0.0008  -0.0023   0.0036  10.00   57.4
2024/05/06 12:49:41.000   28.320580943  -16.439889849   834.8608   1   8   0.0016   0.0010   0.0246  -0.0008  -0.0023   0.0036  11.00   58.0
2024/05/06 12:49:42.000   28.320580943  -16.439889849   834.8604   1   8   0.0016   0.0010   0.0246  -0.0008  -0.0023   0.0036  12.00   58.7
2024/05/06 12:49:43.000   28.320580943  -16.439889849   834.8601   1   8   0.0016   0.0010   0.0246  -0.0008  -0.0023   0.0036  13.00   59.4
2024/05/06 12:49:44.000   28.320580943  -16.439889849   834.8598   1   8   0.0016   0.0010   0.0246  -0.0008  -0.0023   0.0036  14.00   60.0
2024/05/06 12:49:45.000   28.320580943  -16.439889849   834.8595   1   8   0.0016   0.0010   0.0246  -0.0008  -0.0023   0.0036 -15.00   60.7
2024/05/06 12:49:46.000   28.320580942  -16.439889849   834.8593   1   8   0.0016   0.0010   0.0246  -0.0008  -0.0023   0.0036 -14.00   61.2
2024/05/06 12:49:47.000   28.320580942  -16.439889849   834.8591   1   8   0.0016   0.0010   0.0246  -0.0008  -0.0023   0.0036 -13.00   61.7
2024/05/06 12:49:48.000   28.320580942  -16.439889849   834.8588   1   8   0.0016   0.0010   0.0246  -0.0008  -0.0023   0.0036 -12.00   62.4
2024/05/06 12:49:49.000   28.320580942  -16.439889849   834.8585   1   8   0.0016   0.0010   0.0246  -0.0008  -0.0023   0.0036 -11.00   62.9
2024/05/06 12:49:50.000   28.320580942  -16.439889849   834.8581   1   8   0.0016   0.0010   0.0246  -0.0008  -0.0023   0.0036 -10.00   63.3
2024/05/06 12:49:51.000   28.320580942  -16.439889849   834.8578   1   8   0.0016   0.0010   0.0246  -0.0008  -0.0023   0.0036  -9.00   63.4
2024/05/06 12:49:52.000   28.320580942  -16.439889849   834.8573   1   8   0.0016   0.0010   0.0246  -0.0008  -0.0023   0.0036  -8.00   63.5
2024/05/06 12:49:53.000   28.320580942  -16.439889849   834.8567   1   8   0.0016   0.0010   0.0246  -0.0008  -0.0023   0.0036  -7.00   63.5
2024/05/06 12:49:54.000   28.320580942  -16.439889849   834.8561   1   8   0.0016   0.0010   0.0246  -0.0008  -0.0023   0.0036  -6.00   63.6
2024/05/06 12:49:55.000   28.320580942  -16.439889849   834.8556   1   8   0.0016   0.0010   0.0246  -0.0008  -0.0023   0.0036  -5.00   63.4
2024/05/06 12:49:56.000   28.320580942  -16.439889849   834.8548   1   8   0.0016   0.0010   0.0246  -0.0008  -0.0023   0.0035  -4.00   62.4
2024/05/06 12:49:57.000   28.320580942  -16.439889849   834.8542   1   8   0.0016   0.0010   0.0247  -0.0008  -0.0023   0.0035  -3.00   60.9
2024/05/06 12:49:58.000   28.320580942  -16.439889849   834.8533   1   8   0.0016   0.0010   0.0247  -0.0008  -0.0023   0.0035  -2.00   59.7
2024/05/06 12:49:59.000   28.320580942  -16.439889849   834.8523   1   8   0.0016   0.0010   0.0247  -0.0008  -0.0023   0.0035  -1.00   58.2
2024/05/06 12:50:00.000   28.320580941  -16.439889848   834.8666   1   8   0.0016   0.0010   0.0237  -0.0008  -0.0023   0.0036   0.00   56.8
2024/05/06 12:50:01.000   28.320580939  -16.439889848   834.8518   1   8   0.0016   0.0010   0.0244  -0.0008  -0.0023   0.0036   1.00   15.5
2024/05/06 12:50:02.000   28.320580938  -16.439889848   834.8510   1   8   0.0016   0.0010   0.0244  -0.0008  -0.0023   0.0036   2.00   24.7
2024/05/06 12:50:03.000   28.320580939  -16.439889848   834.8506   1   8   0.0016   0.0010   0.0244  -0.0008  -0.0023   0.0036   3.00   30.3
2024/05/06 12:50:04.000   28.320580939  -16.439889848   834.8497   1   8   0.0016   0.0010   0.0244  -0.0008  -0.0023   0.0036   4.00   34.6
2024/05/06 12:50:05.000   28.320580938  -16.439889848   834.8488   1   8   0.0016   0.0010   0.0244  -0.0008  -0.0023   0.0036   5.00   38.0
2024/05/06 12:50:06.000   28.320580938  -16.439889848   834.8483   1   8   0.0016   0.0010   0.0244  -0.0008  -0.0023   0.0036   6.00   39.5
2024/05/06 12:50:07.000   28.320580938  -16.439889848   834.8478   1   8   0.0016   0.0010   0.0244  -0.0008  -0.0023   0.0036   7.00   40.5
2024/05/06 12:50:08.000   28.320580938  -16.439889848   834.8472   1   8   0.0016   0.0010   0.0244  -0.0008  -0.0023   0.0036   8.00   41.6
2024/05/06 12:50:09.000   28.320580938  -16.439889848   834.8468   1   8   0.0016   0.0010   0.0244  -0.0008  -0.0023   0.0036   9.00   42.5
2024/05/06 12:50:10.000   28.320580938  -16.439889848   834.8463   1   8   0.0016   0.0010   0.0244  -0.0008  -0.0023   0.0035  10.00   43.3
2024/05/06 12:50:11.000   28.320580938  -16.439889848   834.8459   1   8   0.0016   0.0010   0.0244  -0.0008  -0.0023   0.0035  11.00   43.9
2024/05/06 12:50:12.000   28.320580938  -16.439889848   834.8455   1   8   0.0016   0.0010   0.0244  -0.0008  -0.0023   0.0035  12.00   44.6
2024/05/06 12:50:13.000   28.320580938  -16.439889848   834.8452   1   8   0.0016   0.0010   0.0244  -0.0008  -0.0023   0.0035  13.00   45.3
2024/05/06 12:50:14.000   28.320580938  -16.439889848   834.8449   1   8   0.0016   0.0010   0.0244  -0.0008  -0.0023   0.0035  14.00   45.8
2024/05/06 12:50:15.000   28.320580938  -16.439889848   834.8446   1   8   0.0016   0.0010   0.0245  -0.0008  -0.0023   0.0035 -15.00   46.4
2024/05/06 12:50:16.000   28.320580938  -16.439889848   834.8444   1   8   0.0016   0.0010   0.0245  -0.0008  -0.0023   0.0035 -14.00   46.9
2024/05/06 12:50:17.000   28.320580938  -16.439889848   834.8441   1   8   0.0016   0.0010   0.0244  -0.0008  -0.0023   0.0035 -13.00   47.5
2024/05/06 12:50:18.000   28.320580938  -16.439889848   834.8438   1   8   0.0016   0.0010   0.0244  -0.0008  -0.0023   0.0035 -12.00   48.1
2024/05/06 12:50:19.000   28.320580937  -16.439889848   834.8436   1   8   0.0016   0.0010   0.0244  -0.0008  -0.0023   0.0035 -11.00   48.5
2024/05/06 12:50:20.000   28.320580937  -16.439889848   834.8433   1   8   0.0016   0.0010   0.0245  -0.0008  -0.0023   0.0035 -10.00   48.8
2024/05/06 12:50:21.000   28.320580937  -16.439889848   834.8430   1   8   0.0016   0.0010   0.0245  -0.0008  -0.0023   0.0035  -9.00   49.1
2024/05/06 12:50:22.000   28.320580937  -16.439889848   834.8426   1   8   0.0016   0.0010   0.0245  -0.0008  -0.0023   0.0035  -8.00   49.4
2024/05/06 12:50:23.000   28.320580937  -16.439889848   834.8420   1   8   0.0016   0.0010   0.0245  -0.0008  -0.0022   0.0035  -7.00   49.6
2024/05/06 12:50:24.000   28.320580937  -16.439889848   834.8417   1   8   0.0016   0.0010   0.0245  -0.0008  -0.0022   0.0035  -6.00   49.5
2024/05/06 12:50:25.000   28.320580937  -16.439889848   834.8414   1   8   0.0016   0.0010   0.0245  -0.0008  -0.0022   0.0035  -5.00   48.9
2024/05/06 12:50:26.000   28.320580937  -16.439889848   834.8410   1   8   0.0016   0.0010   0.0245  -0.0008  -0.0022   0.0035  -4.00   48.5
2024/05/06 12:50:27.000   28.320580937  -16.439889848   834.8406   1   8   0.0016   0.0010   0.0245  -0.0008  -0.0022   0.0035  -3.00   47.8
2024/05/06 12:50:28.000   28.320580937  -16.439889848   834.8399   1   8   0.0016   0.0010   0.0245  -0.0008  -0.0022   0.0035  -2.00   47.0
2024/05/06 12:50:29.000   28.320580938  -16.439889848   834.8394   1   8   0.0016   0.0010   0.0245  -0.0008  -0.0022   0.0034  -1.00   46.2
2024/05/06 12:50:30.000   28.320580937  -16.439889847   834.8553   1   8   0.0016   0.0010   0.0235  -0.0008  -0.0023   0.0035   0.00   45.7
2024/05/06 12:50:31.000   28.320580934  -16.439889847   834.8397   1   8   0.0016   0.0010   0.0242  -0.0008  -0.0023   0.0036   1.00   12.1
2024/05/06 12:50:32.000   28.320580934  -16.439889847   834.8392   1   8   0.0016   0.0010   0.0242  -0.0008  -0.0023   0.0035   2.00   18.8
2024/05/06 12:50:33.000   28.320580935  -16.439889847   834.8389   1   8   0.0016   0.0010   0.0242  -0.0008  -0.0023   0.0035   3.00   22.9
2024/05/06 12:50:34.000   28.320580935  -16.439889847   834.8380   1   8   0.0016   0.0010   0.0242  -0.0008  -0.0023   0.0035   4.00   26.5
2024/05/06 12:50:35.000   28.320580935  -16.439889847   834.8375   1   8   0.0016   0.0010   0.0242  -0.0008  -0.0022   0.0035   5.00   29.0
2024/05/06 12:50:36.000   28.320580934  -16.439889847   834.8367   1   8   0.0016   0.0010   0.0242  -0.0008  -0.0022   0.0035   6.00   31.5
2024/05/06 12:50:37.000   28.320580934  -16.439889847   834.8363   1   8   0.0016   0.0010   0.0242  -0.0008  -0.0022   0.0035   7.00   32.6
2024/05/06 12:50:38.000   28.320580934  -16.439889847   834.8359   1   8   0.0016   0.0010   0.0242  -0.0008  -0.0022   0.0035   8.00   32.9
2024/05/06 12:50:39.000   28.320580934  -16.439889847   834.8354   1   8   0.0016   0.0010   0.0242  -0.0008  -0.0022   0.0035   9.00   33.2
2024/05/06 12:50:40.000   28.320580934  -16.439889847   834.8350   1   8   0.0016   0.0010   0.0242  -0.0008  -0.0022   0.0035  10.00   33.7
2024/05/06 12:50:41.000   28.320580934  -16.439889847   834.8346   1   8   0.0016   0.0010   0.0242  -0.0008  -0.0022   0.0035  11.00   34.1
2024/05/06 12:50:42.000   28.320580934  -16.439889847   834.8343   1   8   0.0016   0.0010   0.0242  -0.0008  -0.0022   0.0035  12.00   34.6
2024/05/06 12:50:43.000   28.320580934  -16.439889847   834.8340   1   8   0.0016   0.0010   0.0243  -0.0008  -0.0022   0.0035  13.00   35.0
