% program   : RTKPOST-EX 2.5.0
% inp file  : C:\Users\SallyHenry\Desktop\Sally Internship\GNSS gravi\DATA\Survey Rover Obs\GUI01.24o
% inp file  : C:\Users\SallyHenry\Desktop\Sally Internship\GNSS gravi\DATA\BaseStations\TN01\TN0100ESP_R_20241270000_01D_30S_MO.rnx
% inp file  : C:\Users\SallyHenry\Desktop\Sally Internship\GNSS gravi\DATA\BaseStations\TN01\TN0100ESP_R_20241270000_01D_MN.rnx
% inp file  : C:\Users\SallyHenry\Desktop\Sally Internship\GNSS gravi\DATA\aux_files\Survey\IGS0OPSFIN_20241270000_01D_15M_ORB.SP3
% inp file  : C:\Users\SallyHenry\Desktop\Sally Internship\GNSS gravi\DATA\aux_files\Survey\IGS0OPSFIN_20241270000_01D_30S_CLK.CLK
% obs start : 2024/05/06 12:43:53.0 GPST (week2313 132233.0s)
% obs end   : 2024/05/06 12:58:56.0 GPST (week2313 133136.0s)
% pos mode  : Static
% freqs     : L1+L2/E5b
% solution  : Combined-No Phase Reset
% elev mask : 15.0 deg
% dynamics  : on
% tidecorr  : solid
% ionos opt : Estimate TEC
% tropo opt : Estimate ZTD+Grad
% ephemeris : Precise
% navi sys  : GPS GLONASS Galileo QZSS BDS
% amb res   : Fix and Hold
% amb glo   : Fix and Hold
% amb bds   : on
% val thres : 3.0
% antenna1  :                       ( 0.0000  0.0000  1.8000)
% antenna2  :                       ( 0.0000  0.0000  0.0771)
% ref pos   :  28.477186930  -16.241151700    51.7531
%
% (lat/lon/height=WGS84/ellipsoidal,Q=1:fix,2:float,3:sbas,4:dgps,5:single,6:ppp,ns=# of satellites)
%  GPST                  latitude(deg) longitude(deg)  height(m)   Q  ns   sdn(m)   sde(m)   sdu(m)  sdne(m)  sdeu(m)  sdun(m) age(s)  ratio
2024/05/06 12:43:53.000   28.320580955  -16.439889790   834.7922   1   8   0.0020   0.0014   0.0279  -0.0001  -0.0001   0.0047  -7.00  675.6
2024/05/06 12:43:54.000   28.320580955  -16.439889790   834.7917   1   8   0.0020   0.0014   0.0279  -0.0001  -0.0001   0.0047  -6.00  674.4
2024/05/06 12:43:55.000   28.320580955  -16.439889790   834.7911   1   8   0.0020   0.0014   0.0279  -0.0001   0.0001   0.0047  -5.00  673.2
2024/05/06 12:43:56.000   28.320580955  -16.439889790   834.7904   1   8   0.0020   0.0014   0.0279  -0.0001   0.0001   0.0047  -4.00  671.4
2024/05/06 12:43:57.000   28.320580954  -16.439889790   834.7896   1   8   0.0020   0.0014   0.0279  -0.0001   0.0002   0.0047  -3.00  671.0
2024/05/06 12:43:58.000   28.320580954  -16.439889790   834.7889   1   8   0.0020   0.0014   0.0280  -0.0001   0.0002   0.0047  -2.00  669.7
2024/05/06 12:43:59.000   28.320580954  -16.439889790   834.7875   1   8   0.0020   0.0014   0.0280  -0.0001   0.0003   0.0047  -1.00  669.7
2024/05/06 12:44:00.000   28.320580953  -16.439889790   834.7865   1   8   0.0020   0.0014   0.0281  -0.0001   0.0004   0.0047   0.00  669.9
2024/05/06 12:44:01.000   28.320580953  -16.439889790   834.7857   1   8   0.0020   0.0014   0.0281  -0.0001   0.0004   0.0047   1.00  670.9
2024/05/06 12:44:02.000   28.320580953  -16.439889790   834.7847   1   8   0.0020   0.0014   0.0281  -0.0001   0.0004   0.0047   2.00  671.8
2024/05/06 12:44:03.000   28.320580953  -16.439889790   834.7836   1   8   0.0020   0.0014   0.0282  -0.0001   0.0004   0.0047   3.00  673.8
2024/05/06 12:44:04.000   28.320580952  -16.439889790   834.7827   1   8   0.0020   0.0014   0.0282  -0.0002   0.0004   0.0047   4.00  675.7
2024/05/06 12:44:05.000   28.320580952  -16.439889790   834.7819   1   8   0.0020   0.0014   0.0282  -0.0002   0.0004   0.0047   5.00  675.6
2024/05/06 12:44:06.000   28.320580952  -16.439889790   834.7811   1   8   0.0020   0.0014   0.0282  -0.0002   0.0005   0.0047   6.00  675.5
2024/05/06 12:44:07.000   28.320580952  -16.439889790   834.7803   1   8   0.0020   0.0014   0.0283  -0.0002   0.0005   0.0047   7.00  675.4
2024/05/06 12:44:08.000   28.320580952  -16.439889790   834.7797   1   8   0.0020   0.0014   0.0283  -0.0002   0.0005   0.0047   8.00  674.5
2024/05/06 12:44:09.000   28.320580952  -16.439889790   834.7792   1   8   0.0020   0.0014   0.0283  -0.0002   0.0005   0.0047   9.00  673.2
2024/05/06 12:44:10.000   28.320580952  -16.439889790   834.7787   1   8   0.0020   0.0014   0.0283  -0.0002   0.0005   0.0047  10.00  672.2
2024/05/06 12:44:11.000   28.320580951  -16.439889790   834.7783   1   8   0.0020   0.0014   0.0283  -0.0002   0.0005   0.0047  11.00  670.7
2024/05/06 12:44:12.000   28.320580951  -16.439889790   834.7779   1   8   0.0020   0.0014   0.0283  -0.0002   0.0005   0.0047  12.00  669.3
2024/05/06 12:44:13.000   28.320580951  -16.439889790   834.7775   1   8   0.0020   0.0014   0.0283  -0.0001   0.0005   0.0047  13.00  667.7
2024/05/06 12:44:14.000   28.320580951  -16.439889790   834.7772   1   8   0.0020   0.0014   0.0283  -0.0001   0.0005   0.0047  14.00  666.5
2024/05/06 12:44:15.000   28.320580951  -16.439889790   834.7769   1   8   0.0020   0.0014   0.0283  -0.0001   0.0005   0.0047  15.00  665.2
2024/05/06 12:44:16.000   28.320580951  -16.439889790   834.7767   1   8   0.0020   0.0014   0.0283  -0.0001   0.0005   0.0047 -14.00  664.2
2024/05/06 12:44:17.000   28.320580951  -16.439889790   834.7764   1   8   0.0020   0.0014   0.0283  -0.0001   0.0005   0.0047 -13.00  662.9
2024/05/06 12:44:18.000   28.320580951  -16.439889790   834.7761   1   8   0.0020   0.0014   0.0284  -0.0001   0.0005   0.0047 -12.00  661.7
2024/05/06 12:44:19.000   28.320580951  -16.439889790   834.7758   1   8   0.0020   0.0014   0.0284  -0.0001   0.0005   0.0047 -11.00  660.7
2024/05/06 12:44:20.000   28.320580951  -16.439889790   834.7754   1   8   0.0020   0.0014   0.0284  -0.0001   0.0005   0.0047 -10.00  659.7
2024/05/06 12:44:21.000   28.320580951  -16.439889790   834.7750   1   8   0.0020   0.0014   0.0284  -0.0001   0.0005   0.0047  -9.00  658.3
2024/05/06 12:44:22.000   28.320580951  -16.439889790   834.7745   1   8   0.0020   0.0014   0.0284  -0.0001   0.0005   0.0047  -8.00  656.8
2024/05/06 12:44:23.000   28.320580950  -16.439889790   834.7740   1   8   0.0020   0.0014   0.0284  -0.0001   0.0005   0.0047  -7.00  655.3
2024/05/06 12:44:24.000   28.320580950  -16.439889790   834.7735   1   8   0.0020   0.0014   0.0284  -0.0001   0.0005   0.0047  -6.00  654.5
2024/05/06 12:44:25.000   28.320580950  -16.439889790   834.7728   1   8   0.0020   0.0014   0.0284  -0.0001   0.0005   0.0047  -5.00  654.0
2024/05/06 12:44:26.000   28.320580950  -16.439889790   834.7721   1   8   0.0020   0.0014   0.0285  -0.0001   0.0005   0.0047  -4.00  653.4
2024/05/06 12:44:27.000   28.320580950  -16.439889790   834.7712   1   8   0.0020   0.0014   0.0285  -0.0001   0.0006   0.0047  -3.00  652.4
2024/05/06 12:44:28.000   28.320580950  -16.439889790   834.7702   1   8   0.0020   0.0014   0.0285  -0.0001   0.0006   0.0047  -2.00  651.1
2024/05/06 12:44:29.000   28.320580949  -16.439889790   834.7690   1   8   0.0020   0.0014   0.0286  -0.0001   0.0006   0.0048  -1.00  648.9
2024/05/06 12:44:30.000   28.320580949  -16.439889791   834.7676   1   8   0.0020   0.0014   0.0286  -0.0001   0.0007   0.0048   0.00  649.4
2024/05/06 12:44:31.000   28.320580949  -16.439889790   834.7666   1   8   0.0020   0.0014   0.0287  -0.0001   0.0007   0.0048   1.00  650.4
2024/05/06 12:44:32.000   28.320580949  -16.439889790   834.7655   1   8   0.0020   0.0014   0.0287  -0.0001   0.0007   0.0048   2.00  651.5
2024/05/06 12:44:33.000   28.320580949  -16.439889790   834.7643   1   8   0.0020   0.0014   0.0287  -0.0001   0.0007   0.0048   3.00  653.6
2024/05/06 12:44:34.000   28.320580949  -16.439889790   834.7635   1   8   0.0020   0.0014   0.0287  -0.0001   0.0007   0.0048   4.00  655.9
2024/05/06 12:44:35.000   28.320580949  -16.439889791   834.7627   1   8   0.0020   0.0014   0.0288  -0.0001   0.0007   0.0048   5.00  658.4
2024/05/06 12:44:36.000   28.320580949  -16.439889791   834.7619   1   8   0.0020   0.0014   0.0288  -0.0001   0.0007   0.0048   6.00  659.5
2024/05/06 12:44:37.000   28.320580949  -16.439889791   834.7612   1   8   0.0020   0.0014   0.0288  -0.0002   0.0007   0.0048   7.00  659.7
2024/05/06 12:44:38.000   28.320580949  -16.439889791   834.7606   1   8   0.0020   0.0014   0.0288  -0.0002   0.0007   0.0048   8.00  660.0
2024/05/06 12:44:39.000   28.320580949  -16.439889791   834.7600   1   8   0.0020   0.0014   0.0288  -0.0001   0.0007   0.0048   9.00  660.4
2024/05/06 12:44:40.000   28.320580949  -16.439889791   834.7594   1   8   0.0020   0.0014   0.0288  -0.0001   0.0007   0.0048  10.00  660.4
2024/05/06 12:44:41.000   28.320580949  -16.439889791   834.7588   1   8   0.0020   0.0014   0.0289  -0.0001   0.0007   0.0048  11.00  660.8
2024/05/06 12:44:42.000   28.320580949  -16.439889791   834.7583   1   8   0.0020   0.0014   0.0289  -0.0001   0.0007   0.0048  12.00  661.0
2024/05/06 12:44:43.000   28.320580949  -16.439889791   834.7579   1   8   0.0020   0.0014   0.0289  -0.0001   0.0007   0.0048  13.00  661.2
2024/05/06 12:44:44.000   28.320580949  -16.439889791   834.7576   1   8   0.0020   0.0014   0.0289  -0.0001   0.0007   0.0048  14.00  661.2
2024/05/06 12:44:45.000   28.320580949  -16.439889791   834.7572   1   8   0.0020   0.0014   0.0289  -0.0001   0.0007   0.0048  15.00  661.0
2024/05/06 12:44:46.000   28.320580949  -16.439889791   834.7569   1   8   0.0020   0.0014   0.0289  -0.0001   0.0007   0.0048 -14.00  660.7
2024/05/06 12:44:47.000   28.320580949  -16.439889791   834.7565   1   8   0.0020   0.0014   0.0289  -0.0001   0.0007   0.0048 -13.00  660.9
2024/05/06 12:44:48.000   28.320580949  -16.439889791   834.7562   1   8   0.0020   0.0014   0.0289  -0.0001   0.0007   0.0048 -12.00  661.2
2024/05/06 12:44:49.000   28.320580949  -16.439889791   834.7558   1   8   0.0020   0.0014   0.0289  -0.0001   0.0007   0.0048 -11.00  661.6
2024/05/06 12:44:50.000   28.320580949  -16.439889791   834.7553   1   8   0.0020   0.0014   0.0289  -0.0001   0.0007   0.0048 -10.00  661.6
2024/05/06 12:44:51.000   28.320580949  -16.439889791   834.7549   1   8   0.0020   0.0014   0.0289  -0.0001   0.0007   0.0048  -9.00  662.0
2024/05/06 12:44:52.000   28.320580949  -16.439889791   834.7544   1   8   0.0020   0.0014   0.0289  -0.0001   0.0007   0.0048  -8.00  662.6
2024/05/06 12:44:53.000   28.320580949  -16.439889791   834.7539   1   8   0.0020   0.0014   0.0290  -0.0001   0.0007   0.0048  -7.00  663.6
2024/05/06 12:44:54.000   28.320580950  -16.439889791   834.7535   1   8   0.0020   0.0014   0.0290  -0.0001   0.0007   0.0048  -6.00  664.4
2024/05/06 12:44:55.000   28.320580950  -16.439889791   834.7529   1   8   0.0020   0.0014   0.0290  -0.0001   0.0008   0.0048  -5.00  665.5
2024/05/06 12:44:56.000   28.320580950  -16.439889791   834.7523   1   8   0.0020   0.0014   0.0290  -0.0001   0.0008   0.0048  -4.00  665.8
2024/05/06 12:44:57.000   28.320580950  -16.439889791   834.7516   1   8   0.0020   0.0014   0.0291  -0.0001   0.0008   0.0048  -3.00  666.6
2024/05/06 12:44:58.000   28.320580950  -16.439889791   834.7507   1   8   0.0020   0.0014   0.0291  -0.0001   0.0008   0.0048  -2.00  669.4
2024/05/06 12:44:59.000   28.320580949  -16.439889791   834.7497   1   8   0.0020   0.0014   0.0291  -0.0001   0.0008   0.0048  -1.00  672.5
2024/05/06 12:45:00.000   28.320580949  -16.439889791   834.7488   1   8   0.0020   0.0014   0.0292  -0.0001   0.0009   0.0048   0.00  674.1
2024/05/06 12:45:01.000   28.320580949  -16.439889791   834.7477   1   8   0.0020   0.0014   0.0292  -0.0001   0.0009   0.0048   1.00  674.2
2024/05/06 12:45:02.000   28.320580949  -16.439889791   834.7465   1   8   0.0020   0.0014   0.0292  -0.0001   0.0009   0.0048   2.00  674.2
2024/05/06 12:45:03.000   28.320580949  -16.439889791   834.7454   1   8   0.0020   0.0014   0.0293  -0.0001   0.0009   0.0048   3.00  675.3
2024/05/06 12:45:04.000   28.320580949  -16.439889791   834.7447   1   8   0.0020   0.0014   0.0293  -0.0001   0.0009   0.0049   4.00  675.6
2024/05/06 12:45:05.000   28.320580949  -16.439889791   834.7439   1   8   0.0020   0.0014   0.0293  -0.0001   0.0009   0.0049   5.00  674.1
2024/05/06 12:45:06.000   28.320580949  -16.439889791   834.7433   1   8   0.0020   0.0014   0.0293  -0.0001   0.0009   0.0049   6.00  672.5
2024/05/06 12:45:07.000   28.320580949  -16.439889791   834.7429   1   8   0.0020   0.0014   0.0294  -0.0001   0.0009   0.0049   7.00  670.8
2024/05/06 12:45:08.000   28.320580949  -16.439889791   834.7424   1   8   0.0020   0.0014   0.0294  -0.0001   0.0009   0.0049   8.00  668.4
2024/05/06 12:45:09.000   28.320580949  -16.439889790   834.7421   1   8   0.0020   0.0014   0.0294  -0.0001   0.0009   0.0049   9.00  666.0
2024/05/06 12:45:10.000   28.320580948  -16.439889790   834.7418   1   8   0.0020   0.0014   0.0294  -0.0001   0.0009   0.0049  10.00  663.7
2024/05/06 12:45:11.000   28.320580948  -16.439889790   834.7416   1   8   0.0020   0.0014   0.0294  -0.0001   0.0009   0.0049  11.00  661.5
2024/05/06 12:45:12.000   28.320580948  -16.439889790   834.7413   1   8   0.0020   0.0014   0.0294  -0.0001   0.0009   0.0049  12.00  659.1
2024/05/06 12:45:13.000   28.320580948  -16.439889790   834.7411   1   8   0.0020   0.0014   0.0294  -0.0001   0.0009   0.0049  13.00  657.2
2024/05/06 12:45:14.000   28.320580948  -16.439889790   834.7409   1   8   0.0020   0.0014   0.0294  -0.0001   0.0009   0.0049  14.00  655.1
2024/05/06 12:45:15.000   28.320580948  -16.439889790   834.7407   1   8   0.0020   0.0014   0.0294  -0.0001   0.0009   0.0049  15.00  653.2
2024/05/06 12:45:16.000   28.320580948  -16.439889790   834.7405   1   8   0.0020   0.0014   0.0295  -0.0001   0.0009   0.0049 -14.00  651.3
2024/05/06 12:45:17.000   28.320580948  -16.439889790   834.7404   1   8   0.0020   0.0014   0.0295  -0.0001   0.0009   0.0049 -13.00  649.3
2024/05/06 12:45:18.000   28.320580948  -16.439889790   834.7401   1   8   0.0020   0.0014   0.0295  -0.0001   0.0009   0.0049 -12.00  647.5
2024/05/06 12:45:19.000   28.320580948  -16.439889790   834.7398   1   8   0.0020   0.0014   0.0295  -0.0001   0.0009   0.0049 -11.00  645.2
2024/05/06 12:45:20.000   28.320580948  -16.439889790   834.7395   1   8   0.0020   0.0014   0.0295  -0.0001   0.0009   0.0049 -10.00  642.9
2024/05/06 12:45:21.000   28.320580947  -16.439889790   834.7392   1   8   0.0020   0.0014   0.0295  -0.0001   0.0009   0.0049  -9.00  640.6
2024/05/06 12:45:22.000   28.320580947  -16.439889790   834.7388   1   8   0.0020   0.0014   0.0295  -0.0001   0.0009   0.0049  -8.00  637.9
2024/05/06 12:45:23.000   28.320580947  -16.439889790   834.7384   1   8   0.0020   0.0014   0.0295  -0.0001   0.0009   0.0049  -7.00  634.3
2024/05/06 12:45:24.000   28.320580947  -16.439889790   834.7379   1   8   0.0020   0.0014   0.0295  -0.0001   0.0009   0.0049  -6.00  630.8
2024/05/06 12:45:25.000   28.320580947  -16.439889790   834.7373   1   8   0.0020   0.0014   0.0296  -0.0001   0.0009   0.0049  -5.00  627.6
2024/05/06 12:45:26.000   28.320580946  -16.439889790   834.7367   1   8   0.0020   0.0014   0.0296  -0.0001   0.0010   0.0049  -4.00  624.8
2024/05/06 12:45:27.000   28.320580946  -16.439889790   834.7360   1   8   0.0020   0.0014   0.0296  -0.0001   0.0010   0.0049  -3.00  621.9
2024/05/06 12:45:28.000   28.320580946  -16.439889790   834.7350   1   8   0.0020   0.0014   0.0297  -0.0001   0.0010   0.0049  -2.00  619.6
2024/05/06 12:45:29.000   28.320580946  -16.439889791   834.7338   1   8   0.0020   0.0014   0.0297  -0.0001   0.0010   0.0049  -1.00  619.0
2024/05/06 12:45:30.000   28.320580945  -16.439889791   834.7325   1   8   0.0020   0.0014   0.0297  -0.0001   0.0010   0.0049   0.00  615.8
2024/05/06 12:45:31.000   28.320580945  -16.439889791   834.7315   1   8   0.0020   0.0014   0.0298  -0.0001   0.0011   0.0049   1.00  613.3
2024/05/06 12:45:32.000   28.320580945  -16.439889791   834.7304   1   8   0.0020   0.0014   0.0298  -0.0001   0.0011   0.0049   2.00  612.0
2024/05/06 12:45:33.000   28.320580945  -16.439889791   834.7297   1   8   0.0020   0.0014   0.0298  -0.0001   0.0011   0.0049   3.00  609.1
2024/05/06 12:45:34.000   28.320580945  -16.439889791   834.7289   1   8   0.0020   0.0014   0.0299  -0.0001   0.0011   0.0049   4.00  607.1
2024/05/06 12:45:35.000   28.320580944  -16.439889791   834.7283   1   8   0.0020   0.0014   0.0299  -0.0001   0.0011   0.0049   5.00  604.8
2024/05/06 12:45:36.000   28.320580944  -16.439889791   834.7279   1   8   0.0020   0.0014   0.0299  -0.0001   0.0011   0.0049   6.00  602.6
2024/05/06 12:45:37.000   28.320580944  -16.439889791   834.7275   1   8   0.0020   0.0014   0.0299  -0.0001   0.0011   0.0049   7.00  601.4
2024/05/06 12:45:38.000   28.320580944  -16.439889791   834.7270   1   8   0.0020   0.0014   0.0300  -0.0001   0.0011   0.0049   8.00  600.8
2024/05/06 12:45:39.000   28.320580944  -16.439889791   834.7267   1   8   0.0020   0.0014   0.0300  -0.0001   0.0011   0.0049   9.00  599.7
2024/05/06 12:45:40.000   28.320580944  -16.439889791   834.7264   1   8   0.0020   0.0014   0.0300  -0.0001   0.0011   0.0049  10.00  598.3
2024/05/06 12:45:41.000   28.320580944  -16.439889792   834.7262   1   8   0.0020   0.0014   0.0300  -0.0001   0.0011   0.0049  11.00  597.1
2024/05/06 12:45:42.000   28.320580944  -16.439889792   834.7260   1   8   0.0020   0.0014   0.0300  -0.0001   0.0011   0.0049  12.00  595.9
2024/05/06 12:45:43.000   28.320580944  -16.439889792   834.7258   1   8   0.0020   0.0014   0.0300  -0.0001   0.0011   0.0049  13.00  594.3
2024/05/06 12:45:44.000   28.320580944  -16.439889792   834.7256   1   8   0.0020   0.0014   0.0300  -0.0001   0.0011   0.0049  14.00  592.9
2024/05/06 12:45:45.000   28.320580944  -16.439889792   834.7255   1   8   0.0020   0.0014   0.0300  -0.0001   0.0011   0.0050  15.00  591.5
2024/05/06 12:45:46.000   28.320580944  -16.439889792   834.7253   1   8   0.0020   0.0014   0.0300  -0.0001   0.0011   0.0050 -14.00  590.1
2024/05/06 12:45:47.000   28.320580944  -16.439889792   834.7252   1   8   0.0020   0.0014   0.0300  -0.0001   0.0011   0.0050 -13.00  588.6
2024/05/06 12:45:48.000   28.320580944  -16.439889792   834.7251   1   8   0.0020   0.0014   0.0300  -0.0001   0.0011   0.0050 -12.00  587.3
2024/05/06 12:45:49.000   28.320580944  -16.439889792   834.7249   1   8   0.0020   0.0014   0.0300  -0.0001   0.0011   0.0050 -11.00  586.0
2024/05/06 12:45:50.000   28.320580944  -16.439889792   834.7248   1   8   0.0020   0.0014   0.0301  -0.0001   0.0011   0.0050 -10.00  584.7
2024/05/06 12:45:51.000   28.320580944  -16.439889792   834.7246   1   8   0.0020   0.0014   0.0301  -0.0001   0.0011   0.0050  -9.00  583.3
2024/05/06 12:45:52.000   28.320580944  -16.439889792   834.7245   1   8   0.0020   0.0014   0.0301  -0.0001   0.0011   0.0050  -8.00  581.9
2024/05/06 12:45:53.000   28.320580944  -16.439889792   834.7243   1   8   0.0020   0.0014   0.0301  -0.0001   0.0011   0.0050  -7.00  580.7
2024/05/06 12:45:54.000   28.320580944  -16.439889792   834.7241   1   8   0.0020   0.0014   0.0301  -0.0001   0.0011   0.0050  -6.00  579.3
2024/05/06 12:45:55.000   28.320580943  -16.439889792   834.7238   1   8   0.0020   0.0014   0.0301  -0.0001   0.0011   0.0050  -5.00  578.1
2024/05/06 12:45:56.000   28.320580943  -16.439889792   834.7235   1   8   0.0020   0.0014   0.0302  -0.0001   0.0011   0.0050  -4.00  577.2
2024/05/06 12:45:57.000   28.320580943  -16.439889792   834.7233   1   8   0.0020   0.0014   0.0302  -0.0001   0.0011   0.0050  -3.00  576.8
2024/05/06 12:45:58.000   28.320580943  -16.439889792   834.7230   1   8   0.0020   0.0014   0.0302  -0.0001   0.0012   0.0050  -2.00  575.3
2024/05/06 12:45:59.000   28.320580943  -16.439889792   834.7227   1   8   0.0020   0.0014   0.0303  -0.0001   0.0012   0.0050  -1.00  574.0
2024/05/06 12:46:00.000   28.320580943  -16.439889792   834.7222   1   8   0.0020   0.0014   0.0303  -0.0001   0.0012   0.0050   0.00  572.9
2024/05/06 12:46:01.000   28.320580943  -16.439889792   834.7219   1   8   0.0020   0.0014   0.0304  -0.0001   0.0012   0.0050   1.00  571.4
2024/05/06 12:46:02.000   28.320580943  -16.439889792   834.7216   1   8   0.0020   0.0014   0.0304  -0.0001   0.0012   0.0050   2.00  572.0
2024/05/06 12:46:03.000   28.320580943  -16.439889792   834.7214   1   8   0.0020   0.0014   0.0304  -0.0001   0.0012   0.0050   3.00  570.4
2024/05/06 12:46:04.000   28.320580943  -16.439889792   834.7212   1   8   0.0020   0.0014   0.0305  -0.0001   0.0012   0.0050   4.00  568.4
2024/05/06 12:46:05.000   28.320580943  -16.439889792   834.7210   1   8   0.0020   0.0014   0.0305  -0.0001   0.0012   0.0050   5.00  567.9
2024/05/06 12:46:06.000   28.320580943  -16.439889792   834.7207   1   8   0.0020   0.0014   0.0305  -0.0001   0.0013   0.0050   6.00  566.4
2024/05/06 12:46:07.000   28.320580943  -16.439889792   834.7205   1   8   0.0020   0.0014   0.0305  -0.0001   0.0013   0.0050   7.00  564.7
2024/05/06 12:46:08.000   28.320580943  -16.439889792   834.7205   1   8   0.0020   0.0014   0.0305  -0.0001   0.0013   0.0050   8.00  562.7
2024/05/06 12:46:09.000   28.320580943  -16.439889792   834.7205   1   8   0.0020   0.0014   0.0306  -0.0001   0.0013   0.0050   9.00  561.1
2024/05/06 12:46:10.000   28.320580943  -16.439889792   834.7205   1   8   0.0020   0.0014   0.0306  -0.0001   0.0013   0.0050  10.00  559.4
2024/05/06 12:46:11.000   28.320580943  -16.439889792   834.7205   1   8   0.0020   0.0014   0.0306  -0.0001   0.0013   0.0050  11.00  557.9
2024/05/06 12:46:12.000   28.320580943  -16.439889792   834.7205   1   8   0.0020   0.0014   0.0306  -0.0001   0.0013   0.0050  12.00  556.2
2024/05/06 12:46:13.000   28.320580943  -16.439889792   834.7205   1   8   0.0020   0.0014   0.0306  -0.0001   0.0013   0.0050  13.00  554.7
2024/05/06 12:46:14.000   28.320580943  -16.439889792   834.7206   1   8   0.0020   0.0014   0.0306  -0.0001   0.0013   0.0050  14.00  553.0
2024/05/06 12:46:15.000   28.320580943  -16.439889792   834.7206   1   8   0.0020   0.0014   0.0306  -0.0001   0.0013   0.0050  15.00  551.4
2024/05/06 12:46:16.000   28.320580943  -16.439889792   834.7206   1   8   0.0020   0.0014   0.0306  -0.0001   0.0013   0.0050 -14.00  549.8
2024/05/06 12:46:17.000   28.320580943  -16.439889792   834.7207   1   8   0.0020   0.0014   0.0306  -0.0001   0.0013   0.0050 -13.00  548.0
2024/05/06 12:46:18.000   28.320580943  -16.439889792   834.7207   1   8   0.0020   0.0014   0.0306  -0.0001   0.0013   0.0050 -12.00  546.2
2024/05/06 12:46:19.000   28.320580943  -16.439889792   834.7208   1   8   0.0020   0.0014   0.0306  -0.0001   0.0013   0.0050 -11.00  544.2
2024/05/06 12:46:20.000   28.320580943  -16.439889792   834.7209   1   8   0.0020   0.0014   0.0306  -0.0001   0.0013   0.0050 -10.00  542.3
2024/05/06 12:46:21.000   28.320580942  -16.439889792   834.7210   1   8   0.0020   0.0014   0.0307  -0.0001   0.0013   0.0050  -9.00  540.2
2024/05/06 12:46:22.000   28.320580942  -16.439889792   834.7211   1   8   0.0020   0.0014   0.0307  -0.0001   0.0013   0.0050  -8.00  537.9
2024/05/06 12:46:23.000   28.320580942  -16.439889792   834.7213   1   8   0.0020   0.0014   0.0307  -0.0001   0.0013   0.0051  -7.00  536.1
2024/05/06 12:46:24.000   28.320580942  -16.439889792   834.7215   1   8   0.0020   0.0014   0.0307  -0.0001   0.0013   0.0051  -6.00  534.0
2024/05/06 12:46:25.000   28.320580942  -16.439889792   834.7218   1   8   0.0020   0.0014   0.0307  -0.0001   0.0013   0.0051  -5.00  532.4
2024/05/06 12:46:26.000   28.320580942  -16.439889792   834.7222   1   8   0.0020   0.0014   0.0308  -0.0001   0.0013   0.0051  -4.00  529.7
2024/05/06 12:46:27.000   28.320580942  -16.439889792   834.7225   1   8   0.0020   0.0014   0.0308  -0.0001   0.0013   0.0051  -3.00  527.0
2024/05/06 12:46:28.000   28.320580942  -16.439889792   834.7228   1   8   0.0020   0.0014   0.0308  -0.0001   0.0013   0.0051  -2.00  524.7
2024/05/06 12:46:29.000   28.320580942  -16.439889792   834.7231   1   8   0.0020   0.0014   0.0309  -0.0001   0.0014   0.0051  -1.00  521.5
2024/05/06 12:46:30.000   28.320580942  -16.439889792   834.7232   1   8   0.0020   0.0014   0.0309  -0.0000   0.0014   0.0051   0.00  518.5
2024/05/06 12:46:31.000   28.320580942  -16.439889792   834.7235   1   8   0.0020   0.0014   0.0310  -0.0001   0.0014   0.0051   1.00  517.4
2024/05/06 12:46:32.000   28.320580942  -16.439889792   834.7238   1   8   0.0020   0.0014   0.0310  -0.0001   0.0014   0.0051   2.00  516.3
2024/05/06 12:46:33.000   28.320580942  -16.439889792   834.7240   1   8   0.0020   0.0014   0.0310  -0.0001   0.0014   0.0051   3.00  514.7
2024/05/06 12:46:34.000   28.320580942  -16.439889792   834.7243   1   8   0.0020   0.0014   0.0311  -0.0001   0.0014   0.0051   4.00  513.2
2024/05/06 12:46:35.000   28.320580942  -16.439889793   834.7246   1   8   0.0020   0.0014   0.0311  -0.0001   0.0014   0.0051   5.00  510.9
2024/05/06 12:46:36.000   28.320580942  -16.439889793   834.7248   1   8   0.0020   0.0014   0.0311  -0.0001   0.0014   0.0051   6.00  509.0
2024/05/06 12:46:37.000   28.320580942  -16.439889793   834.7252   1   8   0.0020   0.0014   0.0311  -0.0001   0.0014   0.0051   7.00  507.3
2024/05/06 12:46:38.000   28.320580942  -16.439889793   834.7255   1   8   0.0020   0.0014   0.0312  -0.0001   0.0014   0.0051   8.00  505.7
2024/05/06 12:46:39.000   28.320580942  -16.439889792   834.7259   1   8   0.0020   0.0014   0.0312  -0.0001   0.0014   0.0051   9.00  503.6
2024/05/06 12:46:40.000   28.320580942  -16.439889792   834.7262   1   8   0.0020   0.0014   0.0312  -0.0001   0.0014   0.0051  10.00  501.9
2024/05/06 12:46:41.001   28.320580942  -16.439889792   834.7265   1   8   0.0020   0.0014   0.0312  -0.0001   0.0014   0.0051  11.00  500.2
2024/05/06 12:46:42.000   28.320580942  -16.439889792   834.7267   1   8   0.0020   0.0014   0.0312  -0.0001   0.0014   0.0051  12.00  498.5
2024/05/06 12:46:43.000   28.320580942  -16.439889792   834.7270   1   8   0.0020   0.0014   0.0312  -0.0001   0.0014   0.0051  13.00  496.7
2024/05/06 12:46:44.000   28.320580942  -16.439889792   834.7272   1   8   0.0020   0.0014   0.0312  -0.0001   0.0014   0.0051  14.00  495.0
2024/05/06 12:46:45.000   28.320580942  -16.439889792   834.7274   1   8   0.0020   0.0014   0.0312  -0.0001   0.0014   0.0051  15.00  493.6
2024/05/06 12:46:46.000   28.320580942  -16.439889792   834.7275   1   8   0.0020   0.0014   0.0312  -0.0001   0.0014   0.0051 -14.00  491.9
2024/05/06 12:46:47.000   28.320580942  -16.439889792   834.7277   1   8   0.0020   0.0014   0.0312  -0.0001   0.0014   0.0051 -13.00  490.2
2024/05/06 12:46:48.000   28.320580942  -16.439889792   834.7279   1   8   0.0020   0.0014   0.0312  -0.0001   0.0014   0.0051 -12.00  488.4
2024/05/06 12:46:49.000   28.320580942  -16.439889792   834.7282   1   8   0.0020   0.0014   0.0313  -0.0001   0.0014   0.0051 -11.00  486.8
2024/05/06 12:46:50.000   28.320580942  -16.439889792   834.7284   1   8   0.0020   0.0014   0.0313  -0.0000   0.0014   0.0051 -10.00  485.0
2024/05/06 12:46:51.000   28.320580942  -16.439889792   834.7288   1   8   0.0020   0.0014   0.0313  -0.0000   0.0014   0.0051  -9.00  483.4
2024/05/06 12:46:52.000   28.320580942  -16.439889792   834.7291   1   8   0.0020   0.0014   0.0313  -0.0000   0.0014   0.0051  -8.00  481.5
2024/05/06 12:46:53.000   28.320580942  -16.439889792   834.7296   1   8   0.0020   0.0014   0.0313  -0.0000   0.0014   0.0051  -7.00  479.7
2024/05/06 12:46:54.000   28.320580942  -16.439889792   834.7300   1   8   0.0020   0.0014   0.0313  -0.0000   0.0015   0.0051  -6.00  477.9
2024/05/06 12:46:55.000   28.320580942  -16.439889792   834.7307   1   8   0.0020   0.0014   0.0314   0.0000   0.0015   0.0051  -5.00  476.4
2024/05/06 12:46:56.000   28.320580942  -16.439889792   834.7314   1   8   0.0020   0.0014   0.0314   0.0000   0.0015   0.0052  -4.00  474.2
2024/05/06 12:46:57.000   28.320580942  -16.439889792   834.7321   1   8   0.0020   0.0014   0.0314  -0.0000   0.0015   0.0052  -3.00  472.0
2024/05/06 12:46:58.000   28.320580942  -16.439889792   834.7329   1   8   0.0020   0.0014   0.0315  -0.0000   0.0015   0.0052  -2.00  470.7
2024/05/06 12:46:59.000   28.320580942  -16.439889793   834.7336   1   8   0.0020   0.0014   0.0315  -0.0000   0.0015   0.0052  -1.00  470.0
2024/05/06 12:47:00.000   28.320580942  -16.439889793   834.7341   1   8   0.0020   0.0014   0.0316   0.0001   0.0015   0.0052   0.00  468.8
2024/05/06 12:47:01.000   28.320580942  -16.439889793   834.7348   1   8   0.0020   0.0014   0.0316   0.0000   0.0015   0.0052   1.00  468.1
2024/05/06 12:47:02.000   28.320580942  -16.439889793   834.7355   1   8   0.0020   0.0014   0.0316  -0.0000   0.0015   0.0052   2.00  467.4
2024/05/06 12:47:03.000   28.320580942  -16.439889793   834.7361   1   8   0.0020   0.0014   0.0317  -0.0000   0.0015   0.0052   3.00  465.9
2024/05/06 12:47:04.000   28.320580942  -16.439889793   834.7367   1   8   0.0020   0.0014   0.0317  -0.0001   0.0015   0.0052   4.00  464.8
2024/05/06 12:47:05.000   28.320580942  -16.439889793   834.7372   1   8   0.0020   0.0014   0.0317  -0.0001   0.0016   0.0052   5.00  462.7
2024/05/06 12:47:06.000   28.320580942  -16.439889794   834.7378   1   8   0.0020   0.0014   0.0317  -0.0001   0.0016   0.0052   6.00  461.1
2024/05/06 12:47:07.000   28.320580942  -16.439889794   834.7384   1   8   0.0020   0.0014   0.0318  -0.0001   0.0016   0.0052   7.00  460.1
2024/05/06 12:47:08.000   28.320580942  -16.439889794   834.7388   1   8   0.0020   0.0014   0.0318  -0.0001   0.0016   0.0052   8.00  458.9
2024/05/06 12:47:09.000   28.320580942  -16.439889794   834.7393   1   8   0.0020   0.0014   0.0318  -0.0001   0.0016   0.0052   9.00  457.8
2024/05/06 12:47:10.000   28.320580942  -16.439889794   834.7398   1   8   0.0020   0.0014   0.0318  -0.0001   0.0016   0.0052  10.00  456.7
2024/05/06 12:47:11.000   28.320580942  -16.439889794   834.7402   1   8   0.0020   0.0014   0.0318  -0.0001   0.0016   0.0052  11.00  455.6
2024/05/06 12:47:12.000   28.320580943  -16.439889794   834.7405   1   8   0.0020   0.0014   0.0318  -0.0001   0.0016   0.0052  12.00  454.3
2024/05/06 12:47:13.000   28.320580943  -16.439889794   834.7408   1   8   0.0020   0.0014   0.0318  -0.0000   0.0016   0.0052  13.00  452.8
2024/05/06 12:47:14.000   28.320580943  -16.439889794   834.7411   1   8   0.0020   0.0014   0.0318  -0.0000   0.0016   0.0052  14.00  451.3
2024/05/06 12:47:15.000   28.320580943  -16.439889794   834.7413   1   8   0.0020   0.0014   0.0318  -0.0000   0.0016   0.0052  15.00  449.9
2024/05/06 12:47:16.000   28.320580943  -16.439889794   834.7415   1   8   0.0020   0.0014   0.0319   0.0000   0.0016   0.0052 -14.00  448.5
2024/05/06 12:47:17.000   28.320580943  -16.439889794   834.7418   1   8   0.0020   0.0014   0.0319   0.0000   0.0016   0.0052 -13.00  447.2
2024/05/06 12:47:18.000   28.320580943  -16.439889794   834.7421   1   8   0.0020   0.0014   0.0319   0.0000   0.0016   0.0052 -12.00  446.0
2024/05/06 12:47:19.000   28.320580943  -16.439889794   834.7425   1   8   0.0020   0.0014   0.0319   0.0001   0.0016   0.0052 -11.00  444.8
2024/05/06 12:47:20.000   28.320580943  -16.439889794   834.7429   1   8   0.0020   0.0014   0.0319   0.0001   0.0016   0.0052 -10.00  443.5
2024/05/06 12:47:21.000   28.320580943  -16.439889795   834.7434   1   8   0.0020   0.0014   0.0319   0.0001   0.0016   0.0052  -9.00  442.6
2024/05/06 12:47:22.000   28.320580943  -16.439889795   834.7439   1   8   0.0020   0.0014   0.0319   0.0001   0.0016   0.0052  -8.00  441.8
2024/05/06 12:47:23.000   28.320580943  -16.439889795   834.7445   1   8   0.0020   0.0014   0.0319   0.0001   0.0016   0.0052  -7.00  441.2
2024/05/06 12:47:24.000   28.320580944  -16.439889795   834.7451   1   8   0.0020   0.0014   0.0320   0.0001   0.0016   0.0052  -6.00  440.7
2024/05/06 12:47:25.000   28.320580944  -16.439889795   834.7459   1   8   0.0020   0.0014   0.0320   0.0001   0.0016   0.0052  -5.00  440.4
2024/05/06 12:47:26.000   28.320580944  -16.439889795   834.7467   1   8   0.0020   0.0014   0.0320   0.0001   0.0016   0.0052  -4.00  439.7
2024/05/06 12:47:27.000   28.320580944  -16.439889795   834.7477   1   8   0.0020   0.0014   0.0320   0.0001   0.0016   0.0052  -3.00  439.0
2024/05/06 12:47:28.000   28.320580945  -16.439889795   834.7487   1   8   0.0020   0.0014   0.0321   0.0001   0.0016   0.0052  -2.00  438.0
2024/05/06 12:47:29.000   28.320580945  -16.439889795   834.7499   1   8   0.0020   0.0014   0.0321   0.0001   0.0016   0.0053  -1.00  436.4
2024/05/06 12:47:30.000   28.320580945  -16.439889795   834.7515   1   8   0.0020   0.0014   0.0322   0.0001   0.0016   0.0053   0.00  435.9
2024/05/06 12:47:31.000   28.320580945  -16.439889795   834.7522   1   8   0.0020   0.0014   0.0322   0.0001   0.0017   0.0053   1.00  434.8
2024/05/06 12:47:32.000   28.320580945  -16.439889796   834.7530   1   8   0.0020   0.0014   0.0323   0.0001   0.0017   0.0053   2.00  434.8
2024/05/06 12:47:33.000   28.320580945  -16.439889796   834.7540   1   8   0.0020   0.0014   0.0323   0.0001   0.0017   0.0053   3.00  435.8
2024/05/06 12:47:34.000   28.320580945  -16.439889796   834.7548   1   8   0.0020   0.0014   0.0323   0.0000   0.0017   0.0053   4.00  435.2
2024/05/06 12:47:35.000   28.320580946  -16.439889797   834.7557   1   8   0.0020   0.0014   0.0323   0.0000   0.0017   0.0053   5.00  434.5
2024/05/06 12:47:36.000   28.320580946  -16.439889797   834.7565   1   8   0.0020   0.0014   0.0324   0.0000   0.0017   0.0053   6.00  433.4
2024/05/06 12:47:37.000   28.320580946  -16.439889797   834.7573   1   8   0.0020   0.0014   0.0324   0.0000   0.0017   0.0053   7.00  432.9
2024/05/06 12:47:38.000   28.320580946  -16.439889797   834.7580   1   8   0.0020   0.0014   0.0324   0.0000   0.0017   0.0053   8.00  431.8
2024/05/06 12:47:39.000   28.320580946  -16.439889797   834.7586   1   8   0.0020   0.0014   0.0324   0.0000   0.0017   0.0053   9.00  430.5
2024/05/06 12:47:40.000   28.320580946  -16.439889797   834.7592   1   8   0.0020   0.0014   0.0324   0.0000   0.0017   0.0053  10.00  429.1
2024/05/06 12:47:41.000   28.320580946  -16.439889797   834.7597   1   8   0.0020   0.0014   0.0324   0.0001   0.0017   0.0053  11.00  427.8
2024/05/06 12:47:42.000   28.320580946  -16.439889797   834.7602   1   8   0.0020   0.0014   0.0324   0.0001   0.0017   0.0053  12.00  426.6
2024/05/06 12:47:43.000   28.320580946  -16.439889797   834.7606   1   8   0.0020   0.0014   0.0325   0.0001   0.0017   0.0053  13.00  425.2
2024/05/06 12:47:44.000   28.320580946  -16.439889797   834.7610   1   8   0.0020   0.0014   0.0325   0.0001   0.0017   0.0053  14.00  423.9
2024/05/06 12:47:45.000   28.320580946  -16.439889797   834.7613   1   8   0.0020   0.0014   0.0325   0.0001   0.0017   0.0053  15.00  422.7
2024/05/06 12:47:46.000   28.320580946  -16.439889797   834.7616   1   8   0.0020   0.0014   0.0325   0.0001   0.0017   0.0053 -14.00  421.4
2024/05/06 12:47:47.000   28.320580946  -16.439889797   834.7619   1   8   0.0020   0.0014   0.0325   0.0001   0.0017   0.0053 -13.00  420.1
2024/05/06 12:47:48.000   28.320580946  -16.439889797   834.7623   1   8   0.0020   0.0014   0.0325   0.0001   0.0017   0.0053 -12.00  418.9
2024/05/06 12:47:49.000   28.320580946  -16.439889797   834.7628   1   8   0.0020   0.0014   0.0325   0.0001   0.0017   0.0053 -11.00  417.6
2024/05/06 12:47:50.000   28.320580946  -16.439889797   834.7634   1   8   0.0020   0.0014   0.0325   0.0001   0.0017   0.0053 -10.00  416.4
2024/05/06 12:47:51.000   28.320580946  -16.439889797   834.7640   1   8   0.0020   0.0014   0.0325   0.0001   0.0017   0.0053  -9.00  415.2
2024/05/06 12:47:52.000   28.320580947  -16.439889798   834.7648   1   8   0.0020   0.0014   0.0325   0.0001   0.0017   0.0053  -8.00  414.0
2024/05/06 12:47:53.000   28.320580947  -16.439889798   834.7656   1   8   0.0020   0.0014   0.0326   0.0001   0.0017   0.0053  -7.00  413.1
2024/05/06 12:47:54.000   28.320580947  -16.439889798   834.7666   1   8   0.0020   0.0014   0.0326   0.0001   0.0017   0.0053  -6.00  412.3
2024/05/06 12:47:55.000   28.320580947  -16.439889798   834.7676   1   8   0.0020   0.0014   0.0326   0.0001   0.0017   0.0053  -5.00  411.5
2024/05/06 12:47:56.000   28.320580947  -16.439889798   834.7688   1   8   0.0020   0.0014   0.0326   0.0001   0.0017   0.0053  -4.00  410.5
2024/05/06 12:47:57.000   28.320580947  -16.439889798   834.7701   1   8   0.0020   0.0014   0.0327   0.0001   0.0017   0.0053  -3.00  409.6
2024/05/06 12:47:58.000   28.320580948  -16.439889798   834.7717   1   8   0.0020   0.0014   0.0327   0.0001   0.0017   0.0053  -2.00  408.7
2024/05/06 12:47:59.000   28.320580948  -16.439889798   834.7734   1   8   0.0020   0.0014   0.0327   0.0001   0.0017   0.0053  -1.00  408.3
2024/05/06 12:48:00.000   28.320580949  -16.439889798   834.7755   1   8   0.0020   0.0014   0.0328   0.0001   0.0017   0.0054   0.00  407.2
2024/05/06 12:48:01.000   28.320580948  -16.439889799   834.7767   1   8   0.0020   0.0014   0.0328   0.0001   0.0017   0.0054   1.00  406.7
2024/05/06 12:48:02.000   28.320580948  -16.439889799   834.7782   1   8   0.0020   0.0014   0.0329   0.0001   0.0017   0.0054   2.00  407.4
2024/05/06 12:48:03.000   28.320580949  -16.439889799   834.7796   1   8   0.0020   0.0014   0.0329   0.0001   0.0017   0.0054   3.00  407.9
2024/05/06 12:48:04.000   28.320580949  -16.439889799   834.7808   1   8   0.0020   0.0014   0.0329   0.0001   0.0017   0.0054   4.00  408.4
2024/05/06 12:48:05.000   28.320580949  -16.439889799   834.7819   1   8   0.0020   0.0014   0.0330   0.0001   0.0017   0.0054   5.00  408.1
2024/05/06 12:48:06.000   28.320580949  -16.439889799   834.7829   1   8   0.0020   0.0014   0.0330   0.0001   0.0018   0.0054   6.00  407.5
2024/05/06 12:48:07.000   28.320580949  -16.439889800   834.7838   1   8   0.0020   0.0014   0.0330   0.0001   0.0018   0.0054   7.00  407.0
2024/05/06 12:48:08.000   28.320580949  -16.439889800   834.7847   1   8   0.0020   0.0014   0.0330   0.0001   0.0018   0.0054   8.00  405.9
2024/05/06 12:48:09.000   28.320580949  -16.439889800   834.7855   1   8   0.0020   0.0014   0.0330   0.0001   0.0018   0.0054   9.00  404.7
2024/05/06 12:48:10.000   28.320580949  -16.439889800   834.7862   1   8   0.0020   0.0014   0.0330   0.0001   0.0018   0.0054  10.00  403.4
2024/05/06 12:48:11.000   28.320580949  -16.439889800   834.7867   1   8   0.0020   0.0014   0.0331   0.0001   0.0018   0.0054  11.00  401.9
2024/05/06 12:48:12.000   28.320580949  -16.439889800   834.7871   1   8   0.0020   0.0014   0.0331   0.0001   0.0018   0.0054  12.00  400.5
2024/05/06 12:48:13.000   28.320580949  -16.439889800   834.7875   1   8   0.0020   0.0014   0.0331   0.0001   0.0018   0.0054  13.00  399.1
2024/05/06 12:48:14.000   28.320580949  -16.439889800   834.7879   1   8   0.0020   0.0014   0.0331   0.0001   0.0018   0.0054  14.00  397.8
2024/05/06 12:48:15.000   28.320580949  -16.439889800   834.7882   1   8   0.0020   0.0014   0.0331   0.0001   0.0018   0.0054  15.00  396.4
2024/05/06 12:48:16.000   28.320580949  -16.439889800   834.7884   1   8   0.0020   0.0014   0.0331   0.0001   0.0018   0.0054 -14.00  395.0
2024/05/06 12:48:17.000   28.320580949  -16.439889800   834.7886   1   8   0.0020   0.0014   0.0331   0.0001   0.0018   0.0054 -13.00  393.8
2024/05/06 12:48:18.000   28.320580949  -16.439889800   834.7888   1   8   0.0020   0.0014   0.0331   0.0001   0.0018   0.0054 -12.00  392.6
2024/05/06 12:48:19.000   28.320580949  -16.439889800   834.7891   1   8   0.0020   0.0014   0.0331   0.0001   0.0018   0.0054 -11.00  391.4
2024/05/06 12:48:20.000   28.320580949  -16.439889800   834.7893   1   8   0.0020   0.0014   0.0331   0.0001   0.0018   0.0054 -10.00  390.1
2024/05/06 12:48:21.000   28.320580949  -16.439889800   834.7895   1   8   0.0020   0.0014   0.0331   0.0001   0.0018   0.0054  -9.00  388.9
2024/05/06 12:48:22.000   28.320580948  -16.439889800   834.7898   1   8   0.0020   0.0014   0.0332   0.0001   0.0018   0.0054  -8.00  387.7
2024/05/06 12:48:23.000   28.320580948  -16.439889800   834.7901   1   8   0.0020   0.0014   0.0332   0.0001   0.0018   0.0054  -7.00  386.7
2024/05/06 12:48:24.000   28.320580948  -16.439889800   834.7905   1   8   0.0020   0.0014   0.0332   0.0001   0.0018   0.0054  -6.00  385.7
2024/05/06 12:48:25.000   28.320580948  -16.439889800   834.7908   1   8   0.0020   0.0014   0.0332   0.0001   0.0018   0.0054  -5.00  384.7
2024/05/06 12:48:26.000   28.320580948  -16.439889800   834.7912   1   8   0.0020   0.0014   0.0332   0.0001   0.0018   0.0054  -4.00  384.7
2024/05/06 12:48:27.000   28.320580948  -16.439889800   834.7918   1   8   0.0020   0.0014   0.0333   0.0001   0.0018   0.0054  -3.00  384.6
2024/05/06 12:48:28.000   28.320580948  -16.439889800   834.7925   1   8   0.0020   0.0014   0.0333   0.0001   0.0018   0.0054  -2.00  383.9
2024/05/06 12:48:29.000   28.320580947  -16.439889800   834.7930   1   8   0.0020   0.0014   0.0334   0.0001   0.0018   0.0054  -1.00  384.3
2024/05/06 12:48:30.000   28.320580947  -16.439889800   834.7938   1   8   0.0020   0.0014   0.0334   0.0001   0.0018   0.0054   0.00  384.0
2024/05/06 12:48:31.000   28.320580947  -16.439889799   834.7945   1   8   0.0020   0.0014   0.0335   0.0001   0.0018   0.0054   1.00  384.9
2024/05/06 12:48:32.000   28.320580947  -16.439889800   834.7950   1   8   0.0020   0.0014   0.0335   0.0001   0.0018   0.0054   2.00  386.0
2024/05/06 12:48:33.000   28.320580947  -16.439889800   834.7956   1   8   0.0020   0.0014   0.0335   0.0001   0.0018   0.0054   3.00  387.2
2024/05/06 12:48:34.000   28.320580946  -16.439889800   834.7959   1   8   0.0020   0.0014   0.0336   0.0001   0.0018   0.0054   4.00  388.2
2024/05/06 12:48:35.000   28.320580946  -16.439889800   834.7962   1   8   0.0020   0.0014   0.0336   0.0001   0.0018   0.0054   5.00  388.8
2024/05/06 12:48:36.000   28.320580946  -16.439889800   834.7964   1   8   0.0020   0.0014   0.0336   0.0001   0.0018   0.0054   6.00  388.7
2024/05/06 12:48:37.000   28.320580946  -16.439889800   834.7966   1   8   0.0020   0.0014   0.0336   0.0001   0.0018   0.0054   7.00  388.6
2024/05/06 12:48:38.000   28.320580946  -16.439889800   834.7968   1   8   0.0020   0.0014   0.0336   0.0001   0.0018   0.0054   8.00  388.3
2024/05/06 12:48:39.000   28.320580946  -16.439889800   834.7969   1   8   0.0020   0.0014   0.0336   0.0001   0.0018   0.0054   9.00  388.0
2024/05/06 12:48:40.000   28.320580946  -16.439889800   834.7970   1   8   0.0020   0.0014   0.0337   0.0001   0.0019   0.0054  10.00  387.6
2024/05/06 12:48:41.000   28.320580946  -16.439889800   834.7971   1   8   0.0020   0.0014   0.0337   0.0001   0.0019   0.0055  11.00  387.2
2024/05/06 12:48:42.000   28.320580946  -16.439889800   834.7971   1   8   0.0020   0.0014   0.0337   0.0001   0.0019   0.0055  12.00  386.5
2024/05/06 12:48:43.000   28.320580946  -16.439889800   834.7971   1   8   0.0020   0.0014   0.0337   0.0001   0.0019   0.0055  13.00  385.8
2024/05/06 12:48:44.000   28.320580946  -16.439889800   834.7971   1   8   0.0020   0.0014   0.0337   0.0001   0.0019   0.0055  14.00  385.1
2024/05/06 12:48:45.000   28.320580946  -16.439889800   834.7971   1   8   0.0020   0.0014   0.0337   0.0001   0.0019   0.0055  15.00  384.4
2024/05/06 12:48:46.000   28.320580946  -16.439889800   834.7971   1   8   0.0020   0.0014   0.0337   0.0001   0.0019   0.0055 -14.00  383.6
2024/05/06 12:48:47.000   28.320580946  -16.439889800   834.7970   1   8   0.0020   0.0014   0.0337   0.0001   0.0019   0.0055 -13.00  383.0
2024/05/06 12:48:48.000   28.320580946  -16.439889801   834.7969   1   8   0.0020   0.0014   0.0337   0.0001   0.0019   0.0055 -12.00  382.3
2024/05/06 12:48:49.000   28.320580946  -16.439889801   834.7967   1   8   0.0020   0.0014   0.0337   0.0001   0.0019   0.0055 -11.00  381.8
2024/05/06 12:48:50.000   28.320580946  -16.439889801   834.7966   1   8   0.0020   0.0014   0.0337   0.0002   0.0019   0.0055 -10.00  381.5
2024/05/06 12:48:51.000   28.320580946  -16.439889801   834.7963   1   8   0.0020   0.0014   0.0338   0.0002   0.0019   0.0055  -9.00  381.1
2024/05/06 12:48:52.000   28.320580946  -16.439889801   834.7962   1   8   0.0020   0.0014   0.0338   0.0002   0.0019   0.0055  -8.00  381.0
2024/05/06 12:48:53.000   28.320580945  -16.439889801   834.7960   1   8   0.0020   0.0014   0.0338   0.0002   0.0019   0.0055  -7.00  380.9
2024/05/06 12:48:54.000   28.320580945  -16.439889801   834.7958   1   8   0.0020   0.0014   0.0338   0.0002   0.0019   0.0055  -6.00  380.8
2024/05/06 12:48:55.000   28.320580945  -16.439889801   834.7958   1   8   0.0020   0.0014   0.0338   0.0002   0.0019   0.0055  -5.00  380.9
2024/05/06 12:48:56.000   28.320580945  -16.439889801   834.7958   1   8   0.0020   0.0014   0.0339   0.0002   0.0019   0.0055  -4.00  381.6
2024/05/06 12:48:57.000   28.320580945  -16.439889801   834.7961   1   8   0.0020   0.0014   0.0339   0.0002   0.0019   0.0055  -3.00  381.9
2024/05/06 12:48:58.000   28.320580945  -16.439889802   834.7960   1   8   0.0020   0.0014   0.0339   0.0002   0.0019   0.0055  -2.00  383.3
2024/05/06 12:48:59.000   28.320580945  -16.439889802   834.7956   1   8   0.0020   0.0014   0.0340   0.0002   0.0019   0.0055  -1.00  385.5
2024/05/06 12:49:00.000   28.320580945  -16.439889802   834.7959   1   8   0.0020   0.0014   0.0341   0.0002   0.0019   0.0055   0.00  387.9
2024/05/06 12:49:01.000   28.320580945  -16.439889802   834.7958   1   8   0.0020   0.0014   0.0341   0.0002   0.0019   0.0055   1.00  390.9
2024/05/06 12:49:02.000   28.320580945  -16.439889802   834.7956   1   8   0.0020   0.0014   0.0341   0.0002   0.0019   0.0055   2.00  393.8
2024/05/06 12:49:03.000   28.320580945  -16.439889802   834.7952   1   8   0.0020   0.0014   0.0342   0.0002   0.0020   0.0055   3.00  396.4
2024/05/06 12:49:04.000   28.320580944  -16.439889802   834.7947   1   8   0.0020   0.0014   0.0342   0.0002   0.0020   0.0055   4.00  398.7
2024/05/06 12:49:05.000   28.320580944  -16.439889803   834.7944   1   8   0.0020   0.0014   0.0342   0.0002   0.0020   0.0055   5.00  400.3
2024/05/06 12:49:06.000   28.320580944  -16.439889803   834.7941   1   8   0.0020   0.0014   0.0342   0.0002   0.0020   0.0055   6.00  401.2
2024/05/06 12:49:07.000   28.320580943  -16.439889803   834.7938   1   8   0.0020   0.0014   0.0342   0.0002   0.0020   0.0055   7.00  401.9
2024/05/06 12:49:08.000   28.320580943  -16.439889803   834.7934   1   8   0.0020   0.0014   0.0343   0.0002   0.0020   0.0055   8.00  401.9
2024/05/06 12:49:09.000   28.320580943  -16.439889803   834.7931   1   8   0.0020   0.0014   0.0343   0.0002   0.0020   0.0055   9.00  401.8
2024/05/06 12:49:10.000   28.320580943  -16.439889803   834.7927   1   8   0.0020   0.0014   0.0343   0.0002   0.0020   0.0055  10.00  401.7
2024/05/06 12:49:11.000   28.320580943  -16.439889803   834.7924   1   8   0.0020   0.0014   0.0343   0.0002   0.0020   0.0055  11.00  401.3
2024/05/06 12:49:12.000   28.320580943  -16.439889803   834.7922   1   8   0.0020   0.0014   0.0343   0.0002   0.0020   0.0055  12.00  401.0
2024/05/06 12:49:13.000   28.320580943  -16.439889803   834.7921   1   8   0.0020   0.0014   0.0343   0.0002   0.0020   0.0055  13.00  400.4
2024/05/06 12:49:14.000   28.320580943  -16.439889803   834.7920   1   8   0.0020   0.0014   0.0343   0.0002   0.0020   0.0055  14.00  399.6
2024/05/06 12:49:15.000   28.320580943  -16.439889803   834.7918   1   8   0.0020   0.0014   0.0343   0.0002   0.0020   0.0055  15.00  398.8
2024/05/06 12:49:16.000   28.320580943  -16.439889803   834.7916   1   8   0.0020   0.0014   0.0343   0.0002   0.0020   0.0055 -14.00  397.9
2024/05/06 12:49:17.000   28.320580942  -16.439889803   834.7914   1   8   0.0020   0.0014   0.0343   0.0002   0.0020   0.0055 -13.00  397.1
2024/05/06 12:49:18.000   28.320580942  -16.439889803   834.7912   1   8   0.0020   0.0014   0.0344   0.0002   0.0020   0.0055 -12.00  396.4
2024/05/06 12:49:19.000   28.320580942  -16.439889803   834.7908   1   8   0.0020   0.0014   0.0344   0.0002   0.0020   0.0055 -11.00  395.7
2024/05/06 12:49:20.000   28.320580942  -16.439889803   834.7905   1   8   0.0020   0.0014   0.0344   0.0002   0.0020   0.0056 -10.00  395.1
2024/05/06 12:49:21.000   28.320580942  -16.439889803   834.7900   1   8   0.0020   0.0014   0.0344   0.0002   0.0020   0.0056  -9.00  394.8
2024/05/06 12:49:22.000   28.320580942  -16.439889803   834.7896   1   8   0.0020   0.0014   0.0344   0.0002   0.0020   0.0056  -8.00  394.6
2024/05/06 12:49:23.000   28.320580942  -16.439889803   834.7891   1   8   0.0020   0.0014   0.0344   0.0002   0.0020   0.0056  -7.00  394.3
2024/05/06 12:49:24.000   28.320580942  -16.439889803   834.7886   1   8   0.0020   0.0014   0.0344   0.0002   0.0020   0.0056  -6.00  394.3
2024/05/06 12:49:25.000   28.320580941  -16.439889803   834.7880   1   8   0.0020   0.0014   0.0345   0.0002   0.0020   0.0056  -5.00  394.7
2024/05/06 12:49:26.000   28.320580941  -16.439889803   834.7874   1   8   0.0020   0.0014   0.0345   0.0002   0.0020   0.0056  -4.00  395.3
2024/05/06 12:49:27.000   28.320580941  -16.439889804   834.7866   1   8   0.0020   0.0014   0.0345   0.0002   0.0020   0.0056  -3.00  397.0
2024/05/06 12:49:28.000   28.320580941  -16.439889804   834.7866   1   8   0.0020   0.0014   0.0346   0.0002   0.0020   0.0056  -2.00  399.1
2024/05/06 12:49:29.000   28.320580941  -16.439889804   834.7865   1   8   0.0020   0.0014   0.0346   0.0002   0.0020   0.0056  -1.00  401.4
2024/05/06 12:49:30.000   28.320580941  -16.439889804   834.7858   1   8   0.0020   0.0014   0.0347   0.0002   0.0021   0.0056   0.00  405.3
2024/05/06 12:49:31.000   28.320580940  -16.439889804   834.7856   1   8   0.0020   0.0014   0.0347   0.0002   0.0021   0.0056   1.00  408.3
2024/05/06 12:49:32.000   28.320580940  -16.439889804   834.7858   1   8   0.0020   0.0014   0.0348   0.0002   0.0021   0.0056   2.00  413.0
2024/05/06 12:49:33.000   28.320580940  -16.439889804   834.7860   1   8   0.0020   0.0014   0.0348   0.0002   0.0021   0.0056   3.00  416.4
2024/05/06 12:49:34.000   28.320580940  -16.439889804   834.7862   1   8   0.0020   0.0014   0.0348   0.0002   0.0021   0.0056   4.00  418.4
2024/05/06 12:49:35.000   28.320580940  -16.439889804   834.7863   1   8   0.0020   0.0014   0.0348   0.0002   0.0021   0.0056   5.00  420.3
2024/05/06 12:49:36.000   28.320580940  -16.439889804   834.7863   1   8   0.0020   0.0014   0.0349   0.0002   0.0021   0.0056   6.00  422.0
2024/05/06 12:49:37.000   28.320580940  -16.439889804   834.7861   1   8   0.0020   0.0014   0.0349   0.0002   0.0021   0.0056   7.00  423.4
2024/05/06 12:49:38.000   28.320580940  -16.439889804   834.7859   1   8   0.0020   0.0014   0.0349   0.0002   0.0021   0.0056   8.00  424.1
2024/05/06 12:49:39.000   28.320580939  -16.439889804   834.7858   1   8   0.0020   0.0014   0.0349   0.0002   0.0021   0.0056   9.00  424.7
2024/05/06 12:49:40.000   28.320580939  -16.439889804   834.7855   1   8   0.0020   0.0014   0.0349   0.0002   0.0021   0.0056  10.00  424.8
2024/05/06 12:49:41.000   28.320580939  -16.439889804   834.7853   1   8   0.0020   0.0014   0.0349   0.0002   0.0021   0.0056  11.00  424.9
2024/05/06 12:49:42.000   28.320580939  -16.439889804   834.7851   1   8   0.0020   0.0014   0.0349   0.0002   0.0021   0.0056  12.00  424.9
2024/05/06 12:49:43.000   28.320580939  -16.439889804   834.7849   1   8   0.0020   0.0014   0.0349   0.0002   0.0021   0.0056  13.00  424.7
2024/05/06 12:49:44.000   28.320580939  -16.439889804   834.7847   1   8   0.0020   0.0014   0.0350   0.0002   0.0021   0.0056  14.00  424.2
2024/05/06 12:49:45.000   28.320580939  -16.439889804   834.7844   1   8   0.0020   0.0014   0.0350   0.0002   0.0021   0.0056  15.00  423.7
2024/05/06 12:49:46.000   28.320580939  -16.439889804   834.7842   1   8   0.0020   0.0014   0.0350   0.0002   0.0021   0.0056 -14.00  423.1
2024/05/06 12:49:47.000   28.320580939  -16.439889804   834.7840   1   8   0.0020   0.0014   0.0350   0.0002   0.0021   0.0056 -13.00  422.8
2024/05/06 12:49:48.000   28.320580939  -16.439889804   834.7838   1   8   0.0020   0.0014   0.0350   0.0002   0.0021   0.0056 -12.00  422.5
2024/05/06 12:49:49.000   28.320580938  -16.439889804   834.7836   1   8   0.0020   0.0014   0.0350   0.0002   0.0021   0.0056 -11.00  422.3
2024/05/06 12:49:50.000   28.320580938  -16.439889804   834.7833   1   8   0.0020   0.0014   0.0350   0.0002   0.0021   0.0056 -10.00  422.4
2024/05/06 12:49:51.000   28.320580938  -16.439889804   834.7831   1   8   0.0020   0.0014   0.0350   0.0002   0.0021   0.0056  -9.00  422.8
2024/05/06 12:49:52.000   28.320580938  -16.439889804   834.7828   1   8   0.0020   0.0014   0.0350   0.0002   0.0021   0.0056  -8.00  423.2
2024/05/06 12:49:53.000   28.320580938  -16.439889804   834.7824   1   8   0.0020   0.0014   0.0350   0.0002   0.0021   0.0056  -7.00  424.4
2024/05/06 12:49:54.000   28.320580938  -16.439889804   834.7821   1   8   0.0020   0.0014   0.0351   0.0002   0.0021   0.0057  -6.00  426.2
2024/05/06 12:49:55.000   28.320580938  -16.439889804   834.7818   1   8   0.0020   0.0014   0.0351   0.0002   0.0021   0.0057  -5.00  428.5
2024/05/06 12:49:56.000   28.320580938  -16.439889804   834.7814   1   8   0.0020   0.0014   0.0351   0.0002   0.0021   0.0057  -4.00  431.3
2024/05/06 12:49:57.000   28.320580938  -16.439889805   834.7811   1   8   0.0020   0.0014   0.0352   0.0002   0.0021   0.0057  -3.00  435.6
2024/05/06 12:49:58.000   28.320580937  -16.439889804   834.7811   1   8   0.0020   0.0014   0.0352   0.0002   0.0021   0.0057  -2.00  441.2
2024/05/06 12:49:59.000   28.320580937  -16.439889804   834.7809   1   8   0.0020   0.0014   0.0352   0.0002   0.0021   0.0057  -1.00  448.0
2024/05/06 12:50:00.000   28.320580937  -16.439889804   834.7812   1   8   0.0020   0.0014   0.0353   0.0002   0.0022   0.0057   0.00  453.9
2024/05/06 12:50:01.000   28.320580937  -16.439889804   834.7813   1   8   0.0020   0.0014   0.0354   0.0002   0.0022   0.0057   1.00  460.1
2024/05/06 12:50:02.000   28.320580937  -16.439889804   834.7809   1   8   0.0020   0.0014   0.0354   0.0002   0.0022   0.0057   2.00  464.9
2024/05/06 12:50:03.000   28.320580937  -16.439889804   834.7807   1   8   0.0020   0.0014   0.0354   0.0002   0.0022   0.0057   3.00  468.6
2024/05/06 12:50:04.000   28.320580937  -16.439889804   834.7804   1   8   0.0020   0.0014   0.0354   0.0002   0.0022   0.0057   4.00  472.9
2024/05/06 12:50:05.000   28.320580936  -16.439889804   834.7801   1   8   0.0020   0.0014   0.0355   0.0002   0.0022   0.0057   5.00  476.6
2024/05/06 12:50:06.000   28.320580936  -16.439889804   834.7798   1   8   0.0020   0.0014   0.0355   0.0002   0.0022   0.0057   6.00  478.8
2024/05/06 12:50:07.000   28.320580936  -16.439889804   834.7794   1   8   0.0020   0.0014   0.0355   0.0002   0.0022   0.0057   7.00  479.9
2024/05/06 12:50:08.000   28.320580936  -16.439889804   834.7790   1   8   0.0020   0.0014   0.0355   0.0002   0.0022   0.0057   8.00  480.8
2024/05/06 12:50:09.000   28.320580936  -16.439889804   834.7787   1   8   0.0020   0.0014   0.0355   0.0002   0.0022   0.0057   9.00  481.4
2024/05/06 12:50:10.000   28.320580936  -16.439889804   834.7783   1   8   0.0020   0.0014   0.0355   0.0002   0.0022   0.0057  10.00  481.6
2024/05/06 12:50:11.000   28.320580936  -16.439889804   834.7780   1   8   0.0020   0.0014   0.0355   0.0002   0.0022   0.0057  11.00  481.6
2024/05/06 12:50:12.000   28.320580936  -16.439889804   834.7776   1   8   0.0020   0.0014   0.0355   0.0002   0.0022   0.0057  12.00  481.5
2024/05/06 12:50:13.000   28.320580935  -16.439889804   834.7773   1   8   0.0020   0.0014   0.0356   0.0002   0.0022   0.0057  13.00  481.3
2024/05/06 12:50:14.000   28.320580935  -16.439889804   834.7770   1   8   0.0020   0.0014   0.0356   0.0002   0.0022   0.0057  14.00  480.9
2024/05/06 12:50:15.000   28.320580935  -16.439889804   834.7767   1   8   0.0020   0.0014   0.0356   0.0002   0.0022   0.0057  15.00  480.2
2024/05/06 12:50:16.000   28.320580935  -16.439889804   834.7765   1   8   0.0020   0.0014   0.0356   0.0002   0.0022   0.0057 -14.00  479.6
2024/05/06 12:50:17.000   28.320580935  -16.439889804   834.7761   1   8   0.0020   0.0014   0.0356   0.0002   0.0022   0.0057 -13.00  479.2
2024/05/06 12:50:18.000   28.320580935  -16.439889804   834.7758   1   8   0.0020   0.0014   0.0356   0.0002   0.0022   0.0057 -12.00  478.9
2024/05/06 12:50:19.000   28.320580935  -16.439889804   834.7755   1   8   0.0020   0.0014   0.0356   0.0002   0.0022   0.0057 -11.00  478.9
2024/05/06 12:50:20.000   28.320580935  -16.439889804   834.7751   1   8   0.0020   0.0014   0.0356   0.0002   0.0022   0.0057 -10.00  479.2
2024/05/06 12:50:21.000   28.320580935  -16.439889804   834.7747   1   8   0.0020   0.0014   0.0356   0.0002   0.0022   0.0057  -9.00  479.6
2024/05/06 12:50:22.000   28.320580935  -16.439889804   834.7742   1   8   0.0020   0.0014   0.0356   0.0002   0.0022   0.0057  -8.00  480.3
2024/05/06 12:50:23.000   28.320580934  -16.439889804   834.7738   1   8   0.0020   0.0014   0.0357   0.0002   0.0022   0.0057  -7.00  481.2
2024/05/06 12:50:24.000   28.320580934  -16.439889804   834.7731   1   8   0.0020   0.0014   0.0357   0.0002   0.0022   0.0057  -6.00  482.1
2024/05/06 12:50:25.000   28.320580934  -16.439889804   834.7726   1   8   0.0020   0.0014   0.0357   0.0002   0.0022   0.0057  -5.00  484.0
2024/05/06 12:50:26.000   28.320580934  -16.439889804   834.7721   1   8   0.0020   0.0014   0.0357   0.0002   0.0022   0.0057  -4.00  487.1
2024/05/06 12:50:27.000   28.320580933  -16.439889804   834.7714   1   8   0.0020   0.0014   0.0357   0.0002   0.0022   0.0058  -3.00  489.1
2024/05/06 12:50:28.000   28.320580933  -16.439889804   834.7705   1   8   0.0020   0.0014   0.0358   0.0002   0.0022   0.0058  -2.00  491.7
2024/05/06 12:50:29.000   28.320580933  -16.439889804   834.7698   1   8   0.0020   0.0014   0.0358   0.0002   0.0022   0.0058  -1.00  496.9
2024/05/06 12:50:30.000   28.320580932  -16.439889804   834.7691   1   8   0.0020   0.0014   0.0359   0.0003   0.0023   0.0058   0.00  501.0
2024/05/06 12:50:31.000   28.320580932  -16.439889804   834.7684   1   8   0.0020   0.0014   0.0359   0.0002   0.0023   0.0058   1.00  505.6
2024/05/06 12:50:32.000   28.320580932  -16.439889804   834.7676   1   8   0.0021   0.0014   0.0360   0.0002   0.0023   0.0058   2.00  509.6
2024/05/06 12:50:33.000   28.320580932  -16.439889803   834.7668   1   8   0.0021   0.0014   0.0360   0.0002   0.0023   0.0058   3.00  511.9
2024/05/06 12:50:34.000   28.320580931  -16.439889803   834.7661   1   8   0.0021   0.0014   0.0360   0.0002   0.0023   0.0058   4.00  515.1
2024/05/06 12:50:35.000   28.320580931  -16.439889803   834.7654   1   8   0.0021   0.0014   0.0360   0.0002   0.0023   0.0058   5.00  517.1
2024/05/06 12:50:36.000   28.320580931  -16.439889803   834.7648   1   8   0.0021   0.0014   0.0361   0.0002   0.0023   0.0058   6.00  518.6
2024/05/06 12:50:37.000   28.320580931  -16.439889803   834.7642   1   8   0.0021   0.0014   0.0361   0.0002   0.0023   0.0058   7.00  519.2
2024/05/06 12:50:38.000   28.320580931  -16.439889802   834.7637   1   8   0.0021   0.0014   0.0361   0.0002   0.0023   0.0058   8.00  519.4
2024/05/06 12:50:39.000   28.320580931  -16.439889802   834.7632   1   8   0.0021   0.0014   0.0361   0.0002   0.0023   0.0058   9.00  519.1
2024/05/06 12:50:40.000   28.320580931  -16.439889802   834.7627   1   8   0.0021   0.0014   0.0361   0.0002   0.0023   0.0058  10.00  518.4
2024/05/06 12:50:41.000   28.320580931  -16.439889802   834.7622   1   8   0.0021   0.0014   0.0361   0.0002   0.0023   0.0058  11.00  517.3
2024/05/06 12:50:42.000   28.320580931  -16.439889802   834.7618   1   8   0.0021   0.0014   0.0361   0.0002   0.0023   0.0058  12.00  516.3
2024/05/06 12:50:43.000   28.320580931  -16.439889802   834.7614   1   8   0.0021   0.0014   0.0361   0.0002   0.0023   0.0058  13.00  515.0
