% program   : RTKPOST-EX 2.5.0
% inp file  : C:\Users\SallyHenry\Desktop\Sally Internship\GNSS gravi\DATA\Survey Rover Obs\GUI06.24o
% inp file  : C:\Users\SallyHenry\Desktop\Sally Internship\GNSS gravi\DATA\BaseStations\TN01\TN0100ESP_R_20241270000_01D_30S_MO.rnx
% inp file  : C:\Users\SallyHenry\Desktop\Sally Internship\GNSS gravi\DATA\BaseStations\TN01\TN0100ESP_R_20241270000_01D_MN.rnx
% inp file  : C:\Users\SallyHenry\Desktop\Sally Internship\GNSS gravi\DATA\aux_files\Survey\IGS0OPSFIN_20241270000_01D_15M_ORB.SP3
% inp file  : C:\Users\SallyHenry\Desktop\Sally Internship\GNSS gravi\DATA\aux_files\Survey\IGS0OPSFIN_20241270000_01D_30S_CLK.CLK
% obs start : 2024/05/06 16:42:44.0 GPST (week2313 146564.0s)
% obs end   : 2024/05/06 16:58:29.0 GPST (week2313 147509.0s)
% pos mode  : Static
% freqs     : L1+L2/E5b
% solution  : Combined-No Phase Reset
% elev mask : 15.0 deg
% dynamics  : on
% tidecorr  : solid
% ionos opt : Estimate TEC
% tropo opt : Estimate ZTD+Grad
% ephemeris : Precise
% navi sys  : GPS GLONASS Galileo QZSS BDS
% amb res   : Fix and Hold
% amb glo   : Fix and Hold
% amb bds   : on
% val thres : 3.0
% antenna1  :                       ( 0.0000  0.0000  1.8000)
% antenna2  :                       ( 0.0000  0.0000  0.0771)
% ref pos   :  28.477186930  -16.241151700    51.7531
%
% (lat/lon/height=WGS84/ellipsoidal,Q=1:fix,2:float,3:sbas,4:dgps,5:single,6:ppp,ns=# of satellites)
%  GPST                  latitude(deg) longitude(deg)  height(m)   Q  ns   sdn(m)   sde(m)   sdu(m)  sdne(m)  sdeu(m)  sdun(m) age(s)  ratio
2024/05/06 16:42:44.000   28.332866892  -16.453985516  1209.6589   2   7   0.0314   0.0704   0.2114   0.0296   0.0984   0.0725 -16.00    0.0
2024/05/06 16:42:45.000   28.332866893  -16.453985524  1209.6587   2   7   0.0313   0.0702   0.2110   0.0295   0.0982   0.0723 -15.00    0.0
2024/05/06 16:42:46.000   28.332866894  -16.453985530  1209.6586   2   7   0.0313   0.0701   0.2106   0.0294   0.0979   0.0722 -14.00    0.0
2024/05/06 16:42:47.000   28.332866894  -16.453985536  1209.6579   2   7   0.0313   0.0700   0.2102   0.0293   0.0977   0.0721 -13.00    0.0
2024/05/06 16:42:48.000   28.332866894  -16.453985540  1209.6576   2   7   0.0312   0.0699   0.2099   0.0292   0.0975   0.0719 -12.00    0.0
2024/05/06 16:42:49.000   28.332866893  -16.453985548  1209.6557   2   7   0.0312   0.0698   0.2096   0.0291   0.0972   0.0718 -11.00    0.0
2024/05/06 16:42:50.000   28.332866891  -16.453985556  1209.6534   2   7   0.0312   0.0696   0.2093   0.0291   0.0970   0.0717 -10.00    0.0
2024/05/06 16:42:51.000   28.332866890  -16.453985566  1209.6513   2   7   0.0312   0.0695   0.2090   0.0290   0.0968   0.0717  -9.00    0.0
2024/05/06 16:42:52.000   28.332866888  -16.453985573  1209.6493   2   7   0.0311   0.0694   0.2087   0.0289   0.0967   0.0716  -8.00    0.0
2024/05/06 16:42:53.000   28.332866886  -16.453985582  1209.6468   2   7   0.0311   0.0694   0.2085   0.0289   0.0965   0.0715  -7.00    0.0
2024/05/06 16:42:54.000   28.332866884  -16.453985590  1209.6441   2   7   0.0311   0.0693   0.2083   0.0288   0.0963   0.0714  -6.00    0.0
2024/05/06 16:42:55.000   28.332866882  -16.453985596  1209.6419   2   7   0.0311   0.0692   0.2081   0.0288   0.0961   0.0714  -5.00    0.0
2024/05/06 16:42:56.000   28.332866878  -16.453985604  1209.6384   2   7   0.0311   0.0691   0.2079   0.0287   0.0960   0.0713  -4.00    0.0
2024/05/06 16:42:57.000   28.332866877  -16.453985609  1209.6370   2   7   0.0311   0.0690   0.2077   0.0287   0.0958   0.0713  -3.00    0.0
2024/05/06 16:42:58.000   28.332866875  -16.453985614  1209.6347   2   7   0.0311   0.0690   0.2076   0.0286   0.0957   0.0712  -2.00    0.0
2024/05/06 16:42:59.000   28.332866875  -16.453985615  1209.6337   2   7   0.0311   0.0689   0.2074   0.0286   0.0955   0.0712  -1.00    0.0
2024/05/06 16:43:00.000   28.332866875  -16.453985611  1209.6340   2   7   0.0311   0.0689   0.2074   0.0285   0.0954   0.0712   0.00    0.0
2024/05/06 16:43:01.000   28.332866879  -16.453985606  1209.6377   2   7   0.0311   0.0688   0.2072   0.0285   0.0953   0.0712   1.00    0.0
2024/05/06 16:43:02.000   28.332866884  -16.453985594  1209.6412   2   7   0.0312   0.0688   0.2071   0.0284   0.0951   0.0711   2.00    0.0
2024/05/06 16:43:03.000   28.332866888  -16.453985589  1209.6435   2   7   0.0312   0.0687   0.2070   0.0284   0.0950   0.0711   3.00    0.0
2024/05/06 16:43:04.000   28.332866889  -16.453985587  1209.6445   2   7   0.0312   0.0687   0.2069   0.0283   0.0949   0.0711   4.00    0.0
2024/05/06 16:43:05.000   28.332866891  -16.453985582  1209.6456   2   7   0.0312   0.0686   0.2068   0.0283   0.0947   0.0711   5.00    0.0
2024/05/06 16:43:06.000   28.332866895  -16.453985578  1209.6478   2   7   0.0312   0.0686   0.2066   0.0282   0.0946   0.0710   6.00    0.0
2024/05/06 16:43:07.000   28.332866898  -16.453985575  1209.6491   2   7   0.0312   0.0685   0.2065   0.0282   0.0945   0.0710   7.00    0.0
2024/05/06 16:43:08.000   28.332866900  -16.453985574  1209.6501   2   7   0.0312   0.0684   0.2064   0.0282   0.0944   0.0710   8.00    0.0
2024/05/06 16:43:09.000   28.332866902  -16.453985574  1209.6506   2   7   0.0312   0.0684   0.2063   0.0281   0.0943   0.0709   9.00    0.0
2024/05/06 16:43:10.000   28.332866903  -16.453985573  1209.6509   2   7   0.0312   0.0683   0.2062   0.0281   0.0942   0.0709  10.00    0.0
2024/05/06 16:43:11.000   28.332866904  -16.453985577  1209.6505   2   7   0.0312   0.0683   0.2061   0.0281   0.0941   0.0709  11.00    0.0
2024/05/06 16:43:12.000   28.332866904  -16.453985579  1209.6504   2   7   0.0312   0.0682   0.2059   0.0280   0.0940   0.0708  12.00    0.0
2024/05/06 16:43:13.000   28.332866905  -16.453985580  1209.6506   2   7   0.0312   0.0681   0.2058   0.0280   0.0939   0.0708  13.00    0.0
2024/05/06 16:43:14.000   28.332866906  -16.453985582  1209.6506   2   7   0.0312   0.0681   0.2057   0.0280   0.0938   0.0708  14.00    0.0
2024/05/06 16:43:15.000   28.332866907  -16.453985582  1209.6509   2   7   0.0312   0.0680   0.2056   0.0279   0.0937   0.0707 -15.00    0.0
2024/05/06 16:43:16.000   28.332866908  -16.453985580  1209.6516   2   7   0.0311   0.0680   0.2055   0.0279   0.0936   0.0707 -14.00    0.0
2024/05/06 16:43:17.000   28.332866910  -16.453985580  1209.6521   2   7   0.0311   0.0679   0.2054   0.0279   0.0935   0.0707 -13.00    0.0
2024/05/06 16:43:18.000   28.332866911  -16.453985581  1209.6523   2   7   0.0311   0.0679   0.2053   0.0278   0.0934   0.0707 -12.00    0.0
2024/05/06 16:43:19.000   28.332866912  -16.453985584  1209.6521   2   7   0.0311   0.0678   0.2052   0.0278   0.0933   0.0706 -11.00    0.0
2024/05/06 16:43:20.000   28.332866912  -16.453985590  1209.6513   2   7   0.0311   0.0677   0.2051   0.0278   0.0932   0.0706 -10.00    0.0
2024/05/06 16:43:21.000   28.332866913  -16.453985596  1209.6507   2   7   0.0311   0.0677   0.2050   0.0278   0.0931   0.0706  -9.00    0.0
2024/05/06 16:43:22.000   28.332866914  -16.453985602  1209.6502   2   7   0.0311   0.0676   0.2049   0.0277   0.0930   0.0706  -8.00    0.0
2024/05/06 16:43:23.000   28.332866914  -16.453985611  1209.6488   2   7   0.0311   0.0676   0.2049   0.0277   0.0929   0.0705  -7.00    0.0
2024/05/06 16:43:24.000   28.332866914  -16.453985622  1209.6469   2   7   0.0311   0.0676   0.2048   0.0277   0.0928   0.0705  -6.00    0.0
2024/05/06 16:43:25.000   28.332866914  -16.453985634  1209.6452   2   7   0.0311   0.0675   0.2047   0.0276   0.0927   0.0705  -5.00    0.0
2024/05/06 16:43:26.000   28.332866915  -16.453985647  1209.6438   2   7   0.0311   0.0675   0.2046   0.0276   0.0927   0.0705  -4.00    0.0
2024/05/06 16:43:27.000   28.332866916  -16.453985660  1209.6419   2   7   0.0311   0.0674   0.2046   0.0276   0.0926   0.0705  -3.00    0.0
2024/05/06 16:43:28.000   28.332866917  -16.453985671  1209.6402   2   7   0.0312   0.0674   0.2045   0.0276   0.0925   0.0705  -2.00    0.0
2024/05/06 16:43:29.000   28.332866918  -16.453985682  1209.6383   2   7   0.0312   0.0674   0.2045   0.0275   0.0924   0.0705  -1.00    0.0
2024/05/06 16:43:30.000   28.332866922  -16.453985693  1209.6373   2   7   0.0312   0.0674   0.2045   0.0275   0.0923   0.0705   0.00    0.0
2024/05/06 16:43:31.000   28.332866925  -16.453985705  1209.6369   2   7   0.0312   0.0673   0.2044   0.0275   0.0922   0.0705   1.00    0.0
2024/05/06 16:43:32.000   28.332866928  -16.453985714  1209.6367   2   7   0.0312   0.0673   0.2044   0.0274   0.0922   0.0705   2.00    0.0
2024/05/06 16:43:33.000   28.332866932  -16.453985725  1209.6360   2   7   0.0313   0.0673   0.2044   0.0274   0.0921   0.0705   3.00    0.0
2024/05/06 16:43:34.000   28.332866935  -16.453985737  1209.6354   2   7   0.0313   0.0673   0.2044   0.0274   0.0920   0.0705   4.00    0.0
2024/05/06 16:43:35.000   28.332866937  -16.453985746  1209.6342   2   7   0.0313   0.0673   0.2043   0.0274   0.0919   0.0705   5.00    0.0
2024/05/06 16:43:36.000   28.332866938  -16.453985753  1209.6331   2   7   0.0313   0.0672   0.2043   0.0273   0.0919   0.0705   6.00    0.0
2024/05/06 16:43:37.000   28.332866940  -16.453985758  1209.6326   2   7   0.0313   0.0672   0.2042   0.0273   0.0918   0.0705   7.00    0.0
2024/05/06 16:43:38.000   28.332866941  -16.453985759  1209.6327   2   7   0.0313   0.0672   0.2042   0.0273   0.0917   0.0705   8.00    0.0
2024/05/06 16:43:39.000   28.332866943  -16.453985757  1209.6335   2   7   0.0313   0.0671   0.2041   0.0273   0.0917   0.0705   9.00    0.0
2024/05/06 16:43:40.000   28.332866945  -16.453985753  1209.6345   2   7   0.0313   0.0671   0.2041   0.0272   0.0916   0.0705  10.00    0.0
2024/05/06 16:43:41.000   28.332866947  -16.453985749  1209.6358   2   7   0.0313   0.0671   0.2040   0.0272   0.0915   0.0704  11.00    0.0
2024/05/06 16:43:42.000   28.332866949  -16.453985745  1209.6368   2   7   0.0313   0.0670   0.2040   0.0272   0.0915   0.0704  12.00    0.0
2024/05/06 16:43:43.000   28.332866951  -16.453985741  1209.6380   2   7   0.0313   0.0670   0.2039   0.0272   0.0914   0.0704  13.00    0.0
2024/05/06 16:43:44.000   28.332866953  -16.453985737  1209.6389   2   7   0.0313   0.0669   0.2039   0.0272   0.0913   0.0704  14.00    0.0
2024/05/06 16:43:45.000   28.332866954  -16.453985733  1209.6395   2   7   0.0313   0.0669   0.2038   0.0272   0.0913   0.0704 -15.00    0.0
2024/05/06 16:43:46.000   28.332866954  -16.453985731  1209.6398   2   7   0.0313   0.0669   0.2038   0.0271   0.0912   0.0704 -14.00    0.0
2024/05/06 16:43:47.000   28.332866954  -16.453985732  1209.6396   2   7   0.0313   0.0668   0.2037   0.0271   0.0912   0.0704 -13.00    0.0
2024/05/06 16:43:48.000   28.332866954  -16.453985733  1209.6391   2   7   0.0313   0.0668   0.2037   0.0271   0.0911   0.0703 -12.00    0.0
2024/05/06 16:43:49.000   28.332866953  -16.453985735  1209.6385   2   7   0.0313   0.0668   0.2036   0.0271   0.0910   0.0703 -11.00    0.0
2024/05/06 16:43:50.000   28.332866953  -16.453985738  1209.6376   2   7   0.0313   0.0667   0.2036   0.0271   0.0910   0.0703 -10.00    0.0
2024/05/06 16:43:51.000   28.332866952  -16.453985744  1209.6363   2   7   0.0313   0.0667   0.2035   0.0270   0.0909   0.0703  -9.00    0.0
2024/05/06 16:43:52.000   28.332866952  -16.453985749  1209.6352   2   7   0.0313   0.0667   0.2035   0.0270   0.0909   0.0703  -8.00    0.0
2024/05/06 16:43:53.000   28.332866951  -16.453985753  1209.6342   2   7   0.0313   0.0666   0.2034   0.0270   0.0908   0.0703  -7.00    0.0
2024/05/06 16:43:54.000   28.332866949  -16.453985758  1209.6326   2   7   0.0313   0.0666   0.2034   0.0270   0.0908   0.0703  -6.00    0.0
2024/05/06 16:43:55.000   28.332866947  -16.453985761  1209.6309   2   7   0.0313   0.0666   0.2033   0.0270   0.0907   0.0703  -5.00    0.0
2024/05/06 16:43:56.000   28.332866946  -16.453985762  1209.6302   2   7   0.0313   0.0666   0.2033   0.0269   0.0906   0.0703  -4.00    0.0
2024/05/06 16:43:57.000   28.332866945  -16.453985761  1209.6295   2   7   0.0313   0.0665   0.2033   0.0269   0.0906   0.0703  -3.00    0.0
2024/05/06 16:43:58.000   28.332866943  -16.453985759  1209.6293   2   7   0.0314   0.0665   0.2033   0.0269   0.0905   0.0703  -2.00    0.0
2024/05/06 16:43:59.000   28.332866943  -16.453985760  1209.6303   2   7   0.0314   0.0665   0.2033   0.0269   0.0904   0.0703  -1.00    0.0
2024/05/06 16:44:00.000   28.332866940  -16.453985758  1209.6310   2   7   0.0314   0.0665   0.2034   0.0269   0.0904   0.0703   0.00    0.0
2024/05/06 16:44:01.000   28.332866940  -16.453985757  1209.6325   2   7   0.0314   0.0665   0.2033   0.0268   0.0903   0.0703   1.00    0.0
2024/05/06 16:44:02.000   28.332866938  -16.453985761  1209.6318   2   7   0.0315   0.0665   0.2033   0.0268   0.0903   0.0703   2.00    0.0
2024/05/06 16:44:03.000   28.332866934  -16.453985764  1209.6313   2   7   0.0315   0.0665   0.2033   0.0268   0.0902   0.0704   3.00    0.0
2024/05/06 16:44:04.000   28.332866931  -16.453985766  1209.6307   2   7   0.0315   0.0665   0.2033   0.0268   0.0901   0.0704   4.00    0.0
2024/05/06 16:44:05.000   28.332866928  -16.453985771  1209.6296   2   7   0.0315   0.0665   0.2033   0.0268   0.0901   0.0704   5.00    0.0
2024/05/06 16:44:06.000   28.332866925  -16.453985774  1209.6286   2   7   0.0315   0.0664   0.2033   0.0267   0.0900   0.0704   6.00    0.0
2024/05/06 16:44:07.000   28.332866922  -16.453985774  1209.6281   2   7   0.0315   0.0664   0.2033   0.0267   0.0900   0.0704   7.00    0.0
2024/05/06 16:44:08.000   28.332866920  -16.453985776  1209.6272   2   7   0.0315   0.0664   0.2032   0.0267   0.0899   0.0704   8.00    0.0
2024/05/06 16:44:09.000   28.332866918  -16.453985777  1209.6265   2   7   0.0315   0.0664   0.2032   0.0267   0.0899   0.0704   9.00    0.0
2024/05/06 16:44:10.000   28.332866917  -16.453985777  1209.6262   2   7   0.0315   0.0664   0.2032   0.0267   0.0899   0.0704  10.00    0.0
2024/05/06 16:44:11.000   28.332866916  -16.453985775  1209.6261   2   7   0.0315   0.0663   0.2032   0.0267   0.0898   0.0704  11.00    0.0
2024/05/06 16:44:12.000   28.332866915  -16.453985772  1209.6261   2   7   0.0315   0.0663   0.2031   0.0266   0.0898   0.0704  12.00    0.0
2024/05/06 16:44:13.000   28.332866914  -16.453985770  1209.6261   2   7   0.0315   0.0663   0.2031   0.0266   0.0897   0.0704  13.00    0.0
2024/05/06 16:44:14.000   28.332866914  -16.453985767  1209.6265   2   7   0.0316   0.0663   0.2031   0.0266   0.0897   0.0704  14.00    0.0
2024/05/06 16:44:15.000   28.332866913  -16.453985765  1209.6263   2   7   0.0316   0.0662   0.2030   0.0266   0.0896   0.0703 -15.00    0.0
2024/05/06 16:44:16.000   28.332866913  -16.453985762  1209.6265   2   7   0.0315   0.0662   0.2030   0.0266   0.0896   0.0703 -14.00    0.0
2024/05/06 16:44:17.000   28.332866912  -16.453985762  1209.6264   2   7   0.0315   0.0662   0.2030   0.0266   0.0896   0.0703 -13.00    0.0
2024/05/06 16:44:18.000   28.332866911  -16.453985763  1209.6261   2   7   0.0316   0.0662   0.2029   0.0266   0.0895   0.0703 -12.00    0.0
2024/05/06 16:44:19.000   28.332866910  -16.453985766  1209.6251   2   7   0.0316   0.0661   0.2029   0.0266   0.0895   0.0703 -11.00    0.0
2024/05/06 16:44:20.000   28.332866909  -16.453985767  1209.6248   2   7   0.0316   0.0661   0.2029   0.0265   0.0894   0.0703 -10.00    0.0
2024/05/06 16:44:21.000   28.332866908  -16.453985771  1209.6240   2   7   0.0316   0.0661   0.2029   0.0265   0.0894   0.0703  -9.00    0.0
2024/05/06 16:44:22.000   28.332866907  -16.453985774  1209.6231   2   7   0.0316   0.0661   0.2028   0.0265   0.0894   0.0703  -8.00    0.0
2024/05/06 16:44:23.000   28.332866907  -16.453985776  1209.6230   2   7   0.0316   0.0661   0.2028   0.0265   0.0893   0.0703  -7.00    0.0
2024/05/06 16:44:24.000   28.332866906  -16.453985778  1209.6225   2   7   0.0316   0.0660   0.2028   0.0265   0.0893   0.0703  -6.00    0.0
2024/05/06 16:44:25.000   28.332866906  -16.453985782  1209.6222   2   7   0.0316   0.0660   0.2028   0.0265   0.0892   0.0703  -5.00    0.0
2024/05/06 16:44:26.000   28.332866906  -16.453985786  1209.6223   2   7   0.0316   0.0660   0.2028   0.0265   0.0892   0.0703  -4.00    0.0
2024/05/06 16:44:27.000   28.332866906  -16.453985792  1209.6217   2   7   0.0316   0.0660   0.2027   0.0264   0.0891   0.0703  -3.00    0.0
2024/05/06 16:44:28.000   28.332866905  -16.453985799  1209.6212   2   7   0.0316   0.0660   0.2027   0.0264   0.0891   0.0703  -2.00    0.0
2024/05/06 16:44:29.000   28.332866906  -16.453985806  1209.6216   2   7   0.0316   0.0660   0.2028   0.0264   0.0890   0.0703  -1.00    0.0
2024/05/06 16:44:30.000   28.332866911  -16.453985804  1209.6262   2   7   0.0317   0.0660   0.2029   0.0264   0.0890   0.0704   0.00    0.0
2024/05/06 16:44:31.000   28.332866907  -16.453985819  1209.6228   2   7   0.0317   0.0660   0.2028   0.0264   0.0889   0.0704   1.00    0.0
2024/05/06 16:44:32.000   28.332866904  -16.453985831  1209.6199   2   7   0.0317   0.0660   0.2028   0.0263   0.0889   0.0704   2.00    0.0
2024/05/06 16:44:33.000   28.332866902  -16.453985840  1209.6180   2   7   0.0317   0.0660   0.2029   0.0263   0.0888   0.0704   3.00    0.0
2024/05/06 16:44:34.000   28.332866900  -16.453985848  1209.6163   2   7   0.0318   0.0660   0.2029   0.0263   0.0888   0.0704   4.00    0.0
2024/05/06 16:44:35.000   28.332866899  -16.453985852  1209.6154   2   7   0.0318   0.0659   0.2029   0.0263   0.0887   0.0704   5.00    0.0
2024/05/06 16:44:36.000   28.332866899  -16.453985856  1209.6145   2   7   0.0318   0.0659   0.2029   0.0263   0.0887   0.0704   6.00    0.0
2024/05/06 16:44:37.000   28.332866898  -16.453985861  1209.6134   2   7   0.0318   0.0659   0.2029   0.0263   0.0887   0.0704   7.00    0.0
2024/05/06 16:44:38.000   28.332866898  -16.453985865  1209.6123   2   7   0.0318   0.0659   0.2029   0.0263   0.0886   0.0705   8.00    0.0
2024/05/06 16:44:39.000   28.332866897  -16.453985869  1209.6114   2   7   0.0318   0.0659   0.2029   0.0263   0.0886   0.0705   9.00    0.0
2024/05/06 16:44:40.000   28.332866896  -16.453985874  1209.6103   2   7   0.0318   0.0659   0.2029   0.0262   0.0886   0.0705  10.00    0.0
2024/05/06 16:44:41.000   28.332866895  -16.453985880  1209.6085   2   7   0.0318   0.0659   0.2028   0.0262   0.0885   0.0705  11.00    0.0
2024/05/06 16:44:42.000   28.332866894  -16.453985884  1209.6070   2   7   0.0318   0.0658   0.2028   0.0262   0.0885   0.0704  12.00    0.0
2024/05/06 16:44:43.000   28.332866892  -16.453985888  1209.6058   2   7   0.0318   0.0658   0.2028   0.0262   0.0885   0.0704  13.00    0.0
2024/05/06 16:44:44.000   28.332866891  -16.453985894  1209.6044   2   7   0.0318   0.0658   0.2028   0.0262   0.0884   0.0704  14.00    0.0
2024/05/06 16:44:45.000   28.332866890  -16.453985899  1209.6035   2   7   0.0318   0.0658   0.2028   0.0262   0.0884   0.0704 -15.00    0.0
2024/05/06 16:44:46.000   28.332866890  -16.453985902  1209.6027   2   7   0.0318   0.0658   0.2027   0.0262   0.0884   0.0704 -14.00    0.0
2024/05/06 16:44:47.000   28.332866889  -16.453985905  1209.6022   2   7   0.0318   0.0658   0.2027   0.0262   0.0883   0.0704 -13.00    0.0
2024/05/06 16:44:48.000   28.332866889  -16.453985908  1209.6014   2   7   0.0318   0.0657   0.2027   0.0262   0.0883   0.0704 -12.00    0.0
2024/05/06 16:44:49.000   28.332866888  -16.453985914  1209.6004   2   7   0.0318   0.0657   0.2027   0.0262   0.0883   0.0704 -11.00    0.0
2024/05/06 16:44:50.000   28.332866887  -16.453985918  1209.5995   2   7   0.0318   0.0657   0.2027   0.0261   0.0882   0.0704 -10.00    0.0
2024/05/06 16:44:51.000   28.332866887  -16.453985924  1209.5985   2   7   0.0318   0.0657   0.2027   0.0261   0.0882   0.0704  -9.00    0.0
2024/05/06 16:44:52.000   28.332866887  -16.453985928  1209.5979   2   7   0.0318   0.0657   0.2026   0.0261   0.0882   0.0704  -8.00    0.0
2024/05/06 16:44:53.000   28.332866887  -16.453985930  1209.5976   2   7   0.0318   0.0657   0.2026   0.0261   0.0881   0.0704  -7.00    0.0
2024/05/06 16:44:54.000   28.332866888  -16.453985934  1209.5974   2   7   0.0318   0.0656   0.2026   0.0261   0.0881   0.0704  -6.00    0.0
2024/05/06 16:44:55.000   28.332866888  -16.453985939  1209.5970   2   7   0.0318   0.0656   0.2026   0.0261   0.0881   0.0704  -5.00    0.0
2024/05/06 16:44:56.000   28.332866890  -16.453985946  1209.5965   2   7   0.0319   0.0656   0.2026   0.0261   0.0880   0.0704  -4.00    0.0
2024/05/06 16:44:57.000   28.332866892  -16.453985953  1209.5966   2   7   0.0319   0.0656   0.2026   0.0261   0.0880   0.0704  -3.00    0.0
2024/05/06 16:44:58.000   28.332866894  -16.453985961  1209.5965   2   7   0.0319   0.0656   0.2026   0.0260   0.0879   0.0704  -2.00    0.0
2024/05/06 16:44:59.000   28.332866896  -16.453985966  1209.5955   2   7   0.0319   0.0656   0.2027   0.0260   0.0879   0.0705  -1.00    0.0
2024/05/06 16:45:00.000   28.332866896  -16.453985969  1209.5944   2   7   0.0319   0.0656   0.2028   0.0260   0.0879   0.0705   0.00    0.0
2024/05/06 16:45:01.000   28.332866901  -16.453985965  1209.5961   2   7   0.0320   0.0656   0.2027   0.0260   0.0878   0.0705   1.00    0.0
2024/05/06 16:45:02.000   28.332866901  -16.453985968  1209.5937   2   7   0.0320   0.0656   0.2028   0.0260   0.0878   0.0705   2.00    0.0
2024/05/06 16:45:03.000   28.332866899  -16.453985968  1209.5913   2   7   0.0320   0.0656   0.2028   0.0260   0.0877   0.0706   3.00    0.0
2024/05/06 16:45:04.000   28.332866898  -16.453985970  1209.5890   2   7   0.0320   0.0656   0.2028   0.0259   0.0877   0.0706   4.00    0.0
2024/05/06 16:45:05.000   28.332866897  -16.453985970  1209.5874   2   7   0.0320   0.0656   0.2028   0.0259   0.0876   0.0706   5.00    0.0
2024/05/06 16:45:06.000   28.332866895  -16.453985973  1209.5849   2   7   0.0321   0.0656   0.2028   0.0259   0.0876   0.0706   6.00    0.0
2024/05/06 16:45:07.000   28.332866893  -16.453985974  1209.5829   2   7   0.0321   0.0656   0.2029   0.0259   0.0876   0.0706   7.00    0.0
2024/05/06 16:45:08.000   28.332866893  -16.453985978  1209.5814   2   7   0.0321   0.0656   0.2029   0.0259   0.0875   0.0706   8.00    0.0
2024/05/06 16:45:09.000   28.332866891  -16.453985982  1209.5797   2   7   0.0321   0.0656   0.2029   0.0259   0.0875   0.0706   9.00    0.0
2024/05/06 16:45:10.000   28.332866890  -16.453985986  1209.5785   2   7   0.0321   0.0655   0.2029   0.0259   0.0875   0.0706  10.00    0.0
2024/05/06 16:45:11.000   28.332866889  -16.453985990  1209.5771   2   7   0.0321   0.0655   0.2028   0.0259   0.0875   0.0706  11.00    0.0
2024/05/06 16:45:12.000   28.332866887  -16.453985993  1209.5758   2   7   0.0321   0.0655   0.2028   0.0259   0.0874   0.0706  12.00    0.0
2024/05/06 16:45:13.000   28.332866886  -16.453985995  1209.5751   2   7   0.0321   0.0655   0.2028   0.0259   0.0874   0.0706  13.00    0.0
2024/05/06 16:45:14.000   28.332866886  -16.453985995  1209.5745   2   7   0.0321   0.0655   0.2028   0.0258   0.0874   0.0706  14.00    0.0
2024/05/06 16:45:15.000   28.332866885  -16.453985995  1209.5745   2   7   0.0321   0.0655   0.2028   0.0258   0.0874   0.0706 -15.00    0.0
2024/05/06 16:45:16.000   28.332866885  -16.453985994  1209.5743   2   7   0.0321   0.0655   0.2028   0.0258   0.0873   0.0706 -14.00    0.0
2024/05/06 16:45:17.000   28.332866884  -16.453985993  1209.5742   2   7   0.0321   0.0654   0.2028   0.0258   0.0873   0.0706 -13.00    0.0
2024/05/06 16:45:18.000   28.332866884  -16.453985991  1209.5742   2   7   0.0321   0.0654   0.2028   0.0258   0.0873   0.0706 -12.00    0.0
2024/05/06 16:45:19.000   28.332866884  -16.453985988  1209.5743   2   7   0.0321   0.0654   0.2028   0.0258   0.0873   0.0706 -11.00    0.0
2024/05/06 16:45:20.000   28.332866884  -16.453985982  1209.5750   2   7   0.0321   0.0654   0.2027   0.0258   0.0872   0.0706 -10.00    0.0
2024/05/06 16:45:21.000   28.332866884  -16.453985978  1209.5754   2   7   0.0321   0.0654   0.2027   0.0258   0.0872   0.0706  -9.00    0.0
2024/05/06 16:45:22.000   28.332866884  -16.453985974  1209.5760   2   7   0.0321   0.0654   0.2027   0.0258   0.0872   0.0706  -8.00    0.0
2024/05/06 16:45:23.000   28.332866885  -16.453985972  1209.5763   2   7   0.0321   0.0654   0.2027   0.0258   0.0872   0.0706  -7.00    0.0
2024/05/06 16:45:24.000   28.332866884  -16.453985970  1209.5763   2   7   0.0321   0.0654   0.2027   0.0258   0.0871   0.0706  -6.00    0.0
2024/05/06 16:45:25.000   28.332866885  -16.453985966  1209.5769   2   7   0.0321   0.0654   0.2027   0.0258   0.0871   0.0706  -5.00    0.0
2024/05/06 16:45:26.000   28.332866885  -16.453985960  1209.5777   2   7   0.0321   0.0653   0.2027   0.0257   0.0871   0.0706  -4.00    0.0
2024/05/06 16:45:27.000   28.332866885  -16.453985954  1209.5780   2   7   0.0322   0.0653   0.2027   0.0257   0.0870   0.0706  -3.00    0.0
2024/05/06 16:45:28.000   28.332866886  -16.453985945  1209.5786   2   7   0.0322   0.0653   0.2028   0.0257   0.0870   0.0706  -2.00    0.0
2024/05/06 16:45:29.000   28.332866887  -16.453985940  1209.5782   2   7   0.0322   0.0653   0.2028   0.0257   0.0869   0.0707  -1.00    0.0
2024/05/06 16:45:30.000   28.332866886  -16.453985932  1209.5792   2   7   0.0322   0.0653   0.2029   0.0257   0.0869   0.0707   0.00    0.0
2024/05/06 16:45:31.000   28.332866887  -16.453985927  1209.5796   2   7   0.0322   0.0653   0.2029   0.0257   0.0869   0.0707   1.00    0.0
2024/05/06 16:45:32.000   28.332866886  -16.453985922  1209.5783   2   7   0.0323   0.0653   0.2029   0.0256   0.0868   0.0707   2.00    0.0
2024/05/06 16:45:33.000   28.332866885  -16.453985920  1209.5769   2   7   0.0323   0.0653   0.2030   0.0256   0.0868   0.0707   3.00    0.0
2024/05/06 16:45:34.000   28.332866885  -16.453985918  1209.5759   2   7   0.0323   0.0653   0.2030   0.0256   0.0867   0.0708   4.00    0.0
2024/05/06 16:45:35.000   28.332866884  -16.453985913  1209.5751   2   7   0.0323   0.0653   0.2030   0.0256   0.0867   0.0708   5.00    0.0
2024/05/06 16:45:36.000   28.332866883  -16.453985909  1209.5742   2   7   0.0323   0.0653   0.2030   0.0256   0.0867   0.0708   6.00    0.0
2024/05/06 16:45:37.000   28.332866882  -16.453985905  1209.5736   2   7   0.0323   0.0653   0.2030   0.0256   0.0867   0.0708   7.00    0.0
2024/05/06 16:45:38.000   28.332866882  -16.453985900  1209.5734   2   7   0.0323   0.0653   0.2031   0.0256   0.0866   0.0708   8.00    0.0
2024/05/06 16:45:39.000   28.332866881  -16.453985894  1209.5734   2   7   0.0324   0.0653   0.2031   0.0256   0.0866   0.0708   9.00    0.0
2024/05/06 16:45:40.000   28.332866881  -16.453985887  1209.5735   2   7   0.0324   0.0653   0.2031   0.0256   0.0866   0.0708  10.00    0.0
2024/05/06 16:45:41.000   28.332866881  -16.453985882  1209.5734   2   7   0.0324   0.0653   0.2031   0.0256   0.0866   0.0708  11.00    0.0
2024/05/06 16:45:42.000   28.332866881  -16.453985876  1209.5737   2   7   0.0324   0.0653   0.2031   0.0256   0.0865   0.0708  12.00    0.0
2024/05/06 16:45:43.000   28.332866882  -16.453985869  1209.5744   2   7   0.0324   0.0653   0.2031   0.0255   0.0865   0.0708  13.00    0.0
2024/05/06 16:45:44.000   28.332866883  -16.453985865  1209.5746   2   7   0.0324   0.0652   0.2031   0.0255   0.0865   0.0708  14.00    0.0
2024/05/06 16:45:45.000   28.332866883  -16.453985860  1209.5751   2   7   0.0324   0.0652   0.2030   0.0255   0.0865   0.0708 -15.00    0.0
2024/05/06 16:45:46.000   28.332866884  -16.453985854  1209.5759   2   7   0.0324   0.0652   0.2030   0.0255   0.0865   0.0708 -14.00    0.0
2024/05/06 16:45:47.000   28.332866884  -16.453985850  1209.5764   2   7   0.0324   0.0652   0.2030   0.0255   0.0864   0.0708 -13.00    0.0
2024/05/06 16:45:48.000   28.332866885  -16.453985846  1209.5769   2   7   0.0324   0.0652   0.2030   0.0255   0.0864   0.0708 -12.00    0.0
2024/05/06 16:45:49.000   28.332866885  -16.453985842  1209.5770   2   7   0.0324   0.0652   0.2030   0.0255   0.0864   0.0708 -11.00    0.0
2024/05/06 16:45:50.000   28.332866885  -16.453985842  1209.5767   2   7   0.0324   0.0652   0.2030   0.0255   0.0864   0.0708 -10.00    0.0
2024/05/06 16:45:51.000   28.332866886  -16.453985843  1209.5765   2   7   0.0324   0.0652   0.2030   0.0255   0.0864   0.0708  -9.00    0.0
2024/05/06 16:45:52.000   28.332866885  -16.453985844  1209.5758   2   7   0.0324   0.0652   0.2030   0.0255   0.0863   0.0708  -8.00    0.0
2024/05/06 16:45:53.000   28.332866885  -16.453985847  1209.5749   2   7   0.0324   0.0652   0.2030   0.0255   0.0863   0.0708  -7.00    0.0
2024/05/06 16:45:54.000   28.332866885  -16.453985849  1209.5744   2   7   0.0324   0.0651   0.2030   0.0255   0.0863   0.0708  -6.00    0.0
2024/05/06 16:45:55.000   28.332866885  -16.453985851  1209.5739   2   7   0.0324   0.0651   0.2030   0.0255   0.0863   0.0708  -5.00    0.0
2024/05/06 16:45:56.000   28.332866885  -16.453985855  1209.5731   2   7   0.0324   0.0651   0.2030   0.0254   0.0862   0.0708  -4.00    0.0
2024/05/06 16:45:57.000   28.332866884  -16.453985858  1209.5729   2   7   0.0324   0.0651   0.2030   0.0254   0.0862   0.0708  -3.00    0.0
2024/05/06 16:45:58.000   28.332866884  -16.453985864  1209.5722   2   7   0.0324   0.0651   0.2031   0.0254   0.0862   0.0708  -2.00    0.0
2024/05/06 16:45:59.000   28.332866885  -16.453985867  1209.5726   2   7   0.0325   0.0651   0.2031   0.0254   0.0861   0.0709  -1.00    0.0
2024/05/06 16:46:00.000   28.332866887  -16.453985870  1209.5735   2   7   0.0325   0.0651   0.2032   0.0254   0.0861   0.0709   0.00    0.0
2024/05/06 16:46:01.000   28.332866887  -16.453985876  1209.5714   2   7   0.0325   0.0651   0.2032   0.0254   0.0860   0.0709   1.00    0.0
2024/05/06 16:46:02.000   28.332866887  -16.453985878  1209.5698   2   7   0.0325   0.0651   0.2032   0.0254   0.0860   0.0709   2.00    0.0
2024/05/06 16:46:03.000   28.332866888  -16.453985878  1209.5693   2   7   0.0325   0.0651   0.2033   0.0254   0.0860   0.0710   3.00    0.0
2024/05/06 16:46:04.000   28.332866888  -16.453985879  1209.5686   2   7   0.0326   0.0651   0.2033   0.0253   0.0859   0.0710   4.00    0.0
2024/05/06 16:46:05.000   28.332866889  -16.453985879  1209.5679   2   7   0.0326   0.0651   0.2034   0.0253   0.0859   0.0710   5.00    0.0
2024/05/06 16:46:06.000   28.332866889  -16.453985880  1209.5676   2   7   0.0326   0.0651   0.2034   0.0253   0.0859   0.0710   6.00    0.0
2024/05/06 16:46:07.000   28.332866890  -16.453985880  1209.5675   2   7   0.0326   0.0651   0.2034   0.0253   0.0859   0.0710   7.00    0.0
2024/05/06 16:46:08.000   28.332866891  -16.453985880  1209.5669   2   7   0.0326   0.0651   0.2034   0.0253   0.0858   0.0710   8.00    0.0
2024/05/06 16:46:09.000   28.332866892  -16.453985880  1209.5666   2   7   0.0326   0.0651   0.2034   0.0253   0.0858   0.0710   9.00    0.0
2024/05/06 16:46:10.000   28.332866893  -16.453985878  1209.5665   2   7   0.0326   0.0651   0.2034   0.0253   0.0858   0.0710  10.00    0.0
2024/05/06 16:46:11.000   28.332866894  -16.453985876  1209.5664   2   7   0.0326   0.0651   0.2034   0.0253   0.0858   0.0710  11.00    0.0
2024/05/06 16:46:12.000   28.332866895  -16.453985873  1209.5665   2   7   0.0326   0.0651   0.2034   0.0253   0.0858   0.0710  12.00    0.0
2024/05/06 16:46:13.000   28.332866895  -16.453985869  1209.5666   2   7   0.0326   0.0651   0.2034   0.0253   0.0857   0.0710  13.00    0.0
2024/05/06 16:46:14.000   28.332866896  -16.453985864  1209.5670   2   7   0.0326   0.0651   0.2034   0.0253   0.0857   0.0710  14.00    0.0
2024/05/06 16:46:15.000   28.332866897  -16.453985858  1209.5678   2   7   0.0326   0.0650   0.2034   0.0253   0.0857   0.0710 -15.00    0.0
2024/05/06 16:46:16.000   28.332866898  -16.453985853  1209.5683   2   7   0.0326   0.0650   0.2034   0.0253   0.0857   0.0710 -14.00    0.0
2024/05/06 16:46:17.000   28.332866900  -16.453985847  1209.5692   2   7   0.0326   0.0650   0.2034   0.0253   0.0857   0.0710 -13.00    0.0
2024/05/06 16:46:18.000   28.332866901  -16.453985843  1209.5694   2   7   0.0326   0.0650   0.2034   0.0252   0.0857   0.0710 -12.00    0.0
2024/05/06 16:46:19.000   28.332866902  -16.453985838  1209.5700   2   7   0.0326   0.0650   0.2034   0.0252   0.0856   0.0710 -11.00    0.0
2024/05/06 16:46:20.000   28.332866904  -16.453985836  1209.5701   2   7   0.0326   0.0650   0.2034   0.0252   0.0856   0.0710 -10.00    0.0
2024/05/06 16:46:21.000   28.332866905  -16.453985834  1209.5702   2   7   0.0326   0.0650   0.2034   0.0252   0.0856   0.0710  -9.00    0.0
2024/05/06 16:46:22.000   28.332866907  -16.453985831  1209.5702   2   7   0.0326   0.0650   0.2034   0.0252   0.0856   0.0710  -8.00    0.0
2024/05/06 16:46:23.000   28.332866909  -16.453985828  1209.5704   2   7   0.0326   0.0650   0.2034   0.0252   0.0856   0.0710  -7.00    0.0
2024/05/06 16:46:24.000   28.332866911  -16.453985824  1209.5708   2   7   0.0326   0.0650   0.2034   0.0252   0.0855   0.0710  -6.00    0.0
2024/05/06 16:46:25.000   28.332866914  -16.453985822  1209.5710   2   7   0.0327   0.0650   0.2034   0.0252   0.0855   0.0710  -5.00    0.0
2024/05/06 16:46:26.000   28.332866918  -16.453985819  1209.5717   2   7   0.0327   0.0649   0.2034   0.0252   0.0855   0.0710  -4.00    0.0
2024/05/06 16:46:27.000   28.332866923  -16.453985815  1209.5728   2   7   0.0327   0.0649   0.2034   0.0252   0.0855   0.0711  -3.00    0.0
2024/05/06 16:46:28.000   28.332866928  -16.453985812  1209.5747   2   7   0.0327   0.0649   0.2035   0.0252   0.0854   0.0711  -2.00    0.0
2024/05/06 16:46:29.000   28.332866931  -16.453985811  1209.5759   2   7   0.0327   0.0649   0.2035   0.0251   0.0854   0.0711  -1.00    0.0
2024/05/06 16:46:30.000   28.332866936  -16.453985807  1209.5792   2   7   0.0327   0.0649   0.2036   0.0251   0.0854   0.0711   0.00    0.0
2024/05/06 16:46:31.000   28.332866938  -16.453985810  1209.5786   2   7   0.0327   0.0649   0.2036   0.0251   0.0853   0.0711   1.00    0.0
2024/05/06 16:46:32.000   28.332866940  -16.453985813  1209.5786   2   7   0.0328   0.0649   0.2037   0.0251   0.0853   0.0712   2.00    0.0
2024/05/06 16:46:33.000   28.332866944  -16.453985819  1209.5786   2   7   0.0328   0.0649   0.2037   0.0251   0.0853   0.0712   3.00    0.0
2024/05/06 16:46:34.000   28.332866947  -16.453985822  1209.5788   2   7   0.0328   0.0649   0.2038   0.0251   0.0852   0.0712   4.00    0.0
2024/05/06 16:46:35.000   28.332866948  -16.453985826  1209.5782   2   7   0.0328   0.0649   0.2038   0.0251   0.0852   0.0712   5.00    0.0
2024/05/06 16:46:36.000   28.332866949  -16.453985829  1209.5783   2   7   0.0328   0.0649   0.2038   0.0251   0.0852   0.0712   6.00    0.0
2024/05/06 16:46:37.000   28.332866950  -16.453985833  1209.5778   2   7   0.0328   0.0649   0.2038   0.0251   0.0852   0.0712   7.00    0.0
2024/05/06 16:46:38.000   28.332866951  -16.453985836  1209.5774   2   7   0.0328   0.0649   0.2039   0.0251   0.0851   0.0712   8.00    0.0
2024/05/06 16:46:39.000   28.332866953  -16.453985838  1209.5772   2   7   0.0328   0.0649   0.2039   0.0250   0.0851   0.0712   9.00    0.0
2024/05/06 16:46:40.000   28.332866952  -16.453985840  1209.5765   2   7   0.0328   0.0649   0.2039   0.0250   0.0851   0.0712  10.00    0.0
2024/05/06 16:46:41.000   28.332866952  -16.453985841  1209.5760   2   7   0.0329   0.0649   0.2039   0.0250   0.0851   0.0712  11.00    0.0
2024/05/06 16:46:42.000   28.332866953  -16.453985841  1209.5756   2   7   0.0329   0.0649   0.2039   0.0250   0.0851   0.0712  12.00    0.0
2024/05/06 16:46:43.000   28.332866953  -16.453985841  1209.5754   2   7   0.0329   0.0649   0.2039   0.0250   0.0851   0.0712  13.00    0.0
2024/05/06 16:46:44.000   28.332866953  -16.453985839  1209.5755   2   7   0.0329   0.0649   0.2039   0.0250   0.0850   0.0712  14.00    0.0
2024/05/06 16:46:45.000   28.332866953  -16.453985839  1209.5753   2   7   0.0329   0.0649   0.2039   0.0250   0.0850   0.0712 -15.00    0.0
2024/05/06 16:46:46.000   28.332866953  -16.453985838  1209.5752   2   7   0.0329   0.0649   0.2039   0.0250   0.0850   0.0712 -14.00    0.0
2024/05/06 16:46:47.000   28.332866953  -16.453985836  1209.5750   2   7   0.0329   0.0649   0.2039   0.0250   0.0850   0.0712 -13.00    0.0
2024/05/06 16:46:48.000   28.332866953  -16.453985833  1209.5751   2   7   0.0329   0.0648   0.2039   0.0250   0.0850   0.0712 -12.00    0.0
2024/05/06 16:46:49.000   28.332866954  -16.453985830  1209.5753   2   7   0.0329   0.0648   0.2039   0.0250   0.0850   0.0712 -11.00    0.0
2024/05/06 16:46:50.000   28.332866954  -16.453985826  1209.5755   2   7   0.0329   0.0648   0.2039   0.0250   0.0849   0.0712 -10.00    0.0
2024/05/06 16:46:51.000   28.332866954  -16.453985822  1209.5754   2   7   0.0329   0.0648   0.2039   0.0250   0.0849   0.0713  -9.00    0.0
2024/05/06 16:46:52.000   28.332866955  -16.453985817  1209.5755   2   7   0.0329   0.0648   0.2039   0.0250   0.0849   0.0713  -8.00    0.0
2024/05/06 16:46:53.000   28.332866955  -16.453985811  1209.5753   2   7   0.0329   0.0648   0.2039   0.0250   0.0849   0.0713  -7.00    0.0
2024/05/06 16:46:54.000   28.332866955  -16.453985805  1209.5750   2   7   0.0329   0.0648   0.2039   0.0250   0.0849   0.0713  -6.00    0.0
2024/05/06 16:46:55.000   28.332866956  -16.453985798  1209.5747   2   7   0.0329   0.0648   0.2039   0.0250   0.0848   0.0713  -5.00    0.0
2024/05/06 16:46:56.000   28.332866957  -16.453985790  1209.5749   2   7   0.0329   0.0648   0.2039   0.0249   0.0848   0.0713  -4.00    0.0
2024/05/06 16:46:57.000   28.332866958  -16.453985782  1209.5752   2   7   0.0329   0.0648   0.2039   0.0249   0.0848   0.0713  -3.00    0.0
2024/05/06 16:46:58.000   28.332866961  -16.453985773  1209.5762   2   7   0.0329   0.0648   0.2040   0.0249   0.0848   0.0713  -2.00    0.0
2024/05/06 16:46:59.000   28.332866964  -16.453985765  1209.5780   2   7   0.0329   0.0648   0.2040   0.0249   0.0847   0.0713  -1.00    0.0
2024/05/06 16:47:00.000   28.332866973  -16.453985750  1209.5863   2   7   0.0330   0.0648   0.2041   0.0249   0.0847   0.0714   0.00    0.0
2024/05/06 16:47:01.000   28.332866970  -16.453985752  1209.5841   2   7   0.0330   0.0648   0.2041   0.0249   0.0847   0.0713   1.00    0.0
2024/05/06 16:47:02.000   28.332866970  -16.453985751  1209.5857   2   7   0.0330   0.0648   0.2042   0.0249   0.0846   0.0714   2.00    0.0
2024/05/06 16:47:03.000   28.332866970  -16.453985748  1209.5868   2   7   0.0330   0.0648   0.2042   0.0249   0.0846   0.0714   3.00    0.0
2024/05/06 16:47:04.000   28.332866970  -16.453985744  1209.5879   2   7   0.0330   0.0648   0.2043   0.0249   0.0846   0.0714   4.00    0.0
2024/05/06 16:47:05.000   28.332866971  -16.453985739  1209.5891   2   7   0.0330   0.0648   0.2043   0.0248   0.0846   0.0714   5.00    0.0
2024/05/06 16:47:06.000   28.332866972  -16.453985737  1209.5896   2   7   0.0330   0.0648   0.2043   0.0248   0.0845   0.0714   6.00    0.0
2024/05/06 16:47:07.000   28.332866972  -16.453985733  1209.5894   2   7   0.0330   0.0648   0.2044   0.0248   0.0845   0.0714   7.00    0.0
2024/05/06 16:47:08.000   28.332866971  -16.453985729  1209.5893   2   7   0.0330   0.0647   0.2044   0.0248   0.0845   0.0714   8.00    0.0
2024/05/06 16:47:09.000   28.332866971  -16.453985724  1209.5898   2   7   0.0331   0.0647   0.2044   0.0248   0.0845   0.0714   9.00    0.0
2024/05/06 16:47:10.000   28.332866971  -16.453985722  1209.5902   2   7   0.0331   0.0647   0.2044   0.0248   0.0845   0.0714  10.00    0.0
2024/05/06 16:47:11.000   28.332866971  -16.453985719  1209.5904   2   7   0.0331   0.0647   0.2044   0.0248   0.0845   0.0715  11.00    0.0
2024/05/06 16:47:12.000   28.332866970  -16.453985715  1209.5904   2   7   0.0331   0.0647   0.2044   0.0248   0.0844   0.0715  12.00    0.0
2024/05/06 16:47:13.000   28.332866969  -16.453985716  1209.5896   2   7   0.0331   0.0647   0.2044   0.0248   0.0844   0.0715  13.00    0.0
2024/05/06 16:47:14.000   28.332866968  -16.453985715  1209.5895   2   7   0.0331   0.0647   0.2044   0.0248   0.0844   0.0715  14.00    0.0
2024/05/06 16:47:15.000   28.332866968  -16.453985714  1209.5894   2   7   0.0331   0.0647   0.2044   0.0248   0.0844   0.0715 -15.00    0.0
2024/05/06 16:47:16.000   28.332866967  -16.453985712  1209.5895   2   7   0.0331   0.0647   0.2044   0.0248   0.0844   0.0715 -14.00    0.0
2024/05/06 16:47:17.000   28.332866966  -16.453985711  1209.5891   2   7   0.0331   0.0647   0.2044   0.0248   0.0844   0.0715 -13.00    0.0
2024/05/06 16:47:18.000   28.332866965  -16.453985710  1209.5887   2   7   0.0331   0.0647   0.2044   0.0248   0.0844   0.0715 -12.00    0.0
2024/05/06 16:47:19.000   28.332866964  -16.453985711  1209.5879   2   7   0.0331   0.0647   0.2044   0.0248   0.0844   0.0715 -11.00    0.0
2024/05/06 16:47:20.000   28.332866962  -16.453985712  1209.5869   2   7   0.0331   0.0647   0.2044   0.0248   0.0843   0.0715 -10.00    0.0
2024/05/06 16:47:21.000   28.332866961  -16.453985712  1209.5863   2   7   0.0331   0.0647   0.2044   0.0248   0.0843   0.0715  -9.00    0.0
2024/05/06 16:47:22.000   28.332866959  -16.453985712  1209.5855   2   7   0.0331   0.0647   0.2044   0.0248   0.0843   0.0715  -8.00    0.0
2024/05/06 16:47:23.000   28.332866958  -16.453985712  1209.5851   2   7   0.0331   0.0646   0.2044   0.0248   0.0843   0.0715  -7.00    0.0
2024/05/06 16:47:24.000   28.332866956  -16.453985713  1209.5844   2   7   0.0331   0.0646   0.2044   0.0247   0.0843   0.0715  -6.00    0.0
2024/05/06 16:47:25.000   28.332866954  -16.453985717  1209.5832   2   7   0.0331   0.0646   0.2044   0.0247   0.0843   0.0715  -5.00    0.0
2024/05/06 16:47:26.000   28.332866952  -16.453985719  1209.5822   2   7   0.0331   0.0646   0.2044   0.0247   0.0842   0.0715  -4.00    0.0
2024/05/06 16:47:27.000   28.332866948  -16.453985720  1209.5808   2   7   0.0331   0.0646   0.2045   0.0247   0.0842   0.0715  -3.00    0.0
2024/05/06 16:47:28.000   28.332866946  -16.453985719  1209.5805   2   7   0.0331   0.0646   0.2045   0.0247   0.0842   0.0715  -2.00    0.0
2024/05/06 16:47:29.000   28.332866941  -16.453985719  1209.5790   2   7   0.0331   0.0646   0.2045   0.0247   0.0841   0.0715  -1.00    0.0
2024/05/06 16:47:30.000   28.332866940  -16.453985711  1209.5825   2   7   0.0331   0.0646   0.2047   0.0247   0.0841   0.0715   0.00    0.0
2024/05/06 16:47:31.000   28.332866937  -16.453985710  1209.5825   2   7   0.0331   0.0646   0.2047   0.0247   0.0841   0.0715   1.00    0.0
2024/05/06 16:47:32.000   28.332866935  -16.453985711  1209.5819   2   7   0.0332   0.0646   0.2047   0.0247   0.0841   0.0716   2.00    0.0
2024/05/06 16:47:33.000   28.332866933  -16.453985711  1209.5813   2   7   0.0332   0.0646   0.2047   0.0247   0.0840   0.0716   3.00    0.0
2024/05/06 16:47:34.000   28.332866931  -16.453985711  1209.5802   2   7   0.0332   0.0646   0.2048   0.0246   0.0840   0.0716   4.00    0.0
2024/05/06 16:47:35.000   28.332866930  -16.453985710  1209.5795   2   7   0.0332   0.0646   0.2048   0.0246   0.0840   0.0716   5.00    0.0
2024/05/06 16:47:36.000   28.332866928  -16.453985711  1209.5787   2   7   0.0332   0.0646   0.2049   0.0246   0.0840   0.0716   6.00    0.0
2024/05/06 16:47:37.000   28.332866928  -16.453985712  1209.5788   2   7   0.0332   0.0646   0.2049   0.0246   0.0840   0.0716   7.00    0.0
2024/05/06 16:47:38.000   28.332866927  -16.453985712  1209.5785   2   7   0.0332   0.0646   0.2049   0.0246   0.0840   0.0716   8.00    0.0
2024/05/06 16:47:39.000   28.332866925  -16.453985714  1209.5781   2   7   0.0332   0.0646   0.2049   0.0246   0.0839   0.0716   9.00    0.0
2024/05/06 16:47:40.000   28.332866925  -16.453985716  1209.5778   2   7   0.0332   0.0646   0.2049   0.0246   0.0839   0.0716  10.00    0.0
2024/05/06 16:47:41.000   28.332866925  -16.453985718  1209.5773   2   7   0.0332   0.0646   0.2049   0.0246   0.0839   0.0716  11.00    0.0
2024/05/06 16:47:42.000   28.332866924  -16.453985722  1209.5764   2   7   0.0332   0.0646   0.2049   0.0246   0.0839   0.0716  12.00    0.0
2024/05/06 16:47:43.000   28.332866924  -16.453985725  1209.5758   2   7   0.0332   0.0646   0.2049   0.0246   0.0839   0.0716  13.00    0.0
2024/05/06 16:47:44.000   28.332866924  -16.453985728  1209.5753   2   7   0.0332   0.0646   0.2049   0.0246   0.0839   0.0716  14.00    0.0
2024/05/06 16:47:45.000   28.332866924  -16.453985732  1209.5747   2   7   0.0332   0.0645   0.2049   0.0246   0.0839   0.0716 -15.00    0.0
2024/05/06 16:47:46.000   28.332866923  -16.453985736  1209.5740   2   7   0.0332   0.0645   0.2049   0.0246   0.0839   0.0716 -14.00    0.0
2024/05/06 16:47:47.000   28.332866924  -16.453985739  1209.5735   2   7   0.0332   0.0645   0.2049   0.0246   0.0838   0.0716 -13.00    0.0
2024/05/06 16:47:48.000   28.332866924  -16.453985741  1209.5734   2   7   0.0332   0.0645   0.2049   0.0246   0.0838   0.0716 -12.00    0.0
2024/05/06 16:47:49.000   28.332866924  -16.453985744  1209.5732   2   7   0.0332   0.0645   0.2049   0.0246   0.0838   0.0716 -11.00    0.0
2024/05/06 16:47:50.000   28.332866925  -16.453985746  1209.5728   2   7   0.0332   0.0645   0.2049   0.0246   0.0838   0.0716 -10.00    0.0
2024/05/06 16:47:51.000   28.332866926  -16.453985748  1209.5725   2   7   0.0332   0.0645   0.2049   0.0246   0.0838   0.0716  -9.00    0.0
2024/05/06 16:47:52.000   28.332866926  -16.453985751  1209.5722   2   7   0.0332   0.0645   0.2049   0.0246   0.0838   0.0716  -8.00    0.0
2024/05/06 16:47:53.000   28.332866927  -16.453985755  1209.5721   2   7   0.0332   0.0645   0.2050   0.0246   0.0838   0.0716  -7.00    0.0
2024/05/06 16:47:54.000   28.332866929  -16.453985759  1209.5727   2   7   0.0332   0.0645   0.2050   0.0245   0.0837   0.0716  -6.00    0.0
2024/05/06 16:47:55.000   28.332866931  -16.453985762  1209.5737   2   7   0.0332   0.0645   0.2050   0.0245   0.0837   0.0716  -5.00    0.0
2024/05/06 16:47:56.000   28.332866933  -16.453985768  1209.5741   2   7   0.0332   0.0645   0.2050   0.0245   0.0837   0.0716  -4.00    0.0
2024/05/06 16:47:57.000   28.332866934  -16.453985774  1209.5747   2   7   0.0333   0.0645   0.2050   0.0245   0.0837   0.0716  -3.00    0.0
2024/05/06 16:47:58.000   28.332866936  -16.453985779  1209.5757   2   7   0.0333   0.0645   0.2050   0.0245   0.0837   0.0717  -2.00    0.0
2024/05/06 16:47:59.000   28.332866936  -16.453985786  1209.5760   2   7   0.0333   0.0645   0.2051   0.0245   0.0836   0.0717  -1.00    0.0
2024/05/06 16:48:00.000   28.332866939  -16.453985785  1209.5792   2   7   0.0333   0.0645   0.2052   0.0245   0.0836   0.0717   0.00    0.0
2024/05/06 16:48:01.000   28.332866942  -16.453985785  1209.5804   2   7   0.0333   0.0644   0.2052   0.0245   0.0836   0.0717   1.00    0.0
2024/05/06 16:48:02.000   28.332866940  -16.453985787  1209.5792   2   7   0.0333   0.0644   0.2052   0.0245   0.0836   0.0717   2.00    0.0
2024/05/06 16:48:03.000   28.332866942  -16.453985788  1209.5797   2   7   0.0333   0.0644   0.2053   0.0245   0.0835   0.0717   3.00    0.0
2024/05/06 16:48:04.000   28.332866943  -16.453985789  1209.5799   2   7   0.0333   0.0644   0.2053   0.0245   0.0835   0.0717   4.00    0.0
2024/05/06 16:48:05.000   28.332866944  -16.453985789  1209.5800   2   7   0.0333   0.0644   0.2054   0.0245   0.0835   0.0717   5.00    0.0
2024/05/06 16:48:06.000   28.332866946  -16.453985788  1209.5806   2   7   0.0333   0.0644   0.2054   0.0244   0.0835   0.0718   6.00    0.0
2024/05/06 16:48:07.000   28.332866946  -16.453985788  1209.5809   2   7   0.0333   0.0644   0.2054   0.0244   0.0835   0.0718   7.00    0.0
2024/05/06 16:48:08.000   28.332866947  -16.453985787  1209.5814   2   7   0.0333   0.0644   0.2054   0.0244   0.0835   0.0718   8.00    0.0
2024/05/06 16:48:09.000   28.332866948  -16.453985787  1209.5817   2   7   0.0334   0.0644   0.2054   0.0244   0.0835   0.0718   9.00    0.0
2024/05/06 16:48:10.000   28.332866949  -16.453985787  1209.5821   2   7   0.0334   0.0644   0.2054   0.0244   0.0834   0.0718  10.00    0.0
2024/05/06 16:48:11.000   28.332866949  -16.453985786  1209.5825   2   7   0.0334   0.0644   0.2055   0.0244   0.0834   0.0718  11.00    0.0
2024/05/06 16:48:12.000   28.332866949  -16.453985785  1209.5829   2   7   0.0334   0.0644   0.2055   0.0244   0.0834   0.0718  12.00    0.0
2024/05/06 16:48:13.000   28.332866950  -16.453985784  1209.5833   2   7   0.0334   0.0644   0.2055   0.0244   0.0834   0.0718  13.00    0.0
2024/05/06 16:48:14.000   28.332866950  -16.453985782  1209.5836   2   7   0.0334   0.0644   0.2055   0.0244   0.0834   0.0718  14.00    0.0
2024/05/06 16:48:15.000   28.332866950  -16.453985781  1209.5840   2   7   0.0334   0.0644   0.2055   0.0244   0.0834   0.0718 -15.00    0.0
2024/05/06 16:48:16.000   28.332866951  -16.453985778  1209.5845   2   7   0.0334   0.0644   0.2055   0.0244   0.0834   0.0718 -14.00    0.0
2024/05/06 16:48:17.000   28.332866951  -16.453985776  1209.5850   2   7   0.0334   0.0644   0.2055   0.0244   0.0834   0.0718 -13.00    0.0
2024/05/06 16:48:18.000   28.332866950  -16.453985775  1209.5853   2   7   0.0334   0.0644   0.2055   0.0244   0.0834   0.0718 -12.00    0.0
2024/05/06 16:48:19.000   28.332866951  -16.453985773  1209.5860   2   7   0.0334   0.0644   0.2055   0.0244   0.0834   0.0718 -11.00    0.0
2024/05/06 16:48:20.000   28.332866951  -16.453985769  1209.5870   2   7   0.0334   0.0644   0.2055   0.0244   0.0833   0.0718 -10.00    0.0
2024/05/06 16:48:21.000   28.332866952  -16.453985767  1209.5879   2   7   0.0334   0.0643   0.2055   0.0244   0.0833   0.0718  -9.00    0.0
2024/05/06 16:48:22.000   28.332866953  -16.453985765  1209.5888   2   7   0.0334   0.0643   0.2055   0.0244   0.0833   0.0718  -8.00    0.0
2024/05/06 16:48:23.000   28.332866954  -16.453985763  1209.5899   2   7   0.0334   0.0643   0.2055   0.0244   0.0833   0.0718  -7.00    0.0
2024/05/06 16:48:24.000   28.332866955  -16.453985760  1209.5915   2   7   0.0334   0.0643   0.2055   0.0244   0.0833   0.0718  -6.00    0.0
2024/05/06 16:48:25.000   28.332866958  -16.453985758  1209.5934   2   7   0.0334   0.0643   0.2055   0.0244   0.0833   0.0718  -5.00    0.0
2024/05/06 16:48:26.000   28.332866961  -16.453985757  1209.5961   2   7   0.0334   0.0643   0.2055   0.0244   0.0833   0.0718  -4.00    0.0
2024/05/06 16:48:27.000   28.332866963  -16.453985759  1209.5990   2   7   0.0334   0.0643   0.2055   0.0244   0.0832   0.0718  -3.00    0.0
2024/05/06 16:48:28.000   28.332866965  -16.453985762  1209.6026   2   7   0.0334   0.0643   0.2055   0.0243   0.0832   0.0718  -2.00    0.0
2024/05/06 16:48:29.000   28.332866966  -16.453985769  1209.6057   2   7   0.0334   0.0643   0.2056   0.0243   0.0832   0.0718  -1.00    0.0
2024/05/06 16:48:30.000   28.332866970  -16.453985771  1209.6126   2   7   0.0334   0.0643   0.2057   0.0243   0.0832   0.0718   0.00    0.0
2024/05/06 16:48:31.000   28.332866973  -16.453985773  1209.6176   2   7   0.0334   0.0643   0.2057   0.0243   0.0832   0.0718   1.00    0.0
2024/05/06 16:48:32.000   28.332866975  -16.453985779  1209.6205   2   7   0.0334   0.0643   0.2057   0.0243   0.0831   0.0718   2.00    0.0
2024/05/06 16:48:33.000   28.332866975  -16.453985783  1209.6233   2   7   0.0334   0.0643   0.2058   0.0243   0.0831   0.0718   3.00    0.0
2024/05/06 16:48:34.000   28.332866975  -16.453985787  1209.6255   2   7   0.0334   0.0643   0.2058   0.0243   0.0831   0.0719   4.00    0.0
2024/05/06 16:48:35.000   28.332866974  -16.453985792  1209.6273   2   7   0.0334   0.0643   0.2058   0.0243   0.0831   0.0719   5.00    0.0
2024/05/06 16:48:36.000   28.332866973  -16.453985796  1209.6288   2   7   0.0334   0.0643   0.2059   0.0243   0.0831   0.0719   6.00    0.0
2024/05/06 16:48:37.000   28.332866972  -16.453985801  1209.6295   2   7   0.0334   0.0643   0.2059   0.0243   0.0831   0.0719   7.00    0.0
2024/05/06 16:48:38.000   28.332866971  -16.453985806  1209.6302   2   7   0.0334   0.0643   0.2059   0.0243   0.0831   0.0719   8.00    0.0
2024/05/06 16:48:39.000   28.332866971  -16.453985810  1209.6309   2   7   0.0334   0.0642   0.2059   0.0243   0.0831   0.0719   9.00    0.0
2024/05/06 16:48:40.000   28.332866971  -16.453985814  1209.6313   2   7   0.0334   0.0642   0.2059   0.0243   0.0830   0.0719  10.00    0.0
2024/05/06 16:48:41.000   28.332866970  -16.453985817  1209.6312   2   7   0.0334   0.0642   0.2059   0.0243   0.0830   0.0719  11.00    0.0
2024/05/06 16:48:42.000   28.332866970  -16.453985821  1209.6310   2   7   0.0334   0.0642   0.2059   0.0243   0.0830   0.0719  12.00    0.0
2024/05/06 16:48:43.000   28.332866970  -16.453985826  1209.6309   2   7   0.0334   0.0642   0.2059   0.0243   0.0830   0.0719  13.00    0.0
2024/05/06 16:48:44.000   28.332866970  -16.453985829  1209.6309   2   7   0.0334   0.0642   0.2059   0.0243   0.0830   0.0719  14.00    0.0
2024/05/06 16:48:45.000   28.332866970  -16.453985833  1209.6309   2   7   0.0334   0.0642   0.2059   0.0243   0.0830   0.0719 -15.00    0.0
2024/05/06 16:48:46.000   28.332866970  -16.453985836  1209.6310   2   7   0.0334   0.0642   0.2059   0.0243   0.0830   0.0719 -14.00    0.0
2024/05/06 16:48:47.000   28.332866971  -16.453985838  1209.6313   2   7   0.0334   0.0642   0.2059   0.0243   0.0830   0.0719 -13.00    0.0
2024/05/06 16:48:48.000   28.332866971  -16.453985840  1209.6316   2   7   0.0334   0.0642   0.2059   0.0243   0.0830   0.0719 -12.00    0.0
2024/05/06 16:48:49.000   28.332866971  -16.453985842  1209.6319   2   7   0.0334   0.0642   0.2059   0.0243   0.0830   0.0719 -11.00    0.0
2024/05/06 16:48:50.000   28.332866971  -16.453985844  1209.6321   2   7   0.0334   0.0642   0.2059   0.0243   0.0830   0.0719 -10.00    0.0
2024/05/06 16:48:51.000   28.332866972  -16.453985846  1209.6326   2   7   0.0334   0.0642   0.2059   0.0242   0.0829   0.0719  -9.00    0.0
2024/05/06 16:48:52.000   28.332866972  -16.453985847  1209.6334   2   7   0.0334   0.0642   0.2059   0.0242   0.0829   0.0719  -8.00    0.0
2024/05/06 16:48:53.000   28.332866973  -16.453985848  1209.6343   2   7   0.0334   0.0642   0.2059   0.0242   0.0829   0.0719  -7.00    0.0
2024/05/06 16:48:54.000   28.332866974  -16.453985849  1209.6355   2   7   0.0334   0.0642   0.2059   0.0242   0.0829   0.0719  -6.00    0.0
2024/05/06 16:48:55.000   28.332866976  -16.453985850  1209.6369   2   7   0.0334   0.0642   0.2060   0.0242   0.0829   0.0719  -5.00    0.0
2024/05/06 16:48:56.000   28.332866979  -16.453985852  1209.6386   2   7   0.0334   0.0641   0.2060   0.0242   0.0829   0.0719  -4.00    0.0
2024/05/06 16:48:57.000   28.332866981  -16.453985855  1209.6397   2   7   0.0334   0.0641   0.2060   0.0242   0.0829   0.0719  -3.00    0.0
2024/05/06 16:48:58.000   28.332866982  -16.453985861  1209.6399   2   7   0.0334   0.0641   0.2060   0.0242   0.0828   0.0719  -2.00    0.0
2024/05/06 16:48:59.000   28.332866984  -16.453985864  1209.6426   2   7   0.0334   0.0641   0.2060   0.0242   0.0828   0.0719  -1.00    0.0
2024/05/06 16:49:00.000   28.332866987  -16.453985864  1209.6456   2   7   0.0335   0.0641   0.2061   0.0242   0.0828   0.0719   0.00    0.0
2024/05/06 16:49:01.000   28.332866991  -16.453985865  1209.6488   2   7   0.0335   0.0641   0.2061   0.0242   0.0828   0.0719   1.00    0.0
2024/05/06 16:49:02.000   28.332866994  -16.453985867  1209.6512   2   7   0.0335   0.0641   0.2062   0.0242   0.0828   0.0719   2.00    0.0
2024/05/06 16:49:03.000   28.332866992  -16.453985870  1209.6528   2   7   0.0335   0.0641   0.2062   0.0242   0.0828   0.0719   3.00    0.0
2024/05/06 16:49:04.000   28.332866991  -16.453985872  1209.6549   2   7   0.0335   0.0641   0.2062   0.0242   0.0828   0.0719   4.00    0.0
2024/05/06 16:49:05.000   28.332866992  -16.453985874  1209.6570   2   7   0.0335   0.0641   0.2063   0.0242   0.0828   0.0719   5.00    0.0
2024/05/06 16:49:06.000   28.332866994  -16.453985874  1209.6596   2   7   0.0335   0.0641   0.2063   0.0242   0.0827   0.0719   6.00    0.0
2024/05/06 16:49:07.000   28.332866994  -16.453985876  1209.6612   2   7   0.0335   0.0641   0.2063   0.0242   0.0827   0.0719   7.00    0.0
2024/05/06 16:49:08.000   28.332866995  -16.453985878  1209.6629   2   7   0.0335   0.0641   0.2063   0.0242   0.0827   0.0719   8.00    0.0
2024/05/06 16:49:09.000   28.332866997  -16.453985878  1209.6645   2   7   0.0335   0.0641   0.2063   0.0242   0.0827   0.0719   9.00    0.0
2024/05/06 16:49:10.000   28.332866997  -16.453985878  1209.6659   2   7   0.0335   0.0641   0.2063   0.0242   0.0827   0.0719  10.00    0.0
2024/05/06 16:49:11.000   28.332866998  -16.453985878  1209.6673   2   7   0.0335   0.0641   0.2064   0.0242   0.0827   0.0720  11.00    1.0
2024/05/06 16:49:12.000   28.332866999  -16.453985878  1209.6683   2   7   0.0335   0.0641   0.2064   0.0242   0.0827   0.0720  12.00    1.0
2024/05/06 16:49:13.000   28.332867000  -16.453985876  1209.6698   2   7   0.0335   0.0640   0.2064   0.0241   0.0827   0.0720  13.00    1.1
2024/05/06 16:49:14.000   28.332867001  -16.453985875  1209.6708   2   7   0.0335   0.0640   0.2064   0.0241   0.0827   0.0720  14.00    1.1
2024/05/06 16:49:15.000   28.332867001  -16.453985876  1209.6715   2   7   0.0335   0.0640   0.2064   0.0241   0.0827   0.0720 -15.00    1.0
2024/05/06 16:49:16.000   28.332867001  -16.453985876  1209.6722   2   7   0.0335   0.0640   0.2064   0.0241   0.0827   0.0719 -14.00    1.0
2024/05/06 16:49:17.000   28.332867001  -16.453985876  1209.6727   2   7   0.0335   0.0640   0.2064   0.0241   0.0827   0.0719 -13.00    1.0
2024/05/06 16:49:18.000   28.332867001  -16.453985877  1209.6732   2   7   0.0335   0.0640   0.2064   0.0241   0.0826   0.0719 -12.00    1.0
2024/05/06 16:49:19.000   28.332867001  -16.453985877  1209.6740   2   7   0.0335   0.0640   0.2064   0.0241   0.0826   0.0719 -11.00    1.0
2024/05/06 16:49:20.000   28.332867001  -16.453985878  1209.6746   2   7   0.0335   0.0640   0.2064   0.0241   0.0826   0.0719 -10.00    1.0
2024/05/06 16:49:21.000   28.332867001  -16.453985881  1209.6753   2   7   0.0335   0.0640   0.2064   0.0241   0.0826   0.0719  -9.00    1.1
2024/05/06 16:49:22.000   28.332867002  -16.453985882  1209.6764   2   7   0.0335   0.0640   0.2064   0.0241   0.0826   0.0719  -8.00    1.0
2024/05/06 16:49:23.000   28.332867002  -16.453985884  1209.6777   2   7   0.0335   0.0640   0.2063   0.0241   0.0826   0.0719  -7.00    1.0
2024/05/06 16:49:24.000   28.332867002  -16.453985887  1209.6789   2   7   0.0335   0.0640   0.2064   0.0241   0.0826   0.0719  -6.00    1.0
2024/05/06 16:49:25.000   28.332867003  -16.453985892  1209.6803   2   7   0.0335   0.0640   0.2064   0.0241   0.0826   0.0719  -5.00    1.0
2024/05/06 16:49:26.000   28.332867003  -16.453985897  1209.6823   2   7   0.0335   0.0640   0.2064   0.0241   0.0826   0.0719  -4.00    1.0
2024/05/06 16:49:27.000   28.332867004  -16.453985904  1209.6843   2   7   0.0335   0.0640   0.2064   0.0241   0.0826   0.0719  -3.00    1.0
2024/05/06 16:49:28.000   28.332867006  -16.453985910  1209.6869   2   7   0.0335   0.0640   0.2064   0.0241   0.0825   0.0719  -2.00    1.1
2024/05/06 16:49:29.000   28.332867007  -16.453985918  1209.6897   2   7   0.0335   0.0639   0.2064   0.0241   0.0825   0.0719  -1.00    1.0
2024/05/06 16:49:30.000   28.332867009  -16.453985923  1209.6939   2   7   0.0335   0.0639   0.2065   0.0241   0.0825   0.0720   0.00    1.0
2024/05/06 16:49:31.000   28.332867010  -16.453985933  1209.6958   2   7   0.0335   0.0639   0.2065   0.0241   0.0825   0.0719   1.00    1.0
2024/05/06 16:49:32.000   28.332867009  -16.453985941  1209.6964   2   7   0.0335   0.0639   0.2065   0.0241   0.0825   0.0719   2.00    1.0
2024/05/06 16:49:33.000   28.332867008  -16.453985944  1209.6978   2   7   0.0335   0.0639   0.2066   0.0241   0.0825   0.0720   3.00    1.0
2024/05/06 16:49:34.000   28.332867007  -16.453985947  1209.6981   2   7   0.0335   0.0639   0.2066   0.0241   0.0825   0.0720   4.00    1.0
