% program   : RTKPOST-EX 2.5.0
% inp file  : C:\Users\SallyHenry\Desktop\Sally Internship\GNSS gravi\DATA\Survey Rover Obs\GUI04.24o
% inp file  : C:\Users\SallyHenry\Desktop\Sally Internship\GNSS gravi\DATA\BaseStations\IZAN\IZAN00ESP_R_20241270000_01D_30S_MO.rnx
% inp file  : C:\Users\SallyHenry\Desktop\Sally Internship\GNSS gravi\DATA\BaseStations\IZAN\IZAN00ESP_R_20241270000_01D_MN.rnx
% inp file  : C:\Users\SallyHenry\Desktop\Sally Internship\GNSS gravi\DATA\aux_files\Survey\IGS0OPSFIN_20241270000_01D_15M_ORB.SP3
% inp file  : C:\Users\SallyHenry\Desktop\Sally Internship\GNSS gravi\DATA\aux_files\Survey\IGS0OPSFIN_20241270000_01D_30S_CLK.CLK
% obs start : 2024/05/06 15:34:02.0 GPST (week2313 142442.0s)
% obs end   : 2024/05/06 15:49:03.0 GPST (week2313 143343.0s)
% pos mode  : Static
% freqs     : L1+L2/E5b
% solution  : Combined-No Phase Reset
% elev mask : 15.0 deg
% dynamics  : on
% tidecorr  : solid
% ionos opt : Estimate TEC
% tropo opt : Estimate ZTD+Grad
% ephemeris : Precise
% navi sys  : GPS GLONASS Galileo QZSS BDS
% amb res   : Fix and Hold
% amb glo   : Fix and Hold
% amb bds   : on
% val thres : 3.0
% antenna1  :                       ( 0.0000  0.0000  1.8000)
% antenna2  :                       ( 0.0000  0.0000  0.0000)
% ref pos   :  28.308069410  -16.499677180  2417.4044
%
% (lat/lon/height=WGS84/ellipsoidal,Q=1:fix,2:float,3:sbas,4:dgps,5:single,6:ppp,ns=# of satellites)
%  GPST                  latitude(deg) longitude(deg)  height(m)   Q  ns   sdn(m)   sde(m)   sdu(m)  sdne(m)  sdeu(m)  sdun(m) age(s)  ratio
2024/05/06 15:34:02.000   28.342091840  -16.459007104  1496.8796   1   6   0.0018   0.0017   0.0122   0.0002   0.0019   0.0028   2.00   80.5
2024/05/06 15:34:03.000   28.342091839  -16.459007104  1496.8793   1   6   0.0018   0.0017   0.0123   0.0002   0.0019   0.0028   3.00   80.6
2024/05/06 15:34:04.000   28.342091839  -16.459007103  1496.8790   1   6   0.0018   0.0017   0.0123   0.0002   0.0019   0.0028   4.00   80.0
2024/05/06 15:34:05.000   28.342091839  -16.459007103  1496.8787   1   6   0.0018   0.0017   0.0123   0.0002   0.0019   0.0028   5.00   79.0
2024/05/06 15:34:06.000   28.342091838  -16.459007103  1496.8785   1   6   0.0018   0.0017   0.0123   0.0002   0.0019   0.0028   6.00   78.0
2024/05/06 15:34:07.000   28.342091838  -16.459007103  1496.8782   1   6   0.0018   0.0017   0.0123   0.0002   0.0019   0.0028   7.00   77.1
2024/05/06 15:34:08.000   28.342091838  -16.459007103  1496.8779   1   6   0.0018   0.0017   0.0123   0.0002   0.0019   0.0028   8.00   76.7
2024/05/06 15:34:09.000   28.342091838  -16.459007103  1496.8778   1   6   0.0018   0.0017   0.0123   0.0002   0.0019   0.0028   9.00   75.4
2024/05/06 15:34:10.000   28.342091838  -16.459007103  1496.8776   1   6   0.0018   0.0017   0.0123   0.0002   0.0019   0.0028  10.00   74.4
2024/05/06 15:34:11.000   28.342091838  -16.459007103  1496.8774   1   6   0.0018   0.0017   0.0123   0.0002   0.0019   0.0028  11.00   73.4
2024/05/06 15:34:12.000   28.342091837  -16.459007103  1496.8772   1   6   0.0018   0.0017   0.0123   0.0002   0.0019   0.0028  12.00   72.3
2024/05/06 15:34:13.000   28.342091837  -16.459007103  1496.8771   1   6   0.0018   0.0017   0.0124   0.0002   0.0019   0.0028  13.00   71.2
2024/05/06 15:34:14.000   28.342091837  -16.459007103  1496.8769   1   6   0.0018   0.0017   0.0124   0.0002   0.0019   0.0028  14.00   69.9
2024/05/06 15:34:15.000   28.342091837  -16.459007103  1496.8768   1   6   0.0018   0.0017   0.0124   0.0002   0.0019   0.0028  15.00   68.6
2024/05/06 15:34:16.000   28.342091837  -16.459007103  1496.8767   1   6   0.0018   0.0017   0.0124   0.0002   0.0019   0.0028 -14.00   67.5
2024/05/06 15:34:17.000   28.342091837  -16.459007103  1496.8765   1   6   0.0018   0.0017   0.0124   0.0002   0.0019   0.0028 -13.00   66.4
2024/05/06 15:34:18.000   28.342091837  -16.459007103  1496.8763   1   6   0.0018   0.0017   0.0124   0.0002   0.0019   0.0028 -12.00   65.2
2024/05/06 15:34:19.000   28.342091837  -16.459007103  1496.8762   1   6   0.0018   0.0017   0.0124   0.0002   0.0019   0.0028 -11.00   63.9
2024/05/06 15:34:20.000   28.342091837  -16.459007103  1496.8760   1   6   0.0018   0.0017   0.0124   0.0002   0.0019   0.0028 -10.00   62.2
2024/05/06 15:34:21.000   28.342091836  -16.459007103  1496.8758   1   6   0.0018   0.0017   0.0124   0.0002   0.0020   0.0028  -9.00   60.7
2024/05/06 15:34:22.000   28.342091836  -16.459007103  1496.8755   1   6   0.0018   0.0017   0.0124   0.0002   0.0020   0.0028  -8.00   59.1
2024/05/06 15:34:23.000   28.342091836  -16.459007103  1496.8752   1   6   0.0018   0.0017   0.0124   0.0002   0.0020   0.0028  -7.00   57.3
2024/05/06 15:34:24.000   28.342091836  -16.459007103  1496.8749   1   6   0.0018   0.0017   0.0124   0.0002   0.0020   0.0028  -6.00   54.9
2024/05/06 15:34:25.000   28.342091836  -16.459007103  1496.8746   1   6   0.0018   0.0017   0.0124   0.0002   0.0020   0.0028  -5.00   51.1
2024/05/06 15:34:26.000   28.342091835  -16.459007103  1496.8742   1   6   0.0018   0.0017   0.0124   0.0002   0.0020   0.0028  -4.00   45.6
2024/05/06 15:34:27.000   28.342091835  -16.459007103  1496.8738   1   6   0.0018   0.0017   0.0125   0.0002   0.0020   0.0028  -3.00   38.3
2024/05/06 15:34:28.000   28.342091835  -16.459007103  1496.8733   1   6   0.0018   0.0017   0.0125   0.0002   0.0020   0.0028  -2.00   29.5
2024/05/06 15:34:29.000   28.342091835  -16.459007103  1496.8728   1   6   0.0018   0.0017   0.0125   0.0002   0.0020   0.0028  -1.00   17.1
2024/05/06 15:34:30.000   28.342091839  -16.459007102  1496.8810   1   6   0.0018   0.0017   0.0122   0.0002   0.0019   0.0027   0.00   79.2
2024/05/06 15:34:31.000   28.342091839  -16.459007102  1496.8809   1   6   0.0018   0.0017   0.0122   0.0002   0.0019   0.0027   1.00   78.6
2024/05/06 15:34:32.000   28.342091839  -16.459007102  1496.8807   1   6   0.0018   0.0017   0.0122   0.0002   0.0019   0.0028   2.00   78.3
2024/05/06 15:34:33.000   28.342091838  -16.459007102  1496.8805   1   6   0.0018   0.0017   0.0122   0.0002   0.0019   0.0028   3.00   78.4
2024/05/06 15:34:34.000   28.342091838  -16.459007102  1496.8803   1   6   0.0018   0.0017   0.0123   0.0002   0.0019   0.0028   4.00   78.3
2024/05/06 15:34:35.000   28.342091838  -16.459007102  1496.8801   1   6   0.0018   0.0017   0.0123   0.0002   0.0019   0.0028   5.00   78.3
2024/05/06 15:34:36.000   28.342091838  -16.459007102  1496.8799   1   6   0.0018   0.0017   0.0123   0.0002   0.0019   0.0028   6.00   78.1
2024/05/06 15:34:37.000   28.342091838  -16.459007102  1496.8797   1   6   0.0018   0.0017   0.0123   0.0002   0.0020   0.0028   7.00   77.0
2024/05/06 15:34:38.000   28.342091838  -16.459007102  1496.8795   1   6   0.0018   0.0017   0.0123   0.0002   0.0020   0.0028   8.00   76.4
2024/05/06 15:34:39.000   28.342091838  -16.459007102  1496.8793   1   6   0.0018   0.0017   0.0123   0.0002   0.0020   0.0028   9.00   75.5
2024/05/06 15:34:40.000   28.342091838  -16.459007101  1496.8791   1   6   0.0018   0.0017   0.0123   0.0002   0.0020   0.0028  10.00   74.5
2024/05/06 15:34:41.000   28.342091838  -16.459007101  1496.8790   1   6   0.0018   0.0017   0.0123   0.0002   0.0020   0.0028  11.00   73.4
2024/05/06 15:34:42.000   28.342091838  -16.459007101  1496.8788   1   6   0.0018   0.0017   0.0123   0.0002   0.0020   0.0028  12.00   72.3
2024/05/06 15:34:43.000   28.342091838  -16.459007101  1496.8787   1   6   0.0018   0.0017   0.0123   0.0002   0.0020   0.0028  13.00   71.4
2024/05/06 15:34:44.000   28.342091838  -16.459007101  1496.8785   1   6   0.0018   0.0017   0.0123   0.0002   0.0020   0.0028  14.00   70.3
2024/05/06 15:34:45.000   28.342091838  -16.459007101  1496.8784   1   6   0.0018   0.0017   0.0123   0.0002   0.0020   0.0028  15.00   69.0
2024/05/06 15:34:46.000   28.342091838  -16.459007101  1496.8783   1   6   0.0018   0.0017   0.0123   0.0002   0.0020   0.0028 -14.00   67.7
2024/05/06 15:34:47.000   28.342091838  -16.459007101  1496.8781   1   6   0.0018   0.0017   0.0123   0.0002   0.0020   0.0028 -13.00   66.4
2024/05/06 15:34:48.000   28.342091837  -16.459007101  1496.8780   1   6   0.0018   0.0017   0.0123   0.0002   0.0020   0.0028 -12.00   65.0
2024/05/06 15:34:49.000   28.342091837  -16.459007101  1496.8778   1   6   0.0018   0.0017   0.0123   0.0002   0.0020   0.0028 -11.00   63.4
2024/05/06 15:34:50.000   28.342091837  -16.459007101  1496.8777   1   6   0.0018   0.0017   0.0124   0.0002   0.0020   0.0028 -10.00   61.6
2024/05/06 15:34:51.000   28.342091837  -16.459007101  1496.8774   1   6   0.0018   0.0017   0.0124   0.0002   0.0020   0.0028  -9.00   60.0
2024/05/06 15:34:52.000   28.342091837  -16.459007101  1496.8772   1   6   0.0018   0.0017   0.0124   0.0002   0.0020   0.0028  -8.00   58.3
2024/05/06 15:34:53.000   28.342091837  -16.459007101  1496.8769   1   6   0.0018   0.0017   0.0124   0.0002   0.0020   0.0028  -7.00   56.1
2024/05/06 15:34:54.000   28.342091837  -16.459007101  1496.8767   1   6   0.0018   0.0017   0.0124   0.0002   0.0020   0.0028  -6.00   52.6
2024/05/06 15:34:55.000   28.342091836  -16.459007101  1496.8763   1   6   0.0018   0.0017   0.0124   0.0002   0.0020   0.0028  -5.00   48.6
2024/05/06 15:34:56.000   28.342091836  -16.459007101  1496.8760   1   6   0.0018   0.0017   0.0124   0.0002   0.0020   0.0028  -4.00   42.7
2024/05/06 15:34:57.000   28.342091836  -16.459007101  1496.8756   1   6   0.0018   0.0017   0.0125   0.0002   0.0020   0.0028  -3.00   36.5
2024/05/06 15:34:58.000   28.342091836  -16.459007101  1496.8753   1   6   0.0018   0.0017   0.0125   0.0002   0.0020   0.0028  -2.00   28.1
2024/05/06 15:34:59.000   28.342091836  -16.459007101  1496.8749   1   6   0.0018   0.0017   0.0125   0.0002   0.0020   0.0028  -1.00   16.8
2024/05/06 15:35:00.000   28.342091839  -16.459007100  1496.8816   1   6   0.0018   0.0017   0.0122   0.0002   0.0020   0.0027   0.00  101.0
2024/05/06 15:35:01.000   28.342091839  -16.459007100  1496.8815   1   6   0.0018   0.0017   0.0122   0.0002   0.0020   0.0027   1.00  101.8
2024/05/06 15:35:02.000   28.342091839  -16.459007100  1496.8815   1   6   0.0018   0.0017   0.0122   0.0002   0.0020   0.0027   2.00  102.9
2024/05/06 15:35:03.000   28.342091839  -16.459007100  1496.8814   1   6   0.0018   0.0017   0.0122   0.0002   0.0020   0.0027   3.00  103.2
2024/05/06 15:35:04.000   28.342091839  -16.459007100  1496.8812   1   6   0.0018   0.0017   0.0122   0.0002   0.0020   0.0027   4.00  103.8
2024/05/06 15:35:05.000   28.342091839  -16.459007100  1496.8811   1   6   0.0018   0.0017   0.0123   0.0002   0.0020   0.0028   5.00  103.1
2024/05/06 15:35:06.000   28.342091838  -16.459007100  1496.8810   1   6   0.0018   0.0017   0.0123   0.0002   0.0020   0.0028   6.00  102.4
2024/05/06 15:35:07.000   28.342091838  -16.459007100  1496.8808   1   6   0.0018   0.0017   0.0123   0.0002   0.0020   0.0028   7.00  101.7
2024/05/06 15:35:08.000   28.342091838  -16.459007100  1496.8807   1   6   0.0018   0.0017   0.0123   0.0002   0.0020   0.0028   8.00  100.6
2024/05/06 15:35:09.000   28.342091838  -16.459007100  1496.8805   1   6   0.0018   0.0017   0.0123   0.0002   0.0020   0.0028   9.00   99.5
2024/05/06 15:35:10.000   28.342091837  -16.459007101  1496.8804   1   6   0.0018   0.0017   0.0123   0.0002   0.0020   0.0028  10.00   98.3
2024/05/06 15:35:11.000   28.342091837  -16.459007101  1496.8802   1   6   0.0018   0.0017   0.0123   0.0002   0.0020   0.0028  11.00   96.9
2024/05/06 15:35:12.000   28.342091837  -16.459007101  1496.8794   1   7   0.0018   0.0016   0.0118  -0.0001   0.0017   0.0026  12.00   96.1
2024/05/06 15:35:13.000   28.342091837  -16.459007101  1496.8791   1   7   0.0018   0.0016   0.0118  -0.0001   0.0017   0.0026  13.00   90.4
2024/05/06 15:35:14.000   28.342091836  -16.459007102  1496.8782   1   7   0.0018   0.0016   0.0110  -0.0003   0.0014   0.0025  14.00   89.4
2024/05/06 15:35:15.000   28.342091836  -16.459007102  1496.8781   1   7   0.0018   0.0016   0.0110  -0.0003   0.0014   0.0025  15.00   88.1
2024/05/06 15:35:16.000   28.342091836  -16.459007102  1496.8781   1   7   0.0018   0.0016   0.0110  -0.0003   0.0014   0.0025 -14.00   86.7
2024/05/06 15:35:17.000   28.342091836  -16.459007102  1496.8780   1   7   0.0018   0.0016   0.0110  -0.0003   0.0014   0.0025 -13.00   85.1
2024/05/06 15:35:18.000   28.342091836  -16.459007102  1496.8779   1   7   0.0018   0.0016   0.0110  -0.0003   0.0014   0.0025 -12.00   83.4
2024/05/06 15:35:19.000   28.342091836  -16.459007102  1496.8778   1   7   0.0018   0.0016   0.0110  -0.0003   0.0014   0.0025 -11.00   81.7
2024/05/06 15:35:20.000   28.342091836  -16.459007102  1496.8777   1   7   0.0018   0.0016   0.0110  -0.0003   0.0014   0.0025 -10.00   79.3
2024/05/06 15:35:21.000   28.342091836  -16.459007102  1496.8775   1   7   0.0018   0.0016   0.0110  -0.0003   0.0014   0.0025  -9.00   77.1
2024/05/06 15:35:22.000   28.342091836  -16.459007102  1496.8774   1   7   0.0018   0.0016   0.0110  -0.0003   0.0014   0.0025  -8.00   74.6
2024/05/06 15:35:23.000   28.342091836  -16.459007102  1496.8773   1   7   0.0018   0.0016   0.0110  -0.0003   0.0014   0.0025  -7.00   71.2
2024/05/06 15:35:24.000   28.342091836  -16.459007102  1496.8771   1   7   0.0018   0.0016   0.0110  -0.0003   0.0014   0.0025  -6.00   67.0
2024/05/06 15:35:25.000   28.342091835  -16.459007102  1496.8770   1   7   0.0018   0.0016   0.0111  -0.0003   0.0014   0.0025  -5.00   62.4
2024/05/06 15:35:26.000   28.342091835  -16.459007102  1496.8768   1   7   0.0018   0.0016   0.0111  -0.0003   0.0014   0.0025  -4.00   55.7
2024/05/06 15:35:27.000   28.342091835  -16.459007102  1496.8766   1   7   0.0018   0.0016   0.0111  -0.0003   0.0014   0.0025  -3.00   47.0
2024/05/06 15:35:28.000   28.342091835  -16.459007102  1496.8764   1   7   0.0018   0.0016   0.0111  -0.0003   0.0014   0.0025  -2.00   36.2
2024/05/06 15:35:29.000   28.342091835  -16.459007102  1496.8762   1   7   0.0018   0.0016   0.0111  -0.0003   0.0013   0.0025  -1.00   21.1
2024/05/06 15:35:30.000   28.342091837  -16.459007103  1496.8801   1   7   0.0018   0.0016   0.0109  -0.0003   0.0014   0.0025   0.00  144.7
2024/05/06 15:35:31.000   28.342091837  -16.459007103  1496.8802   1   7   0.0018   0.0016   0.0109  -0.0002   0.0014   0.0025   1.00  146.3
2024/05/06 15:35:32.000   28.342091838  -16.459007103  1496.8801   1   7   0.0018   0.0016   0.0109  -0.0002   0.0014   0.0025   2.00  148.3
2024/05/06 15:35:33.000   28.342091838  -16.459007103  1496.8801   1   7   0.0018   0.0016   0.0110  -0.0002   0.0014   0.0025   3.00  148.5
2024/05/06 15:35:34.000   28.342091838  -16.459007103  1496.8801   1   7   0.0018   0.0016   0.0110  -0.0002   0.0014   0.0025   4.00  147.2
2024/05/06 15:35:35.000   28.342091838  -16.459007103  1496.8801   1   7   0.0018   0.0016   0.0110  -0.0002   0.0014   0.0025   5.00  147.1
2024/05/06 15:35:36.000   28.342091838  -16.459007103  1496.8800   1   7   0.0018   0.0016   0.0110  -0.0002   0.0014   0.0025   6.00  145.4
2024/05/06 15:35:37.000   28.342091838  -16.459007103  1496.8800   1   7   0.0018   0.0016   0.0110  -0.0002   0.0014   0.0025   7.00  144.5
2024/05/06 15:35:38.000   28.342091838  -16.459007103  1496.8799   1   7   0.0018   0.0016   0.0110  -0.0002   0.0014   0.0025   8.00  142.7
2024/05/06 15:35:39.000   28.342091838  -16.459007103  1496.8799   1   7   0.0018   0.0016   0.0110  -0.0002   0.0014   0.0025   9.00  140.4
2024/05/06 15:35:40.000   28.342091838  -16.459007103  1496.8798   1   7   0.0018   0.0016   0.0110  -0.0002   0.0014   0.0025  10.00  138.2
2024/05/06 15:35:41.000   28.342091838  -16.459007103  1496.8798   1   7   0.0018   0.0016   0.0110  -0.0002   0.0014   0.0025  11.00  136.3
2024/05/06 15:35:42.000   28.342091838  -16.459007103  1496.8797   1   7   0.0018   0.0016   0.0110  -0.0002   0.0014   0.0025  12.00  134.8
2024/05/06 15:35:43.000   28.342091838  -16.459007103  1496.8797   1   7   0.0018   0.0016   0.0110  -0.0002   0.0014   0.0025  13.00  132.6
2024/05/06 15:35:44.000   28.342091838  -16.459007103  1496.8796   1   7   0.0018   0.0016   0.0110  -0.0003   0.0014   0.0025  14.00  130.7
2024/05/06 15:35:45.000   28.342091838  -16.459007102  1496.8796   1   7   0.0018   0.0016   0.0110  -0.0003   0.0014   0.0025  15.00  128.2
2024/05/06 15:35:46.000   28.342091837  -16.459007102  1496.8795   1   7   0.0018   0.0016   0.0110  -0.0003   0.0014   0.0025 -14.00  125.4
2024/05/06 15:35:47.000   28.342091837  -16.459007102  1496.8795   1   7   0.0018   0.0016   0.0110  -0.0003   0.0014   0.0025 -13.00  122.8
2024/05/06 15:35:48.000   28.342091837  -16.459007102  1496.8794   1   7   0.0018   0.0016   0.0110  -0.0003   0.0014   0.0025 -12.00  119.7
2024/05/06 15:35:49.000   28.342091837  -16.459007102  1496.8794   1   7   0.0018   0.0016   0.0110  -0.0003   0.0014   0.0025 -11.00  116.3
2024/05/06 15:35:50.000   28.342091837  -16.459007102  1496.8793   1   7   0.0018   0.0016   0.0110  -0.0003   0.0014   0.0025 -10.00  112.8
2024/05/06 15:35:51.000   28.342091837  -16.459007102  1496.8793   1   7   0.0018   0.0016   0.0110  -0.0003   0.0014   0.0025  -9.00  109.0
2024/05/06 15:35:52.000   28.342091837  -16.459007102  1496.8791   1   7   0.0018   0.0016   0.0110  -0.0003   0.0014   0.0025  -8.00  105.2
2024/05/06 15:35:53.000   28.342091837  -16.459007102  1496.8791   1   7   0.0018   0.0016   0.0110  -0.0003   0.0014   0.0025  -7.00  100.6
2024/05/06 15:35:54.000   28.342091837  -16.459007102  1496.8790   1   7   0.0018   0.0016   0.0111  -0.0003   0.0014   0.0025  -6.00   94.1
2024/05/06 15:35:55.000   28.342091837  -16.459007102  1496.8789   1   7   0.0018   0.0016   0.0111  -0.0003   0.0014   0.0025  -5.00   86.0
2024/05/06 15:35:56.000   28.342091838  -16.459007102  1496.8788   1   7   0.0018   0.0016   0.0111  -0.0003   0.0014   0.0025  -4.00   74.6
2024/05/06 15:35:57.000   28.342091838  -16.459007102  1496.8787   1   7   0.0018   0.0016   0.0111  -0.0003   0.0014   0.0025  -3.00   61.0
2024/05/06 15:35:58.000   28.342091838  -16.459007102  1496.8786   1   7   0.0018   0.0016   0.0111  -0.0003   0.0014   0.0025  -2.00   44.9
2024/05/06 15:35:59.000   28.342091838  -16.459007102  1496.8786   1   7   0.0018   0.0016   0.0112  -0.0003   0.0014   0.0025  -1.00   25.1
2024/05/06 15:36:00.000   28.342091841  -16.459007103  1496.8832   1   7   0.0018   0.0016   0.0109  -0.0002   0.0014   0.0024   0.00  133.0
2024/05/06 15:36:01.000   28.342091841  -16.459007103  1496.8833   1   7   0.0018   0.0016   0.0109  -0.0002   0.0014   0.0025   1.00  132.6
2024/05/06 15:36:02.000   28.342091841  -16.459007103  1496.8835   1   7   0.0018   0.0016   0.0109  -0.0002   0.0014   0.0025   2.00  130.9
2024/05/06 15:36:03.000   28.342091842  -16.459007103  1496.8836   1   7   0.0018   0.0016   0.0110  -0.0002   0.0014   0.0025   3.00  129.3
2024/05/06 15:36:04.000   28.342091842  -16.459007103  1496.8837   1   7   0.0018   0.0016   0.0110  -0.0002   0.0014   0.0025   4.00  125.8
2024/05/06 15:36:05.000   28.342091842  -16.459007103  1496.8838   1   7   0.0018   0.0016   0.0110  -0.0002   0.0014   0.0025   5.00  123.1
2024/05/06 15:36:06.000   28.342091842  -16.459007103  1496.8838   1   7   0.0018   0.0016   0.0110  -0.0002   0.0014   0.0025   6.00  119.3
2024/05/06 15:36:07.000   28.342091842  -16.459007103  1496.8838   1   7   0.0018   0.0016   0.0110  -0.0002   0.0014   0.0025   7.00  117.3
2024/05/06 15:36:08.000   28.342091842  -16.459007103  1496.8838   1   7   0.0018   0.0016   0.0110  -0.0002   0.0014   0.0025   8.00  114.2
2024/05/06 15:36:09.000   28.342091842  -16.459007103  1496.8838   1   7   0.0018   0.0016   0.0110  -0.0002   0.0014   0.0025   9.00  110.7
2024/05/06 15:36:10.000   28.342091841  -16.459007103  1496.8838   1   7   0.0018   0.0016   0.0110  -0.0002   0.0014   0.0025  10.00  107.6
2024/05/06 15:36:11.000   28.342091841  -16.459007103  1496.8837   1   7   0.0018   0.0016   0.0110  -0.0002   0.0014   0.0025  11.00  104.3
2024/05/06 15:36:12.000   28.342091841  -16.459007103  1496.8837   1   7   0.0018   0.0016   0.0110  -0.0002   0.0014   0.0025  12.00  101.1
2024/05/06 15:36:13.000   28.342091841  -16.459007103  1496.8836   1   7   0.0018   0.0016   0.0110  -0.0002   0.0014   0.0025  13.00   98.6
2024/05/06 15:36:14.000   28.342091841  -16.459007103  1496.8836   1   7   0.0018   0.0016   0.0110  -0.0002   0.0014   0.0025  14.00   95.9
2024/05/06 15:36:15.000   28.342091841  -16.459007103  1496.8835   1   7   0.0018   0.0016   0.0110  -0.0002   0.0014   0.0025  15.00   93.2
2024/05/06 15:36:16.000   28.342091841  -16.459007103  1496.8834   1   7   0.0018   0.0016   0.0110  -0.0002   0.0014   0.0025 -14.00   90.7
2024/05/06 15:36:17.000   28.342091841  -16.459007103  1496.8834   1   7   0.0018   0.0016   0.0110  -0.0002   0.0014   0.0025 -13.00   88.4
2024/05/06 15:36:18.000   28.342091841  -16.459007103  1496.8833   1   7   0.0018   0.0016   0.0110  -0.0002   0.0014   0.0025 -12.00   85.6
2024/05/06 15:36:19.000   28.342091841  -16.459007103  1496.8832   1   7   0.0018   0.0016   0.0110  -0.0003   0.0014   0.0025 -11.00   83.1
2024/05/06 15:36:20.000   28.342091841  -16.459007103  1496.8831   1   7   0.0018   0.0016   0.0110  -0.0003   0.0014   0.0025 -10.00   79.6
2024/05/06 15:36:21.000   28.342091841  -16.459007104  1496.8830   1   7   0.0018   0.0016   0.0111  -0.0003   0.0014   0.0025  -9.00   76.1
2024/05/06 15:36:22.000   28.342091841  -16.459007103  1496.8829   1   7   0.0018   0.0016   0.0111  -0.0003   0.0014   0.0025  -8.00   73.3
2024/05/06 15:36:23.000   28.342091840  -16.459007103  1496.8827   1   7   0.0018   0.0016   0.0111  -0.0003   0.0014   0.0025  -7.00   69.9
2024/05/06 15:36:24.000   28.342091840  -16.459007103  1496.8825   1   7   0.0018   0.0016   0.0111  -0.0003   0.0014   0.0025  -6.00   66.0
2024/05/06 15:36:25.000   28.342091840  -16.459007103  1496.8823   1   7   0.0018   0.0016   0.0111  -0.0003   0.0014   0.0025  -5.00   62.1
2024/05/06 15:36:26.000   28.342091840  -16.459007103  1496.8820   1   7   0.0018   0.0016   0.0111  -0.0003   0.0014   0.0025  -4.00   58.0
2024/05/06 15:36:27.000   28.342091840  -16.459007103  1496.8818   1   7   0.0018   0.0016   0.0111  -0.0003   0.0014   0.0025  -3.00   52.1
2024/05/06 15:36:28.000   28.342091840  -16.459007103  1496.8815   1   7   0.0018   0.0016   0.0112  -0.0003   0.0014   0.0025  -2.00   40.7
2024/05/06 15:36:29.000   28.342091840  -16.459007103  1496.8812   1   7   0.0018   0.0016   0.0112  -0.0003   0.0014   0.0025  -1.00   24.7
2024/05/06 15:36:30.000   28.342091845  -16.459007105  1496.8887   1   7   0.0018   0.0016   0.0109  -0.0002   0.0015   0.0024   0.00   54.4
2024/05/06 15:36:31.000   28.342091846  -16.459007105  1496.8886   1   7   0.0018   0.0016   0.0109  -0.0002   0.0015   0.0024   1.00   54.2
2024/05/06 15:36:32.000   28.342091846  -16.459007105  1496.8886   1   7   0.0018   0.0016   0.0109  -0.0002   0.0015   0.0024   2.00   53.9
2024/05/06 15:36:33.000   28.342091846  -16.459007105  1496.8886   1   7   0.0018   0.0016   0.0110  -0.0002   0.0015   0.0025   3.00   53.1
2024/05/06 15:36:34.000   28.342091847  -16.459007105  1496.8884   1   7   0.0018   0.0016   0.0110  -0.0002   0.0015   0.0025   4.00   52.1
2024/05/06 15:36:35.000   28.342091847  -16.459007106  1496.8882   1   7   0.0018   0.0016   0.0110  -0.0002   0.0015   0.0025   5.00   51.2
2024/05/06 15:36:36.000   28.342091847  -16.459007106  1496.8879   1   7   0.0018   0.0016   0.0110  -0.0002   0.0015   0.0025   6.00   50.6
2024/05/06 15:36:37.000   28.342091847  -16.459007106  1496.8877   1   7   0.0018   0.0016   0.0110  -0.0002   0.0015   0.0025   7.00   50.3
2024/05/06 15:36:38.000   28.342091847  -16.459007106  1496.8874   1   7   0.0018   0.0016   0.0110  -0.0002   0.0015   0.0025   8.00   49.3
2024/05/06 15:36:39.000   28.342091847  -16.459007106  1496.8872   1   7   0.0018   0.0016   0.0110  -0.0002   0.0015   0.0025   9.00   48.4
2024/05/06 15:36:40.000   28.342091847  -16.459007106  1496.8870   1   7   0.0018   0.0016   0.0110  -0.0002   0.0015   0.0025  10.00   46.9
2024/05/06 15:36:41.000   28.342091847  -16.459007106  1496.8867   1   7   0.0018   0.0016   0.0110  -0.0002   0.0015   0.0025  11.00   46.1
2024/05/06 15:36:42.000   28.342091847  -16.459007106  1496.8865   1   7   0.0018   0.0016   0.0111  -0.0002   0.0015   0.0025  12.00   44.6
2024/05/06 15:36:43.000   28.342091847  -16.459007106  1496.8863   1   7   0.0018   0.0016   0.0111  -0.0002   0.0015   0.0025  13.00   42.8
2024/05/06 15:36:44.000   28.342091847  -16.459007106  1496.8861   1   7   0.0018   0.0016   0.0111  -0.0002   0.0015   0.0025  14.00   41.0
2024/05/06 15:36:45.000   28.342091847  -16.459007106  1496.8860   1   7   0.0018   0.0016   0.0111  -0.0002   0.0015   0.0025  15.00   39.1
2024/05/06 15:36:46.000   28.342091847  -16.459007106  1496.8858   1   7   0.0018   0.0016   0.0111  -0.0002   0.0015   0.0025 -14.00   37.2
2024/05/06 15:36:47.000   28.342091847  -16.459007106  1496.8856   1   7   0.0018   0.0016   0.0111  -0.0002   0.0015   0.0025 -13.00   35.2
2024/05/06 15:36:48.000   28.342091847  -16.459007106  1496.8854   1   7   0.0018   0.0016   0.0111  -0.0002   0.0015   0.0025 -12.00   33.2
2024/05/06 15:36:49.000   28.342091847  -16.459007106  1496.8853   1   7   0.0018   0.0016   0.0111  -0.0002   0.0015   0.0025 -11.00   31.2
2024/05/06 15:36:50.000   28.342091847  -16.459007106  1496.8850   1   7   0.0018   0.0016   0.0111  -0.0002   0.0015   0.0025 -10.00   29.1
2024/05/06 15:36:51.000   28.342091847  -16.459007106  1496.8848   1   7   0.0018   0.0016   0.0111  -0.0002   0.0015   0.0025  -9.00   27.2
2024/05/06 15:36:52.000   28.342091847  -16.459007106  1496.8846   1   7   0.0018   0.0016   0.0111  -0.0002   0.0015   0.0025  -8.00   25.1
2024/05/06 15:36:53.000   28.342091847  -16.459007106  1496.8843   1   7   0.0018   0.0016   0.0111  -0.0003   0.0015   0.0025  -7.00   23.0
2024/05/06 15:36:54.000   28.342091847  -16.459007106  1496.8838   1   7   0.0018   0.0016   0.0111  -0.0003   0.0015   0.0025  -6.00   21.3
2024/05/06 15:36:55.000   28.342091847  -16.459007105  1496.8835   1   7   0.0018   0.0016   0.0111  -0.0003   0.0015   0.0025  -5.00   19.2
2024/05/06 15:36:56.000   28.342091847  -16.459007105  1496.8831   1   7   0.0018   0.0016   0.0112  -0.0003   0.0015   0.0025  -4.00   16.9
2024/05/06 15:36:57.000   28.342091847  -16.459007105  1496.8825   1   7   0.0018   0.0016   0.0112  -0.0003   0.0015   0.0025  -3.00   14.8
2024/05/06 15:36:58.000   28.342091847  -16.459007105  1496.8818   1   7   0.0018   0.0016   0.0112  -0.0003   0.0015   0.0025  -2.00   12.7
2024/05/06 15:36:59.000   28.342091847  -16.459007105  1496.8811   1   7   0.0018   0.0016   0.0113  -0.0003   0.0014   0.0025  -1.00    8.5
2024/05/06 15:37:00.000   28.342091848  -16.459007106  1496.8814   1   7   0.0018   0.0016   0.0113  -0.0003   0.0014   0.0025   0.00    4.9
2024/05/06 15:37:01.000   28.342091848  -16.459007106  1496.8810   1   6   0.0018   0.0016   0.0113  -0.0003   0.0014   0.0026   1.00  999.9
2024/05/06 15:37:02.000   28.342091848  -16.459007106  1496.8811   1   6   0.0018   0.0016   0.0114  -0.0003   0.0014   0.0026   2.00  999.9
2024/05/06 15:37:03.000   28.342091848  -16.459007106  1496.8812   1   6   0.0018   0.0016   0.0114  -0.0003   0.0014   0.0026   3.00  999.9
2024/05/06 15:37:04.000   28.342091848  -16.459007106  1496.8814   1   6   0.0018   0.0016   0.0114  -0.0003   0.0014   0.0026   4.00  999.9
2024/05/06 15:37:05.000   28.342091838  -16.459007116  1496.8733   1   6   0.0017   0.0015   0.0104  -0.0005   0.0011   0.0025   5.00    3.1
2024/05/06 15:37:06.000   28.342091838  -16.459007117  1496.8733   1   6   0.0017   0.0015   0.0104  -0.0005   0.0011   0.0025   6.00    3.5
2024/05/06 15:37:07.000   28.342091838  -16.459007117  1496.8733   1   6   0.0017   0.0015   0.0104  -0.0005   0.0011   0.0025   7.00    3.8
2024/05/06 15:37:08.000   28.342091839  -16.459007117  1496.8733   1   6   0.0017   0.0015   0.0104  -0.0005   0.0011   0.0025   8.00    4.1
2024/05/06 15:37:09.000   28.342091839  -16.459007117  1496.8733   1   6   0.0017   0.0015   0.0104  -0.0005   0.0011   0.0025   9.00    4.4
2024/05/06 15:37:10.000   28.342091839  -16.459007117  1496.8734   1   6   0.0017   0.0015   0.0104  -0.0005   0.0011   0.0025  10.00    4.6
2024/05/06 15:37:11.000   28.342091839  -16.459007117  1496.8734   1   6   0.0017   0.0015   0.0104  -0.0005   0.0011   0.0025  11.00    4.8
2024/05/06 15:37:12.000   28.342091839  -16.459007117  1496.8734   1   6   0.0017   0.0015   0.0104  -0.0005   0.0011   0.0025  12.00    5.1
2024/05/06 15:37:13.000   28.342091839  -16.459007117  1496.8734   1   6   0.0017   0.0015   0.0104  -0.0005   0.0011   0.0025  13.00    5.3
2024/05/06 15:37:14.000   28.342091839  -16.459007117  1496.8734   1   6   0.0017   0.0015   0.0104  -0.0005   0.0011   0.0025  14.00    5.5
2024/05/06 15:37:15.000   28.342091839  -16.459007117  1496.8735   1   6   0.0017   0.0015   0.0104  -0.0005   0.0011   0.0025 -15.00    5.7
2024/05/06 15:37:16.000   28.342091839  -16.459007117  1496.8735   1   6   0.0017   0.0015   0.0104  -0.0005   0.0011   0.0025 -14.00    5.9
2024/05/06 15:37:17.000   28.342091839  -16.459007117  1496.8735   1   6   0.0017   0.0015   0.0104  -0.0005   0.0011   0.0025 -13.00    6.1
2024/05/06 15:37:18.000   28.342091839  -16.459007117  1496.8735   1   6   0.0017   0.0015   0.0104  -0.0005   0.0011   0.0025 -12.00    6.3
2024/05/06 15:37:19.000   28.342091839  -16.459007117  1496.8735   1   6   0.0017   0.0015   0.0104  -0.0005   0.0011   0.0025 -11.00    6.5
2024/05/06 15:37:20.000   28.342091839  -16.459007117  1496.8736   1   6   0.0017   0.0015   0.0104  -0.0005   0.0011   0.0025 -10.00    6.7
2024/05/06 15:37:21.000   28.342091839  -16.459007117  1496.8736   1   6   0.0017   0.0015   0.0104  -0.0005   0.0011   0.0025  -9.00    6.9
2024/05/06 15:37:22.000   28.342091839  -16.459007117  1496.8736   1   6   0.0017   0.0015   0.0103  -0.0005   0.0011   0.0025  -8.00    7.1
2024/05/06 15:37:23.000   28.342091839  -16.459007117  1496.8736   1   6   0.0017   0.0015   0.0103  -0.0005   0.0011   0.0025  -7.00    7.3
2024/05/06 15:37:24.000   28.342091839  -16.459007117  1496.8736   1   6   0.0017   0.0015   0.0103  -0.0005   0.0011   0.0025  -6.00    7.3
2024/05/06 15:37:25.000   28.342091846  -16.459007123  1496.8758   1   6   0.0016   0.0014   0.0102   0.0002   0.0014   0.0023  -5.00    6.8
2024/05/06 15:37:26.000   28.342091846  -16.459007123  1496.8759   1   6   0.0016   0.0014   0.0102   0.0002   0.0014   0.0023  -4.00   12.7
2024/05/06 15:37:27.000   28.342091846  -16.459007123  1496.8759   1   6   0.0016   0.0014   0.0102   0.0002   0.0014   0.0023  -3.00   18.2
2024/05/06 15:37:28.000   28.342091846  -16.459007123  1496.8761   1   6   0.0016   0.0014   0.0102   0.0002   0.0014   0.0023  -2.00   23.1
2024/05/06 15:37:29.000   28.342091846  -16.459007123  1496.8762   1   6   0.0016   0.0014   0.0102   0.0002   0.0014   0.0023  -1.00   28.5
2024/05/06 15:37:30.000   28.342091846  -16.459007123  1496.8763   1   6   0.0016   0.0014   0.0102   0.0002   0.0014   0.0023   0.00   33.8
2024/05/06 15:37:31.000   28.342091847  -16.459007123  1496.8764   1   6   0.0016   0.0014   0.0102   0.0002   0.0014   0.0023   1.00   39.2
2024/05/06 15:37:32.000   28.342091847  -16.459007123  1496.8764   1   6   0.0016   0.0014   0.0102   0.0002   0.0014   0.0023   2.00   44.7
2024/05/06 15:37:33.000   28.342091847  -16.459007123  1496.8764   1   6   0.0016   0.0014   0.0102   0.0002   0.0014   0.0023   3.00   49.9
2024/05/06 15:37:34.000   28.342091847  -16.459007123  1496.8764   1   6   0.0016   0.0014   0.0102   0.0002   0.0014   0.0023   4.00   52.1
2024/05/06 15:37:35.000   28.342091847  -16.459007124  1496.8765   1   6   0.0016   0.0014   0.0102   0.0002   0.0014   0.0023   5.00   54.6
2024/05/06 15:37:36.000   28.342091847  -16.459007124  1496.8765   1   6   0.0016   0.0014   0.0102   0.0002   0.0014   0.0023   6.00   56.7
2024/05/06 15:37:37.000   28.342091847  -16.459007124  1496.8765   1   6   0.0016   0.0014   0.0101   0.0002   0.0014   0.0023   7.00   58.9
2024/05/06 15:37:38.000   28.342091847  -16.459007124  1496.8765   1   6   0.0016   0.0014   0.0101   0.0002   0.0014   0.0023   8.00   60.8
2024/05/06 15:37:39.000   28.342091847  -16.459007124  1496.8765   1   6   0.0016   0.0014   0.0101   0.0002   0.0014   0.0023   9.00   63.4
2024/05/06 15:37:40.000   28.342091847  -16.459007124  1496.8766   1   6   0.0016   0.0014   0.0101   0.0002   0.0014   0.0023  10.00   65.9
2024/05/06 15:37:41.000   28.342091847  -16.459007124  1496.8766   1   6   0.0016   0.0014   0.0101   0.0002   0.0014   0.0023  11.00   68.5
2024/05/06 15:37:42.000   28.342091847  -16.459007124  1496.8766   1   6   0.0016   0.0014   0.0101   0.0002   0.0014   0.0023  12.00   71.0
2024/05/06 15:37:43.000   28.342091847  -16.459007124  1496.8767   1   6   0.0016   0.0014   0.0101   0.0002   0.0014   0.0023  13.00   73.6
2024/05/06 15:37:44.000   28.342091847  -16.459007124  1496.8767   1   6   0.0016   0.0014   0.0101   0.0002   0.0014   0.0023  14.00   76.1
2024/05/06 15:37:45.000   28.342091847  -16.459007124  1496.8767   1   6   0.0016   0.0014   0.0101   0.0002   0.0014   0.0023 -15.00   78.8
2024/05/06 15:37:46.000   28.342091847  -16.459007124  1496.8767   1   6   0.0016   0.0014   0.0101   0.0002   0.0014   0.0023 -14.00   81.2
2024/05/06 15:37:47.000   28.342091847  -16.459007124  1496.8767   1   6   0.0016   0.0014   0.0101   0.0002   0.0014   0.0023 -13.00   83.7
2024/05/06 15:37:48.000   28.342091847  -16.459007124  1496.8768   1   6   0.0016   0.0014   0.0101   0.0002   0.0014   0.0023 -12.00   86.0
2024/05/06 15:37:49.000   28.342091847  -16.459007124  1496.8768   1   6   0.0016   0.0014   0.0101   0.0002   0.0014   0.0023 -11.00   88.5
2024/05/06 15:37:50.000   28.342091847  -16.459007124  1496.8768   1   6   0.0016   0.0014   0.0101   0.0002   0.0014   0.0023 -10.00   90.7
2024/05/06 15:37:51.000   28.342091847  -16.459007124  1496.8768   1   6   0.0016   0.0014   0.0101   0.0002   0.0014   0.0023  -9.00   92.6
2024/05/06 15:37:52.000   28.342091847  -16.459007124  1496.8769   1   6   0.0016   0.0014   0.0101   0.0002   0.0014   0.0023  -8.00   94.2
2024/05/06 15:37:53.000   28.342091847  -16.459007124  1496.8769   1   6   0.0016   0.0014   0.0101   0.0002   0.0014   0.0023  -7.00   95.7
2024/05/06 15:37:54.000   28.342091847  -16.459007124  1496.8770   1   6   0.0016   0.0014   0.0101   0.0002   0.0014   0.0023  -6.00   96.9
2024/05/06 15:37:55.000   28.342091847  -16.459007124  1496.8770   1   6   0.0016   0.0014   0.0101   0.0002   0.0014   0.0023  -5.00   96.8
2024/05/06 15:37:56.000   28.342091847  -16.459007124  1496.8771   1   6   0.0016   0.0014   0.0101   0.0002   0.0014   0.0023  -4.00   97.6
2024/05/06 15:37:57.000   28.342091847  -16.459007124  1496.8771   1   6   0.0016   0.0014   0.0100   0.0002   0.0014   0.0023  -3.00   98.2
2024/05/06 15:37:58.000   28.342091848  -16.459007124  1496.8772   1   6   0.0016   0.0014   0.0100   0.0002   0.0014   0.0023  -2.00   97.8
2024/05/06 15:37:59.000   28.342091848  -16.459007124  1496.8774   1   6   0.0016   0.0014   0.0100   0.0002   0.0014   0.0023  -1.00   98.0
2024/05/06 15:38:00.000   28.342091848  -16.459007124  1496.8774   1   6   0.0016   0.0014   0.0100   0.0002   0.0014   0.0023   0.00   99.8
2024/05/06 15:38:01.000   28.342091848  -16.459007124  1496.8775   1   6   0.0016   0.0014   0.0100   0.0002   0.0014   0.0023   1.00   98.5
2024/05/06 15:38:02.000   28.342091848  -16.459007124  1496.8776   1   6   0.0016   0.0014   0.0100   0.0002   0.0014   0.0023   2.00   96.4
2024/05/06 15:38:03.000   28.342091848  -16.459007124  1496.8776   1   6   0.0016   0.0014   0.0100   0.0002   0.0014   0.0023   3.00   95.4
2024/05/06 15:38:04.000   28.342091848  -16.459007125  1496.8777   1   6   0.0016   0.0014   0.0100   0.0002   0.0014   0.0023   4.00   96.3
2024/05/06 15:38:05.000   28.342091848  -16.459007125  1496.8777   1   6   0.0016   0.0014   0.0100   0.0002   0.0014   0.0023   5.00   96.8
2024/05/06 15:38:06.000   28.342091848  -16.459007125  1496.8778   1   6   0.0016   0.0014   0.0100   0.0002   0.0014   0.0023   6.00   98.9
2024/05/06 15:38:07.000   28.342091849  -16.459007125  1496.8779   1   6   0.0016   0.0014   0.0100   0.0002   0.0014   0.0023   7.00  100.1
2024/05/06 15:38:08.000   28.342091849  -16.459007125  1496.8779   1   6   0.0016   0.0014   0.0100   0.0002   0.0014   0.0023   8.00  101.6
2024/05/06 15:38:09.000   28.342091849  -16.459007125  1496.8779   1   6   0.0016   0.0014   0.0100   0.0002   0.0014   0.0023   9.00  103.9
2024/05/06 15:38:10.000   28.342091849  -16.459007125  1496.8780   1   6   0.0016   0.0014   0.0100   0.0002   0.0014   0.0023  10.00  106.2
2024/05/06 15:38:11.000   28.342091849  -16.459007125  1496.8780   1   6   0.0016   0.0014   0.0100   0.0002   0.0014   0.0023  11.00  108.6
2024/05/06 15:38:12.000   28.342091849  -16.459007125  1496.8780   1   6   0.0016   0.0014   0.0100   0.0002   0.0014   0.0023  12.00  111.4
2024/05/06 15:38:13.000   28.342091849  -16.459007125  1496.8781   1   6   0.0016   0.0014   0.0100   0.0002   0.0014   0.0023  13.00  113.8
2024/05/06 15:38:14.000   28.342091849  -16.459007125  1496.8781   1   6   0.0016   0.0014   0.0100   0.0002   0.0014   0.0023  14.00  116.1
2024/05/06 15:38:15.000   28.342091849  -16.459007125  1496.8781   1   6   0.0016   0.0014   0.0100   0.0002   0.0014   0.0023 -15.00  118.5
2024/05/06 15:38:16.000   28.342091849  -16.459007125  1496.8781   1   6   0.0016   0.0014   0.0100   0.0002   0.0014   0.0023 -14.00  120.9
2024/05/06 15:38:17.000   28.342091849  -16.459007125  1496.8782   1   6   0.0016   0.0014   0.0100   0.0002   0.0014   0.0023 -13.00  123.3
2024/05/06 15:38:18.000   28.342091849  -16.459007125  1496.8782   1   6   0.0016   0.0014   0.0100   0.0002   0.0014   0.0023 -12.00  125.7
2024/05/06 15:38:19.001   28.342091849  -16.459007125  1496.8782   1   6   0.0016   0.0014   0.0100   0.0002   0.0014   0.0023 -11.00  128.3
2024/05/06 15:38:20.000   28.342091849  -16.459007125  1496.8782   1   6   0.0016   0.0014   0.0100   0.0002   0.0014   0.0023 -10.00  130.6
2024/05/06 15:38:21.000   28.342091849  -16.459007125  1496.8783   1   6   0.0016   0.0014   0.0099   0.0002   0.0014   0.0023  -9.00  133.5
2024/05/06 15:38:22.000   28.342091849  -16.459007125  1496.8783   1   6   0.0016   0.0014   0.0099   0.0002   0.0014   0.0023  -8.00  136.0
2024/05/06 15:38:23.000   28.342091849  -16.459007125  1496.8784   1   6   0.0016   0.0014   0.0099   0.0002   0.0014   0.0023  -7.00  138.3
2024/05/06 15:38:24.000   28.342091849  -16.459007125  1496.8784   1   6   0.0016   0.0014   0.0099   0.0002   0.0014   0.0023  -6.00  140.8
2024/05/06 15:38:25.000   28.342091849  -16.459007125  1496.8785   1   6   0.0016   0.0014   0.0099   0.0002   0.0014   0.0023  -5.00  143.5
2024/05/06 15:38:26.000   28.342091849  -16.459007125  1496.8786   1   6   0.0016   0.0014   0.0099   0.0002   0.0014   0.0023  -4.00  145.9
2024/05/06 15:38:27.000   28.342091849  -16.459007125  1496.8787   1   6   0.0016   0.0014   0.0099   0.0002   0.0014   0.0023  -3.00  147.3
2024/05/06 15:38:28.000   28.342091850  -16.459007126  1496.8787   1   6   0.0016   0.0014   0.0099   0.0002   0.0014   0.0023  -2.00  150.0
2024/05/06 15:38:29.000   28.342091850  -16.459007126  1496.8789   1   6   0.0016   0.0014   0.0099   0.0002   0.0014   0.0023  -1.00  151.0
2024/05/06 15:38:30.000   28.342091850  -16.459007126  1496.8790   1   6   0.0016   0.0014   0.0099   0.0002   0.0014   0.0023   0.00  150.6
2024/05/06 15:38:31.000   28.342091850  -16.459007126  1496.8790   1   6   0.0016   0.0014   0.0099   0.0002   0.0014   0.0023   1.00  150.6
2024/05/06 15:38:32.000   28.342091850  -16.459007126  1496.8790   1   6   0.0016   0.0014   0.0099   0.0002   0.0014   0.0023   2.00  151.8
2024/05/06 15:38:33.000   28.342091850  -16.459007126  1496.8790   1   6   0.0016   0.0014   0.0099   0.0002   0.0014   0.0023   3.00  150.1
2024/05/06 15:38:34.000   28.342091850  -16.459007126  1496.8790   1   6   0.0016   0.0014   0.0099   0.0002   0.0014   0.0023   4.00  151.5
2024/05/06 15:38:35.000   28.342091850  -16.459007126  1496.8791   1   6   0.0016   0.0014   0.0099   0.0002   0.0014   0.0023   5.00  153.5
2024/05/06 15:38:36.000   28.342091851  -16.459007126  1496.8792   1   6   0.0016   0.0014   0.0099   0.0002   0.0014   0.0023   6.00  156.1
2024/05/06 15:38:37.000   28.342091851  -16.459007126  1496.8792   1   6   0.0016   0.0014   0.0099   0.0002   0.0014   0.0023   7.00  158.8
2024/05/06 15:38:38.000   28.342091851  -16.459007126  1496.8793   1   6   0.0016   0.0014   0.0099   0.0002   0.0014   0.0023   8.00  161.4
2024/05/06 15:38:39.000   28.342091851  -16.459007126  1496.8793   1   6   0.0016   0.0014   0.0099   0.0002   0.0014   0.0023   9.00  163.5
2024/05/06 15:38:40.000   28.342091851  -16.459007126  1496.8793   1   6   0.0016   0.0014   0.0099   0.0002   0.0014   0.0023  10.00  166.3
2024/05/06 15:38:41.000   28.342091851  -16.459007126  1496.8794   1   6   0.0016   0.0014   0.0099   0.0002   0.0014   0.0023  11.00  168.8
2024/05/06 15:38:42.000   28.342091851  -16.459007126  1496.8794   1   6   0.0016   0.0014   0.0099   0.0002   0.0014   0.0023  12.00  171.1
2024/05/06 15:38:43.000   28.342091851  -16.459007126  1496.8794   1   6   0.0016   0.0014   0.0099   0.0002   0.0014   0.0023  13.00  173.6
2024/05/06 15:38:44.000   28.342091851  -16.459007126  1496.8794   1   6   0.0016   0.0014   0.0099   0.0002   0.0014   0.0023  14.00  175.8
2024/05/06 15:38:45.000   28.342091851  -16.459007126  1496.8795   1   6   0.0016   0.0014   0.0099   0.0002   0.0014   0.0023 -15.00  178.0
2024/05/06 15:38:46.000   28.342091851  -16.459007126  1496.8795   1   6   0.0016   0.0014   0.0099   0.0002   0.0014   0.0023 -14.00  180.5
2024/05/06 15:38:47.000   28.342091851  -16.459007126  1496.8795   1   6   0.0016   0.0014   0.0098   0.0002   0.0014   0.0023 -13.00  182.4
2024/05/06 15:38:48.000   28.342091851  -16.459007126  1496.8795   1   6   0.0016   0.0014   0.0098   0.0002   0.0014   0.0023 -12.00  184.9
2024/05/06 15:38:49.000   28.342091851  -16.459007126  1496.8795   1   6   0.0016   0.0014   0.0098   0.0002   0.0014   0.0023 -11.00  186.9
2024/05/06 15:38:50.000   28.342091851  -16.459007126  1496.8796   1   6   0.0016   0.0014   0.0098   0.0002   0.0014   0.0023 -10.00  189.4
2024/05/06 15:38:51.000   28.342091851  -16.459007126  1496.8796   1   6   0.0016   0.0014   0.0098   0.0002   0.0014   0.0023  -9.00  192.1
2024/05/06 15:38:52.000   28.342091851  -16.459007126  1496.8796   1   6   0.0016   0.0014   0.0098   0.0002   0.0014   0.0023  -8.00  194.6
2024/05/06 15:38:53.000   28.342091851  -16.459007126  1496.8797   1   6   0.0016   0.0014   0.0098   0.0002   0.0014   0.0023  -7.00  196.1
2024/05/06 15:38:54.000   28.342091851  -16.459007126  1496.8797   1   6   0.0016   0.0014   0.0098   0.0002   0.0014   0.0023  -6.00  197.5
2024/05/06 15:38:55.000   28.342091851  -16.459007126  1496.8797   1   6   0.0015   0.0014   0.0098   0.0002   0.0014   0.0023  -5.00  198.1
2024/05/06 15:38:56.000   28.342091851  -16.459007126  1496.8798   1   6   0.0015   0.0014   0.0098   0.0002   0.0014   0.0023  -4.00  198.2
2024/05/06 15:38:57.000   28.342091851  -16.459007126  1496.8798   1   6   0.0015   0.0014   0.0098   0.0002   0.0014   0.0023  -3.00  197.9
2024/05/06 15:38:58.000   28.342091851  -16.459007126  1496.8799   1   6   0.0015   0.0014   0.0098   0.0002   0.0014   0.0023  -2.00  196.1
2024/05/06 15:38:59.000   28.342091852  -16.459007127  1496.8800   1   6   0.0015   0.0014   0.0098   0.0002   0.0014   0.0023  -1.00  193.6
2024/05/06 15:39:00.000   28.342091852  -16.459007127  1496.8801   1   6   0.0015   0.0014   0.0098   0.0002   0.0014   0.0023   0.00  192.1
2024/05/06 15:39:01.000   28.342091852  -16.459007127  1496.8800   1   6   0.0015   0.0014   0.0098   0.0002   0.0014   0.0023   1.00  188.5
2024/05/06 15:39:02.000   28.342091852  -16.459007127  1496.8800   1   6   0.0015   0.0014   0.0098   0.0002   0.0014   0.0023   2.00  189.4
2024/05/06 15:39:03.000   28.342091852  -16.459007127  1496.8801   1   6   0.0015   0.0014   0.0098   0.0002   0.0014   0.0023   3.00  190.8
2024/05/06 15:39:04.000   28.342091852  -16.459007127  1496.8801   1   6   0.0015   0.0014   0.0098   0.0002   0.0014   0.0023   4.00  190.7
2024/05/06 15:39:05.000   28.342091852  -16.459007127  1496.8802   1   6   0.0015   0.0014   0.0098   0.0002   0.0014   0.0023   5.00  192.0
2024/05/06 15:39:06.000   28.342091852  -16.459007127  1496.8803   1   6   0.0015   0.0014   0.0098   0.0002   0.0014   0.0023   6.00  193.3
2024/05/06 15:39:07.000   28.342091852  -16.459007127  1496.8803   1   6   0.0015   0.0014   0.0098   0.0002   0.0014   0.0023   7.00  195.1
2024/05/06 15:39:08.000   28.342091853  -16.459007127  1496.8804   1   6   0.0015   0.0014   0.0098   0.0002   0.0014   0.0022   8.00  196.9
2024/05/06 15:39:09.000   28.342091853  -16.459007127  1496.8804   1   6   0.0015   0.0014   0.0098   0.0002   0.0014   0.0022   9.00  198.5
2024/05/06 15:39:10.000   28.342091853  -16.459007127  1496.8805   1   6   0.0015   0.0014   0.0098   0.0002   0.0014   0.0022  10.00  201.0
2024/05/06 15:39:11.000   28.342091853  -16.459007127  1496.8805   1   6   0.0015   0.0014   0.0098   0.0002   0.0014   0.0022  11.00  203.0
2024/05/06 15:39:12.000   28.342091853  -16.459007127  1496.8805   1   6   0.0015   0.0014   0.0098   0.0002   0.0014   0.0022  12.00  205.2
2024/05/06 15:39:13.000   28.342091853  -16.459007127  1496.8806   1   6   0.0015   0.0014   0.0098   0.0002   0.0014   0.0022  13.00  207.0
2024/05/06 15:39:14.000   28.342091853  -16.459007127  1496.8806   1   6   0.0015   0.0014   0.0097   0.0002   0.0014   0.0022  14.00  209.4
2024/05/06 15:39:15.000   28.342091853  -16.459007127  1496.8806   1   6   0.0015   0.0014   0.0097   0.0002   0.0014   0.0022 -15.00  211.3
2024/05/06 15:39:16.000   28.342091853  -16.459007127  1496.8807   1   6   0.0015   0.0014   0.0097   0.0002   0.0014   0.0022 -14.00  213.0
2024/05/06 15:39:17.000   28.342091853  -16.459007127  1496.8807   1   6   0.0015   0.0014   0.0097   0.0002   0.0014   0.0022 -13.00  215.2
2024/05/06 15:39:18.000   28.342091853  -16.459007127  1496.8807   1   6   0.0015   0.0014   0.0097   0.0002   0.0014   0.0022 -12.00  217.0
2024/05/06 15:39:19.000   28.342091853  -16.459007127  1496.8807   1   6   0.0015   0.0014   0.0097   0.0002   0.0014   0.0022 -11.00  218.7
2024/05/06 15:39:20.000   28.342091853  -16.459007127  1496.8808   1   6   0.0015   0.0014   0.0097   0.0002   0.0014   0.0022 -10.00  220.7
2024/05/06 15:39:21.000   28.342091853  -16.459007127  1496.8808   1   6   0.0015   0.0014   0.0097   0.0002   0.0014   0.0022  -9.00  222.1
2024/05/06 15:39:22.000   28.342091853  -16.459007127  1496.8808   1   6   0.0015   0.0014   0.0097   0.0002   0.0014   0.0022  -8.00  223.5
2024/05/06 15:39:23.000   28.342091853  -16.459007127  1496.8809   1   6   0.0015   0.0014   0.0097   0.0002   0.0014   0.0022  -7.00  225.4
2024/05/06 15:39:24.000   28.342091853  -16.459007127  1496.8809   1   6   0.0015   0.0014   0.0097   0.0002   0.0014   0.0022  -6.00  227.0
2024/05/06 15:39:25.000   28.342091853  -16.459007127  1496.8810   1   6   0.0015   0.0014   0.0097   0.0002   0.0014   0.0022  -5.00  227.4
2024/05/06 15:39:26.000   28.342091853  -16.459007127  1496.8810   1   6   0.0015   0.0014   0.0097   0.0002   0.0014   0.0022  -4.00  228.2
2024/05/06 15:39:27.000   28.342091853  -16.459007127  1496.8811   1   6   0.0015   0.0014   0.0097   0.0002   0.0014   0.0022  -3.00  229.7
2024/05/06 15:39:28.000   28.342091854  -16.459007127  1496.8811   1   6   0.0015   0.0014   0.0097   0.0002   0.0014   0.0022  -2.00  231.3
2024/05/06 15:39:29.000   28.342091854  -16.459007127  1496.8812   1   6   0.0015   0.0014   0.0097   0.0002   0.0014   0.0022  -1.00  229.8
2024/05/06 15:39:30.000   28.342091854  -16.459007127  1496.8812   1   6   0.0015   0.0014   0.0097   0.0002   0.0014   0.0022   0.00  228.4
2024/05/06 15:39:31.000   28.342091854  -16.459007127  1496.8813   1   6   0.0015   0.0014   0.0097   0.0002   0.0014   0.0022   1.00  227.7
2024/05/06 15:39:32.000   28.342091854  -16.459007127  1496.8813   1   6   0.0015   0.0014   0.0097   0.0002   0.0014   0.0022   2.00  227.9
2024/05/06 15:39:33.000   28.342091854  -16.459007127  1496.8813   1   6   0.0015   0.0014   0.0097   0.0002   0.0014   0.0022   3.00  226.6
2024/05/06 15:39:34.000   28.342091855  -16.459007127  1496.8814   1   6   0.0015   0.0014   0.0097   0.0002   0.0014   0.0022   4.00  227.6
2024/05/06 15:39:35.000   28.342091855  -16.459007127  1496.8814   1   6   0.0015   0.0014   0.0097   0.0002   0.0014   0.0022   5.00  229.0
2024/05/06 15:39:36.000   28.342091855  -16.459007127  1496.8814   1   6   0.0015   0.0014   0.0097   0.0002   0.0014   0.0022   6.00  230.8
2024/05/06 15:39:37.000   28.342091855  -16.459007126  1496.8814   1   6   0.0015   0.0014   0.0097   0.0002   0.0014   0.0022   7.00  232.7
2024/05/06 15:39:38.000   28.342091855  -16.459007126  1496.8815   1   6   0.0015   0.0014   0.0097   0.0002   0.0014   0.0022   8.00  234.7
2024/05/06 15:39:39.000   28.342091855  -16.459007126  1496.8815   1   6   0.0015   0.0014   0.0097   0.0002   0.0014   0.0022   9.00  236.5
2024/05/06 15:39:40.000   28.342091855  -16.459007126  1496.8816   1   6   0.0015   0.0014   0.0097   0.0002   0.0014   0.0022  10.00  238.5
2024/05/06 15:39:41.000   28.342091855  -16.459007126  1496.8816   1   6   0.0015   0.0014   0.0097   0.0002   0.0014   0.0022  11.00  241.1
2024/05/06 15:39:42.000   28.342091855  -16.459007126  1496.8816   1   6   0.0015   0.0014   0.0097   0.0002   0.0014   0.0022  12.00  243.4
2024/05/06 15:39:43.000   28.342091855  -16.459007126  1496.8817   1   6   0.0015   0.0014   0.0096   0.0002   0.0014   0.0022  13.00  245.9
2024/05/06 15:39:44.000   28.342091855  -16.459007126  1496.8817   1   6   0.0015   0.0014   0.0096   0.0002   0.0014   0.0022  14.00  248.4
2024/05/06 15:39:45.000   28.342091855  -16.459007126  1496.8817   1   6   0.0015   0.0014   0.0096   0.0002   0.0014   0.0022 -15.00  251.0
2024/05/06 15:39:46.000   28.342091855  -16.459007126  1496.8817   1   6   0.0015   0.0014   0.0096   0.0002   0.0014   0.0022 -14.00  253.7
2024/05/06 15:39:47.000   28.342091855  -16.459007126  1496.8817   1   6   0.0015   0.0014   0.0096   0.0002   0.0014   0.0022 -13.00  256.6
2024/05/06 15:39:48.000   28.342091856  -16.459007126  1496.8818   1   6   0.0015   0.0014   0.0096   0.0002   0.0014   0.0022 -12.00  259.8
2024/05/06 15:39:49.000   28.342091856  -16.459007126  1496.8818   1   6   0.0015   0.0014   0.0096   0.0002   0.0014   0.0022 -11.00  262.9
2024/05/06 15:39:50.000   28.342091856  -16.459007126  1496.8818   1   6   0.0015   0.0014   0.0096   0.0002   0.0014   0.0022 -10.00  265.9
2024/05/06 15:39:51.000   28.342091856  -16.459007126  1496.8819   1   6   0.0015   0.0014   0.0096   0.0002   0.0014   0.0022  -9.00  269.1
2024/05/06 15:39:52.000   28.342091856  -16.459007126  1496.8819   1   6   0.0015   0.0014   0.0096   0.0002   0.0014   0.0022  -8.00  273.0
2024/05/06 15:39:53.000   28.342091856  -16.459007126  1496.8819   1   6   0.0015   0.0014   0.0096   0.0002   0.0014   0.0022  -7.00  277.2
2024/05/06 15:39:54.000   28.342091856  -16.459007126  1496.8819   1   6   0.0015   0.0014   0.0096   0.0002   0.0014   0.0022  -6.00  282.0
2024/05/06 15:39:55.000   28.342091856  -16.459007126  1496.8819   1   6   0.0015   0.0014   0.0096   0.0002   0.0014   0.0022  -5.00  287.0
2024/05/06 15:39:56.000   28.342091856  -16.459007126  1496.8820   1   6   0.0015   0.0014   0.0096   0.0002   0.0014   0.0022  -4.00  291.9
2024/05/06 15:39:57.000   28.342091856  -16.459007126  1496.8820   1   6   0.0015   0.0014   0.0096   0.0002   0.0014   0.0022  -3.00  299.1
2024/05/06 15:39:58.000   28.342091856  -16.459007126  1496.8821   1   6   0.0015   0.0014   0.0096   0.0002   0.0014   0.0022  -2.00  305.1
2024/05/06 15:39:59.000   28.342091856  -16.459007126  1496.8821   1   6   0.0015   0.0014   0.0096   0.0002   0.0014   0.0022  -1.00  312.4
2024/05/06 15:40:00.000   28.342091857  -16.459007127  1496.8821   1   6   0.0015   0.0014   0.0096   0.0003   0.0014   0.0022   0.00  322.5
2024/05/06 15:40:01.000   28.342091857  -16.459007126  1496.8822   1   6   0.0015   0.0014   0.0096   0.0003   0.0014   0.0022   1.00  330.1
2024/05/06 15:40:02.000   28.342091857  -16.459007126  1496.8822   1   6   0.0015   0.0014   0.0096   0.0003   0.0014   0.0022   2.00  336.8
2024/05/06 15:40:03.000   28.342091857  -16.459007126  1496.8822   1   6   0.0015   0.0014   0.0096   0.0003   0.0014   0.0022   3.00  340.9
2024/05/06 15:40:04.000   28.342091857  -16.459007126  1496.8822   1   6   0.0015   0.0014   0.0096   0.0003   0.0014   0.0022   4.00  349.0
2024/05/06 15:40:05.000   28.342091857  -16.459007126  1496.8822   1   6   0.0015   0.0014   0.0096   0.0003   0.0014   0.0022   5.00  354.1
2024/05/06 15:40:06.000   28.342091857  -16.459007126  1496.8823   1   6   0.0015   0.0014   0.0096   0.0003   0.0014   0.0022   6.00  358.3
2024/05/06 15:40:07.000   28.342091857  -16.459007126  1496.8823   1   6   0.0015   0.0014   0.0096   0.0003   0.0014   0.0022   7.00  363.3
2024/05/06 15:40:08.000   28.342091857  -16.459007126  1496.8823   1   6   0.0015   0.0014   0.0096   0.0003   0.0014   0.0022   8.00  368.3
2024/05/06 15:40:09.000   28.342091857  -16.459007126  1496.8824   1   6   0.0015   0.0014   0.0096   0.0003   0.0014   0.0022   9.00  372.5
2024/05/06 15:40:10.000   28.342091858  -16.459007126  1496.8824   1   6   0.0015   0.0014   0.0096   0.0003   0.0014   0.0022  10.00  376.6
2024/05/06 15:40:11.000   28.342091858  -16.459007126  1496.8824   1   6   0.0015   0.0014   0.0096   0.0003   0.0014   0.0022  11.00  380.6
2024/05/06 15:40:12.000   28.342091858  -16.459007126  1496.8825   1   6   0.0015   0.0014   0.0096   0.0003   0.0014   0.0022  12.00  385.4
2024/05/06 15:40:13.000   28.342091858  -16.459007126  1496.8825   1   6   0.0015   0.0014   0.0096   0.0003   0.0014   0.0022  13.00  389.7
2024/05/06 15:40:14.000   28.342091858  -16.459007126  1496.8825   1   6   0.0015   0.0014   0.0095   0.0003   0.0014   0.0022  14.00  394.0
2024/05/06 15:40:15.000   28.342091858  -16.459007126  1496.8825   1   6   0.0015   0.0014   0.0095   0.0003   0.0014   0.0022 -15.00  398.0
2024/05/06 15:40:16.000   28.342091858  -16.459007126  1496.8825   1   6   0.0015   0.0014   0.0095   0.0003   0.0014   0.0022 -14.00  402.1
2024/05/06 15:40:17.000   28.342091858  -16.459007125  1496.8826   1   6   0.0015   0.0014   0.0095   0.0003   0.0014   0.0022 -13.00  406.3
2024/05/06 15:40:18.000   28.342091858  -16.459007125  1496.8826   1   6   0.0015   0.0014   0.0095   0.0003   0.0014   0.0022 -12.00  409.7
2024/05/06 15:40:19.000   28.342091858  -16.459007125  1496.8826   1   6   0.0015   0.0014   0.0095   0.0003   0.0014   0.0022 -11.00  413.4
2024/05/06 15:40:20.000   28.342091858  -16.459007125  1496.8826   1   6   0.0015   0.0014   0.0095   0.0003   0.0014   0.0022 -10.00  417.1
2024/05/06 15:40:21.000   28.342091858  -16.459007125  1496.8826   1   6   0.0015   0.0014   0.0095   0.0003   0.0014   0.0022  -9.00  420.9
2024/05/06 15:40:22.000   28.342091858  -16.459007125  1496.8827   1   6   0.0015   0.0014   0.0095   0.0003   0.0014   0.0022  -8.00  424.8
2024/05/06 15:40:23.000   28.342091858  -16.459007125  1496.8827   1   6   0.0015   0.0014   0.0095   0.0003   0.0014   0.0022  -7.00  429.0
2024/05/06 15:40:24.000   28.342091858  -16.459007125  1496.8827   1   6   0.0015   0.0014   0.0095   0.0003   0.0014   0.0022  -6.00  432.8
2024/05/06 15:40:25.000   28.342091858  -16.459007125  1496.8828   1   6   0.0015   0.0014   0.0095   0.0003   0.0014   0.0022  -5.00  437.6
2024/05/06 15:40:26.000   28.342091858  -16.459007125  1496.8828   1   6   0.0015   0.0014   0.0095   0.0003   0.0014   0.0022  -4.00  443.6
2024/05/06 15:40:27.000   28.342091858  -16.459007125  1496.8829   1   6   0.0015   0.0014   0.0095   0.0003   0.0014   0.0022  -3.00  448.1
2024/05/06 15:40:28.000   28.342091858  -16.459007125  1496.8829   1   6   0.0015   0.0014   0.0095   0.0003   0.0014   0.0022  -2.00  454.7
2024/05/06 15:40:29.000   28.342091859  -16.459007125  1496.8830   1   6   0.0015   0.0014   0.0095   0.0003   0.0014   0.0022  -1.00  460.6
2024/05/06 15:40:30.000   28.342091859  -16.459007125  1496.8830   1   6   0.0015   0.0014   0.0095   0.0003   0.0014   0.0022   0.00  471.3
2024/05/06 15:40:31.000   28.342091859  -16.459007125  1496.8831   1   6   0.0015   0.0014   0.0095   0.0003   0.0014   0.0022   1.00  483.9
2024/05/06 15:40:32.000   28.342091859  -16.459007125  1496.8831   1   6   0.0015   0.0014   0.0095   0.0003   0.0014   0.0022   2.00  491.9
2024/05/06 15:40:33.000   28.342091859  -16.459007125  1496.8831   1   6   0.0015   0.0014   0.0095   0.0003   0.0014   0.0022   3.00  496.7
2024/05/06 15:40:34.000   28.342091859  -16.459007125  1496.8832   1   6   0.0015   0.0014   0.0095   0.0003   0.0014   0.0022   4.00  504.3
2024/05/06 15:40:35.000   28.342091859  -16.459007125  1496.8833   1   6   0.0015   0.0014   0.0095   0.0003   0.0014   0.0022   5.00  513.6
2024/05/06 15:40:36.000   28.342091860  -16.459007125  1496.8833   1   6   0.0015   0.0014   0.0095   0.0003   0.0014   0.0022   6.00  520.7
2024/05/06 15:40:37.000   28.342091860  -16.459007125  1496.8834   1   6   0.0015   0.0014   0.0095   0.0003   0.0014   0.0022   7.00  530.6
2024/05/06 15:40:38.000   28.342091860  -16.459007125  1496.8834   1   6   0.0015   0.0014   0.0095   0.0003   0.0014   0.0022   8.00  537.8
2024/05/06 15:40:39.000   28.342091860  -16.459007125  1496.8834   1   6   0.0015   0.0014   0.0095   0.0003   0.0014   0.0022   9.00  543.5
2024/05/06 15:40:40.000   28.342091860  -16.459007125  1496.8835   1   6   0.0015   0.0014   0.0095   0.0003   0.0014   0.0022  10.00  549.4
2024/05/06 15:40:41.000   28.342091860  -16.459007125  1496.8835   1   6   0.0015   0.0014   0.0095   0.0003   0.0014   0.0022  11.00  556.4
2024/05/06 15:40:42.000   28.342091860  -16.459007125  1496.8835   1   6   0.0015   0.0014   0.0095   0.0003   0.0014   0.0022  12.00  562.1
2024/05/06 15:40:43.000   28.342091860  -16.459007125  1496.8835   1   6   0.0015   0.0014   0.0095   0.0003   0.0014   0.0022  13.00  568.7
2024/05/06 15:40:44.000   28.342091860  -16.459007125  1496.8835   1   6   0.0015   0.0014   0.0095   0.0003   0.0014   0.0022  14.00  574.2
2024/05/06 15:40:45.000   28.342091860  -16.459007125  1496.8836   1   6   0.0015   0.0014   0.0095   0.0003   0.0014   0.0022 -15.00  579.0
2024/05/06 15:40:46.000   28.342091860  -16.459007125  1496.8836   1   6   0.0015   0.0014   0.0095   0.0003   0.0014   0.0022 -14.00  584.3
2024/05/06 15:40:47.000   28.342091860  -16.459007125  1496.8836   1   6   0.0015   0.0014   0.0095   0.0003   0.0014   0.0022 -13.00  589.6
2024/05/06 15:40:48.000   28.342091860  -16.459007125  1496.8836   1   6   0.0015   0.0014   0.0094   0.0003   0.0014   0.0022 -12.00  596.4
2024/05/06 15:40:49.000   28.342091860  -16.459007125  1496.8836   1   6   0.0015   0.0014   0.0094   0.0003   0.0014   0.0022 -11.00  603.9
2024/05/06 15:40:50.000   28.342091860  -16.459007124  1496.8836   1   6   0.0015   0.0014   0.0094   0.0003   0.0014   0.0022 -10.00  611.4
2024/05/06 15:40:51.000   28.342091860  -16.459007124  1496.8837   1   6   0.0015   0.0014   0.0094   0.0003   0.0014   0.0022  -9.00  620.3
2024/05/06 15:40:52.000   28.342091860  -16.459007124  1496.8837   1   6   0.0015   0.0014   0.0094   0.0003   0.0014   0.0022  -8.00  630.3
