% program   : RTKPOST-EX 2.5.0
% inp file  : C:\Users\SallyHenry\Desktop\Sally Internship\GNSS gravi\DATA\Survey Rover Obs\GUI07.24o
% inp file  : C:\Users\SallyHenry\Desktop\Sally Internship\GNSS gravi\DATA\BaseStations\TN01\TN0100ESP_R_20241290000_01D_30S_MO.rnx
% inp file  : C:\Users\SallyHenry\Desktop\Sally Internship\GNSS gravi\DATA\BaseStations\TN01\TN0100ESP_R_20241290000_01D_MN.rnx
% inp file  : C:\Users\SallyHenry\Desktop\Sally Internship\GNSS gravi\DATA\aux_files\Survey\IGS0OPSFIN_20241290000_01D_15M_ORB.SP3
% inp file  : C:\Users\SallyHenry\Desktop\Sally Internship\GNSS gravi\DATA\aux_files\Survey\IGS0OPSFIN_20241290000_01D_30S_CLK.CLK
% obs start : 2024/05/08 08:41:25.0 GPST (week2313 290485.0s)
% obs end   : 2024/05/08 08:56:55.0 GPST (week2313 291415.0s)
% pos mode  : Static
% freqs     : L1+L2/E5b
% solution  : Combined-No Phase Reset
% elev mask : 15.0 deg
% dynamics  : on
% tidecorr  : solid
% ionos opt : Estimate TEC
% tropo opt : Estimate ZTD+Grad
% ephemeris : Precise
% navi sys  : GPS GLONASS Galileo QZSS BDS
% amb res   : Fix and Hold
% amb glo   : Fix and Hold
% amb bds   : on
% val thres : 3.0
% antenna1  :                       ( 0.0000  0.0000  1.8000)
% antenna2  :                       ( 0.0000  0.0000  0.0771)
% ref pos   :  28.477186930  -16.241151700    51.7531
%
% (lat/lon/height=WGS84/ellipsoidal,Q=1:fix,2:float,3:sbas,4:dgps,5:single,6:ppp,ns=# of satellites)
%  GPST                  latitude(deg) longitude(deg)  height(m)   Q  ns   sdn(m)   sde(m)   sdu(m)  sdne(m)  sdeu(m)  sdun(m) age(s)  ratio
2024/05/08 08:41:25.000   28.454253937  -16.326899674   625.4334   2   8   0.0146   0.0291   0.0518   0.0096  -0.0229  -0.0166  -5.00    0.0
2024/05/08 08:41:26.000   28.454253937  -16.326899676   625.4339   2   8   0.0146   0.0291   0.0518   0.0096  -0.0229  -0.0166  -4.00    0.0
2024/05/08 08:41:27.000   28.454253939  -16.326899679   625.4347   2   8   0.0146   0.0291   0.0518   0.0096  -0.0229  -0.0166  -3.00    0.0
2024/05/08 08:41:28.000   28.454253940  -16.326899684   625.4355   2   8   0.0146   0.0291   0.0519   0.0096  -0.0229  -0.0166  -2.00    0.0
2024/05/08 08:41:29.000   28.454253941  -16.326899689   625.4364   2   8   0.0146   0.0292   0.0519   0.0096  -0.0229  -0.0166  -1.00    0.0
2024/05/08 08:41:30.000   28.454253943  -16.326899692   625.4370   2   8   0.0146   0.0292   0.0520   0.0096  -0.0230  -0.0166   0.00    0.0
2024/05/08 08:41:31.000   28.454253945  -16.326899696   625.4374   2   8   0.0146   0.0292   0.0521   0.0096  -0.0230  -0.0166   1.00    0.0
2024/05/08 08:41:32.000   28.454253946  -16.326899699   625.4380   2   8   0.0147   0.0292   0.0521   0.0096  -0.0230  -0.0166   2.00    0.0
2024/05/08 08:41:33.000   28.454253946  -16.326899705   625.4394   2   8   0.0147   0.0292   0.0522   0.0096  -0.0230  -0.0166   3.00    0.0
2024/05/08 08:41:34.000   28.454253947  -16.326899710   625.4404   2   8   0.0147   0.0293   0.0522   0.0096  -0.0230  -0.0166   4.00    0.0
2024/05/08 08:41:35.000   28.454253948  -16.326899713   625.4411   2   8   0.0147   0.0293   0.0523   0.0096  -0.0230  -0.0167   5.00    0.0
2024/05/08 08:41:36.000   28.454253948  -16.326899715   625.4417   2   8   0.0147   0.0293   0.0523   0.0096  -0.0230  -0.0167   6.00    0.0
2024/05/08 08:41:37.000   28.454253948  -16.326899717   625.4422   2   8   0.0147   0.0293   0.0523   0.0096  -0.0230  -0.0167   7.00    0.0
2024/05/08 08:41:38.000   28.454253948  -16.326899719   625.4428   2   8   0.0147   0.0293   0.0524   0.0096  -0.0230  -0.0167   8.00    0.0
2024/05/08 08:41:39.000   28.454253948  -16.326899720   625.4433   2   8   0.0147   0.0293   0.0524   0.0096  -0.0230  -0.0167   9.00    0.0
2024/05/08 08:41:40.000   28.454253948  -16.326899720   625.4436   2   8   0.0147   0.0293   0.0524   0.0096  -0.0230  -0.0167  10.00    0.0
2024/05/08 08:41:41.000   28.454253947  -16.326899721   625.4440   2   8   0.0147   0.0293   0.0524   0.0096  -0.0230  -0.0167  11.00    0.0
2024/05/08 08:41:42.000   28.454253948  -16.326899721   625.4441   2   8   0.0147   0.0293   0.0524   0.0096  -0.0230  -0.0167  12.00    0.0
2024/05/08 08:41:43.000   28.454253948  -16.326899721   625.4443   2   8   0.0147   0.0293   0.0524   0.0096  -0.0230  -0.0167  13.00    0.0
2024/05/08 08:41:44.000   28.454253948  -16.326899720   625.4445   2   8   0.0147   0.0293   0.0524   0.0096  -0.0230  -0.0167  14.00    0.0
2024/05/08 08:41:45.000   28.454253948  -16.326899720   625.4446   2   8   0.0147   0.0293   0.0524   0.0096  -0.0230  -0.0167 -15.00    0.0
2024/05/08 08:41:46.000   28.454253948  -16.326899720   625.4447   2   8   0.0147   0.0293   0.0524   0.0096  -0.0230  -0.0167 -14.00    0.0
2024/05/08 08:41:47.000   28.454253948  -16.326899720   625.4448   2   8   0.0148   0.0293   0.0524   0.0096  -0.0230  -0.0167 -13.00    0.0
2024/05/08 08:41:48.000   28.454253948  -16.326899719   625.4451   2   8   0.0148   0.0293   0.0524   0.0096  -0.0230  -0.0167 -12.00    0.0
2024/05/08 08:41:49.000   28.454253948  -16.326899719   625.4455   2   8   0.0148   0.0293   0.0524   0.0096  -0.0230  -0.0167 -11.00    0.0
2024/05/08 08:41:50.000   28.454253948  -16.326899719   625.4459   2   8   0.0148   0.0293   0.0525   0.0096  -0.0230  -0.0167 -10.00    0.0
2024/05/08 08:41:51.000   28.454253948  -16.326899718   625.4462   2   8   0.0148   0.0293   0.0525   0.0096  -0.0230  -0.0167  -9.00    0.0
2024/05/08 08:41:52.000   28.454253948  -16.326899718   625.4466   2   8   0.0148   0.0293   0.0525   0.0096  -0.0230  -0.0167  -8.00    0.0
2024/05/08 08:41:53.000   28.454253948  -16.326899718   625.4471   2   8   0.0148   0.0293   0.0525   0.0096  -0.0230  -0.0167  -7.00    0.0
2024/05/08 08:41:54.000   28.454253948  -16.326899717   625.4474   2   8   0.0148   0.0293   0.0525   0.0096  -0.0230  -0.0167  -6.00    0.0
2024/05/08 08:41:55.000   28.454253949  -16.326899717   625.4475   2   8   0.0148   0.0293   0.0525   0.0096  -0.0230  -0.0167  -5.00    0.0
2024/05/08 08:41:56.000   28.454253949  -16.326899716   625.4478   2   8   0.0148   0.0293   0.0526   0.0096  -0.0230  -0.0167  -4.00    0.0
2024/05/08 08:41:57.000   28.454253950  -16.326899716   625.4481   2   8   0.0148   0.0293   0.0526   0.0096  -0.0230  -0.0167  -3.00    0.0
2024/05/08 08:41:58.000   28.454253950  -16.326899719   625.4491   2   8   0.0148   0.0293   0.0527   0.0096  -0.0230  -0.0167  -2.00    0.0
2024/05/08 08:41:59.000   28.454253949  -16.326899721   625.4503   2   8   0.0148   0.0294   0.0527   0.0096  -0.0230  -0.0167  -1.00    0.0
2024/05/08 08:42:00.000   28.454253951  -16.326899719   625.4511   2   8   0.0148   0.0294   0.0528   0.0096  -0.0230  -0.0167   0.00    0.0
2024/05/08 08:42:01.000   28.454253951  -16.326899721   625.4521   2   8   0.0149   0.0294   0.0528   0.0096  -0.0231  -0.0167   1.00    0.0
2024/05/08 08:42:02.000   28.454253951  -16.326899723   625.4535   2   8   0.0149   0.0294   0.0529   0.0096  -0.0231  -0.0168   2.00    0.0
2024/05/08 08:42:03.000   28.454253951  -16.326899725   625.4548   2   8   0.0149   0.0294   0.0530   0.0096  -0.0231  -0.0168   3.00    0.0
2024/05/08 08:42:04.000   28.454253953  -16.326899724   625.4556   2   8   0.0149   0.0295   0.0530   0.0097  -0.0231  -0.0168   4.00    0.0
2024/05/08 08:42:05.000   28.454253952  -16.326899724   625.4563   2   8   0.0149   0.0295   0.0530   0.0097  -0.0231  -0.0168   5.00    0.0
2024/05/08 08:42:06.000   28.454253951  -16.326899724   625.4569   2   8   0.0149   0.0295   0.0531   0.0097  -0.0231  -0.0168   6.00    0.0
2024/05/08 08:42:07.000   28.454253950  -16.326899723   625.4574   2   8   0.0149   0.0295   0.0531   0.0097  -0.0231  -0.0168   7.00    0.0
2024/05/08 08:42:08.000   28.454253950  -16.326899723   625.4581   2   8   0.0149   0.0295   0.0531   0.0097  -0.0231  -0.0168   8.00    0.0
2024/05/08 08:42:09.000   28.454253949  -16.326899724   625.4587   2   8   0.0150   0.0295   0.0531   0.0097  -0.0231  -0.0168   9.00    0.0
2024/05/08 08:42:10.000   28.454253949  -16.326899723   625.4590   2   8   0.0150   0.0295   0.0532   0.0097  -0.0231  -0.0168  10.00    0.0
2024/05/08 08:42:11.000   28.454253949  -16.326899723   625.4593   2   8   0.0150   0.0295   0.0532   0.0097  -0.0231  -0.0168  11.00    0.0
2024/05/08 08:42:12.000   28.454253948  -16.326899722   625.4595   2   8   0.0150   0.0295   0.0532   0.0097  -0.0231  -0.0168  12.00    0.0
2024/05/08 08:42:13.000   28.454253948  -16.326899721   625.4598   2   8   0.0150   0.0295   0.0532   0.0097  -0.0231  -0.0168  13.00    0.0
2024/05/08 08:42:14.000   28.454253948  -16.326899720   625.4601   2   8   0.0150   0.0295   0.0532   0.0097  -0.0231  -0.0168  14.00    0.0
2024/05/08 08:42:15.000   28.454253948  -16.326899720   625.4603   2   8   0.0150   0.0295   0.0532   0.0097  -0.0231  -0.0168 -15.00    0.0
2024/05/08 08:42:16.000   28.454253948  -16.326899719   625.4604   2   8   0.0150   0.0295   0.0532   0.0097  -0.0231  -0.0168 -14.00    0.0
2024/05/08 08:42:17.000   28.454253948  -16.326899719   625.4605   2   8   0.0150   0.0295   0.0532   0.0097  -0.0231  -0.0168 -13.00    0.0
2024/05/08 08:42:18.000   28.454253948  -16.326899719   625.4607   2   8   0.0150   0.0295   0.0532   0.0097  -0.0231  -0.0168 -12.00    0.0
2024/05/08 08:42:19.000   28.454253948  -16.326899718   625.4608   2   8   0.0150   0.0295   0.0532   0.0097  -0.0231  -0.0168 -11.00    0.0
2024/05/08 08:42:20.000   28.454253948  -16.326899718   625.4607   2   8   0.0150   0.0295   0.0532   0.0097  -0.0231  -0.0168 -10.00    0.0
2024/05/08 08:42:21.000   28.454253948  -16.326899718   625.4607   2   8   0.0150   0.0295   0.0532   0.0097  -0.0231  -0.0168  -9.00    0.0
2024/05/08 08:42:22.000   28.454253948  -16.326899717   625.4609   2   8   0.0150   0.0295   0.0532   0.0097  -0.0231  -0.0168  -8.00    0.0
2024/05/08 08:42:23.000   28.454253948  -16.326899716   625.4610   2   8   0.0150   0.0295   0.0533   0.0097  -0.0231  -0.0168  -7.00    0.0
2024/05/08 08:42:24.000   28.454253948  -16.326899716   625.4612   2   8   0.0150   0.0295   0.0533   0.0097  -0.0231  -0.0168  -6.00    0.0
2024/05/08 08:42:25.000   28.454253948  -16.326899716   625.4616   2   8   0.0150   0.0295   0.0533   0.0097  -0.0231  -0.0168  -5.00    0.0
2024/05/08 08:42:26.000   28.454253948  -16.326899716   625.4623   2   8   0.0150   0.0295   0.0533   0.0097  -0.0231  -0.0168  -4.00    0.0
2024/05/08 08:42:27.000   28.454253946  -16.326899716   625.4630   2   8   0.0150   0.0295   0.0534   0.0097  -0.0231  -0.0168  -3.00    0.0
2024/05/08 08:42:28.000   28.454253946  -16.326899716   625.4636   2   8   0.0150   0.0295   0.0534   0.0097  -0.0231  -0.0168  -2.00    0.0
2024/05/08 08:42:29.000   28.454253945  -16.326899718   625.4648   2   8   0.0150   0.0296   0.0535   0.0097  -0.0231  -0.0168  -1.00    0.0
2024/05/08 08:42:30.000   28.454253944  -16.326899718   625.4661   2   8   0.0151   0.0296   0.0535   0.0097  -0.0231  -0.0169   0.00    0.0
2024/05/08 08:42:31.000   28.454253945  -16.326899719   625.4672   2   8   0.0151   0.0296   0.0536   0.0097  -0.0231  -0.0169   1.00    0.0
2024/05/08 08:42:32.000   28.454253945  -16.326899720   625.4685   2   8   0.0151   0.0296   0.0536   0.0097  -0.0231  -0.0169   2.00    0.0
2024/05/08 08:42:33.000   28.454253944  -16.326899720   625.4698   2   8   0.0151   0.0296   0.0537   0.0097  -0.0231  -0.0169   3.00    0.0
2024/05/08 08:42:34.000   28.454253944  -16.326899721   625.4703   2   8   0.0151   0.0297   0.0537   0.0097  -0.0232  -0.0169   4.00    0.0
2024/05/08 08:42:35.000   28.454253944  -16.326899722   625.4711   2   8   0.0151   0.0297   0.0538   0.0097  -0.0232  -0.0169   5.00    0.0
2024/05/08 08:42:36.000   28.454253944  -16.326899723   625.4718   2   8   0.0151   0.0297   0.0538   0.0097  -0.0232  -0.0169   6.00    0.0
2024/05/08 08:42:37.000   28.454253944  -16.326899725   625.4722   2   8   0.0152   0.0297   0.0538   0.0097  -0.0232  -0.0169   7.00    0.0
2024/05/08 08:42:38.000   28.454253943  -16.326899727   625.4729   2   8   0.0152   0.0297   0.0539   0.0097  -0.0232  -0.0169   8.00    0.0
2024/05/08 08:42:39.000   28.454253942  -16.326899729   625.4736   2   8   0.0152   0.0297   0.0539   0.0097  -0.0232  -0.0169   9.00    0.0
2024/05/08 08:42:40.000   28.454253942  -16.326899731   625.4741   2   8   0.0152   0.0297   0.0539   0.0097  -0.0232  -0.0169  10.00    0.0
2024/05/08 08:42:41.000   28.454253941  -16.326899733   625.4746   2   8   0.0152   0.0297   0.0539   0.0097  -0.0232  -0.0169  11.00    0.0
2024/05/08 08:42:42.000   28.454253941  -16.326899734   625.4750   2   8   0.0152   0.0297   0.0539   0.0097  -0.0232  -0.0169  12.00    0.0
2024/05/08 08:42:43.000   28.454253941  -16.326899734   625.4752   2   8   0.0152   0.0297   0.0539   0.0097  -0.0232  -0.0169  13.00    0.0
2024/05/08 08:42:44.000   28.454253941  -16.326899735   625.4754   2   8   0.0152   0.0297   0.0539   0.0097  -0.0232  -0.0169  14.00    0.0
2024/05/08 08:42:45.000   28.454253941  -16.326899735   625.4755   2   8   0.0152   0.0297   0.0539   0.0097  -0.0232  -0.0169 -15.00    0.0
2024/05/08 08:42:46.000   28.454253941  -16.326899736   625.4757   2   8   0.0152   0.0297   0.0539   0.0097  -0.0232  -0.0169 -14.00    0.0
2024/05/08 08:42:47.000   28.454253941  -16.326899737   625.4759   2   8   0.0152   0.0297   0.0539   0.0097  -0.0231  -0.0169 -13.00    0.0
2024/05/08 08:42:48.000   28.454253941  -16.326899738   625.4760   2   8   0.0152   0.0297   0.0539   0.0097  -0.0231  -0.0169 -12.00    0.0
2024/05/08 08:42:49.000   28.454253941  -16.326899738   625.4761   2   8   0.0152   0.0297   0.0539   0.0097  -0.0231  -0.0169 -11.00    0.0
2024/05/08 08:42:50.000   28.454253941  -16.326899739   625.4762   2   8   0.0152   0.0297   0.0539   0.0097  -0.0231  -0.0169 -10.00    0.0
2024/05/08 08:42:51.000   28.454253942  -16.326899740   625.4762   2   8   0.0152   0.0297   0.0539   0.0097  -0.0231  -0.0169  -9.00    0.0
2024/05/08 08:42:52.000   28.454253942  -16.326899741   625.4762   2   8   0.0152   0.0297   0.0540   0.0097  -0.0231  -0.0169  -8.00    0.0
2024/05/08 08:42:53.000   28.454253942  -16.326899742   625.4763   2   8   0.0152   0.0297   0.0540   0.0097  -0.0231  -0.0169  -7.00    0.0
2024/05/08 08:42:54.000   28.454253942  -16.326899743   625.4763   2   8   0.0152   0.0297   0.0540   0.0097  -0.0231  -0.0169  -6.00    1.1
2024/05/08 08:42:55.000   28.454253943  -16.326899746   625.4767   2   8   0.0152   0.0297   0.0540   0.0097  -0.0231  -0.0169  -5.00    1.1
2024/05/08 08:42:56.000   28.454253943  -16.326899748   625.4773   2   8   0.0152   0.0297   0.0540   0.0097  -0.0231  -0.0169  -4.00    2.4
2024/05/08 08:42:57.000   28.454253943  -16.326899750   625.4778   2   8   0.0152   0.0297   0.0541   0.0097  -0.0231  -0.0169  -3.00    1.0
2024/05/08 08:42:58.000   28.454253943  -16.326899753   625.4781   2   8   0.0152   0.0297   0.0541   0.0097  -0.0231  -0.0169  -2.00    1.1
2024/05/08 08:42:59.000   28.454253944  -16.326899752   625.4783   2   8   0.0152   0.0298   0.0541   0.0097  -0.0232  -0.0169  -1.00    3.0
2024/05/08 08:43:00.000   28.454253307  -16.326896849   625.2952   1   8   0.0720   0.0041   0.1635  -0.0112  -0.0166   0.1080   0.00    4.7
2024/05/08 08:43:01.000   28.454253298  -16.326896849   625.2922   1   8   0.0710   0.0040   0.1612  -0.0110  -0.0163   0.1065   1.00    4.3
2024/05/08 08:43:02.000   28.454253295  -16.326896849   625.2909   1   8   0.0701   0.0040   0.1593  -0.0109  -0.0162   0.1052   2.00    4.1
2024/05/08 08:43:03.000   28.454253283  -16.326896849   625.2876   1   8   0.0694   0.0040   0.1576  -0.0108  -0.0160   0.1041   3.00    3.8
2024/05/08 08:43:04.000   28.454253277  -16.326896848   625.2860   1   8   0.0688   0.0039   0.1563  -0.0107  -0.0159   0.1032   4.00    3.5
2024/05/08 08:43:05.000   28.454253276  -16.326896848   625.2857   1   8   0.0683   0.0039   0.1551  -0.0107  -0.0158   0.1024   5.00    3.3
2024/05/08 08:43:06.000   28.454253280  -16.326896848   625.2864   1   8   0.0678   0.0039   0.1541  -0.0106  -0.0158   0.1017   6.00    3.1
2024/05/08 08:43:07.000   28.454253941  -16.326899768   625.4839   2   8   0.0154   0.0299   0.0545   0.0097  -0.0232  -0.0170   7.00    3.0
2024/05/08 08:43:08.000   28.454252888  -16.326896836   625.1884   1   8   0.0056   0.0034   0.0237   0.0033   0.0054   0.0077   8.00    4.0
2024/05/08 08:43:09.000   28.454252889  -16.326896836   625.1886   1   8   0.0056   0.0034   0.0237   0.0033   0.0054   0.0077   9.00    3.9
2024/05/08 08:43:10.000   28.454252890  -16.326896835   625.1889   1   8   0.0056   0.0034   0.0236   0.0032   0.0054   0.0077  10.00    3.8
2024/05/08 08:43:11.000   28.454252887  -16.326896837   625.1884   1   8   0.0056   0.0034   0.0235   0.0032   0.0053   0.0076  11.00    3.7
2024/05/08 08:43:12.000   28.454252888  -16.326896836   625.1890   1   8   0.0056   0.0034   0.0234   0.0032   0.0053   0.0076  12.00    4.3
2024/05/08 08:43:13.000   28.454252888  -16.326896836   625.1890   1   8   0.0055   0.0034   0.0234   0.0032   0.0053   0.0076  13.00    4.2
2024/05/08 08:43:14.000   28.454252888  -16.326896836   625.1892   1   8   0.0055   0.0034   0.0233   0.0032   0.0053   0.0076  14.00    4.0
2024/05/08 08:43:15.000   28.454252889  -16.326896836   625.1893   1   8   0.0055   0.0034   0.0233   0.0032   0.0053   0.0076 -15.00    3.9
2024/05/08 08:43:16.000   28.454252889  -16.326896835   625.1895   1   8   0.0055   0.0033   0.0233   0.0032   0.0052   0.0076 -14.00    3.8
2024/05/08 08:43:17.000   28.454253932  -16.326899792   625.4902   2   7   0.0154   0.0299   0.0546   0.0097  -0.0232  -0.0170 -13.00    1.3
2024/05/08 08:43:18.000   28.454253931  -16.326899795   625.4909   2   7   0.0154   0.0299   0.0546   0.0097  -0.0232  -0.0170 -12.00    1.2
2024/05/08 08:43:19.000   28.454253930  -16.326899798   625.4917   2   7   0.0154   0.0299   0.0546   0.0097  -0.0232  -0.0170 -11.00    1.0
2024/05/08 08:43:20.000   28.454253928  -16.326899801   625.4925   2   7   0.0154   0.0299   0.0546   0.0097  -0.0232  -0.0170 -10.00    1.1
2024/05/08 08:43:21.000   28.454253927  -16.326899804   625.4933   2   7   0.0154   0.0299   0.0546   0.0097  -0.0232  -0.0170  -9.00    1.0
2024/05/08 08:43:22.000   28.454253926  -16.326899807   625.4943   2   7   0.0154   0.0299   0.0546   0.0097  -0.0232  -0.0170  -8.00    1.1
2024/05/08 08:43:23.000   28.454253925  -16.326899809   625.4951   2   7   0.0154   0.0299   0.0546   0.0097  -0.0232  -0.0170  -7.00    1.2
2024/05/08 08:43:24.000   28.454253924  -16.326899811   625.4961   2   7   0.0154   0.0299   0.0546   0.0097  -0.0232  -0.0170  -6.00    1.4
2024/05/08 08:43:25.000   28.454253922  -16.326899813   625.4972   2   7   0.0154   0.0299   0.0547   0.0097  -0.0232  -0.0170  -5.00    1.3
2024/05/08 08:43:26.000   28.454253921  -16.326899816   625.4983   2   7   0.0154   0.0299   0.0547   0.0097  -0.0232  -0.0170  -4.00    1.4
2024/05/08 08:43:27.000   28.454253921  -16.326899818   625.4997   2   7   0.0154   0.0299   0.0547   0.0097  -0.0232  -0.0170  -3.00    1.2
2024/05/08 08:43:28.000   28.454253921  -16.326899819   625.5010   2   7   0.0154   0.0299   0.0547   0.0097  -0.0232  -0.0170  -2.00    1.1
2024/05/08 08:43:29.000   28.454253921  -16.326899819   625.5017   2   7   0.0154   0.0299   0.0548   0.0097  -0.0232  -0.0170  -1.00    1.2
2024/05/08 08:43:30.000   28.454253922  -16.326899818   625.5024   2   7   0.0155   0.0300   0.0548   0.0097  -0.0232  -0.0170   0.00    1.2
2024/05/08 08:43:31.000   28.454253924  -16.326899818   625.5029   2   7   0.0155   0.0300   0.0549   0.0097  -0.0232  -0.0170   1.00    1.4
2024/05/08 08:43:32.000   28.454253927  -16.326899818   625.5028   2   7   0.0155   0.0300   0.0550   0.0097  -0.0232  -0.0170   2.00    1.3
2024/05/08 08:43:33.000   28.454253929  -16.326899818   625.5027   2   7   0.0155   0.0300   0.0550   0.0097  -0.0232  -0.0170   3.00    1.4
2024/05/08 08:43:34.000   28.454253931  -16.326899817   625.5028   2   7   0.0155   0.0300   0.0551   0.0097  -0.0232  -0.0170   4.00    1.1
2024/05/08 08:43:35.000   28.454253933  -16.326899816   625.5033   2   7   0.0155   0.0300   0.0551   0.0097  -0.0232  -0.0171   5.00    1.1
2024/05/08 08:43:36.000   28.454253935  -16.326899817   625.5031   2   7   0.0155   0.0301   0.0551   0.0097  -0.0232  -0.0171   6.00    1.2
2024/05/08 08:43:37.000   28.454253938  -16.326899818   625.5028   2   7   0.0156   0.0301   0.0551   0.0097  -0.0232  -0.0171   7.00    1.2
2024/05/08 08:43:38.000   28.454253939  -16.326899819   625.5026   2   7   0.0156   0.0301   0.0552   0.0097  -0.0232  -0.0171   8.00    1.3
2024/05/08 08:43:39.000   28.454253940  -16.326899820   625.5027   2   7   0.0156   0.0301   0.0552   0.0097  -0.0232  -0.0171   9.00    1.2
2024/05/08 08:43:40.000   28.454253941  -16.326899822   625.5027   2   7   0.0156   0.0301   0.0552   0.0097  -0.0232  -0.0171  10.00    1.4
2024/05/08 08:43:41.000   28.454253941  -16.326899824   625.5026   2   7   0.0156   0.0301   0.0552   0.0097  -0.0232  -0.0171  11.00    1.1
2024/05/08 08:43:42.000   28.454253942  -16.326899826   625.5026   2   7   0.0156   0.0301   0.0552   0.0097  -0.0232  -0.0171  12.00    1.1
2024/05/08 08:43:43.000   28.454253942  -16.326899827   625.5025   2   7   0.0156   0.0301   0.0552   0.0097  -0.0232  -0.0171  13.00    1.2
2024/05/08 08:43:44.000   28.454253943  -16.326899828   625.5025   2   7   0.0156   0.0301   0.0552   0.0097  -0.0232  -0.0171  14.00    1.1
2024/05/08 08:43:45.000   28.454253943  -16.326899829   625.5025   2   7   0.0156   0.0301   0.0552   0.0097  -0.0232  -0.0171 -15.00    1.3
2024/05/08 08:43:46.000   28.454253943  -16.326899830   625.5025   2   7   0.0156   0.0301   0.0552   0.0097  -0.0232  -0.0171 -14.00    1.1
2024/05/08 08:43:47.000   28.454253944  -16.326899831   625.5025   2   7   0.0156   0.0301   0.0552   0.0097  -0.0232  -0.0171 -13.00    1.4
2024/05/08 08:43:48.000   28.454253944  -16.326899832   625.5024   2   7   0.0156   0.0301   0.0552   0.0097  -0.0232  -0.0171 -12.00    1.1
2024/05/08 08:43:49.000   28.454253945  -16.326899833   625.5023   2   7   0.0156   0.0301   0.0552   0.0097  -0.0232  -0.0171 -11.00    1.1
2024/05/08 08:43:50.000   28.454253945  -16.326899835   625.5023   2   7   0.0156   0.0301   0.0552   0.0097  -0.0232  -0.0171 -10.00    1.2
2024/05/08 08:43:51.000   28.454253946  -16.326899836   625.5021   2   7   0.0156   0.0301   0.0552   0.0097  -0.0232  -0.0171  -9.00    1.1
2024/05/08 08:43:52.000   28.454253947  -16.326899837   625.5019   2   7   0.0156   0.0301   0.0552   0.0097  -0.0232  -0.0171  -8.00    1.4
2024/05/08 08:43:53.000   28.454253948  -16.326899837   625.5017   2   7   0.0156   0.0301   0.0553   0.0097  -0.0232  -0.0171  -7.00    1.0
2024/05/08 08:43:54.000   28.454253949  -16.326899837   625.5013   2   7   0.0156   0.0301   0.0553   0.0097  -0.0232  -0.0171  -6.00    1.3
2024/05/08 08:43:55.000   28.454253950  -16.326899837   625.5009   2   7   0.0156   0.0301   0.0553   0.0097  -0.0232  -0.0171  -5.00    1.0
2024/05/08 08:43:56.000   28.454253951  -16.326899837   625.5003   2   7   0.0156   0.0301   0.0553   0.0097  -0.0232  -0.0171  -4.00    1.0
2024/05/08 08:43:57.000   28.454253953  -16.326899836   625.4992   2   7   0.0156   0.0301   0.0553   0.0097  -0.0232  -0.0171  -3.00    1.0
2024/05/08 08:43:58.000   28.454253954  -16.326899832   625.4977   2   7   0.0156   0.0301   0.0554   0.0097  -0.0232  -0.0171  -2.00    1.0
2024/05/08 08:43:59.000   28.454253956  -16.326899827   625.4960   2   7   0.0156   0.0301   0.0554   0.0097  -0.0232  -0.0171  -1.00    1.3
2024/05/08 08:44:00.000   28.454253958  -16.326899822   625.4938   2   7   0.0157   0.0301   0.0555   0.0097  -0.0232  -0.0171   0.00    1.3
2024/05/08 08:44:01.000   28.454253962  -16.326899817   625.4923   2   7   0.0157   0.0302   0.0555   0.0097  -0.0232  -0.0171   1.00    1.3
2024/05/08 08:44:02.000   28.454253964  -16.326899813   625.4908   2   7   0.0157   0.0302   0.0556   0.0098  -0.0232  -0.0171   2.00    1.2
2024/05/08 08:44:03.000   28.454253966  -16.326899813   625.4902   2   7   0.0157   0.0302   0.0556   0.0098  -0.0232  -0.0171   3.00    1.1
2024/05/08 08:44:04.000   28.454253967  -16.326899814   625.4897   2   7   0.0157   0.0302   0.0557   0.0098  -0.0232  -0.0171   4.00    1.2
2024/05/08 08:44:05.000   28.454253969  -16.326899813   625.4892   2   7   0.0157   0.0302   0.0557   0.0098  -0.0232  -0.0171   5.00    1.0
2024/05/08 08:44:06.000   28.454253970  -16.326899814   625.4886   2   7   0.0157   0.0302   0.0557   0.0098  -0.0232  -0.0171   6.00    1.2
2024/05/08 08:44:07.000   28.454253971  -16.326899815   625.4884   2   7   0.0157   0.0302   0.0557   0.0098  -0.0233  -0.0171   7.00    1.4
2024/05/08 08:44:08.000   28.454253972  -16.326899817   625.4882   2   7   0.0157   0.0302   0.0557   0.0098  -0.0233  -0.0171   8.00    1.3
2024/05/08 08:44:09.000   28.454253972  -16.326899818   625.4879   2   7   0.0157   0.0302   0.0558   0.0098  -0.0233  -0.0171   9.00    1.2
2024/05/08 08:44:10.000   28.454253973  -16.326899819   625.4877   2   7   0.0157   0.0302   0.0558   0.0098  -0.0232  -0.0171  10.00    1.1
2024/05/08 08:44:11.000   28.454253973  -16.326899821   625.4875   2   7   0.0158   0.0302   0.0558   0.0098  -0.0232  -0.0171  11.00    1.3
2024/05/08 08:44:12.000   28.454253974  -16.326899822   625.4873   2   7   0.0158   0.0302   0.0558   0.0098  -0.0232  -0.0171  12.00    1.0
2024/05/08 08:44:13.000   28.454253974  -16.326899822   625.4871   2   7   0.0158   0.0302   0.0558   0.0098  -0.0232  -0.0171  13.00    1.1
2024/05/08 08:44:14.000   28.454253974  -16.326899822   625.4869   2   7   0.0158   0.0302   0.0558   0.0098  -0.0232  -0.0171  14.00    1.4
2024/05/08 08:44:15.000   28.454253975  -16.326899822   625.4866   2   7   0.0158   0.0302   0.0558   0.0098  -0.0232  -0.0171 -15.00    1.3
2024/05/08 08:44:16.000   28.454253976  -16.326899822   625.4862   2   7   0.0158   0.0302   0.0558   0.0098  -0.0232  -0.0171 -14.00    1.2
2024/05/08 08:44:17.000   28.454253977  -16.326899822   625.4858   2   7   0.0158   0.0302   0.0558   0.0098  -0.0232  -0.0171 -13.00    1.0
2024/05/08 08:44:18.000   28.454253978  -16.326899821   625.4854   2   7   0.0158   0.0302   0.0558   0.0098  -0.0232  -0.0171 -12.00    1.2
2024/05/08 08:44:19.000   28.454253979  -16.326899821   625.4849   2   7   0.0158   0.0302   0.0558   0.0098  -0.0232  -0.0171 -11.00    1.0
2024/05/08 08:44:20.000   28.454253980  -16.326899822   625.4843   2   7   0.0158   0.0302   0.0558   0.0098  -0.0232  -0.0171 -10.00    1.1
2024/05/08 08:44:21.000   28.454253981  -16.326899821   625.4839   2   7   0.0158   0.0302   0.0558   0.0098  -0.0232  -0.0171  -9.00    1.4
2024/05/08 08:44:22.000   28.454253983  -16.326899820   625.4835   2   7   0.0158   0.0302   0.0558   0.0098  -0.0232  -0.0171  -8.00    1.3
2024/05/08 08:44:23.000   28.454253985  -16.326899818   625.4827   2   7   0.0158   0.0302   0.0558   0.0098  -0.0232  -0.0171  -7.00    1.2
2024/05/08 08:44:24.000   28.454253988  -16.326899817   625.4819   2   7   0.0158   0.0302   0.0558   0.0098  -0.0232  -0.0171  -6.00    1.1
2024/05/08 08:44:25.000   28.454253990  -16.326899816   625.4812   2   7   0.0158   0.0302   0.0559   0.0097  -0.0232  -0.0171  -5.00    1.2
2024/05/08 08:44:26.000   28.454253992  -16.326899816   625.4806   2   7   0.0158   0.0303   0.0559   0.0097  -0.0232  -0.0171  -4.00    1.0
2024/05/08 08:44:27.000   28.454253995  -16.326899814   625.4796   2   7   0.0158   0.0303   0.0559   0.0098  -0.0232  -0.0171  -3.00    1.0
2024/05/08 08:44:28.000   28.454253998  -16.326899812   625.4786   2   7   0.0158   0.0303   0.0559   0.0098  -0.0232  -0.0171  -2.00    1.5
2024/05/08 08:44:29.000   28.454254002  -16.326899812   625.4773   2   7   0.0158   0.0303   0.0560   0.0098  -0.0232  -0.0171  -1.00    1.2
2024/05/08 08:44:30.000   28.454254006  -16.326899812   625.4756   2   7   0.0158   0.0303   0.0560   0.0098  -0.0232  -0.0171   0.00    1.3
2024/05/08 08:44:31.000   28.454254012  -16.326899813   625.4739   2   7   0.0158   0.0303   0.0561   0.0098  -0.0232  -0.0171   1.00    1.1
2024/05/08 08:44:32.000   28.454254018  -16.326899813   625.4725   2   7   0.0159   0.0303   0.0561   0.0098  -0.0232  -0.0171   2.00    1.4
2024/05/08 08:44:33.000   28.454254022  -16.326899812   625.4712   2   7   0.0159   0.0303   0.0562   0.0098  -0.0233  -0.0171   3.00    1.0
2024/05/08 08:44:34.000   28.454254026  -16.326899811   625.4696   2   7   0.0159   0.0304   0.0562   0.0098  -0.0233  -0.0171   4.00    1.1
2024/05/08 08:44:35.000   28.454254029  -16.326899810   625.4681   2   7   0.0159   0.0304   0.0562   0.0098  -0.0233  -0.0171   5.00    1.4
2024/05/08 08:44:36.000   28.454254031  -16.326899811   625.4673   2   7   0.0159   0.0304   0.0562   0.0098  -0.0233  -0.0171   6.00    1.2
2024/05/08 08:44:37.000   28.454254032  -16.326899811   625.4664   2   7   0.0159   0.0304   0.0563   0.0098  -0.0233  -0.0171   7.00    1.4
2024/05/08 08:44:38.000   28.454254033  -16.326899811   625.4656   2   7   0.0159   0.0304   0.0563   0.0098  -0.0233  -0.0171   8.00    1.0
2024/05/08 08:44:39.000   28.454254035  -16.326899810   625.4650   2   7   0.0159   0.0304   0.0563   0.0098  -0.0233  -0.0171   9.00    1.4
2024/05/08 08:44:40.000   28.454254036  -16.326899809   625.4644   2   7   0.0159   0.0304   0.0563   0.0098  -0.0233  -0.0171  10.00    1.0
2024/05/08 08:44:41.000   28.454254038  -16.326899809   625.4639   2   7   0.0159   0.0304   0.0563   0.0098  -0.0233  -0.0171  11.00    1.1
2024/05/08 08:44:42.000   28.454254039  -16.326899807   625.4635   2   7   0.0159   0.0304   0.0563   0.0098  -0.0233  -0.0171  12.00    1.4
2024/05/08 08:44:43.000   28.454254040  -16.326899807   625.4632   2   7   0.0159   0.0304   0.0563   0.0098  -0.0233  -0.0171  13.00    1.1
2024/05/08 08:44:44.000   28.454254041  -16.326899806   625.4628   2   7   0.0159   0.0304   0.0563   0.0098  -0.0233  -0.0171  14.00    1.4
2024/05/08 08:44:45.000   28.454254042  -16.326899806   625.4625   2   7   0.0159   0.0304   0.0563   0.0098  -0.0233  -0.0171 -15.00    1.0
2024/05/08 08:44:46.000   28.454254042  -16.326899805   625.4622   2   7   0.0159   0.0304   0.0563   0.0098  -0.0232  -0.0171 -14.00    1.5
2024/05/08 08:44:47.000   28.454254043  -16.326899804   625.4619   2   7   0.0159   0.0304   0.0563   0.0098  -0.0232  -0.0171 -13.00    1.0
2024/05/08 08:44:48.000   28.454254044  -16.326899803   625.4616   2   7   0.0159   0.0304   0.0563   0.0098  -0.0232  -0.0171 -12.00    1.0
2024/05/08 08:44:49.000   28.454254045  -16.326899803   625.4612   2   7   0.0159   0.0304   0.0563   0.0098  -0.0232  -0.0171 -11.00    1.3
2024/05/08 08:44:50.000   28.454254046  -16.326899802   625.4608   2   7   0.0159   0.0304   0.0563   0.0098  -0.0232  -0.0171 -10.00    1.1
2024/05/08 08:44:51.000   28.454254048  -16.326899801   625.4604   2   7   0.0159   0.0304   0.0563   0.0098  -0.0232  -0.0171  -9.00    1.3
2024/05/08 08:44:52.000   28.454254049  -16.326899801   625.4599   2   7   0.0159   0.0304   0.0563   0.0098  -0.0232  -0.0171  -8.00    1.0
2024/05/08 08:44:53.000   28.454254051  -16.326899800   625.4592   2   7   0.0159   0.0304   0.0564   0.0098  -0.0232  -0.0171  -7.00    1.5
2024/05/08 08:44:54.000   28.454254052  -16.326899798   625.4584   2   7   0.0159   0.0304   0.0564   0.0098  -0.0232  -0.0171  -6.00    1.0
2024/05/08 08:44:55.000   28.454254055  -16.326899797   625.4573   2   7   0.0159   0.0304   0.0564   0.0098  -0.0232  -0.0171  -5.00    1.0
2024/05/08 08:44:56.000   28.454254058  -16.326899794   625.4561   2   7   0.0159   0.0304   0.0564   0.0098  -0.0232  -0.0171  -4.00    1.3
2024/05/08 08:44:57.000   28.454254062  -16.326899789   625.4546   2   7   0.0160   0.0304   0.0564   0.0098  -0.0232  -0.0171  -3.00    1.1
2024/05/08 08:44:58.000   28.454254066  -16.326899781   625.4530   2   7   0.0160   0.0304   0.0564   0.0098  -0.0232  -0.0171  -2.00    1.3
2024/05/08 08:44:59.000   28.454254071  -16.326899773   625.4515   2   7   0.0160   0.0304   0.0565   0.0098  -0.0232  -0.0171  -1.00    1.0
2024/05/08 08:45:00.000   28.454254076  -16.326899765   625.4503   2   7   0.0160   0.0304   0.0565   0.0098  -0.0232  -0.0171   0.00    1.5
2024/05/08 08:45:01.000   28.454254081  -16.326899757   625.4491   2   7   0.0160   0.0305   0.0565   0.0098  -0.0232  -0.0171   1.00    1.0
2024/05/08 08:45:02.000   28.454254085  -16.326899748   625.4478   2   7   0.0160   0.0305   0.0566   0.0098  -0.0232  -0.0171   2.00    1.0
2024/05/08 08:45:03.000   28.454254088  -16.326899741   625.4474   2   7   0.0160   0.0305   0.0566   0.0098  -0.0232  -0.0172   3.00    1.4
2024/05/08 08:45:04.000   28.454254091  -16.326899737   625.4468   2   7   0.0160   0.0305   0.0567   0.0098  -0.0233  -0.0172   4.00    1.2
2024/05/08 08:45:05.000   28.454254092  -16.326899734   625.4462   2   7   0.0160   0.0305   0.0567   0.0098  -0.0233  -0.0172   5.00    1.3
2024/05/08 08:45:06.000   28.454254093  -16.326899731   625.4458   2   7   0.0161   0.0305   0.0567   0.0098  -0.0233  -0.0172   6.00    1.0
2024/05/08 08:45:07.000   28.454254094  -16.326899731   625.4455   2   7   0.0161   0.0305   0.0567   0.0098  -0.0233  -0.0172   7.00    1.5
2024/05/08 08:45:08.000   28.454254095  -16.326899730   625.4451   2   7   0.0161   0.0305   0.0567   0.0098  -0.0233  -0.0172   8.00    1.0
2024/05/08 08:45:09.000   28.454254095  -16.326899730   625.4448   2   7   0.0161   0.0305   0.0567   0.0098  -0.0233  -0.0172   9.00    1.0
2024/05/08 08:45:10.000   28.454254096  -16.326899729   625.4447   2   7   0.0161   0.0305   0.0568   0.0098  -0.0233  -0.0172  10.00    1.4
2024/05/08 08:45:11.000   28.454254096  -16.326899729   625.4445   2   7   0.0161   0.0305   0.0568   0.0098  -0.0233  -0.0172  11.00    1.2
2024/05/08 08:45:12.000   28.454254097  -16.326899729   625.4443   2   7   0.0161   0.0305   0.0568   0.0098  -0.0232  -0.0172  12.00    1.3
2024/05/08 08:45:13.000   28.454254097  -16.326899728   625.4442   2   7   0.0161   0.0305   0.0568   0.0098  -0.0232  -0.0172  13.00    1.0
2024/05/08 08:45:14.000   28.454254097  -16.326899727   625.4441   2   7   0.0161   0.0305   0.0568   0.0098  -0.0232  -0.0172  14.00    1.5
2024/05/08 08:45:15.000   28.454254098  -16.326899726   625.4440   2   7   0.0161   0.0305   0.0568   0.0098  -0.0232  -0.0172 -15.00    1.0
2024/05/08 08:45:16.000   28.454254098  -16.326899725   625.4438   2   7   0.0161   0.0305   0.0568   0.0098  -0.0232  -0.0172 -14.00    1.0
2024/05/08 08:45:17.000   28.454254098  -16.326899724   625.4437   2   7   0.0161   0.0305   0.0568   0.0098  -0.0232  -0.0172 -13.00    1.4
2024/05/08 08:45:18.000   28.454254098  -16.326899724   625.4437   2   7   0.0161   0.0305   0.0568   0.0098  -0.0232  -0.0172 -12.00    1.2
2024/05/08 08:45:19.000   28.454254099  -16.326899724   625.4438   2   7   0.0161   0.0305   0.0568   0.0098  -0.0232  -0.0172 -11.00    1.3
2024/05/08 08:45:20.000   28.454254099  -16.326899723   625.4438   2   7   0.0161   0.0305   0.0568   0.0098  -0.0232  -0.0172 -10.00    1.0
2024/05/08 08:45:21.000   28.454254099  -16.326899723   625.4438   2   7   0.0161   0.0305   0.0568   0.0098  -0.0232  -0.0172  -9.00    1.5
2024/05/08 08:45:22.000   28.454254099  -16.326899722   625.4438   2   7   0.0161   0.0305   0.0568   0.0098  -0.0232  -0.0171  -8.00    1.0
2024/05/08 08:45:23.000   28.454254099  -16.326899722   625.4440   2   7   0.0161   0.0305   0.0568   0.0098  -0.0232  -0.0171  -7.00    1.0
2024/05/08 08:45:24.000   28.454254099  -16.326899721   625.4442   2   7   0.0161   0.0305   0.0568   0.0098  -0.0232  -0.0171  -6.00    1.4
2024/05/08 08:45:25.000   28.454254099  -16.326899721   625.4444   2   7   0.0161   0.0305   0.0568   0.0098  -0.0232  -0.0171  -5.00    1.3
2024/05/08 08:45:26.000   28.454254098  -16.326899719   625.4443   2   7   0.0161   0.0305   0.0568   0.0098  -0.0232  -0.0171  -4.00    1.2
2024/05/08 08:45:27.000   28.454254098  -16.326899718   625.4440   2   7   0.0161   0.0305   0.0568   0.0097  -0.0232  -0.0171  -3.00    1.0
2024/05/08 08:45:28.000   28.454254098  -16.326899717   625.4440   2   7   0.0161   0.0305   0.0569   0.0097  -0.0232  -0.0171  -2.00    1.4
2024/05/08 08:45:29.000   28.454254099  -16.326899715   625.4441   2   7   0.0161   0.0305   0.0569   0.0097  -0.0232  -0.0171  -1.00    1.0
2024/05/08 08:45:30.000   28.454254101  -16.326899714   625.4440   2   7   0.0161   0.0306   0.0569   0.0098  -0.0232  -0.0171   0.00    1.0
2024/05/08 08:45:31.000   28.454254101  -16.326899713   625.4441   2   7   0.0161   0.0306   0.0570   0.0098  -0.0232  -0.0171   1.00    1.3
2024/05/08 08:45:32.000   28.454254101  -16.326899711   625.4444   2   7   0.0162   0.0306   0.0570   0.0098  -0.0232  -0.0171   2.00    1.3
2024/05/08 08:45:33.000   28.454254101  -16.326899708   625.4441   2   7   0.0162   0.0306   0.0570   0.0098  -0.0232  -0.0172   3.00    1.1
2024/05/08 08:45:34.000   28.454254102  -16.326899706   625.4441   2   7   0.0162   0.0306   0.0571   0.0098  -0.0232  -0.0172   4.00    1.0
2024/05/08 08:45:35.000   28.454254102  -16.326899703   625.4441   2   7   0.0162   0.0306   0.0571   0.0098  -0.0232  -0.0172   5.00    1.4
2024/05/08 08:45:36.000   28.454254102  -16.326899701   625.4443   2   7   0.0162   0.0306   0.0571   0.0098  -0.0232  -0.0172   6.00    1.0
2024/05/08 08:45:37.000   28.454254102  -16.326899700   625.4444   2   7   0.0162   0.0306   0.0571   0.0098  -0.0232  -0.0172   7.00    1.0
2024/05/08 08:45:38.000   28.454254102  -16.326899699   625.4445   2   7   0.0162   0.0306   0.0571   0.0098  -0.0232  -0.0172   8.00    1.3
2024/05/08 08:45:39.000   28.454254102  -16.326899699   625.4447   2   7   0.0162   0.0306   0.0571   0.0098  -0.0232  -0.0172   9.00    1.4
2024/05/08 08:45:40.000   28.454254102  -16.326899699   625.4451   2   7   0.0162   0.0306   0.0571   0.0098  -0.0232  -0.0172  10.00    1.1
2024/05/08 08:45:41.000   28.454254102  -16.326899699   625.4454   2   7   0.0162   0.0306   0.0572   0.0098  -0.0232  -0.0172  11.00    1.1
2024/05/08 08:45:42.000   28.454254102  -16.326899699   625.4456   2   7   0.0162   0.0306   0.0572   0.0098  -0.0232  -0.0172  12.00    1.4
2024/05/08 08:45:43.000   28.454254101  -16.326899699   625.4460   2   7   0.0162   0.0306   0.0572   0.0098  -0.0232  -0.0172  13.00    1.0
2024/05/08 08:45:44.000   28.454254101  -16.326899699   625.4464   2   7   0.0162   0.0306   0.0572   0.0098  -0.0232  -0.0172  14.00    1.0
2024/05/08 08:45:45.000   28.454254100  -16.326899699   625.4468   2   7   0.0162   0.0306   0.0572   0.0098  -0.0232  -0.0172 -15.00    1.3
2024/05/08 08:45:46.000   28.454254100  -16.326899699   625.4472   2   7   0.0162   0.0306   0.0572   0.0098  -0.0232  -0.0172 -14.00    1.4
2024/05/08 08:45:47.000   28.454254099  -16.326899700   625.4476   2   7   0.0162   0.0306   0.0572   0.0097  -0.0232  -0.0172 -13.00    1.1
2024/05/08 08:45:48.000   28.454254098  -16.326899700   625.4482   2   7   0.0162   0.0306   0.0572   0.0097  -0.0232  -0.0172 -12.00    1.1
2024/05/08 08:45:49.000   28.454254097  -16.326899701   625.4489   2   7   0.0162   0.0306   0.0572   0.0097  -0.0232  -0.0172 -11.00    1.3
2024/05/08 08:45:50.000   28.454254096  -16.326899702   625.4494   2   7   0.0162   0.0306   0.0572   0.0097  -0.0232  -0.0171 -10.00    1.0
2024/05/08 08:45:51.000   28.454254095  -16.326899703   625.4501   2   7   0.0162   0.0306   0.0572   0.0097  -0.0232  -0.0171  -9.00    1.1
2024/05/08 08:45:52.000   28.454254094  -16.326899704   625.4509   2   7   0.0162   0.0306   0.0572   0.0097  -0.0232  -0.0171  -8.00    1.3
2024/05/08 08:45:53.000   28.454254092  -16.326899706   625.4519   2   7   0.0162   0.0306   0.0572   0.0097  -0.0232  -0.0171  -7.00    1.4
2024/05/08 08:45:54.000   28.454254091  -16.326899708   625.4528   2   7   0.0162   0.0306   0.0572   0.0097  -0.0232  -0.0171  -6.00    1.0
2024/05/08 08:45:55.000   28.454254089  -16.326899709   625.4539   2   7   0.0162   0.0306   0.0572   0.0097  -0.0232  -0.0171  -5.00    1.1
2024/05/08 08:45:56.000   28.454254087  -16.326899710   625.4551   2   7   0.0162   0.0306   0.0572   0.0097  -0.0232  -0.0171  -4.00    1.2
2024/05/08 08:45:57.000   28.454254085  -16.326899711   625.4562   2   7   0.0162   0.0306   0.0572   0.0097  -0.0232  -0.0171  -3.00    1.0
2024/05/08 08:45:58.000   28.454254083  -16.326899715   625.4571   2   7   0.0162   0.0306   0.0572   0.0097  -0.0232  -0.0171  -2.00    1.1
2024/05/08 08:45:59.000   28.454254081  -16.326899720   625.4581   2   7   0.0162   0.0306   0.0572   0.0097  -0.0232  -0.0171  -1.00    1.2
2024/05/08 08:46:00.000   28.454254082  -16.326899723   625.4592   2   7   0.0163   0.0306   0.0573   0.0097  -0.0232  -0.0171   0.00    1.3
2024/05/08 08:46:01.000   28.454254083  -16.326899723   625.4601   2   7   0.0163   0.0307   0.0573   0.0097  -0.0232  -0.0171   1.00    1.1
2024/05/08 08:46:02.000   28.454254084  -16.326899721   625.4609   2   7   0.0163   0.0307   0.0573   0.0097  -0.0232  -0.0171   2.00    1.1
2024/05/08 08:46:03.000   28.454254085  -16.326899718   625.4614   2   7   0.0163   0.0307   0.0574   0.0097  -0.0232  -0.0171   3.00    1.1
2024/05/08 08:46:04.000   28.454254087  -16.326899716   625.4615   2   7   0.0163   0.0307   0.0574   0.0097  -0.0232  -0.0171   4.00    1.0
2024/05/08 08:46:05.000   28.454254089  -16.326899714   625.4616   2   7   0.0163   0.0307   0.0574   0.0097  -0.0232  -0.0171   5.00    1.1
2024/05/08 08:46:06.000   28.454254090  -16.326899713   625.4616   2   7   0.0163   0.0307   0.0574   0.0097  -0.0232  -0.0171   6.00    1.1
2024/05/08 08:46:07.000   28.454254093  -16.326899711   625.4618   2   7   0.0163   0.0307   0.0574   0.0097  -0.0232  -0.0171   7.00    1.2
2024/05/08 08:46:08.000   28.454254094  -16.326899711   625.4619   2   7   0.0163   0.0307   0.0575   0.0097  -0.0232  -0.0171   8.00    1.1
2024/05/08 08:46:09.000   28.454254095  -16.326899710   625.4620   2   7   0.0163   0.0307   0.0575   0.0097  -0.0232  -0.0171   9.00    1.1
2024/05/08 08:46:10.000   28.454254095  -16.326899709   625.4620   2   7   0.0163   0.0307   0.0575   0.0097  -0.0232  -0.0171  10.00    1.1
2024/05/08 08:46:11.000   28.454254096  -16.326899708   625.4620   2   7   0.0163   0.0307   0.0575   0.0097  -0.0232  -0.0171  11.00    1.0
2024/05/08 08:46:12.000   28.454254097  -16.326899707   625.4618   2   7   0.0163   0.0307   0.0575   0.0097  -0.0232  -0.0171  12.00    1.1
2024/05/08 08:46:13.000   28.454254098  -16.326899707   625.4617   2   7   0.0163   0.0307   0.0575   0.0097  -0.0232  -0.0171  13.00    1.0
2024/05/08 08:46:14.000   28.454254098  -16.326899707   625.4617   2   7   0.0163   0.0307   0.0575   0.0097  -0.0232  -0.0171  14.00    1.1
2024/05/08 08:46:15.000   28.454254098  -16.326899706   625.4615   2   7   0.0163   0.0307   0.0575   0.0097  -0.0232  -0.0171 -15.00    1.1
2024/05/08 08:46:16.000   28.454254098  -16.326899705   625.4615   2   7   0.0163   0.0307   0.0575   0.0097  -0.0232  -0.0171 -14.00    1.1
2024/05/08 08:46:17.000   28.454254098  -16.326899706   625.4616   2   7   0.0163   0.0307   0.0575   0.0097  -0.0232  -0.0171 -13.00    1.1
2024/05/08 08:46:18.000   28.454254098  -16.326899706   625.4617   2   7   0.0163   0.0307   0.0575   0.0097  -0.0232  -0.0171 -12.00    1.0
2024/05/08 08:46:19.000   28.454254098  -16.326899706   625.4618   2   7   0.0163   0.0307   0.0575   0.0097  -0.0232  -0.0171 -11.00    1.1
2024/05/08 08:46:20.000   28.454254098  -16.326899706   625.4618   2   7   0.0163   0.0307   0.0575   0.0097  -0.0232  -0.0171 -10.00    1.0
2024/05/08 08:46:21.000   28.454254098  -16.326899706   625.4617   2   7   0.0163   0.0307   0.0575   0.0097  -0.0232  -0.0171  -9.00    1.1
2024/05/08 08:46:22.000   28.454254098  -16.326899706   625.4615   2   7   0.0163   0.0307   0.0575   0.0097  -0.0232  -0.0171  -8.00    1.1
2024/05/08 08:46:23.000   28.454254098  -16.326899706   625.4615   2   7   0.0163   0.0307   0.0575   0.0097  -0.0232  -0.0171  -7.00    1.1
2024/05/08 08:46:24.000   28.454254098  -16.326899707   625.4613   2   7   0.0163   0.0307   0.0575   0.0097  -0.0232  -0.0171  -6.00    1.1
2024/05/08 08:46:25.000   28.454254098  -16.326899706   625.4606   2   7   0.0163   0.0307   0.0575   0.0097  -0.0232  -0.0171  -5.00    1.0
2024/05/08 08:46:26.000   28.454254098  -16.326899705   625.4605   2   7   0.0163   0.0307   0.0575   0.0097  -0.0232  -0.0171  -4.00    1.1
2024/05/08 08:46:27.000   28.454254098  -16.326899703   625.4602   2   7   0.0163   0.0307   0.0575   0.0097  -0.0232  -0.0171  -3.00    1.0
2024/05/08 08:46:28.000   28.454254098  -16.326899699   625.4595   2   7   0.0163   0.0307   0.0575   0.0097  -0.0232  -0.0171  -2.00    1.1
2024/05/08 08:46:29.000   28.454254098  -16.326899697   625.4589   2   7   0.0163   0.0307   0.0575   0.0097  -0.0232  -0.0171  -1.00    1.1
2024/05/08 08:46:30.000   28.454254097  -16.326899694   625.4581   2   7   0.0163   0.0307   0.0576   0.0097  -0.0232  -0.0171   0.00    1.1
2024/05/08 08:46:31.000   28.454254096  -16.326899695   625.4577   2   7   0.0164   0.0307   0.0576   0.0097  -0.0232  -0.0171   1.00    1.2
2024/05/08 08:46:32.000   28.454254095  -16.326899696   625.4571   2   7   0.0164   0.0307   0.0576   0.0097  -0.0232  -0.0171   2.00    1.0
2024/05/08 08:46:33.000   28.454254094  -16.326899693   625.4562   2   7   0.0164   0.0307   0.0576   0.0097  -0.0232  -0.0171   3.00    1.1
2024/05/08 08:46:34.000   28.454254093  -16.326899691   625.4555   2   7   0.0164   0.0307   0.0576   0.0097  -0.0232  -0.0171   4.00    1.1
2024/05/08 08:46:35.000   28.454254093  -16.326899689   625.4551   2   7   0.0164   0.0307   0.0577   0.0097  -0.0232  -0.0171   5.00    1.1
2024/05/08 08:46:36.000   28.454254092  -16.326899688   625.4548   2   7   0.0164   0.0307   0.0577   0.0097  -0.0232  -0.0171   6.00    1.1
2024/05/08 08:46:37.000   28.454254092  -16.326899687   625.4544   2   7   0.0164   0.0307   0.0577   0.0097  -0.0232  -0.0171   7.00    1.1
2024/05/08 08:46:38.000   28.454254091  -16.326899686   625.4543   2   7   0.0164   0.0307   0.0577   0.0097  -0.0232  -0.0171   8.00    1.3
2024/05/08 08:46:39.000   28.454254090  -16.326899686   625.4545   2   7   0.0164   0.0307   0.0577   0.0097  -0.0232  -0.0171   9.00    1.0
2024/05/08 08:46:40.000   28.454254090  -16.326899686   625.4544   2   7   0.0164   0.0307   0.0577   0.0097  -0.0232  -0.0171  10.00    1.1
2024/05/08 08:46:41.000   28.454254089  -16.326899686   625.4545   2   7   0.0164   0.0307   0.0577   0.0097  -0.0232  -0.0171  11.00    1.0
2024/05/08 08:46:42.000   28.454254089  -16.326899687   625.4545   2   7   0.0164   0.0307   0.0577   0.0097  -0.0232  -0.0171  12.00    1.1
2024/05/08 08:46:43.000   28.454254088  -16.326899687   625.4544   2   7   0.0164   0.0307   0.0577   0.0097  -0.0232  -0.0171  13.00    1.1
2024/05/08 08:46:44.000   28.454254088  -16.326899688   625.4544   2   7   0.0164   0.0307   0.0577   0.0097  -0.0232  -0.0171  14.00    1.1
2024/05/08 08:46:45.000   28.454254088  -16.326899689   625.4544   2   7   0.0164   0.0307   0.0577   0.0097  -0.0232  -0.0171 -15.00    1.3
2024/05/08 08:46:46.000   28.454254087  -16.326899688   625.4543   2   7   0.0164   0.0307   0.0577   0.0097  -0.0231  -0.0171 -14.00    1.0
2024/05/08 08:46:47.000   28.454254087  -16.326899688   625.4544   2   7   0.0164   0.0307   0.0577   0.0097  -0.0231  -0.0171 -13.00    1.1
2024/05/08 08:46:48.000   28.454254086  -16.326899689   625.4543   2   7   0.0164   0.0307   0.0577   0.0097  -0.0231  -0.0171 -12.00    1.0
2024/05/08 08:46:49.000   28.454254086  -16.326899690   625.4543   2   7   0.0164   0.0307   0.0577   0.0097  -0.0231  -0.0171 -11.00    1.1
2024/05/08 08:46:50.000   28.454254085  -16.326899691   625.4543   2   7   0.0164   0.0307   0.0577   0.0097  -0.0231  -0.0171 -10.00    1.1
2024/05/08 08:46:51.000   28.454254084  -16.326899693   625.4543   2   7   0.0164   0.0307   0.0577   0.0097  -0.0231  -0.0171  -9.00    1.1
2024/05/08 08:46:52.000   28.454254083  -16.326899693   625.4540   2   7   0.0164   0.0307   0.0577   0.0097  -0.0231  -0.0171  -8.00    1.4
2024/05/08 08:46:53.000   28.454254082  -16.326899693   625.4536   2   7   0.0164   0.0307   0.0577   0.0097  -0.0231  -0.0171  -7.00    1.0
2024/05/08 08:46:54.000   28.454254082  -16.326899693   625.4530   2   7   0.0164   0.0307   0.0577   0.0097  -0.0231  -0.0171  -6.00    1.1
2024/05/08 08:46:55.000   28.454254080  -16.326899694   625.4524   2   7   0.0164   0.0307   0.0577   0.0097  -0.0231  -0.0171  -5.00    1.0
2024/05/08 08:46:56.000   28.454254077  -16.326899695   625.4515   2   7   0.0164   0.0307   0.0577   0.0097  -0.0231  -0.0171  -4.00    1.2
2024/05/08 08:46:57.000   28.454254074  -16.326899697   625.4505   2   7   0.0164   0.0307   0.0577   0.0097  -0.0231  -0.0171  -3.00    1.0
2024/05/08 08:46:58.000   28.454254071  -16.326899699   625.4501   2   7   0.0164   0.0307   0.0577   0.0097  -0.0231  -0.0171  -2.00    1.1
2024/05/08 08:46:59.000   28.454254066  -16.326899700   625.4494   2   7   0.0164   0.0307   0.0577   0.0097  -0.0231  -0.0171  -1.00    1.5
2024/05/08 08:47:00.000   28.454254062  -16.326899700   625.4480   2   7   0.0164   0.0307   0.0578   0.0097  -0.0231  -0.0171   0.00    1.1
2024/05/08 08:47:01.000   28.454254058  -16.326899702   625.4465   2   7   0.0164   0.0307   0.0578   0.0097  -0.0231  -0.0171   1.00    1.1
2024/05/08 08:47:02.000   28.454254054  -16.326899705   625.4453   2   7   0.0164   0.0308   0.0578   0.0097  -0.0231  -0.0171   2.00    1.1
2024/05/08 08:47:03.000   28.454254050  -16.326899706   625.4447   2   7   0.0164   0.0308   0.0578   0.0097  -0.0231  -0.0171   3.00    1.3
2024/05/08 08:47:04.000   28.454254047  -16.326899707   625.4441   2   7   0.0164   0.0308   0.0578   0.0097  -0.0231  -0.0171   4.00    1.0
2024/05/08 08:47:05.000   28.454254045  -16.326899708   625.4436   2   7   0.0164   0.0308   0.0578   0.0097  -0.0231  -0.0171   5.00    1.2
2024/05/08 08:47:06.000   28.454254043  -16.326899709   625.4430   2   7   0.0165   0.0308   0.0578   0.0097  -0.0231  -0.0171   6.00    1.7
2024/05/08 08:47:07.000   28.454254042  -16.326899710   625.4428   2   7   0.0165   0.0308   0.0579   0.0097  -0.0231  -0.0171   7.00    1.1
2024/05/08 08:47:08.000   28.454254041  -16.326899711   625.4426   2   7   0.0165   0.0308   0.0579   0.0097  -0.0231  -0.0171   8.00    1.0
2024/05/08 08:47:09.000   28.454254040  -16.326899711   625.4425   2   7   0.0165   0.0308   0.0579   0.0097  -0.0231  -0.0171   9.00    1.1
2024/05/08 08:47:10.000   28.454254039  -16.326899711   625.4425   2   7   0.0165   0.0308   0.0579   0.0097  -0.0231  -0.0171  10.00    1.3
2024/05/08 08:47:11.000   28.454254038  -16.326899711   625.4424   2   7   0.0165   0.0308   0.0579   0.0097  -0.0231  -0.0171  11.00    1.1
2024/05/08 08:47:12.000   28.454254037  -16.326899712   625.4424   2   7   0.0165   0.0308   0.0579   0.0097  -0.0231  -0.0171  12.00    1.1
2024/05/08 08:47:13.000   28.454254036  -16.326899712   625.4425   2   7   0.0165   0.0308   0.0579   0.0097  -0.0231  -0.0171  13.00    1.8
2024/05/08 08:47:14.000   28.454254036  -16.326899713   625.4425   2   7   0.0165   0.0308   0.0579   0.0097  -0.0231  -0.0171  14.00    1.2
2024/05/08 08:47:15.000   28.454254035  -16.326899713   625.4426   2   7   0.0165   0.0308   0.0579   0.0097  -0.0231  -0.0171 -15.00    1.8
2024/05/08 08:47:16.000   28.454254034  -16.326899714   625.4427   2   7   0.0165   0.0308   0.0579   0.0097  -0.0231  -0.0171 -14.00    1.4
2024/05/08 08:47:17.000   28.454254033  -16.326899714   625.4428   2   7   0.0165   0.0308   0.0579   0.0097  -0.0231  -0.0171 -13.00    1.8
2024/05/08 08:47:18.000   28.454254033  -16.326899714   625.4428   2   7   0.0165   0.0308   0.0579   0.0097  -0.0231  -0.0171 -12.00    1.1
2024/05/08 08:47:19.000   28.454254032  -16.326899715   625.4429   2   7   0.0165   0.0308   0.0579   0.0097  -0.0231  -0.0171 -11.00    1.8
2024/05/08 08:47:20.000   28.454254030  -16.326899716   625.4432   2   7   0.0165   0.0308   0.0579   0.0097  -0.0231  -0.0171 -10.00    1.5
2024/05/08 08:47:21.000   28.454254029  -16.326899716   625.4433   2   7   0.0165   0.0307   0.0579   0.0097  -0.0231  -0.0171  -9.00    1.8
2024/05/08 08:47:22.000   28.454254028  -16.326899718   625.4433   2   7   0.0165   0.0307   0.0579   0.0097  -0.0231  -0.0171  -8.00    1.0
2024/05/08 08:47:23.000   28.454254026  -16.326899718   625.4432   2   7   0.0165   0.0307   0.0579   0.0097  -0.0231  -0.0171  -7.00    1.1
2024/05/08 08:47:24.000   28.454254025  -16.326899719   625.4431   2   7   0.0165   0.0307   0.0579   0.0097  -0.0231  -0.0171  -6.00    1.1
2024/05/08 08:47:25.000   28.454254022  -16.326899721   625.4433   2   7   0.0165   0.0307   0.0579   0.0097  -0.0231  -0.0171  -5.00    1.9
2024/05/08 08:47:26.000   28.454254019  -16.326899723   625.4433   2   7   0.0165   0.0307   0.0579   0.0097  -0.0231  -0.0171  -4.00    1.2
2024/05/08 08:47:27.000   28.454254015  -16.326899726   625.4435   2   7   0.0165   0.0307   0.0579   0.0097  -0.0231  -0.0171  -3.00    1.9
2024/05/08 08:47:28.000   28.454254011  -16.326899728   625.4436   2   7   0.0165   0.0307   0.0579   0.0097  -0.0231  -0.0171  -2.00    1.5
2024/05/08 08:47:29.000   28.454254006  -16.326899731   625.4439   2   7   0.0165   0.0307   0.0579   0.0097  -0.0231  -0.0171  -1.00    1.9
2024/05/08 08:47:30.000   28.454254001  -16.326899736   625.4446   2   7   0.0165   0.0307   0.0579   0.0097  -0.0231  -0.0171   0.00    1.0
2024/05/08 08:47:31.000   28.454253996  -16.326899740   625.4447   2   7   0.0165   0.0307   0.0579   0.0097  -0.0231  -0.0171   1.00    1.9
2024/05/08 08:47:32.000   28.454253992  -16.326899742   625.4440   2   7   0.0165   0.0308   0.0579   0.0097  -0.0231  -0.0171   2.00    1.6
2024/05/08 08:47:33.000   28.454253989  -16.326899742   625.4437   2   7   0.0165   0.0308   0.0579   0.0097  -0.0231  -0.0171   3.00    2.0
2024/05/08 08:47:34.000   28.454253986  -16.326899742   625.4433   2   7   0.0165   0.0308   0.0579   0.0097  -0.0231  -0.0171   4.00    1.1
2024/05/08 08:47:35.000   28.454253984  -16.326899742   625.4426   2   7   0.0165   0.0308   0.0579   0.0097  -0.0231  -0.0171   5.00    1.2
2024/05/08 08:47:36.000   28.454253982  -16.326899742   625.4421   2   7   0.0165   0.0308   0.0579   0.0097  -0.0231  -0.0171   6.00    1.1
2024/05/08 08:47:37.000   28.454253981  -16.326899742   625.4417   2   7   0.0165   0.0308   0.0579   0.0096  -0.0231  -0.0171   7.00    2.1
2024/05/08 08:47:38.000   28.454253980  -16.326899742   625.4414   2   7   0.0165   0.0308   0.0579   0.0096  -0.0231  -0.0171   8.00    1.3
2024/05/08 08:47:39.000   28.454253979  -16.326899741   625.4411   2   7   0.0165   0.0308   0.0579   0.0096  -0.0231  -0.0171   9.00    2.1
2024/05/08 08:47:40.000   28.454253978  -16.326899741   625.4408   2   7   0.0165   0.0308   0.0579   0.0096  -0.0231  -0.0171  10.00    1.7
2024/05/08 08:47:41.000   28.454253978  -16.326899741   625.4406   2   7   0.0165   0.0308   0.0579   0.0096  -0.0231  -0.0171  11.00    2.1
2024/05/08 08:47:42.000   28.454253978  -16.326899741   625.4403   2   7   0.0165   0.0308   0.0579   0.0096  -0.0231  -0.0171  12.00    1.1
2024/05/08 08:47:43.000   28.454253977  -16.326899741   625.4400   2   7   0.0165   0.0308   0.0579   0.0096  -0.0231  -0.0171  13.00    2.1
2024/05/08 08:47:44.000   28.454253977  -16.326899740   625.4398   2   7   0.0165   0.0308   0.0579   0.0096  -0.0231  -0.0171  14.00    1.6
2024/05/08 08:47:45.000   28.454253977  -16.326899741   625.4397   2   7   0.0165   0.0307   0.0579   0.0096  -0.0230  -0.0171 -15.00    2.1
2024/05/08 08:47:46.000   28.454253977  -16.326899740   625.4395   2   7   0.0165   0.0307   0.0579   0.0096  -0.0230  -0.0171 -14.00    1.1
2024/05/08 08:47:47.000   28.454253977  -16.326899739   625.4394   2   7   0.0165   0.0307   0.0579   0.0096  -0.0230  -0.0171 -13.00    1.2
2024/05/08 08:47:48.000   28.454253977  -16.326899739   625.4391   2   7   0.0165   0.0307   0.0579   0.0096  -0.0230  -0.0170 -12.00    1.1
2024/05/08 08:47:49.000   28.454253977  -16.326899739   625.4388   2   7   0.0165   0.0307   0.0579   0.0096  -0.0230  -0.0170 -11.00    2.1
2024/05/08 08:47:50.000   28.454253978  -16.326899738   625.4382   2   7   0.0165   0.0307   0.0579   0.0096  -0.0230  -0.0170 -10.00    1.3
2024/05/08 08:47:51.000   28.454253979  -16.326899738   625.4377   2   7   0.0165   0.0307   0.0579   0.0096  -0.0230  -0.0170  -9.00    2.1
2024/05/08 08:47:52.000   28.454253979  -16.326899737   625.4373   2   7   0.0165   0.0307   0.0579   0.0096  -0.0230  -0.0170  -8.00    1.7
2024/05/08 08:47:53.000   28.454253980  -16.326899736   625.4367   2   7   0.0165   0.0307   0.0579   0.0096  -0.0230  -0.0170  -7.00    2.1
2024/05/08 08:47:54.000   28.454253981  -16.326899736   625.4361   2   7   0.0165   0.0307   0.0579   0.0096  -0.0230  -0.0170  -6.00    1.1
2024/05/08 08:47:55.000   28.454253981  -16.326899735   625.4355   2   7   0.0165   0.0307   0.0579   0.0096  -0.0230  -0.0170  -5.00    2.1
2024/05/08 08:47:56.000   28.454253981  -16.326899734   625.4347   2   7   0.0165   0.0307   0.0579   0.0096  -0.0230  -0.0170  -4.00    1.6
2024/05/08 08:47:57.000   28.454253983  -16.326899732   625.4339   2   7   0.0165   0.0307   0.0579   0.0096  -0.0230  -0.0170  -3.00    2.1
2024/05/08 08:47:58.000   28.454253984  -16.326899728   625.4334   2   7   0.0165   0.0307   0.0579   0.0096  -0.0230  -0.0170  -2.00    1.1
2024/05/08 08:47:59.000   28.454253986  -16.326899724   625.4321   2   7   0.0165   0.0307   0.0579   0.0096  -0.0230  -0.0170  -1.00    1.2
2024/05/08 08:48:00.000   28.454253986  -16.326899723   625.4317   2   7   0.0165   0.0307   0.0579   0.0096  -0.0230  -0.0170   0.00    1.0
2024/05/08 08:48:01.000   28.454253985  -16.326899725   625.4316   2   7   0.0165   0.0307   0.0579   0.0096  -0.0230  -0.0170   1.00    2.0
2024/05/08 08:48:02.000   28.454253985  -16.326899727   625.4317   2   7   0.0165   0.0307   0.0579   0.0096  -0.0230  -0.0170   2.00    1.2
2024/05/08 08:48:03.000   28.454253984  -16.326899729   625.4323   2   7   0.0165   0.0307   0.0579   0.0096  -0.0230  -0.0170   3.00    1.9
2024/05/08 08:48:04.000   28.454253983  -16.326899732   625.4324   2   7   0.0165   0.0307   0.0579   0.0096  -0.0230  -0.0170   4.00    1.6
2024/05/08 08:48:05.000   28.454253982  -16.326899734   625.4321   2   7   0.0165   0.0307   0.0579   0.0096  -0.0230  -0.0170   5.00    1.9
2024/05/08 08:48:06.000   28.454253982  -16.326899736   625.4319   2   7   0.0165   0.0307   0.0579   0.0096  -0.0230  -0.0170   6.00    1.1
2024/05/08 08:48:07.000   28.454253982  -16.326899737   625.4317   2   7   0.0165   0.0307   0.0579   0.0096  -0.0230  -0.0170   7.00    1.9
2024/05/08 08:48:08.000   28.454253982  -16.326899737   625.4314   2   7   0.0165   0.0307   0.0579   0.0096  -0.0230  -0.0170   8.00    1.4
2024/05/08 08:48:09.000   28.454253982  -16.326899739   625.4313   2   7   0.0165   0.0307   0.0579   0.0096  -0.0230  -0.0170   9.00    1.9
2024/05/08 08:48:10.000   28.454253982  -16.326899739   625.4313   2   7   0.0165   0.0307   0.0579   0.0096  -0.0230  -0.0170  10.00    1.2
2024/05/08 08:48:11.000   28.454253981  -16.326899741   625.4314   2   7   0.0165   0.0307   0.0579   0.0096  -0.0230  -0.0170  11.00    1.3
2024/05/08 08:48:12.000   28.454253981  -16.326899743   625.4316   2   7   0.0165   0.0307   0.0579   0.0096  -0.0230  -0.0170  12.00    1.0
2024/05/08 08:48:13.000   28.454253981  -16.326899744   625.4319   2   7   0.0165   0.0307   0.0579   0.0096  -0.0230  -0.0170  13.00    1.8
2024/05/08 08:48:14.000   28.454253980  -16.326899745   625.4321   2   7   0.0165   0.0307   0.0579   0.0096  -0.0230  -0.0170  14.00    1.2
2024/05/08 08:48:15.000   28.454253980  -16.326899747   625.4323   2   7   0.0165   0.0307   0.0579   0.0096  -0.0230  -0.0170 -15.00    1.8
