% program   : RTKPOST-EX 2.5.0
% inp file  : C:\Users\SallyHenry\Desktop\Sally Internship\GNSS gravi\DATA\Survey Rover Obs\GUI00.24o
% inp file  : C:\Users\SallyHenry\Desktop\Sally Internship\GNSS gravi\DATA\BaseStations\TN01\TN0100ESP_R_20241270000_01D_30S_MO.rnx
% inp file  : C:\Users\SallyHenry\Desktop\Sally Internship\GNSS gravi\DATA\BaseStations\TN01\TN0100ESP_R_20241270000_01D_MN.rnx
% inp file  : C:\Users\SallyHenry\Desktop\Sally Internship\GNSS gravi\DATA\aux_files\Survey\IGS0OPSFIN_20241270000_01D_15M_ORB.SP3
% inp file  : C:\Users\SallyHenry\Desktop\Sally Internship\GNSS gravi\DATA\aux_files\Survey\IGS0OPSFIN_20241270000_01D_30S_CLK.CLK
% obs start : 2024/05/06 11:55:21.0 GPST (week2313 129321.0s)
% obs end   : 2024/05/06 12:10:23.0 GPST (week2313 130223.0s)
% pos mode  : Static
% freqs     : L1+L2/E5b
% solution  : Combined-No Phase Reset
% elev mask : 15.0 deg
% dynamics  : on
% tidecorr  : solid
% ionos opt : Estimate TEC
% tropo opt : Estimate ZTD+Grad
% ephemeris : Precise
% navi sys  : GPS GLONASS Galileo QZSS BDS
% amb res   : Fix and Hold
% amb glo   : Fix and Hold
% amb bds   : on
% val thres : 3.0
% antenna1  :                       ( 0.0000  0.0000  1.8000)
% antenna2  :                       ( 0.0000  0.0000  0.0771)
% ref pos   :  28.477186930  -16.241151700    51.7531
%
% (lat/lon/height=WGS84/ellipsoidal,Q=1:fix,2:float,3:sbas,4:dgps,5:single,6:ppp,ns=# of satellites)
%  GPST                  latitude(deg) longitude(deg)  height(m)   Q  ns   sdn(m)   sde(m)   sdu(m)  sdne(m)  sdeu(m)  sdun(m) age(s)  ratio
2024/05/06 11:55:21.000   28.306738933  -16.436439737   689.5917   2   7   0.0234   0.0261   0.1403   0.0135  -0.0313  -0.0442  -9.00    0.0
2024/05/06 11:55:22.000   28.306738933  -16.436439737   689.5909   2   7   0.0234   0.0261   0.1402   0.0135  -0.0313  -0.0441  -8.00    0.0
2024/05/06 11:55:23.000   28.306738934  -16.436439736   689.5896   2   7   0.0234   0.0261   0.1402   0.0135  -0.0313  -0.0441  -7.00    0.0
2024/05/06 11:55:24.000   28.306738935  -16.436439736   689.5880   2   7   0.0234   0.0261   0.1402   0.0135  -0.0313  -0.0441  -6.00    0.0
2024/05/06 11:55:25.000   28.306738935  -16.436439736   689.5866   2   7   0.0234   0.0261   0.1403   0.0135  -0.0313  -0.0441  -5.00    0.0
2024/05/06 11:55:26.000   28.306738936  -16.436439736   689.5851   2   7   0.0234   0.0262   0.1404   0.0135  -0.0313  -0.0442  -4.00    0.0
2024/05/06 11:55:27.000   28.306738937  -16.436439736   689.5837   2   7   0.0234   0.0262   0.1405   0.0136  -0.0313  -0.0442  -3.00    0.0
2024/05/06 11:55:28.000   28.306738939  -16.436439734   689.5807   2   7   0.0234   0.0262   0.1406   0.0136  -0.0313  -0.0442  -2.00    0.0
2024/05/06 11:55:29.000   28.306738943  -16.436439733   689.5775   2   7   0.0235   0.0262   0.1408   0.0136  -0.0313  -0.0443  -1.00    0.0
2024/05/06 11:55:30.000   28.306738944  -16.436439732   689.5750   2   7   0.0235   0.0263   0.1410   0.0136  -0.0313  -0.0444   0.00    0.0
2024/05/06 11:55:31.000   28.306738943  -16.436439733   689.5748   2   7   0.0235   0.0263   0.1412   0.0136  -0.0314  -0.0444   1.00    0.0
2024/05/06 11:55:32.000   28.306738943  -16.436439735   689.5740   2   7   0.0236   0.0263   0.1414   0.0137  -0.0314  -0.0445   2.00    0.0
2024/05/06 11:55:33.000   28.306738945  -16.436439736   689.5716   2   7   0.0236   0.0263   0.1416   0.0137  -0.0314  -0.0446   3.00    0.0
2024/05/06 11:55:34.000   28.306738947  -16.436439735   689.5685   2   7   0.0236   0.0264   0.1417   0.0137  -0.0314  -0.0446   4.00    0.0
2024/05/06 11:55:35.000   28.306738947  -16.436439736   689.5670   2   7   0.0236   0.0264   0.1419   0.0137  -0.0315  -0.0447   5.00    0.0
2024/05/06 11:55:36.000   28.306738948  -16.436439735   689.5652   2   7   0.0237   0.0264   0.1420   0.0137  -0.0315  -0.0447   6.00    0.0
2024/05/06 11:55:37.000   28.306738948  -16.436439735   689.5651   2   7   0.0237   0.0264   0.1420   0.0137  -0.0315  -0.0447   7.00    0.0
2024/05/06 11:55:38.000   28.306738948  -16.436439735   689.5644   2   7   0.0237   0.0264   0.1421   0.0137  -0.0315  -0.0447   8.00    0.0
2024/05/06 11:55:39.000   28.306738948  -16.436439735   689.5639   2   7   0.0237   0.0264   0.1421   0.0137  -0.0315  -0.0447   9.00    0.0
2024/05/06 11:55:40.000   28.306738947  -16.436439735   689.5640   2   7   0.0237   0.0264   0.1422   0.0137  -0.0315  -0.0447  10.00    0.0
2024/05/06 11:55:41.000   28.306738947  -16.436439736   689.5642   2   7   0.0237   0.0264   0.1422   0.0137  -0.0315  -0.0447  11.00    0.0
2024/05/06 11:55:42.000   28.306738947  -16.436439736   689.5640   2   7   0.0237   0.0264   0.1422   0.0137  -0.0315  -0.0447  12.00    0.0
2024/05/06 11:55:43.000   28.306738947  -16.436439737   689.5639   2   7   0.0237   0.0264   0.1422   0.0137  -0.0315  -0.0447  13.00    0.0
2024/05/06 11:55:44.000   28.306738947  -16.436439737   689.5636   2   7   0.0237   0.0264   0.1423   0.0137  -0.0315  -0.0448  14.00    0.0
2024/05/06 11:55:45.000   28.306738947  -16.436439737   689.5631   2   7   0.0237   0.0264   0.1423   0.0137  -0.0315  -0.0447 -15.00    0.0
2024/05/06 11:55:46.000   28.306738948  -16.436439738   689.5626   2   7   0.0237   0.0264   0.1423   0.0137  -0.0315  -0.0447 -14.00    0.0
2024/05/06 11:55:47.000   28.306738948  -16.436439738   689.5622   2   7   0.0237   0.0264   0.1423   0.0137  -0.0315  -0.0447 -13.00    0.0
2024/05/06 11:55:48.000   28.306738948  -16.436439738   689.5621   2   7   0.0237   0.0264   0.1423   0.0137  -0.0315  -0.0447 -12.00    0.0
2024/05/06 11:55:49.000   28.306738947  -16.436439738   689.5619   2   7   0.0237   0.0264   0.1423   0.0137  -0.0315  -0.0448 -11.00    0.0
2024/05/06 11:55:50.000   28.306738947  -16.436439738   689.5618   2   7   0.0237   0.0264   0.1423   0.0137  -0.0315  -0.0448 -10.00    0.0
2024/05/06 11:55:51.000   28.306738947  -16.436439739   689.5620   2   7   0.0237   0.0265   0.1424   0.0137  -0.0315  -0.0448  -9.00    0.0
2024/05/06 11:55:52.000   28.306738946  -16.436439739   689.5621   2   7   0.0237   0.0265   0.1424   0.0137  -0.0315  -0.0448  -8.00    0.0
2024/05/06 11:55:53.000   28.306738946  -16.436439739   689.5619   2   7   0.0237   0.0265   0.1424   0.0137  -0.0315  -0.0448  -7.00    0.0
2024/05/06 11:55:54.000   28.306738946  -16.436439740   689.5616   2   7   0.0237   0.0265   0.1425   0.0138  -0.0315  -0.0448  -6.00    0.0
2024/05/06 11:55:55.000   28.306738946  -16.436439740   689.5609   2   7   0.0237   0.0265   0.1426   0.0138  -0.0315  -0.0448  -5.00    0.0
2024/05/06 11:55:56.000   28.306738946  -16.436439740   689.5599   2   7   0.0238   0.0265   0.1427   0.0138  -0.0315  -0.0448  -4.00    0.0
2024/05/06 11:55:57.000   28.306738948  -16.436439739   689.5588   2   7   0.0238   0.0265   0.1428   0.0138  -0.0315  -0.0449  -3.00    0.0
2024/05/06 11:55:58.000   28.306738950  -16.436439738   689.5568   2   7   0.0238   0.0265   0.1430   0.0138  -0.0315  -0.0449  -2.00    0.0
2024/05/06 11:55:59.000   28.306738950  -16.436439736   689.5547   2   7   0.0238   0.0266   0.1432   0.0138  -0.0316  -0.0450  -1.00    0.0
2024/05/06 11:56:00.000   28.306738951  -16.436439733   689.5523   2   7   0.0239   0.0266   0.1434   0.0138  -0.0316  -0.0451   0.00    0.0
2024/05/06 11:56:01.000   28.306738952  -16.436439733   689.5493   2   7   0.0239   0.0266   0.1436   0.0139  -0.0316  -0.0452   1.00    0.0
2024/05/06 11:56:02.000   28.306738952  -16.436439733   689.5480   2   7   0.0239   0.0267   0.1438   0.0139  -0.0317  -0.0452   2.00    0.0
2024/05/06 11:56:03.000   28.306738952  -16.436439731   689.5468   2   7   0.0240   0.0267   0.1440   0.0139  -0.0317  -0.0453   3.00    0.0
2024/05/06 11:56:04.000   28.306738951  -16.436439731   689.5460   2   7   0.0240   0.0267   0.1442   0.0139  -0.0317  -0.0454   4.00    0.0
2024/05/06 11:56:05.000   28.306738949  -16.436439731   689.5458   2   7   0.0240   0.0267   0.1443   0.0139  -0.0317  -0.0454   5.00    0.0
2024/05/06 11:56:06.000   28.306738946  -16.436439732   689.5466   2   7   0.0240   0.0268   0.1445   0.0140  -0.0317  -0.0454   6.00    0.0
2024/05/06 11:56:07.000   28.306738944  -16.436439733   689.5470   2   7   0.0241   0.0268   0.1445   0.0140  -0.0317  -0.0454   7.00    0.0
2024/05/06 11:56:08.000   28.306738943  -16.436439734   689.5467   2   7   0.0241   0.0268   0.1446   0.0140  -0.0317  -0.0455   8.00    0.0
2024/05/06 11:56:09.000   28.306738941  -16.436439736   689.5469   2   7   0.0241   0.0268   0.1447   0.0140  -0.0318  -0.0455   9.00    0.0
2024/05/06 11:56:10.000   28.306738939  -16.436439736   689.5471   2   7   0.0241   0.0268   0.1447   0.0140  -0.0318  -0.0455  10.00    0.0
2024/05/06 11:56:11.000   28.306738939  -16.436439737   689.5472   2   7   0.0241   0.0268   0.1448   0.0140  -0.0318  -0.0455  11.00    0.0
2024/05/06 11:56:12.000   28.306738939  -16.436439738   689.5471   2   7   0.0241   0.0268   0.1448   0.0140  -0.0318  -0.0455  12.00    0.0
2024/05/06 11:56:13.000   28.306738939  -16.436439738   689.5467   2   7   0.0241   0.0268   0.1448   0.0140  -0.0318  -0.0455  13.00    0.0
2024/05/06 11:56:14.000   28.306738939  -16.436439738   689.5464   2   7   0.0241   0.0268   0.1448   0.0140  -0.0318  -0.0455  14.00    0.0
2024/05/06 11:56:15.000   28.306738940  -16.436439739   689.5460   2   7   0.0241   0.0268   0.1448   0.0140  -0.0318  -0.0455 -15.00    0.0
2024/05/06 11:56:16.000   28.306738941  -16.436439739   689.5452   2   7   0.0241   0.0268   0.1449   0.0140  -0.0318  -0.0455 -14.00    0.0
2024/05/06 11:56:17.000   28.306738942  -16.436439739   689.5445   2   7   0.0241   0.0268   0.1449   0.0140  -0.0318  -0.0455 -13.00    0.0
2024/05/06 11:56:18.000   28.306738943  -16.436439740   689.5435   2   7   0.0241   0.0268   0.1449   0.0140  -0.0318  -0.0455 -12.00    0.0
2024/05/06 11:56:19.000   28.306738944  -16.436439740   689.5427   2   7   0.0241   0.0268   0.1449   0.0140  -0.0318  -0.0455 -11.00    0.0
2024/05/06 11:56:20.000   28.306738945  -16.436439740   689.5419   2   7   0.0241   0.0268   0.1450   0.0140  -0.0318  -0.0455 -10.00    0.0
2024/05/06 11:56:21.000   28.306738946  -16.436439740   689.5409   2   7   0.0241   0.0268   0.1450   0.0140  -0.0318  -0.0455  -9.00    0.0
2024/05/06 11:56:22.000   28.306738946  -16.436439741   689.5402   2   7   0.0241   0.0268   0.1450   0.0140  -0.0318  -0.0456  -8.00    0.0
2024/05/06 11:56:23.000   28.306738947  -16.436439741   689.5396   2   7   0.0241   0.0268   0.1451   0.0140  -0.0318  -0.0456  -7.00    0.0
2024/05/06 11:56:24.000   28.306738949  -16.436439741   689.5390   2   7   0.0241   0.0269   0.1452   0.0140  -0.0318  -0.0456  -6.00    0.0
2024/05/06 11:56:25.000   28.306738950  -16.436439741   689.5379   2   7   0.0241   0.0269   0.1452   0.0140  -0.0318  -0.0456  -5.00    0.0
2024/05/06 11:56:26.000   28.306738951  -16.436439741   689.5369   2   7   0.0242   0.0269   0.1453   0.0140  -0.0318  -0.0456  -4.00    0.0
2024/05/06 11:56:27.000   28.306738952  -16.436439742   689.5364   2   7   0.0242   0.0269   0.1455   0.0140  -0.0318  -0.0457  -3.00    0.0
2024/05/06 11:56:28.000   28.306738954  -16.436439743   689.5345   2   7   0.0242   0.0269   0.1456   0.0140  -0.0319  -0.0457  -2.00    0.0
2024/05/06 11:56:29.000   28.306738956  -16.436439743   689.5325   2   7   0.0242   0.0270   0.1458   0.0141  -0.0319  -0.0458  -1.00    0.0
2024/05/06 11:56:30.000   28.306738959  -16.436439744   689.5293   2   7   0.0243   0.0270   0.1460   0.0141  -0.0319  -0.0459   0.00    0.0
2024/05/06 11:56:31.000   28.306738959  -16.436439748   689.5284   2   7   0.0243   0.0270   0.1462   0.0141  -0.0319  -0.0459   1.00    0.0
2024/05/06 11:56:32.000   28.306738959  -16.436439753   689.5283   2   7   0.0243   0.0271   0.1465   0.0141  -0.0320  -0.0460   2.00    0.0
2024/05/06 11:56:33.000   28.306738960  -16.436439756   689.5272   2   7   0.0244   0.0271   0.1467   0.0142  -0.0320  -0.0461   3.00    0.0
2024/05/06 11:56:34.000   28.306738960  -16.436439758   689.5261   2   7   0.0244   0.0271   0.1468   0.0142  -0.0320  -0.0461   4.00    0.0
2024/05/06 11:56:35.000   28.306738960  -16.436439761   689.5263   2   7   0.0244   0.0271   0.1470   0.0142  -0.0320  -0.0462   5.00    0.0
2024/05/06 11:56:36.000   28.306738959  -16.436439763   689.5257   2   7   0.0244   0.0271   0.1471   0.0142  -0.0321  -0.0462   6.00    0.0
2024/05/06 11:56:37.000   28.306738960  -16.436439765   689.5247   2   7   0.0245   0.0272   0.1471   0.0142  -0.0321  -0.0462   7.00    0.0
2024/05/06 11:56:38.000   28.306738961  -16.436439768   689.5238   2   7   0.0245   0.0272   0.1472   0.0142  -0.0321  -0.0463   8.00    0.0
2024/05/06 11:56:39.000   28.306738962  -16.436439770   689.5234   2   7   0.0245   0.0272   0.1473   0.0142  -0.0321  -0.0463   9.00    0.0
2024/05/06 11:56:40.000   28.306738963  -16.436439772   689.5225   2   7   0.0245   0.0272   0.1473   0.0142  -0.0321  -0.0463  10.00    0.0
2024/05/06 11:56:41.000   28.306738964  -16.436439773   689.5217   2   7   0.0245   0.0272   0.1474   0.0142  -0.0321  -0.0463  11.00    0.0
2024/05/06 11:56:42.000   28.306738966  -16.436439773   689.5206   2   7   0.0245   0.0272   0.1474   0.0142  -0.0321  -0.0463  12.00    0.0
2024/05/06 11:56:43.000   28.306738967  -16.436439774   689.5198   2   7   0.0245   0.0272   0.1474   0.0142  -0.0321  -0.0463  13.00    0.0
2024/05/06 11:56:44.000   28.306738968  -16.436439774   689.5189   2   7   0.0245   0.0272   0.1474   0.0142  -0.0321  -0.0463  14.00    0.0
2024/05/06 11:56:45.000   28.306738970  -16.436439774   689.5182   2   7   0.0245   0.0272   0.1475   0.0142  -0.0321  -0.0463 -15.00    0.0
2024/05/06 11:56:46.000   28.306738971  -16.436439774   689.5176   2   7   0.0245   0.0272   0.1475   0.0142  -0.0321  -0.0463 -14.00    0.0
2024/05/06 11:56:47.000   28.306738972  -16.436439774   689.5169   2   7   0.0245   0.0272   0.1475   0.0142  -0.0321  -0.0463 -13.00    0.0
2024/05/06 11:56:48.000   28.306738974  -16.436439774   689.5161   2   7   0.0245   0.0272   0.1475   0.0142  -0.0321  -0.0463 -12.00    0.0
2024/05/06 11:56:49.000   28.306738975  -16.436439775   689.5153   2   7   0.0245   0.0272   0.1475   0.0142  -0.0321  -0.0463 -11.00    0.0
2024/05/06 11:56:50.000   28.306738977  -16.436439775   689.5146   2   7   0.0245   0.0272   0.1476   0.0142  -0.0321  -0.0463 -10.00    0.0
2024/05/06 11:56:51.000   28.306738978  -16.436439775   689.5139   2   7   0.0245   0.0272   0.1476   0.0142  -0.0321  -0.0463  -9.00    0.0
2024/05/06 11:56:52.000   28.306738980  -16.436439775   689.5128   2   7   0.0245   0.0272   0.1477   0.0142  -0.0321  -0.0464  -8.00    0.0
2024/05/06 11:56:53.000   28.306738982  -16.436439775   689.5120   2   7   0.0245   0.0272   0.1477   0.0142  -0.0321  -0.0464  -7.00    0.0
2024/05/06 11:56:54.001   28.306738985  -16.436439775   689.5107   2   7   0.0245   0.0273   0.1478   0.0143  -0.0321  -0.0464  -6.00    0.0
2024/05/06 11:56:55.000   28.306738987  -16.436439775   689.5099   2   7   0.0246   0.0273   0.1479   0.0143  -0.0321  -0.0464  -5.00    0.0
2024/05/06 11:56:56.000   28.306738990  -16.436439775   689.5093   2   7   0.0246   0.0273   0.1480   0.0143  -0.0322  -0.0464  -4.00    0.0
2024/05/06 11:56:57.000   28.306738993  -16.436439776   689.5082   2   7   0.0246   0.0273   0.1481   0.0143  -0.0322  -0.0465  -3.00    0.0
2024/05/06 11:56:58.000   28.306738995  -16.436439779   689.5059   2   7   0.0246   0.0273   0.1482   0.0143  -0.0322  -0.0465  -2.00    0.0
2024/05/06 11:56:59.000   28.306738995  -16.436439783   689.5043   2   7   0.0246   0.0274   0.1484   0.0143  -0.0322  -0.0466  -1.00    0.0
2024/05/06 11:57:00.000   28.306738995  -16.436439786   689.5038   2   7   0.0247   0.0274   0.1486   0.0143  -0.0323  -0.0467   0.00    0.0
2024/05/06 11:57:01.000   28.306738994  -16.436439793   689.5040   2   7   0.0247   0.0274   0.1488   0.0144  -0.0323  -0.0467   1.00    0.0
2024/05/06 11:57:02.000   28.306738993  -16.436439799   689.5039   2   7   0.0247   0.0275   0.1490   0.0144  -0.0323  -0.0468   2.00    0.0
2024/05/06 11:57:03.000   28.306738992  -16.436439802   689.5035   2   7   0.0248   0.0275   0.1492   0.0144  -0.0323  -0.0469   3.00    0.0
2024/05/06 11:57:04.000   28.306738991  -16.436439805   689.5044   2   7   0.0248   0.0275   0.1494   0.0144  -0.0324  -0.0469   4.00    0.0
2024/05/06 11:57:05.000   28.306738990  -16.436439807   689.5048   2   7   0.0248   0.0275   0.1495   0.0144  -0.0324  -0.0470   5.00    0.0
2024/05/06 11:57:06.000   28.306738989  -16.436439810   689.5055   2   7   0.0248   0.0275   0.1496   0.0144  -0.0324  -0.0470   6.00    0.0
2024/05/06 11:57:07.000   28.306738988  -16.436439810   689.5057   2   7   0.0249   0.0276   0.1497   0.0145  -0.0324  -0.0470   7.00    0.0
2024/05/06 11:57:08.000   28.306738987  -16.436439811   689.5062   2   7   0.0249   0.0276   0.1497   0.0145  -0.0324  -0.0470   8.00    0.0
2024/05/06 11:57:09.000   28.306738986  -16.436439812   689.5064   2   7   0.0249   0.0276   0.1498   0.0145  -0.0324  -0.0470   9.00    0.0
2024/05/06 11:57:10.000   28.306738985  -16.436439813   689.5064   2   7   0.0249   0.0276   0.1498   0.0145  -0.0324  -0.0471  10.00    0.0
2024/05/06 11:57:11.000   28.306738984  -16.436439813   689.5064   2   7   0.0249   0.0276   0.1499   0.0145  -0.0324  -0.0471  11.00    0.0
2024/05/06 11:57:12.000   28.306738984  -16.436439813   689.5062   2   7   0.0249   0.0276   0.1499   0.0145  -0.0324  -0.0471  12.00    0.0
2024/05/06 11:57:13.000   28.306738984  -16.436439814   689.5061   2   7   0.0249   0.0276   0.1499   0.0145  -0.0324  -0.0471  13.00    0.0
2024/05/06 11:57:14.000   28.306738983  -16.436439814   689.5063   2   7   0.0249   0.0276   0.1500   0.0145  -0.0324  -0.0471  14.00    0.0
2024/05/06 11:57:15.000   28.306738982  -16.436439814   689.5063   2   7   0.0249   0.0276   0.1500   0.0145  -0.0324  -0.0471 -15.00    0.0
2024/05/06 11:57:16.000   28.306738981  -16.436439815   689.5065   2   7   0.0249   0.0276   0.1500   0.0145  -0.0324  -0.0471 -14.00    0.0
2024/05/06 11:57:17.000   28.306738981  -16.436439815   689.5067   2   7   0.0249   0.0276   0.1500   0.0145  -0.0324  -0.0471 -13.00    0.0
2024/05/06 11:57:18.000   28.306738980  -16.436439816   689.5070   2   7   0.0249   0.0276   0.1500   0.0145  -0.0325  -0.0471 -12.00    0.0
2024/05/06 11:57:19.000   28.306738979  -16.436439817   689.5072   2   7   0.0249   0.0276   0.1501   0.0145  -0.0325  -0.0471 -11.00    0.0
2024/05/06 11:57:20.000   28.306738978  -16.436439818   689.5073   2   7   0.0249   0.0276   0.1501   0.0145  -0.0325  -0.0471 -10.00    0.0
2024/05/06 11:57:21.000   28.306738978  -16.436439818   689.5075   2   7   0.0249   0.0276   0.1501   0.0145  -0.0325  -0.0471  -9.00    0.0
2024/05/06 11:57:22.000   28.306738978  -16.436439819   689.5070   2   7   0.0249   0.0276   0.1502   0.0145  -0.0325  -0.0471  -8.00    0.0
2024/05/06 11:57:23.000   28.306738977  -16.436439820   689.5066   2   7   0.0249   0.0276   0.1502   0.0145  -0.0325  -0.0471  -7.00    0.0
2024/05/06 11:57:24.000   28.306738977  -16.436439821   689.5060   2   7   0.0249   0.0277   0.1503   0.0145  -0.0325  -0.0472  -6.00    0.0
2024/05/06 11:57:25.000   28.306738977  -16.436439822   689.5050   2   7   0.0249   0.0277   0.1504   0.0145  -0.0325  -0.0472  -5.00    0.0
2024/05/06 11:57:26.000   28.306738978  -16.436439822   689.5040   2   7   0.0250   0.0277   0.1505   0.0145  -0.0325  -0.0472  -4.00    0.0
2024/05/06 11:57:27.000   28.306738979  -16.436439823   689.5029   2   7   0.0250   0.0277   0.1506   0.0145  -0.0325  -0.0472  -3.00    0.0
2024/05/06 11:57:28.000   28.306738980  -16.436439824   689.5021   2   7   0.0250   0.0277   0.1507   0.0145  -0.0325  -0.0473  -2.00    0.0
2024/05/06 11:57:29.000   28.306738980  -16.436439824   689.5016   2   7   0.0250   0.0277   0.1509   0.0146  -0.0326  -0.0473  -1.00    0.0
2024/05/06 11:57:30.000   28.306738978  -16.436439824   689.5017   2   7   0.0251   0.0278   0.1511   0.0146  -0.0326  -0.0474   0.00    0.0
2024/05/06 11:57:31.000   28.306738978  -16.436439826   689.5020   2   7   0.0251   0.0278   0.1512   0.0146  -0.0326  -0.0475   1.00    0.0
2024/05/06 11:57:32.000   28.306738977  -16.436439829   689.5026   2   7   0.0251   0.0278   0.1514   0.0146  -0.0327  -0.0475   2.00    0.0
2024/05/06 11:57:33.000   28.306738979  -16.436439831   689.5019   2   7   0.0252   0.0279   0.1516   0.0146  -0.0327  -0.0476   3.00    0.0
2024/05/06 11:57:34.000   28.306738981  -16.436439831   689.5012   2   7   0.0252   0.0279   0.1518   0.0147  -0.0327  -0.0476   4.00    0.0
2024/05/06 11:57:35.000   28.306738983  -16.436439830   689.5005   2   7   0.0252   0.0279   0.1519   0.0147  -0.0327  -0.0477   5.00    0.0
2024/05/06 11:57:36.000   28.306738984  -16.436439830   689.5002   2   7   0.0252   0.0279   0.1520   0.0147  -0.0327  -0.0477   6.00    0.0
2024/05/06 11:57:37.000   28.306738985  -16.436439830   689.5002   2   7   0.0252   0.0280   0.1521   0.0147  -0.0328  -0.0477   7.00    0.0
2024/05/06 11:57:38.000   28.306738986  -16.436439830   689.5003   2   7   0.0252   0.0280   0.1521   0.0147  -0.0328  -0.0478   8.00    0.0
2024/05/06 11:57:39.000   28.306738986  -16.436439829   689.5001   2   7   0.0253   0.0280   0.1522   0.0147  -0.0328  -0.0478   9.00    0.0
2024/05/06 11:57:40.000   28.306738986  -16.436439829   689.5002   2   7   0.0253   0.0280   0.1522   0.0147  -0.0328  -0.0478  10.00    0.0
2024/05/06 11:57:41.000   28.306738987  -16.436439828   689.5003   2   7   0.0253   0.0280   0.1523   0.0147  -0.0328  -0.0478  11.00    0.0
2024/05/06 11:57:42.000   28.306738987  -16.436439828   689.5005   2   7   0.0253   0.0280   0.1523   0.0147  -0.0328  -0.0478  12.00    0.0
2024/05/06 11:57:43.000   28.306738987  -16.436439828   689.5008   2   7   0.0253   0.0280   0.1523   0.0147  -0.0328  -0.0478  13.00    0.0
2024/05/06 11:57:44.000   28.306738987  -16.436439828   689.5007   2   7   0.0253   0.0280   0.1523   0.0147  -0.0328  -0.0478  14.00    0.0
2024/05/06 11:57:45.000   28.306738988  -16.436439828   689.5010   2   7   0.0253   0.0280   0.1524   0.0147  -0.0328  -0.0478 -15.00    0.0
2024/05/06 11:57:46.000   28.306738988  -16.436439828   689.5010   2   7   0.0253   0.0280   0.1524   0.0147  -0.0328  -0.0478 -14.00    0.0
2024/05/06 11:57:47.000   28.306738988  -16.436439827   689.5013   2   7   0.0253   0.0280   0.1524   0.0147  -0.0328  -0.0478 -13.00    0.0
2024/05/06 11:57:48.000   28.306738988  -16.436439827   689.5015   2   7   0.0253   0.0280   0.1524   0.0147  -0.0328  -0.0478 -12.00    0.0
2024/05/06 11:57:49.000   28.306738988  -16.436439827   689.5015   2   7   0.0253   0.0280   0.1524   0.0147  -0.0328  -0.0478 -11.00    0.0
2024/05/06 11:57:50.000   28.306738988  -16.436439827   689.5015   2   7   0.0253   0.0280   0.1525   0.0147  -0.0328  -0.0478 -10.00    0.0
2024/05/06 11:57:51.000   28.306738989  -16.436439827   689.5020   2   7   0.0253   0.0280   0.1525   0.0147  -0.0328  -0.0478  -9.00    0.0
2024/05/06 11:57:52.000   28.306738988  -16.436439825   689.5028   2   7   0.0253   0.0280   0.1525   0.0147  -0.0328  -0.0478  -8.00    0.0
2024/05/06 11:57:53.000   28.306738989  -16.436439824   689.5032   2   7   0.0253   0.0280   0.1526   0.0147  -0.0328  -0.0479  -7.00    0.0
2024/05/06 11:57:54.000   28.306738988  -16.436439823   689.5040   2   7   0.0253   0.0280   0.1526   0.0147  -0.0328  -0.0479  -6.00    0.0
2024/05/06 11:57:55.000   28.306738988  -16.436439821   689.5047   2   7   0.0253   0.0281   0.1527   0.0147  -0.0328  -0.0479  -5.00    0.0
2024/05/06 11:57:56.000   28.306738987  -16.436439820   689.5052   2   7   0.0253   0.0281   0.1528   0.0147  -0.0329  -0.0479  -4.00    0.0
2024/05/06 11:57:57.000   28.306738987  -16.436439817   689.5059   2   7   0.0254   0.0281   0.1529   0.0147  -0.0329  -0.0479  -3.00    0.0
2024/05/06 11:57:58.000   28.306738987  -16.436439814   689.5068   2   7   0.0254   0.0281   0.1530   0.0148  -0.0329  -0.0480  -2.00    0.0
2024/05/06 11:57:59.000   28.306738986  -16.436439813   689.5081   2   7   0.0254   0.0281   0.1532   0.0148  -0.0329  -0.0480  -1.00    0.0
2024/05/06 11:58:00.000   28.306738982  -16.436439811   689.5116   2   7   0.0254   0.0282   0.1534   0.0148  -0.0330  -0.0481   0.00    0.0
2024/05/06 11:58:01.000   28.306738979  -16.436439809   689.5138   2   7   0.0255   0.0282   0.1535   0.0148  -0.0330  -0.0482   1.00    0.0
2024/05/06 11:58:02.000   28.306738979  -16.436439807   689.5150   2   7   0.0255   0.0282   0.1537   0.0148  -0.0330  -0.0482   2.00    0.0
2024/05/06 11:58:03.000   28.306738978  -16.436439806   689.5169   2   7   0.0255   0.0283   0.1538   0.0149  -0.0330  -0.0483   3.00    0.0
2024/05/06 11:58:04.000   28.306738979  -16.436439805   689.5175   2   7   0.0256   0.0283   0.1540   0.0149  -0.0331  -0.0483   4.00    0.0
2024/05/06 11:58:05.000   28.306738980  -16.436439804   689.5186   2   7   0.0256   0.0283   0.1541   0.0149  -0.0331  -0.0484   5.00    0.0
2024/05/06 11:58:06.000   28.306738980  -16.436439804   689.5198   2   7   0.0256   0.0283   0.1542   0.0149  -0.0331  -0.0484   6.00    0.0
2024/05/06 11:58:07.000   28.306738979  -16.436439802   689.5209   2   7   0.0256   0.0283   0.1543   0.0149  -0.0331  -0.0484   7.00    0.0
2024/05/06 11:58:08.000   28.306738979  -16.436439801   689.5218   2   7   0.0256   0.0283   0.1543   0.0149  -0.0331  -0.0484   8.00    0.0
2024/05/06 11:58:09.000   28.306738978  -16.436439800   689.5225   2   7   0.0256   0.0283   0.1544   0.0149  -0.0331  -0.0484   9.00    0.0
2024/05/06 11:58:10.000   28.306738978  -16.436439800   689.5230   2   7   0.0256   0.0284   0.1544   0.0149  -0.0331  -0.0484  10.00    0.0
2024/05/06 11:58:11.000   28.306738979  -16.436439800   689.5232   2   7   0.0256   0.0284   0.1544   0.0149  -0.0331  -0.0484  11.00    0.0
2024/05/06 11:58:12.000   28.306738979  -16.436439799   689.5232   2   7   0.0256   0.0284   0.1545   0.0149  -0.0331  -0.0485  12.00    0.0
2024/05/06 11:58:13.000   28.306738980  -16.436439798   689.5234   2   7   0.0256   0.0284   0.1545   0.0149  -0.0331  -0.0485  13.00    0.0
2024/05/06 11:58:14.000   28.306738980  -16.436439798   689.5236   2   7   0.0256   0.0284   0.1545   0.0149  -0.0331  -0.0485  14.00    0.0
2024/05/06 11:58:15.000   28.306738979  -16.436439798   689.5238   2   7   0.0256   0.0284   0.1545   0.0149  -0.0332  -0.0485 -15.00    0.0
2024/05/06 11:58:16.000   28.306738979  -16.436439797   689.5240   2   7   0.0256   0.0284   0.1545   0.0149  -0.0332  -0.0485 -14.00    0.0
2024/05/06 11:58:17.000   28.306738979  -16.436439797   689.5245   2   7   0.0256   0.0284   0.1546   0.0149  -0.0332  -0.0485 -13.00    0.0
2024/05/06 11:58:18.000   28.306738978  -16.436439796   689.5248   2   7   0.0256   0.0284   0.1546   0.0149  -0.0332  -0.0485 -12.00    0.0
2024/05/06 11:58:19.000   28.306738978  -16.436439796   689.5253   2   7   0.0256   0.0284   0.1546   0.0149  -0.0332  -0.0485 -11.00    0.0
2024/05/06 11:58:20.000   28.306738978  -16.436439795   689.5257   2   7   0.0256   0.0284   0.1546   0.0149  -0.0332  -0.0485 -10.00    0.0
2024/05/06 11:58:21.000   28.306738978  -16.436439794   689.5261   2   7   0.0257   0.0284   0.1547   0.0149  -0.0332  -0.0485  -9.00    0.0
2024/05/06 11:58:22.000   28.306738977  -16.436439794   689.5269   2   7   0.0257   0.0284   0.1547   0.0149  -0.0332  -0.0485  -8.00    0.0
2024/05/06 11:58:23.000   28.306738976  -16.436439793   689.5276   2   7   0.0257   0.0284   0.1547   0.0149  -0.0332  -0.0485  -7.00    0.0
2024/05/06 11:58:24.000   28.306738976  -16.436439792   689.5284   2   7   0.0257   0.0284   0.1548   0.0149  -0.0332  -0.0485  -6.00    0.0
2024/05/06 11:58:25.000   28.306738975  -16.436439790   689.5297   2   7   0.0257   0.0284   0.1548   0.0149  -0.0332  -0.0485  -5.00    0.0
2024/05/06 11:58:26.000   28.306738973  -16.436439787   689.5313   2   7   0.0257   0.0284   0.1549   0.0149  -0.0332  -0.0486  -4.00    0.0
2024/05/06 11:58:27.000   28.306738970  -16.436439786   689.5338   2   7   0.0257   0.0285   0.1550   0.0150  -0.0332  -0.0486  -3.00    0.0
2024/05/06 11:58:28.000   28.306738967  -16.436439783   689.5366   2   7   0.0257   0.0285   0.1551   0.0150  -0.0333  -0.0486  -2.00    0.0
2024/05/06 11:58:29.000   28.306738965  -16.436439780   689.5395   2   7   0.0257   0.0285   0.1553   0.0150  -0.0333  -0.0487  -1.00    0.0
2024/05/06 11:58:30.000   28.306738962  -16.436439776   689.5438   2   7   0.0258   0.0285   0.1554   0.0150  -0.0333  -0.0487   0.00    0.0
2024/05/06 11:58:31.000   28.306738958  -16.436439773   689.5477   2   7   0.0258   0.0286   0.1556   0.0150  -0.0333  -0.0488   1.00    0.0
2024/05/06 11:58:32.000   28.306738953  -16.436439766   689.5516   2   7   0.0258   0.0286   0.1557   0.0150  -0.0334  -0.0488   2.00    0.0
2024/05/06 11:58:33.000   28.306738948  -16.436439762   689.5545   2   7   0.0259   0.0286   0.1559   0.0151  -0.0334  -0.0489   3.00    0.0
2024/05/06 11:58:34.000   28.306738943  -16.436439760   689.5578   2   7   0.0259   0.0286   0.1560   0.0151  -0.0334  -0.0489   4.00    0.0
2024/05/06 11:58:35.000   28.306738939  -16.436439759   689.5609   2   7   0.0259   0.0287   0.1561   0.0151  -0.0334  -0.0489   5.00    0.0
2024/05/06 11:58:36.000   28.306738934  -16.436439758   689.5635   2   7   0.0259   0.0287   0.1562   0.0151  -0.0334  -0.0490   6.00    0.0
2024/05/06 11:58:37.000   28.306738930  -16.436439758   689.5658   2   7   0.0259   0.0287   0.1562   0.0151  -0.0335  -0.0490   7.00    0.0
2024/05/06 11:58:38.000   28.306738928  -16.436439757   689.5679   2   7   0.0259   0.0287   0.1563   0.0151  -0.0335  -0.0490   8.00    0.0
2024/05/06 11:58:39.000   28.306738925  -16.436439757   689.5699   2   7   0.0259   0.0287   0.1563   0.0151  -0.0335  -0.0490   9.00    0.0
2024/05/06 11:58:40.000   28.306738923  -16.436439758   689.5716   2   7   0.0259   0.0287   0.1564   0.0151  -0.0335  -0.0490  10.00    0.0
2024/05/06 11:58:41.000   28.306738921  -16.436439757   689.5732   2   7   0.0259   0.0287   0.1564   0.0151  -0.0335  -0.0490  11.00    0.0
2024/05/06 11:58:42.000   28.306738919  -16.436439757   689.5746   2   7   0.0260   0.0287   0.1564   0.0151  -0.0335  -0.0490  12.00    0.0
2024/05/06 11:58:43.000   28.306738917  -16.436439757   689.5760   2   7   0.0260   0.0287   0.1565   0.0151  -0.0335  -0.0490  13.00    0.0
2024/05/06 11:58:44.000   28.306738915  -16.436439757   689.5771   2   7   0.0260   0.0287   0.1565   0.0151  -0.0335  -0.0490  14.00    0.0
2024/05/06 11:58:45.000   28.306738914  -16.436439757   689.5781   2   7   0.0260   0.0287   0.1565   0.0151  -0.0335  -0.0490 -15.00    0.0
2024/05/06 11:58:46.000   28.306738913  -16.436439756   689.5787   2   7   0.0260   0.0287   0.1565   0.0151  -0.0335  -0.0490 -14.00    0.0
2024/05/06 11:58:47.000   28.306738912  -16.436439755   689.5791   2   7   0.0260   0.0287   0.1565   0.0151  -0.0335  -0.0490 -13.00    0.0
2024/05/06 11:58:48.000   28.306738912  -16.436439755   689.5794   2   7   0.0260   0.0287   0.1565   0.0151  -0.0335  -0.0491 -12.00    0.0
2024/05/06 11:58:49.000   28.306738913  -16.436439754   689.5796   2   7   0.0260   0.0287   0.1566   0.0151  -0.0335  -0.0491 -11.00    0.0
2024/05/06 11:58:50.000   28.306738914  -16.436439752   689.5796   2   7   0.0260   0.0287   0.1566   0.0151  -0.0335  -0.0491 -10.00    0.0
2024/05/06 11:58:51.000   28.306738915  -16.436439751   689.5796   2   7   0.0260   0.0288   0.1566   0.0151  -0.0335  -0.0491  -9.00    0.0
2024/05/06 11:58:52.000   28.306738917  -16.436439751   689.5794   2   7   0.0260   0.0288   0.1566   0.0151  -0.0335  -0.0491  -8.00    0.0
2024/05/06 11:58:53.000   28.306738918  -16.436439750   689.5795   2   7   0.0260   0.0288   0.1567   0.0151  -0.0335  -0.0491  -7.00    0.0
2024/05/06 11:58:54.000   28.306738920  -16.436439748   689.5792   2   7   0.0260   0.0288   0.1567   0.0151  -0.0335  -0.0491  -6.00    0.0
2024/05/06 11:58:55.000   28.306738922  -16.436439745   689.5791   2   7   0.0260   0.0288   0.1568   0.0151  -0.0335  -0.0491  -5.00    0.0
2024/05/06 11:58:56.000   28.306738925  -16.436439743   689.5795   2   7   0.0260   0.0288   0.1568   0.0151  -0.0336  -0.0491  -4.00    0.0
2024/05/06 11:58:57.000   28.306738928  -16.436439740   689.5794   2   7   0.0260   0.0288   0.1569   0.0151  -0.0336  -0.0491  -3.00    0.0
2024/05/06 11:58:58.000   28.306738930  -16.436439737   689.5793   2   7   0.0260   0.0288   0.1570   0.0152  -0.0336  -0.0492  -2.00    0.0
2024/05/06 11:58:59.000   28.306738931  -16.436439735   689.5801   2   7   0.0261   0.0289   0.1571   0.0152  -0.0336  -0.0492  -1.00    0.0
2024/05/06 11:59:00.000   28.306738928  -16.436439734   689.5832   2   7   0.0261   0.0289   0.1573   0.0152  -0.0336  -0.0493   0.00    0.0
2024/05/06 11:59:01.000   28.306738926  -16.436439733   689.5854   2   7   0.0261   0.0289   0.1574   0.0152  -0.0337  -0.0493   1.00    0.0
2024/05/06 11:59:02.000   28.306738925  -16.436439733   689.5862   2   7   0.0261   0.0289   0.1575   0.0152  -0.0337  -0.0493   2.00    0.0
2024/05/06 11:59:03.000   28.306738924  -16.436439734   689.5875   2   7   0.0262   0.0290   0.1576   0.0152  -0.0337  -0.0494   3.00    0.0
2024/05/06 11:59:04.000   28.306738924  -16.436439736   689.5882   2   7   0.0262   0.0290   0.1578   0.0152  -0.0337  -0.0494   4.00    0.0
2024/05/06 11:59:05.000   28.306738925  -16.436439736   689.5881   2   7   0.0262   0.0290   0.1578   0.0152  -0.0338  -0.0494   5.00    0.0
2024/05/06 11:59:06.000   28.306738926  -16.436439736   689.5878   2   7   0.0262   0.0290   0.1579   0.0153  -0.0338  -0.0495   6.00    0.0
2024/05/06 11:59:07.000   28.306738927  -16.436439736   689.5875   2   7   0.0262   0.0290   0.1580   0.0153  -0.0338  -0.0495   7.00    0.0
2024/05/06 11:59:08.000   28.306738927  -16.436439736   689.5873   2   7   0.0262   0.0290   0.1580   0.0153  -0.0338  -0.0495   8.00    0.0
2024/05/06 11:59:09.000   28.306738928  -16.436439736   689.5872   2   7   0.0262   0.0290   0.1581   0.0153  -0.0338  -0.0495   9.00    0.0
2024/05/06 11:59:10.000   28.306738927  -16.436439736   689.5873   2   7   0.0262   0.0290   0.1581   0.0153  -0.0338  -0.0495  10.00    0.0
2024/05/06 11:59:11.000   28.306738927  -16.436439736   689.5876   2   7   0.0262   0.0290   0.1581   0.0153  -0.0338  -0.0495  11.00    0.0
2024/05/06 11:59:12.000   28.306738927  -16.436439736   689.5880   2   7   0.0262   0.0290   0.1581   0.0153  -0.0338  -0.0495  12.00    0.0
2024/05/06 11:59:13.000   28.306738926  -16.436439735   689.5885   2   7   0.0262   0.0291   0.1582   0.0153  -0.0338  -0.0495  13.00    0.0
2024/05/06 11:59:14.000   28.306738925  -16.436439735   689.5890   2   7   0.0262   0.0291   0.1582   0.0153  -0.0338  -0.0495  14.00    0.0
2024/05/06 11:59:15.000   28.306738924  -16.436439736   689.5892   2   7   0.0262   0.0291   0.1582   0.0153  -0.0338  -0.0495 -15.00    0.0
2024/05/06 11:59:16.000   28.306738923  -16.436439735   689.5896   2   7   0.0262   0.0291   0.1582   0.0153  -0.0338  -0.0495 -14.00    0.0
2024/05/06 11:59:17.000   28.306738923  -16.436439735   689.5900   2   7   0.0263   0.0291   0.1582   0.0153  -0.0338  -0.0495 -13.00    0.0
2024/05/06 11:59:18.000   28.306738922  -16.436439735   689.5904   2   7   0.0263   0.0291   0.1582   0.0153  -0.0338  -0.0495 -12.00    0.0
2024/05/06 11:59:19.000   28.306738921  -16.436439735   689.5909   2   7   0.0263   0.0291   0.1582   0.0153  -0.0338  -0.0495 -11.00    0.0
2024/05/06 11:59:20.000   28.306738920  -16.436439735   689.5914   2   7   0.0263   0.0291   0.1583   0.0153  -0.0338  -0.0495 -10.00    0.0
2024/05/06 11:59:21.000   28.306738919  -16.436439735   689.5922   2   7   0.0263   0.0291   0.1583   0.0153  -0.0338  -0.0495  -9.00    0.0
2024/05/06 11:59:22.000   28.306738918  -16.436439735   689.5927   2   7   0.0263   0.0291   0.1583   0.0153  -0.0338  -0.0496  -8.00    0.0
2024/05/06 11:59:23.000   28.306738917  -16.436439735   689.5931   2   7   0.0263   0.0291   0.1583   0.0153  -0.0339  -0.0496  -7.00    0.0
2024/05/06 11:59:24.000   28.306738917  -16.436439736   689.5935   2   7   0.0263   0.0291   0.1584   0.0153  -0.0339  -0.0496  -6.00    0.0
2024/05/06 11:59:25.000   28.306738917  -16.436439736   689.5938   2   7   0.0263   0.0291   0.1584   0.0153  -0.0339  -0.0496  -5.00    0.0
2024/05/06 11:59:26.000   28.306738917  -16.436439736   689.5935   2   7   0.0263   0.0291   0.1585   0.0153  -0.0339  -0.0496  -4.00    0.0
2024/05/06 11:59:27.000   28.306738918  -16.436439737   689.5936   2   7   0.0263   0.0291   0.1585   0.0153  -0.0339  -0.0496  -3.00    0.0
2024/05/06 11:59:28.000   28.306738917  -16.436439739   689.5943   2   7   0.0263   0.0291   0.1586   0.0153  -0.0339  -0.0496  -2.00    0.0
2024/05/06 11:59:29.000   28.306738916  -16.436439739   689.5949   2   7   0.0263   0.0292   0.1587   0.0153  -0.0339  -0.0497  -1.00    0.0
2024/05/06 11:59:30.000   28.306738914  -16.436439740   689.5959   2   7   0.0263   0.0292   0.1588   0.0153  -0.0340  -0.0497   0.00    0.0
2024/05/06 11:59:31.000   28.306738914  -16.436439742   689.5961   2   7   0.0264   0.0292   0.1589   0.0153  -0.0340  -0.0497   1.00    0.0
2024/05/06 11:59:32.000   28.306738912  -16.436439746   689.5966   2   7   0.0264   0.0292   0.1590   0.0153  -0.0340  -0.0498   2.00    0.0
2024/05/06 11:59:33.000   28.306738912  -16.436439748   689.5966   2   7   0.0264   0.0293   0.1591   0.0154  -0.0340  -0.0498   3.00    0.0
2024/05/06 11:59:34.000   28.306738912  -16.436439748   689.5956   2   7   0.0264   0.0293   0.1592   0.0154  -0.0340  -0.0498   4.00    0.0
2024/05/06 11:59:35.000   28.306738911  -16.436439749   689.5948   2   7   0.0264   0.0293   0.1593   0.0154  -0.0341  -0.0498   5.00    0.0
2024/05/06 11:59:36.000   28.306738910  -16.436439750   689.5951   2   7   0.0265   0.0293   0.1593   0.0154  -0.0341  -0.0499   6.00    0.0
2024/05/06 11:59:37.000   28.306738910  -16.436439751   689.5953   2   7   0.0265   0.0293   0.1594   0.0154  -0.0341  -0.0499   7.00    0.0
2024/05/06 11:59:38.000   28.306738909  -16.436439752   689.5957   2   7   0.0265   0.0293   0.1594   0.0154  -0.0341  -0.0499   8.00    0.0
2024/05/06 11:59:39.000   28.306738909  -16.436439751   689.5958   2   7   0.0265   0.0293   0.1595   0.0154  -0.0341  -0.0499   9.00    0.0
2024/05/06 11:59:40.000   28.306738909  -16.436439752   689.5958   2   7   0.0265   0.0293   0.1595   0.0154  -0.0341  -0.0499  10.00    0.0
2024/05/06 11:59:41.000   28.306738908  -16.436439752   689.5960   2   7   0.0265   0.0293   0.1595   0.0154  -0.0341  -0.0499  11.00    0.0
2024/05/06 11:59:42.000   28.306738908  -16.436439751   689.5962   2   7   0.0265   0.0293   0.1595   0.0154  -0.0341  -0.0499  12.00    0.0
2024/05/06 11:59:43.000   28.306738908  -16.436439752   689.5962   2   7   0.0265   0.0293   0.1595   0.0154  -0.0341  -0.0499  13.00    0.0
2024/05/06 11:59:44.000   28.306738908  -16.436439752   689.5963   2   7   0.0265   0.0293   0.1596   0.0154  -0.0341  -0.0499  14.00    0.0
2024/05/06 11:59:45.000   28.306738907  -16.436439752   689.5964   2   7   0.0265   0.0293   0.1596   0.0154  -0.0341  -0.0499 -15.00    0.0
2024/05/06 11:59:46.000   28.306738907  -16.436439752   689.5965   2   7   0.0265   0.0293   0.1596   0.0154  -0.0341  -0.0499 -14.00    0.0
2024/05/06 11:59:47.000   28.306738907  -16.436439752   689.5963   2   7   0.0265   0.0293   0.1596   0.0154  -0.0341  -0.0499 -13.00    0.0
2024/05/06 11:59:48.000   28.306738907  -16.436439752   689.5963   2   7   0.0265   0.0293   0.1596   0.0154  -0.0341  -0.0499 -12.00    0.0
2024/05/06 11:59:49.000   28.306738907  -16.436439752   689.5964   2   7   0.0265   0.0293   0.1596   0.0154  -0.0341  -0.0499 -11.00    0.0
2024/05/06 11:59:50.000   28.306738907  -16.436439752   689.5964   2   7   0.0265   0.0294   0.1596   0.0154  -0.0341  -0.0499 -10.00    0.0
2024/05/06 11:59:51.000   28.306738907  -16.436439752   689.5961   2   7   0.0265   0.0294   0.1596   0.0154  -0.0341  -0.0499  -9.00    0.0
2024/05/06 11:59:52.000   28.306738907  -16.436439751   689.5959   2   7   0.0265   0.0294   0.1597   0.0154  -0.0341  -0.0499  -8.00    0.0
2024/05/06 11:59:53.000   28.306738907  -16.436439750   689.5959   2   7   0.0265   0.0294   0.1597   0.0154  -0.0341  -0.0499  -7.00    0.0
2024/05/06 11:59:54.000   28.306738906  -16.436439750   689.5963   2   7   0.0265   0.0294   0.1597   0.0154  -0.0342  -0.0499  -6.00    0.0
2024/05/06 11:59:55.000   28.306738904  -16.436439749   689.5973   2   7   0.0265   0.0294   0.1597   0.0154  -0.0342  -0.0499  -5.00    0.0
2024/05/06 11:59:56.000   28.306738901  -16.436439747   689.5989   2   7   0.0265   0.0294   0.1598   0.0154  -0.0342  -0.0499  -4.00    0.0
2024/05/06 11:59:57.000   28.306738899  -16.436439745   689.6007   2   7   0.0265   0.0294   0.1598   0.0154  -0.0342  -0.0500  -3.00    0.0
2024/05/06 11:59:58.000   28.306738896  -16.436439742   689.6025   2   7   0.0265   0.0294   0.1599   0.0154  -0.0342  -0.0500  -2.00    0.0
2024/05/06 11:59:59.000   28.306738893  -16.436439739   689.6041   2   7   0.0266   0.0294   0.1599   0.0154  -0.0342  -0.0500  -1.00    0.0
2024/05/06 12:00:00.000   28.306738888  -16.436439737   689.6065   2   7   0.0266   0.0294   0.1600   0.0154  -0.0342  -0.0500   0.00    0.0
2024/05/06 12:00:01.000   28.306738883  -16.436439736   689.6087   2   7   0.0266   0.0295   0.1601   0.0154  -0.0343  -0.0500   1.00    0.0
2024/05/06 12:00:02.000   28.306738880  -16.436439735   689.6097   2   7   0.0266   0.0295   0.1602   0.0155  -0.0343  -0.0501   2.00    0.0
2024/05/06 12:00:03.000   28.306738877  -16.436439733   689.6111   2   7   0.0266   0.0295   0.1602   0.0155  -0.0343  -0.0501   3.00    0.0
2024/05/06 12:00:04.000   28.306738874  -16.436439730   689.6133   2   7   0.0266   0.0295   0.1603   0.0155  -0.0343  -0.0501   4.00    0.0
2024/05/06 12:00:05.000   28.306738872  -16.436439729   689.6144   2   7   0.0266   0.0295   0.1604   0.0155  -0.0343  -0.0501   5.00    0.0
2024/05/06 12:00:06.000   28.306738871  -16.436439727   689.6150   2   7   0.0267   0.0295   0.1604   0.0155  -0.0343  -0.0501   6.00    0.0
2024/05/06 12:00:07.000   28.306738870  -16.436439726   689.6155   2   7   0.0267   0.0295   0.1605   0.0155  -0.0343  -0.0502   7.00    0.0
2024/05/06 12:00:08.000   28.306738870  -16.436439724   689.6157   2   7   0.0267   0.0296   0.1605   0.0155  -0.0343  -0.0502   8.00    0.0
2024/05/06 12:00:09.000   28.306738869  -16.436439723   689.6157   2   7   0.0267   0.0296   0.1605   0.0155  -0.0344  -0.0502   9.00    0.0
2024/05/06 12:00:10.000   28.306738869  -16.436439722   689.6161   2   7   0.0267   0.0296   0.1605   0.0155  -0.0344  -0.0502  10.00    0.0
2024/05/06 12:00:11.000   28.306738868  -16.436439722   689.6167   2   7   0.0267   0.0296   0.1606   0.0155  -0.0344  -0.0502  11.00    0.0
2024/05/06 12:00:12.000   28.306738867  -16.436439723   689.6172   2   7   0.0267   0.0296   0.1606   0.0155  -0.0344  -0.0502  12.00    0.0
2024/05/06 12:00:13.000   28.306738866  -16.436439723   689.6177   2   7   0.0267   0.0296   0.1606   0.0155  -0.0344  -0.0502  13.00    0.0
2024/05/06 12:00:14.000   28.306738865  -16.436439723   689.6178   2   7   0.0267   0.0296   0.1606   0.0155  -0.0344  -0.0502  14.00    0.0
2024/05/06 12:00:15.000   28.306738864  -16.436439724   689.6181   2   7   0.0267   0.0296   0.1606   0.0155  -0.0344  -0.0502 -15.00    0.0
2024/05/06 12:00:16.000   28.306738864  -16.436439724   689.6184   2   7   0.0267   0.0296   0.1606   0.0155  -0.0344  -0.0502 -14.00    0.0
2024/05/06 12:00:17.000   28.306738863  -16.436439724   689.6188   2   7   0.0267   0.0296   0.1606   0.0155  -0.0344  -0.0502 -13.00    0.0
2024/05/06 12:00:18.000   28.306738863  -16.436439723   689.6189   2   7   0.0267   0.0296   0.1606   0.0155  -0.0344  -0.0502 -12.00    0.0
2024/05/06 12:00:19.000   28.306738863  -16.436439723   689.6188   2   7   0.0267   0.0296   0.1606   0.0155  -0.0344  -0.0502 -11.00    0.0
2024/05/06 12:00:20.000   28.306738863  -16.436439722   689.6187   2   7   0.0267   0.0296   0.1606   0.0155  -0.0344  -0.0502 -10.00    0.0
2024/05/06 12:00:21.000   28.306738864  -16.436439722   689.6186   2   7   0.0267   0.0296   0.1606   0.0155  -0.0344  -0.0502  -9.00    0.0
2024/05/06 12:00:22.000   28.306738864  -16.436439721   689.6185   2   7   0.0267   0.0296   0.1606   0.0155  -0.0344  -0.0502  -8.00    0.0
2024/05/06 12:00:23.000   28.306738864  -16.436439720   689.6183   2   7   0.0267   0.0296   0.1607   0.0155  -0.0344  -0.0502  -7.00    0.0
2024/05/06 12:00:24.000   28.306738864  -16.436439720   689.6183   2   7   0.0267   0.0296   0.1607   0.0155  -0.0344  -0.0502  -6.00    0.0
2024/05/06 12:00:25.000   28.306738864  -16.436439719   689.6182   2   7   0.0267   0.0296   0.1607   0.0155  -0.0344  -0.0502  -5.00    0.0
2024/05/06 12:00:26.000   28.306738864  -16.436439718   689.6175   2   7   0.0267   0.0296   0.1607   0.0155  -0.0344  -0.0502  -4.00    0.0
2024/05/06 12:00:27.000   28.306738864  -16.436439718   689.6175   2   7   0.0267   0.0296   0.1607   0.0155  -0.0344  -0.0502  -3.00    0.0
2024/05/06 12:00:28.000   28.306738863  -16.436439720   689.6179   2   7   0.0267   0.0296   0.1608   0.0155  -0.0344  -0.0502  -2.00    0.0
2024/05/06 12:00:29.000   28.306738864  -16.436439721   689.6173   2   7   0.0267   0.0296   0.1608   0.0155  -0.0345  -0.0502  -1.00    0.0
2024/05/06 12:00:30.000   28.306738867  -16.436439720   689.6159   2   7   0.0267   0.0297   0.1609   0.0155  -0.0345  -0.0502   0.00    0.0
2024/05/06 12:00:31.000   28.306738870  -16.436439720   689.6157   2   7   0.0267   0.0297   0.1609   0.0155  -0.0345  -0.0502   1.00    0.0
2024/05/06 12:00:32.000   28.306738873  -16.436439722   689.6157   2   7   0.0268   0.0297   0.1610   0.0155  -0.0345  -0.0503   2.00    1.1
2024/05/06 12:00:33.000   28.306738876  -16.436439723   689.6150   2   7   0.0268   0.0297   0.1610   0.0155  -0.0345  -0.0503   3.00    1.2
2024/05/06 12:00:34.000   28.306738878  -16.436439725   689.6148   2   7   0.0268   0.0297   0.1611   0.0155  -0.0345  -0.0503   4.00    1.3
2024/05/06 12:00:35.000   28.306738877  -16.436439727   689.6149   2   7   0.0268   0.0297   0.1611   0.0155  -0.0345  -0.0503   5.00    1.0
2024/05/06 12:00:36.000   28.306738877  -16.436439728   689.6148   2   7   0.0268   0.0297   0.1611   0.0155  -0.0346  -0.0503   6.00    1.0
2024/05/06 12:00:37.000   28.306738875  -16.436439730   689.6151   2   7   0.0268   0.0297   0.1612   0.0155  -0.0346  -0.0503   7.00    1.1
2024/05/06 12:00:38.000   28.306738873  -16.436439732   689.6156   2   7   0.0268   0.0297   0.1612   0.0155  -0.0346  -0.0503   8.00    1.3
2024/05/06 12:00:39.000   28.306738871  -16.436439733   689.6161   2   7   0.0268   0.0298   0.1612   0.0155  -0.0346  -0.0503   9.00    1.1
2024/05/06 12:00:40.000   28.306738870  -16.436439735   689.6170   2   7   0.0268   0.0298   0.1612   0.0155  -0.0346  -0.0503  10.00    1.2
2024/05/06 12:00:41.000   28.306738868  -16.436439736   689.6176   2   7   0.0268   0.0298   0.1612   0.0155  -0.0346  -0.0503  11.00    1.2
2024/05/06 12:00:42.000   28.306738867  -16.436439737   689.6182   2   7   0.0268   0.0298   0.1612   0.0155  -0.0346  -0.0503  12.00    1.0
2024/05/06 12:00:43.000   28.306738865  -16.436439738   689.6188   2   7   0.0268   0.0298   0.1612   0.0155  -0.0346  -0.0503  13.00    1.0
2024/05/06 12:00:44.000   28.306738864  -16.436439738   689.6191   2   7   0.0268   0.0298   0.1613   0.0155  -0.0346  -0.0503  14.00    1.0
2024/05/06 12:00:45.000   28.306738863  -16.436439739   689.6192   2   7   0.0268   0.0298   0.1613   0.0155  -0.0346  -0.0503 -15.00    1.3
2024/05/06 12:00:46.000   28.306738863  -16.436439739   689.6195   2   7   0.0268   0.0298   0.1613   0.0155  -0.0346  -0.0503 -14.00    1.1
2024/05/06 12:00:47.000   28.306738862  -16.436439740   689.6197   2   7   0.0268   0.0298   0.1613   0.0155  -0.0346  -0.0503 -13.00    1.2
2024/05/06 12:00:48.000   28.306738860  -16.436439740   689.6201   2   7   0.0268   0.0298   0.1613   0.0155  -0.0346  -0.0503 -12.00    1.2
2024/05/06 12:00:49.000   28.306738859  -16.436439741   689.6203   2   7   0.0268   0.0298   0.1613   0.0155  -0.0346  -0.0503 -11.00    1.0
2024/05/06 12:00:50.000   28.306738858  -16.436439742   689.6204   2   7   0.0268   0.0298   0.1613   0.0155  -0.0346  -0.0503 -10.00    1.0
2024/05/06 12:00:51.000   28.306738856  -16.436439744   689.6206   2   7   0.0268   0.0298   0.1613   0.0155  -0.0346  -0.0503  -9.00    1.0
2024/05/06 12:00:52.000   28.306738855  -16.436439745   689.6209   2   7   0.0268   0.0298   0.1613   0.0155  -0.0346  -0.0503  -8.00    1.2
2024/05/06 12:00:53.000   28.306738854  -16.436439746   689.6211   2   7   0.0268   0.0298   0.1613   0.0155  -0.0346  -0.0503  -7.00    1.1
2024/05/06 12:00:54.000   28.306738853  -16.436439747   689.6213   2   7   0.0268   0.0298   0.1613   0.0155  -0.0346  -0.0503  -6.00    1.2
2024/05/06 12:00:55.000   28.306738852  -16.436439749   689.6215   2   7   0.0268   0.0298   0.1613   0.0155  -0.0346  -0.0503  -5.00    1.2
2024/05/06 12:00:56.000   28.306738853  -16.436439751   689.6207   2   7   0.0268   0.0298   0.1613   0.0155  -0.0346  -0.0503  -4.00    1.1
2024/05/06 12:00:57.000   28.306738852  -16.436439753   689.6195   2   7   0.0268   0.0298   0.1613   0.0155  -0.0346  -0.0503  -3.00    1.0
2024/05/06 12:00:58.000   28.306738851  -16.436439755   689.6186   2   7   0.0268   0.0298   0.1613   0.0155  -0.0346  -0.0503  -2.00    1.0
2024/05/06 12:00:59.000   28.306738849  -16.436439758   689.6182   2   7   0.0268   0.0298   0.1613   0.0155  -0.0347  -0.0503  -1.00    1.2
2024/05/06 12:01:00.000   28.306738848  -16.436439761   689.6181   2   7   0.0268   0.0298   0.1613   0.0155  -0.0347  -0.0503   0.00    1.0
2024/05/06 12:01:01.000   28.306738847  -16.436439763   689.6175   2   7   0.0269   0.0298   0.1613   0.0155  -0.0347  -0.0503   1.00    1.1
2024/05/06 12:01:02.000   28.306738848  -16.436439766   689.6161   2   7   0.0269   0.0298   0.1614   0.0155  -0.0347  -0.0503   2.00    1.2
2024/05/06 12:01:03.000   28.306738850  -16.436439770   689.6150   2   7   0.0269   0.0298   0.1614   0.0155  -0.0347  -0.0503   3.00    1.2
2024/05/06 12:01:04.000   28.306738852  -16.436439773   689.6140   2   7   0.0269   0.0299   0.1614   0.0155  -0.0347  -0.0503   4.00    1.1
2024/05/06 12:01:05.000   28.306738853  -16.436439776   689.6133   2   7   0.0269   0.0299   0.1615   0.0155  -0.0347  -0.0504   5.00    1.1
2024/05/06 12:01:06.000   28.306738853  -16.436439778   689.6132   2   7   0.0269   0.0299   0.1615   0.0155  -0.0347  -0.0504   6.00    1.1
2024/05/06 12:01:07.000   28.306738851  -16.436439780   689.6135   2   7   0.0269   0.0299   0.1615   0.0156  -0.0347  -0.0504   7.00    1.0
2024/05/06 12:01:08.000   28.306738850  -16.436439783   689.6140   2   7   0.0269   0.0299   0.1615   0.0156  -0.0347  -0.0504   8.00    1.1
2024/05/06 12:01:09.000   28.306738850  -16.436439784   689.6141   2   7   0.0269   0.0299   0.1615   0.0156  -0.0347  -0.0504   9.00    1.1
2024/05/06 12:01:10.000   28.306738850  -16.436439784   689.6140   2   7   0.0269   0.0299   0.1615   0.0156  -0.0347  -0.0504  10.00    1.2
2024/05/06 12:01:11.000   28.306738851  -16.436439785   689.6137   2   7   0.0269   0.0299   0.1615   0.0156  -0.0348  -0.0504  11.00    1.1
2024/05/06 12:01:12.000   28.306738851  -16.436439786   689.6134   2   7   0.0269   0.0299   0.1615   0.0155  -0.0348  -0.0504  12.00    1.1
2024/05/06 12:01:13.000   28.306738852  -16.436439788   689.6131   2   7   0.0269   0.0299   0.1615   0.0155  -0.0348  -0.0504  13.00    1.1
2024/05/06 12:01:14.000   28.306738852  -16.436439789   689.6130   2   7   0.0269   0.0299   0.1615   0.0155  -0.0348  -0.0504  14.00    1.0
2024/05/06 12:01:15.000   28.306738853  -16.436439789   689.6126   2   7   0.0269   0.0299   0.1615   0.0155  -0.0348  -0.0504 -15.00    1.1
2024/05/06 12:01:16.000   28.306738854  -16.436439790   689.6123   2   7   0.0269   0.0299   0.1615   0.0155  -0.0348  -0.0504 -14.00    1.1
2024/05/06 12:01:17.000   28.306738854  -16.436439791   689.6123   2   7   0.0269   0.0299   0.1615   0.0155  -0.0348  -0.0504 -13.00    1.2
2024/05/06 12:01:18.000   28.306738854  -16.436439792   689.6122   2   7   0.0269   0.0299   0.1615   0.0155  -0.0348  -0.0504 -12.00    1.1
2024/05/06 12:01:19.000   28.306738855  -16.436439793   689.6117   2   7   0.0269   0.0299   0.1615   0.0155  -0.0348  -0.0504 -11.00    1.1
2024/05/06 12:01:20.000   28.306738856  -16.436439794   689.6112   2   7   0.0269   0.0299   0.1615   0.0155  -0.0348  -0.0504 -10.00    1.1
2024/05/06 12:01:21.000   28.306738857  -16.436439795   689.6106   2   7   0.0269   0.0299   0.1615   0.0155  -0.0348  -0.0504  -9.00    1.0
2024/05/06 12:01:22.000   28.306738857  -16.436439797   689.6100   2   7   0.0269   0.0299   0.1615   0.0155  -0.0348  -0.0503  -8.00    1.1
2024/05/06 12:01:23.000   28.306738858  -16.436439798   689.6090   2   7   0.0269   0.0299   0.1615   0.0155  -0.0348  -0.0503  -7.00    1.1
2024/05/06 12:01:24.000   28.306738859  -16.436439799   689.6078   2   7   0.0269   0.0299   0.1615   0.0155  -0.0348  -0.0503  -6.00    1.3
2024/05/06 12:01:25.000   28.306738861  -16.436439799   689.6068   2   7   0.0269   0.0299   0.1615   0.0155  -0.0348  -0.0503  -5.00    1.1
2024/05/06 12:01:26.000   28.306738863  -16.436439801   689.6060   2   7   0.0269   0.0299   0.1615   0.0155  -0.0348  -0.0503  -4.00    1.2
2024/05/06 12:01:27.000   28.306738864  -16.436439805   689.6051   2   7   0.0269   0.0299   0.1615   0.0155  -0.0348  -0.0503  -3.00    1.0
2024/05/06 12:01:28.000   28.306738865  -16.436439811   689.6036   2   7   0.0269   0.0299   0.1614   0.0155  -0.0348  -0.0503  -2.00    1.0
2024/05/06 12:01:29.000   28.306738866  -16.436439818   689.6019   2   7   0.0269   0.0299   0.1614   0.0155  -0.0348  -0.0503  -1.00    1.0
2024/05/06 12:01:30.000   28.306738867  -16.436439821   689.6000   2   7   0.0269   0.0299   0.1614   0.0155  -0.0348  -0.0503   0.00    1.1
2024/05/06 12:01:31.000   28.306738868  -16.436439825   689.5993   2   7   0.0269   0.0299   0.1614   0.0155  -0.0348  -0.0503   1.00    1.4
2024/05/06 12:01:32.000   28.306738867  -16.436439830   689.5994   2   7   0.0269   0.0299   0.1614   0.0155  -0.0348  -0.0503   2.00    1.2
2024/05/06 12:01:33.000   28.306738865  -16.436439834   689.5998   2   7   0.0269   0.0299   0.1614   0.0155  -0.0348  -0.0503   3.00    1.2
2024/05/06 12:01:34.000   28.306738863  -16.436439837   689.6003   2   7   0.0269   0.0299   0.1614   0.0155  -0.0348  -0.0503   4.00    1.1
2024/05/06 12:01:35.000   28.306738862  -16.436439840   689.6011   2   7   0.0269   0.0299   0.1614   0.0155  -0.0348  -0.0503   5.00    1.0
2024/05/06 12:01:36.000   28.306738859  -16.436439842   689.6019   2   7   0.0269   0.0299   0.1614   0.0155  -0.0348  -0.0503   6.00    1.1
2024/05/06 12:01:37.000   28.306738857  -16.436439843   689.6025   2   7   0.0269   0.0299   0.1614   0.0155  -0.0349  -0.0503   7.00    1.1
2024/05/06 12:01:38.000   28.306738856  -16.436439843   689.6030   2   7   0.0269   0.0299   0.1614   0.0155  -0.0349  -0.0503   8.00    1.4
2024/05/06 12:01:39.000   28.306738854  -16.436439844   689.6039   2   7   0.0269   0.0299   0.1614   0.0155  -0.0349  -0.0503   9.00    1.1
2024/05/06 12:01:40.000   28.306738851  -16.436439844   689.6048   2   7   0.0269   0.0299   0.1614   0.0155  -0.0349  -0.0503  10.00    1.3
2024/05/06 12:01:41.000   28.306738849  -16.436439844   689.6056   2   7   0.0269   0.0299   0.1614   0.0155  -0.0349  -0.0503  11.00    1.1
2024/05/06 12:01:42.000   28.306738848  -16.436439844   689.6064   2   7   0.0269   0.0299   0.1614   0.0155  -0.0349  -0.0503  12.00    1.0
2024/05/06 12:01:43.000   28.306738846  -16.436439845   689.6073   2   7   0.0269   0.0300   0.1614   0.0155  -0.0349  -0.0503  13.00    1.1
2024/05/06 12:01:44.000   28.306738845  -16.436439845   689.6081   2   7   0.0269   0.0300   0.1614   0.0155  -0.0349  -0.0503  14.00    1.1
2024/05/06 12:01:45.000   28.306738843  -16.436439846   689.6087   2   7   0.0269   0.0300   0.1614   0.0155  -0.0349  -0.0503 -15.00    1.4
2024/05/06 12:01:46.000   28.306738842  -16.436439846   689.6091   2   7   0.0269   0.0300   0.1614   0.0155  -0.0349  -0.0503 -14.00    1.1
2024/05/06 12:01:47.000   28.306738840  -16.436439847   689.6098   2   7   0.0269   0.0300   0.1614   0.0155  -0.0349  -0.0503 -13.00    1.2
2024/05/06 12:01:48.000   28.306738837  -16.436439847   689.6108   2   7   0.0269   0.0300   0.1614   0.0155  -0.0349  -0.0503 -12.00    1.2
2024/05/06 12:01:49.000   28.306738834  -16.436439848   689.6121   2   7   0.0269   0.0299   0.1614   0.0155  -0.0349  -0.0503 -11.00    1.0
2024/05/06 12:01:50.000   28.306738830  -16.436439849   689.6135   2   7   0.0269   0.0299   0.1614   0.0155  -0.0349  -0.0503 -10.00    1.0
2024/05/06 12:01:51.000   28.306738826  -16.436439850   689.6146   2   7   0.0269   0.0299   0.1614   0.0155  -0.0349  -0.0503  -9.00    1.1
2024/05/06 12:01:52.000   28.306738822  -16.436439852   689.6159   2   7   0.0269   0.0299   0.1614   0.0155  -0.0349  -0.0503  -8.00    1.4
2024/05/06 12:01:53.000   28.306738816  -16.436439854   689.6175   2   7   0.0269   0.0299   0.1614   0.0155  -0.0349  -0.0502  -7.00    1.1
2024/05/06 12:01:54.000   28.306738811  -16.436439856   689.6191   2   7   0.0269   0.0299   0.1613   0.0155  -0.0349  -0.0502  -6.00    1.3
2024/05/06 12:01:55.000   28.306738806  -16.436439859   689.6206   2   7   0.0269   0.0299   0.1613   0.0155  -0.0349  -0.0502  -5.00    1.2
2024/05/06 12:01:56.000   28.306738801  -16.436439861   689.6224   2   7   0.0269   0.0299   0.1613   0.0155  -0.0349  -0.0502  -4.00    1.1
2024/05/06 12:01:57.000   28.306738796  -16.436439863   689.6242   2   7   0.0269   0.0299   0.1612   0.0155  -0.0349  -0.0502  -3.00    1.0
2024/05/06 12:01:58.000   28.306738792  -16.436439866   689.6251   2   7   0.0269   0.0299   0.1612   0.0155  -0.0349  -0.0502  -2.00    1.1
2024/05/06 12:01:59.000   28.306738792  -16.436439867   689.6251   2   7   0.0269   0.0299   0.1612   0.0155  -0.0349  -0.0502  -1.00    1.5
2024/05/06 12:02:00.000   28.306738794  -16.436439866   689.6236   2   7   0.0269   0.0299   0.1611   0.0155  -0.0349  -0.0501   0.00    1.1
2024/05/06 12:02:01.000   28.306738800  -16.436439863   689.6205   2   7   0.0269   0.0299   0.1611   0.0155  -0.0349  -0.0501   1.00    1.3
2024/05/06 12:02:02.000   28.306738808  -16.436439860   689.6177   2   7   0.0269   0.0299   0.1611   0.0155  -0.0349  -0.0501   2.00    1.3
2024/05/06 12:02:03.000   28.306738816  -16.436439858   689.6150   2   7   0.0269   0.0299   0.1610   0.0155  -0.0349  -0.0501   3.00    1.0
2024/05/06 12:02:04.000   28.306738824  -16.436439856   689.6124   2   7   0.0269   0.0299   0.1610   0.0155  -0.0349  -0.0501   4.00    1.1
2024/05/06 12:02:05.000   28.306738830  -16.436439855   689.6098   2   7   0.0269   0.0299   0.1610   0.0155  -0.0349  -0.0501   5.00    1.0
2024/05/06 12:02:06.000   28.306738836  -16.436439852   689.6071   2   7   0.0269   0.0299   0.1610   0.0155  -0.0349  -0.0501   6.00    1.5
2024/05/06 12:02:07.000   28.306738842  -16.436439849   689.6049   2   7   0.0269   0.0299   0.1610   0.0155  -0.0349  -0.0501   7.00    1.2
2024/05/06 12:02:08.000   28.306738847  -16.436439846   689.6029   2   7   0.0269   0.0299   0.1610   0.0155  -0.0349  -0.0501   8.00    1.3
2024/05/06 12:02:09.000   28.306738852  -16.436439845   689.6012   2   7   0.0269   0.0299   0.1610   0.0155  -0.0349  -0.0501   9.00    1.4
2024/05/06 12:02:10.000   28.306738856  -16.436439844   689.5999   2   7   0.0269   0.0299   0.1610   0.0155  -0.0349  -0.0501  10.00    1.1
2024/05/06 12:02:11.000   28.306738859  -16.436439843   689.5988   2   7   0.0269   0.0299   0.1610   0.0155  -0.0349  -0.0501  11.00    1.2
