% program   : RTKPOST-EX 2.5.0
% inp file  : C:\Users\SallyHenry\Desktop\Sally Internship\GNSS gravi\DATA\Survey Rover Obs\GUI00.24o
% inp file  : C:\Users\SallyHenry\Desktop\Sally Internship\GNSS gravi\DATA\BaseStations\IZAN\IZAN00ESP_R_20241270000_01D_30S_MO.rnx
% inp file  : C:\Users\SallyHenry\Desktop\Sally Internship\GNSS gravi\DATA\BaseStations\IZAN\IZAN00ESP_R_20241270000_01D_MN.rnx
% inp file  : C:\Users\SallyHenry\Desktop\Sally Internship\GNSS gravi\DATA\aux_files\Survey\IGS0OPSFIN_20241270000_01D_15M_ORB.SP3
% inp file  : C:\Users\SallyHenry\Desktop\Sally Internship\GNSS gravi\DATA\aux_files\Survey\IGS0OPSFIN_20241270000_01D_30S_CLK.CLK
% obs start : 2024/05/06 11:55:21.0 GPST (week2313 129321.0s)
% obs end   : 2024/05/06 12:10:23.0 GPST (week2313 130223.0s)
% pos mode  : Static
% freqs     : L1+L2/E5b
% solution  : Combined-No Phase Reset
% elev mask : 15.0 deg
% dynamics  : on
% tidecorr  : solid
% ionos opt : Estimate TEC
% tropo opt : Estimate ZTD+Grad
% ephemeris : Precise
% navi sys  : GPS GLONASS Galileo QZSS BDS
% amb res   : Fix and Hold
% amb glo   : Fix and Hold
% amb bds   : on
% val thres : 3.0
% antenna1  :                       ( 0.0000  0.0000  1.8000)
% antenna2  :                       ( 0.0000  0.0000  0.0000)
% ref pos   :  28.308069410  -16.499677180  2417.4044
%
% (lat/lon/height=WGS84/ellipsoidal,Q=1:fix,2:float,3:sbas,4:dgps,5:single,6:ppp,ns=# of satellites)
%  GPST                  latitude(deg) longitude(deg)  height(m)   Q  ns   sdn(m)   sde(m)   sdu(m)  sdne(m)  sdeu(m)  sdun(m) age(s)  ratio
2024/05/06 11:55:21.000   28.306738667  -16.436439178   689.5173   1   7   0.0022   0.0018   0.0156   0.0016  -0.0038  -0.0041  -9.00  111.1
2024/05/06 11:55:22.000   28.306738668  -16.436439177   689.5171   1   7   0.0022   0.0018   0.0156   0.0016  -0.0038  -0.0041  -8.00  105.7
2024/05/06 11:55:23.000   28.306738668  -16.436439177   689.5170   1   7   0.0022   0.0018   0.0156   0.0016  -0.0038  -0.0041  -7.00   99.4
2024/05/06 11:55:24.000   28.306738668  -16.436439177   689.5169   1   7   0.0022   0.0018   0.0156   0.0016  -0.0038  -0.0041  -6.00   92.1
2024/05/06 11:55:25.000   28.306738669  -16.436439176   689.5166   1   7   0.0022   0.0018   0.0157   0.0016  -0.0038  -0.0041  -5.00   83.7
2024/05/06 11:55:26.000   28.306738669  -16.436439176   689.5164   1   7   0.0022   0.0018   0.0157   0.0016  -0.0038  -0.0041  -4.00   73.5
2024/05/06 11:55:27.000   28.306738670  -16.436439175   689.5160   1   7   0.0022   0.0018   0.0157   0.0016  -0.0039  -0.0041  -3.00   60.7
2024/05/06 11:55:28.000   28.306738670  -16.436439175   689.5157   1   7   0.0022   0.0018   0.0157   0.0017  -0.0039  -0.0042  -2.00   45.0
2024/05/06 11:55:29.000   28.306738671  -16.436439174   689.5153   1   7   0.0022   0.0018   0.0157   0.0017  -0.0039  -0.0042  -1.00   25.5
2024/05/06 11:55:30.000   28.306738639  -16.436439206   689.5288   1   7   0.0015   0.0012   0.0145   0.0007  -0.0025  -0.0027   0.00  850.3
2024/05/06 11:55:31.000   28.306738639  -16.436439205   689.5285   1   7   0.0015   0.0012   0.0145   0.0007  -0.0026  -0.0028   1.00  854.4
2024/05/06 11:55:32.000   28.306738639  -16.436439205   689.5283   1   7   0.0015   0.0012   0.0145   0.0007  -0.0026  -0.0028   2.00  859.8
2024/05/06 11:55:33.000   28.306738639  -16.436439205   689.5282   1   7   0.0015   0.0012   0.0146   0.0007  -0.0026  -0.0028   3.00  859.7
2024/05/06 11:55:34.000   28.306738639  -16.436439205   689.5281   1   7   0.0015   0.0012   0.0146   0.0007  -0.0026  -0.0028   4.00  856.9
2024/05/06 11:55:35.000   28.306738639  -16.436439205   689.5280   1   7   0.0015   0.0012   0.0146   0.0007  -0.0026  -0.0028   5.00  856.5
2024/05/06 11:55:36.000   28.306738639  -16.436439205   689.5279   1   7   0.0015   0.0012   0.0146   0.0007  -0.0026  -0.0028   6.00  854.3
2024/05/06 11:55:37.000   28.306738639  -16.436439205   689.5279   1   7   0.0015   0.0012   0.0146   0.0007  -0.0026  -0.0028   7.00  855.2
2024/05/06 11:55:38.000   28.306738639  -16.436439205   689.5278   1   7   0.0015   0.0012   0.0146   0.0007  -0.0026  -0.0028   8.00  854.1
2024/05/06 11:55:39.000   28.306738639  -16.436439205   689.5277   1   7   0.0015   0.0012   0.0146   0.0007  -0.0026  -0.0028   9.00  852.6
2024/05/06 11:55:40.000   28.306738639  -16.436439205   689.5277   1   7   0.0015   0.0012   0.0146   0.0007  -0.0026  -0.0028  10.00  850.9
2024/05/06 11:55:41.000   28.306738639  -16.436439205   689.5276   1   7   0.0015   0.0012   0.0145   0.0007  -0.0026  -0.0028  11.00  850.2
2024/05/06 11:55:42.000   28.306738639  -16.436439205   689.5276   1   7   0.0015   0.0012   0.0145   0.0007  -0.0026  -0.0028  12.00  849.2
2024/05/06 11:55:43.000   28.306738639  -16.436439205   689.5276   1   7   0.0015   0.0012   0.0145   0.0007  -0.0026  -0.0028  13.00  847.7
2024/05/06 11:55:44.000   28.306738639  -16.436439205   689.5276   1   7   0.0015   0.0012   0.0145   0.0007  -0.0026  -0.0028  14.00  846.3
2024/05/06 11:55:45.000   28.306738639  -16.436439205   689.5276   1   7   0.0015   0.0012   0.0145   0.0007  -0.0026  -0.0028  15.00  844.8
2024/05/06 11:55:46.000   28.306738639  -16.436439205   689.5275   1   7   0.0015   0.0012   0.0145   0.0007  -0.0026  -0.0028 -14.00  843.4
2024/05/06 11:55:47.000   28.306738639  -16.436439204   689.5275   1   7   0.0015   0.0012   0.0145   0.0007  -0.0026  -0.0028 -13.00  842.0
2024/05/06 11:55:48.000   28.306738639  -16.436439204   689.5275   1   7   0.0015   0.0012   0.0145   0.0007  -0.0026  -0.0028 -12.00  840.5
2024/05/06 11:55:49.000   28.306738639  -16.436439204   689.5275   1   7   0.0015   0.0012   0.0145   0.0007  -0.0025  -0.0027 -11.00  839.1
2024/05/06 11:55:50.000   28.306738639  -16.436439204   689.5274   1   7   0.0015   0.0012   0.0145   0.0007  -0.0025  -0.0027 -10.00  838.0
2024/05/06 11:55:51.000   28.306738639  -16.436439204   689.5274   1   7   0.0015   0.0012   0.0145   0.0007  -0.0025  -0.0027  -9.00  837.4
2024/05/06 11:55:52.000   28.306738639  -16.436439204   689.5273   1   7   0.0015   0.0012   0.0145   0.0007  -0.0025  -0.0027  -8.00  836.3
2024/05/06 11:55:53.000   28.306738639  -16.436439204   689.5273   1   7   0.0015   0.0012   0.0145   0.0007  -0.0025  -0.0027  -7.00  836.1
2024/05/06 11:55:54.000   28.306738639  -16.436439204   689.5272   1   7   0.0015   0.0012   0.0145   0.0007  -0.0025  -0.0027  -6.00  835.5
2024/05/06 11:55:55.000   28.306738639  -16.436439204   689.5271   1   7   0.0015   0.0012   0.0145   0.0007  -0.0025  -0.0027  -5.00  833.6
2024/05/06 11:55:56.000   28.306738639  -16.436439204   689.5270   1   7   0.0015   0.0012   0.0145   0.0007  -0.0025  -0.0027  -4.00  832.6
2024/05/06 11:55:57.000   28.306738639  -16.436439204   689.5269   1   7   0.0015   0.0012   0.0145   0.0007  -0.0025  -0.0027  -3.00  834.3
2024/05/06 11:55:58.000   28.306738639  -16.436439203   689.5268   1   7   0.0015   0.0012   0.0145   0.0007  -0.0025  -0.0028  -2.00  831.8
2024/05/06 11:55:59.000   28.306738639  -16.436439203   689.5266   1   7   0.0015   0.0012   0.0145   0.0007  -0.0026  -0.0028  -1.00  828.7
2024/05/06 11:56:00.000   28.306738639  -16.436439203   689.5265   1   7   0.0015   0.0012   0.0145   0.0007  -0.0026  -0.0028   0.00  824.9
2024/05/06 11:56:01.000   28.306738639  -16.436439202   689.5263   1   7   0.0015   0.0012   0.0145   0.0007  -0.0026  -0.0028   1.00  823.5
2024/05/06 11:56:02.000   28.306738639  -16.436439202   689.5262   1   7   0.0015   0.0012   0.0145   0.0007  -0.0026  -0.0028   2.00  822.6
2024/05/06 11:56:03.000   28.306738639  -16.436439202   689.5260   1   7   0.0015   0.0012   0.0145   0.0007  -0.0026  -0.0028   3.00  817.8
2024/05/06 11:56:04.000   28.306738639  -16.436439202   689.5259   1   7   0.0015   0.0012   0.0145   0.0007  -0.0026  -0.0028   4.00  814.2
2024/05/06 11:56:05.000   28.306738639  -16.436439201   689.5256   1   7   0.0015   0.0012   0.0146   0.0007  -0.0026  -0.0028   5.00  809.6
2024/05/06 11:56:06.000   28.306738639  -16.436439201   689.5255   1   7   0.0015   0.0012   0.0146   0.0007  -0.0026  -0.0028   6.00  807.2
2024/05/06 11:56:07.000   28.306738639  -16.436439201   689.5253   1   7   0.0015   0.0012   0.0146   0.0007  -0.0026  -0.0028   7.00  805.1
2024/05/06 11:56:08.000   28.306738639  -16.436439201   689.5253   1   7   0.0015   0.0012   0.0146   0.0007  -0.0026  -0.0028   8.00  802.9
2024/05/06 11:56:09.000   28.306738639  -16.436439201   689.5252   1   7   0.0015   0.0012   0.0145   0.0007  -0.0026  -0.0028   9.00  800.4
2024/05/06 11:56:10.000   28.306738639  -16.436439201   689.5251   1   7   0.0015   0.0012   0.0145   0.0007  -0.0026  -0.0028  10.00  798.7
2024/05/06 11:56:11.000   28.306738639  -16.436439201   689.5251   1   7   0.0015   0.0012   0.0145   0.0007  -0.0026  -0.0028  11.00  796.9
2024/05/06 11:56:12.000   28.306738639  -16.436439201   689.5251   1   7   0.0015   0.0012   0.0145   0.0007  -0.0026  -0.0028  12.00  795.4
2024/05/06 11:56:13.000   28.306738639  -16.436439201   689.5250   1   7   0.0015   0.0012   0.0145   0.0007  -0.0026  -0.0028  13.00  793.5
2024/05/06 11:56:14.000   28.306738639  -16.436439201   689.5250   1   7   0.0015   0.0012   0.0145   0.0007  -0.0026  -0.0028  14.00  791.3
2024/05/06 11:56:15.000   28.306738639  -16.436439201   689.5250   1   7   0.0015   0.0012   0.0145   0.0007  -0.0026  -0.0028  15.00  789.3
2024/05/06 11:56:16.000   28.306738639  -16.436439201   689.5250   1   7   0.0015   0.0012   0.0145   0.0007  -0.0026  -0.0028 -14.00  787.0
2024/05/06 11:56:17.000   28.306738639  -16.436439201   689.5250   1   7   0.0015   0.0012   0.0145   0.0007  -0.0026  -0.0028 -13.00  784.7
2024/05/06 11:56:18.000   28.306738639  -16.436439201   689.5251   1   7   0.0015   0.0012   0.0145   0.0007  -0.0026  -0.0028 -12.00  782.4
2024/05/06 11:56:19.000   28.306738639  -16.436439201   689.5251   1   7   0.0015   0.0012   0.0145   0.0007  -0.0026  -0.0028 -11.00  779.6
2024/05/06 11:56:20.000   28.306738639  -16.436439201   689.5251   1   7   0.0015   0.0012   0.0145   0.0007  -0.0026  -0.0028 -10.00  777.1
2024/05/06 11:56:21.000   28.306738639  -16.436439201   689.5251   1   7   0.0015   0.0012   0.0145   0.0007  -0.0026  -0.0028  -9.00  773.8
2024/05/06 11:56:22.000   28.306738639  -16.436439201   689.5251   1   7   0.0015   0.0012   0.0145   0.0007  -0.0026  -0.0028  -8.00  770.1
2024/05/06 11:56:23.000   28.306738639  -16.436439200   689.5250   1   7   0.0015   0.0012   0.0145   0.0007  -0.0026  -0.0028  -7.00  765.8
2024/05/06 11:56:24.000   28.306738639  -16.436439200   689.5250   1   7   0.0015   0.0012   0.0144   0.0007  -0.0026  -0.0028  -6.00  762.0
2024/05/06 11:56:25.000   28.306738639  -16.436439200   689.5250   1   7   0.0015   0.0012   0.0144   0.0007  -0.0026  -0.0028  -5.00  757.8
2024/05/06 11:56:26.000   28.306738639  -16.436439200   689.5249   1   7   0.0015   0.0012   0.0144   0.0007  -0.0026  -0.0028  -4.00  752.8
2024/05/06 11:56:27.000   28.306738639  -16.436439200   689.5248   1   7   0.0015   0.0012   0.0145   0.0007  -0.0026  -0.0028  -3.00  748.8
2024/05/06 11:56:28.000   28.306738639  -16.436439200   689.5248   1   7   0.0015   0.0012   0.0145   0.0007  -0.0026  -0.0028  -2.00  742.0
2024/05/06 11:56:29.000   28.306738639  -16.436439200   689.5246   1   7   0.0015   0.0012   0.0145   0.0007  -0.0026  -0.0028  -1.00  736.0
2024/05/06 11:56:30.000   28.306738639  -16.436439200   689.5245   1   7   0.0015   0.0012   0.0145   0.0007  -0.0026  -0.0028   0.00  729.8
2024/05/06 11:56:31.000   28.306738639  -16.436439200   689.5243   1   7   0.0015   0.0012   0.0145   0.0007  -0.0026  -0.0028   1.00  727.7
2024/05/06 11:56:32.000   28.306738639  -16.436439199   689.5240   1   7   0.0015   0.0012   0.0145   0.0007  -0.0026  -0.0028   2.00  726.9
2024/05/06 11:56:33.000   28.306738639  -16.436439199   689.5239   1   7   0.0015   0.0012   0.0145   0.0007  -0.0026  -0.0028   3.00  723.7
2024/05/06 11:56:34.000   28.306738639  -16.436439199   689.5238   1   7   0.0015   0.0012   0.0145   0.0007  -0.0026  -0.0028   4.00  719.4
2024/05/06 11:56:35.000   28.306738639  -16.436439199   689.5237   1   7   0.0015   0.0012   0.0145   0.0007  -0.0026  -0.0028   5.00  719.9
2024/05/06 11:56:36.000   28.306738640  -16.436439199   689.5235   1   7   0.0015   0.0012   0.0145   0.0007  -0.0026  -0.0028   6.00  716.8
2024/05/06 11:56:37.000   28.306738640  -16.436439199   689.5235   1   7   0.0015   0.0012   0.0145   0.0007  -0.0026  -0.0028   7.00  714.6
2024/05/06 11:56:38.000   28.306738640  -16.436439199   689.5234   1   7   0.0015   0.0012   0.0145   0.0007  -0.0026  -0.0028   8.00  713.1
2024/05/06 11:56:39.000   28.306738640  -16.436439199   689.5234   1   7   0.0015   0.0012   0.0145   0.0007  -0.0026  -0.0028   9.00  711.0
2024/05/06 11:56:40.000   28.306738640  -16.436439199   689.5233   1   7   0.0015   0.0012   0.0145   0.0007  -0.0026  -0.0028  10.00  708.6
2024/05/06 11:56:41.000   28.306738640  -16.436439199   689.5233   1   7   0.0015   0.0012   0.0145   0.0007  -0.0026  -0.0028  11.00  706.0
2024/05/06 11:56:42.000   28.306738640  -16.436439198   689.5233   1   7   0.0015   0.0012   0.0145   0.0007  -0.0026  -0.0028  12.00  703.7
2024/05/06 11:56:43.000   28.306738640  -16.436439198   689.5233   1   7   0.0015   0.0012   0.0145   0.0007  -0.0026  -0.0028  13.00  701.5
2024/05/06 11:56:44.000   28.306738640  -16.436439198   689.5233   1   7   0.0015   0.0012   0.0145   0.0007  -0.0026  -0.0028  14.00  699.3
2024/05/06 11:56:45.000   28.306738640  -16.436439198   689.5233   1   7   0.0015   0.0012   0.0145   0.0007  -0.0026  -0.0028  15.00  697.3
2024/05/06 11:56:46.000   28.306738640  -16.436439198   689.5233   1   7   0.0015   0.0012   0.0145   0.0007  -0.0026  -0.0028 -14.00  695.3
2024/05/06 11:56:47.000   28.306738640  -16.436439198   689.5233   1   7   0.0015   0.0012   0.0145   0.0007  -0.0026  -0.0028 -13.00  693.0
2024/05/06 11:56:48.000   28.306738640  -16.436439198   689.5234   1   7   0.0015   0.0012   0.0145   0.0007  -0.0026  -0.0028 -12.00  690.6
2024/05/06 11:56:49.000   28.306738640  -16.436439198   689.5234   1   7   0.0015   0.0012   0.0145   0.0007  -0.0026  -0.0028 -11.00  688.3
2024/05/06 11:56:50.000   28.306738640  -16.436439198   689.5234   1   7   0.0015   0.0012   0.0145   0.0007  -0.0026  -0.0028 -10.00  685.6
2024/05/06 11:56:51.000   28.306738640  -16.436439198   689.5234   1   7   0.0015   0.0012   0.0145   0.0007  -0.0026  -0.0028  -9.00  683.2
2024/05/06 11:56:52.000   28.306738640  -16.436439198   689.5235   1   7   0.0015   0.0012   0.0144   0.0007  -0.0026  -0.0028  -8.00  680.3
2024/05/06 11:56:53.000   28.306738640  -16.436439198   689.5235   1   7   0.0015   0.0012   0.0144   0.0007  -0.0026  -0.0028  -7.00  677.5
2024/05/06 11:56:54.001   28.306738640  -16.436439198   689.5235   1   7   0.0015   0.0012   0.0144   0.0007  -0.0026  -0.0028  -6.00  672.6
2024/05/06 11:56:55.000   28.306738640  -16.436439198   689.5236   1   7   0.0015   0.0012   0.0144   0.0007  -0.0026  -0.0028  -5.00  668.6
2024/05/06 11:56:56.000   28.306738640  -16.436439198   689.5236   1   7   0.0015   0.0012   0.0144   0.0007  -0.0026  -0.0028  -4.00  664.8
2024/05/06 11:56:57.000   28.306738640  -16.436439198   689.5237   1   7   0.0015   0.0012   0.0144   0.0007  -0.0026  -0.0028  -3.00  660.5
2024/05/06 11:56:58.000   28.306738640  -16.436439198   689.5236   1   7   0.0015   0.0012   0.0145   0.0007  -0.0026  -0.0028  -2.00  655.4
2024/05/06 11:56:59.000   28.306738640  -16.436439198   689.5235   1   7   0.0015   0.0012   0.0145   0.0007  -0.0026  -0.0028  -1.00  650.0
2024/05/06 11:57:00.000   28.306738640  -16.436439198   689.5233   1   7   0.0015   0.0012   0.0145   0.0007  -0.0026  -0.0028   0.00  647.0
2024/05/06 11:57:01.000   28.306738640  -16.436439197   689.5231   1   7   0.0015   0.0012   0.0145   0.0007  -0.0026  -0.0028   1.00  643.4
2024/05/06 11:57:02.000   28.306738640  -16.436439197   689.5230   1   7   0.0015   0.0012   0.0145   0.0007  -0.0026  -0.0028   2.00  639.5
2024/05/06 11:57:03.000   28.306738640  -16.436439197   689.5228   1   7   0.0015   0.0012   0.0145   0.0007  -0.0026  -0.0028   3.00  634.3
2024/05/06 11:57:04.000   28.306738640  -16.436439197   689.5227   1   7   0.0015   0.0012   0.0145   0.0007  -0.0026  -0.0028   4.00  631.7
2024/05/06 11:57:05.000   28.306738640  -16.436439197   689.5226   1   7   0.0015   0.0012   0.0145   0.0007  -0.0026  -0.0028   5.00  630.5
2024/05/06 11:57:06.000   28.306738640  -16.436439197   689.5225   1   7   0.0015   0.0012   0.0145   0.0007  -0.0026  -0.0028   6.00  630.2
2024/05/06 11:57:07.000   28.306738640  -16.436439197   689.5224   1   7   0.0015   0.0012   0.0145   0.0007  -0.0026  -0.0028   7.00  626.5
2024/05/06 11:57:08.000   28.306738640  -16.436439197   689.5223   1   7   0.0015   0.0012   0.0145   0.0007  -0.0026  -0.0028   8.00  624.6
2024/05/06 11:57:09.000   28.306738640  -16.436439197   689.5223   1   7   0.0015   0.0012   0.0145   0.0007  -0.0026  -0.0028   9.00  622.6
2024/05/06 11:57:10.000   28.306738640  -16.436439197   689.5222   1   7   0.0015   0.0012   0.0145   0.0007  -0.0026  -0.0028  10.00  620.5
2024/05/06 11:57:11.000   28.306738640  -16.436439197   689.5222   1   7   0.0015   0.0012   0.0145   0.0007  -0.0026  -0.0028  11.00  619.0
2024/05/06 11:57:12.000   28.306738640  -16.436439197   689.5222   1   7   0.0015   0.0012   0.0145   0.0007  -0.0026  -0.0028  12.00  617.0
2024/05/06 11:57:13.000   28.306738640  -16.436439197   689.5221   1   7   0.0015   0.0012   0.0145   0.0007  -0.0026  -0.0028  13.00  615.1
2024/05/06 11:57:14.000   28.306738640  -16.436439197   689.5221   1   7   0.0015   0.0012   0.0145   0.0007  -0.0026  -0.0028  14.00  613.4
2024/05/06 11:57:15.000   28.306738640  -16.436439196   689.5220   1   7   0.0015   0.0012   0.0145   0.0007  -0.0026  -0.0028  15.00  611.7
2024/05/06 11:57:16.000   28.306738640  -16.436439196   689.5220   1   7   0.0015   0.0012   0.0145   0.0007  -0.0026  -0.0028 -14.00  610.0
2024/05/06 11:57:17.000   28.306738640  -16.436439196   689.5220   1   7   0.0015   0.0012   0.0145   0.0007  -0.0026  -0.0028 -13.00  608.4
2024/05/06 11:57:18.000   28.306738640  -16.436439196   689.5220   1   7   0.0015   0.0012   0.0145   0.0007  -0.0026  -0.0028 -12.00  607.0
2024/05/06 11:57:19.000   28.306738640  -16.436439196   689.5219   1   7   0.0015   0.0012   0.0145   0.0007  -0.0026  -0.0028 -11.00  605.8
2024/05/06 11:57:20.000   28.306738640  -16.436439196   689.5219   1   7   0.0015   0.0012   0.0144   0.0007  -0.0026  -0.0028 -10.00  603.9
2024/05/06 11:57:21.000   28.306738640  -16.436439196   689.5218   1   7   0.0015   0.0012   0.0144   0.0007  -0.0026  -0.0028  -9.00  602.4
2024/05/06 11:57:22.000   28.306738640  -16.436439196   689.5218   1   7   0.0015   0.0012   0.0144   0.0007  -0.0026  -0.0028  -8.00  600.5
2024/05/06 11:57:23.000   28.306738640  -16.436439196   689.5218   1   7   0.0015   0.0012   0.0144   0.0007  -0.0026  -0.0028  -7.00  598.1
2024/05/06 11:57:24.000   28.306738640  -16.436439196   689.5217   1   7   0.0015   0.0012   0.0144   0.0007  -0.0026  -0.0028  -6.00  596.5
2024/05/06 11:57:25.000   28.306738641  -16.436439196   689.5217   1   7   0.0015   0.0012   0.0144   0.0007  -0.0026  -0.0028  -5.00  593.7
2024/05/06 11:57:26.000   28.306738641  -16.436439196   689.5217   1   7   0.0015   0.0012   0.0144   0.0007  -0.0026  -0.0028  -4.00  591.9
2024/05/06 11:57:27.000   28.306738641  -16.436439196   689.5217   1   7   0.0015   0.0012   0.0144   0.0007  -0.0026  -0.0028  -3.00  589.7
2024/05/06 11:57:28.000   28.306738641  -16.436439196   689.5217   1   7   0.0015   0.0012   0.0144   0.0007  -0.0026  -0.0028  -2.00  587.3
2024/05/06 11:57:29.000   28.306738641  -16.436439195   689.5217   1   7   0.0015   0.0012   0.0145   0.0007  -0.0026  -0.0028  -1.00  584.4
2024/05/06 11:57:30.000   28.306738641  -16.436439195   689.5216   1   7   0.0015   0.0012   0.0145   0.0007  -0.0026  -0.0028   0.00  582.3
2024/05/06 11:57:31.000   28.306738641  -16.436439195   689.5216   1   7   0.0015   0.0012   0.0145   0.0007  -0.0026  -0.0028   1.00  581.3
2024/05/06 11:57:32.000   28.306738641  -16.436439195   689.5214   1   7   0.0015   0.0012   0.0145   0.0007  -0.0026  -0.0028   2.00  580.0
2024/05/06 11:57:33.000   28.306738641  -16.436439195   689.5214   1   7   0.0015   0.0012   0.0145   0.0007  -0.0026  -0.0028   3.00  579.0
2024/05/06 11:57:34.000   28.306738641  -16.436439195   689.5214   1   7   0.0015   0.0012   0.0145   0.0007  -0.0026  -0.0028   4.00  575.3
2024/05/06 11:57:35.000   28.306738641  -16.436439195   689.5215   1   7   0.0015   0.0012   0.0145   0.0007  -0.0026  -0.0028   5.00  572.3
2024/05/06 11:57:36.000   28.306738641  -16.436439195   689.5215   1   7   0.0015   0.0012   0.0145   0.0007  -0.0026  -0.0028   6.00  569.5
2024/05/06 11:57:37.000   28.306738641  -16.436439195   689.5215   1   7   0.0015   0.0012   0.0145   0.0007  -0.0026  -0.0028   7.00  566.9
2024/05/06 11:57:38.000   28.306738641  -16.436439195   689.5215   1   7   0.0015   0.0012   0.0145   0.0007  -0.0026  -0.0028   8.00  564.8
2024/05/06 11:57:39.000   28.306738641  -16.436439195   689.5215   1   7   0.0015   0.0012   0.0145   0.0007  -0.0026  -0.0028   9.00  562.4
2024/05/06 11:57:40.000   28.306738641  -16.436439195   689.5215   1   7   0.0015   0.0012   0.0145   0.0007  -0.0026  -0.0028  10.00  560.0
2024/05/06 11:57:41.000   28.306738641  -16.436439195   689.5216   1   7   0.0015   0.0012   0.0145   0.0007  -0.0026  -0.0028  11.00  558.1
2024/05/06 11:57:42.000   28.306738641  -16.436439195   689.5216   1   7   0.0015   0.0012   0.0145   0.0007  -0.0026  -0.0028  12.00  556.4
2024/05/06 11:57:43.000   28.306738641  -16.436439195   689.5216   1   7   0.0015   0.0012   0.0145   0.0007  -0.0026  -0.0028  13.00  554.6
2024/05/06 11:57:44.000   28.306738641  -16.436439195   689.5216   1   7   0.0015   0.0012   0.0145   0.0007  -0.0026  -0.0028  14.00  552.7
2024/05/06 11:57:45.000   28.306738641  -16.436439195   689.5216   1   7   0.0015   0.0012   0.0145   0.0007  -0.0026  -0.0028  15.00  551.2
2024/05/06 11:57:46.000   28.306738641  -16.436439195   689.5216   1   7   0.0015   0.0012   0.0145   0.0007  -0.0026  -0.0028 -14.00  549.6
2024/05/06 11:57:47.000   28.306738641  -16.436439195   689.5217   1   7   0.0015   0.0012   0.0145   0.0007  -0.0026  -0.0028 -13.00  548.1
2024/05/06 11:57:48.000   28.306738641  -16.436439195   689.5217   1   7   0.0015   0.0012   0.0145   0.0007  -0.0026  -0.0028 -12.00  546.5
2024/05/06 11:57:49.000   28.306738641  -16.436439195   689.5217   1   7   0.0015   0.0012   0.0144   0.0007  -0.0026  -0.0028 -11.00  544.6
2024/05/06 11:57:50.000   28.306738641  -16.436439195   689.5218   1   7   0.0015   0.0012   0.0144   0.0007  -0.0026  -0.0028 -10.00  542.4
2024/05/06 11:57:51.000   28.306738641  -16.436439195   689.5218   1   7   0.0015   0.0012   0.0144   0.0007  -0.0026  -0.0028  -9.00  540.7
2024/05/06 11:57:52.000   28.306738640  -16.436439195   689.5218   1   7   0.0015   0.0012   0.0144   0.0007  -0.0026  -0.0028  -8.00  538.5
2024/05/06 11:57:53.000   28.306738640  -16.436439195   689.5219   1   7   0.0015   0.0012   0.0144   0.0007  -0.0026  -0.0028  -7.00  536.0
2024/05/06 11:57:54.000   28.306738640  -16.436439195   689.5219   1   7   0.0015   0.0012   0.0144   0.0007  -0.0026  -0.0028  -6.00  533.6
2024/05/06 11:57:55.000   28.306738640  -16.436439195   689.5220   1   7   0.0015   0.0012   0.0144   0.0007  -0.0026  -0.0028  -5.00  531.4
2024/05/06 11:57:56.000   28.306738640  -16.436439195   689.5220   1   7   0.0015   0.0012   0.0144   0.0007  -0.0026  -0.0028  -4.00  527.8
2024/05/06 11:57:57.000   28.306738640  -16.436439195   689.5220   1   7   0.0015   0.0012   0.0144   0.0007  -0.0026  -0.0028  -3.00  524.0
2024/05/06 11:57:58.000   28.306738640  -16.436439195   689.5221   1   7   0.0015   0.0012   0.0144   0.0007  -0.0026  -0.0028  -2.00  519.8
2024/05/06 11:57:59.000   28.306738640  -16.436439195   689.5221   1   7   0.0015   0.0012   0.0144   0.0007  -0.0026  -0.0028  -1.00  515.0
2024/05/06 11:58:00.000   28.306738640  -16.436439195   689.5219   1   7   0.0015   0.0012   0.0145   0.0007  -0.0026  -0.0028   0.00  510.5
2024/05/06 11:58:01.000   28.306738640  -16.436439194   689.5216   1   7   0.0015   0.0012   0.0145   0.0007  -0.0026  -0.0028   1.00  507.9
2024/05/06 11:58:02.000   28.306738640  -16.436439194   689.5214   1   7   0.0015   0.0012   0.0145   0.0007  -0.0026  -0.0028   2.00  504.2
2024/05/06 11:58:03.000   28.306738640  -16.436439194   689.5213   1   7   0.0015   0.0012   0.0145   0.0007  -0.0026  -0.0028   3.00  501.7
2024/05/06 11:58:04.000   28.306738640  -16.436439194   689.5213   1   7   0.0015   0.0012   0.0145   0.0007  -0.0026  -0.0028   4.00  498.1
2024/05/06 11:58:05.000   28.306738640  -16.436439194   689.5213   1   7   0.0015   0.0012   0.0145   0.0007  -0.0026  -0.0028   5.00  494.8
2024/05/06 11:58:06.000   28.306738640  -16.436439194   689.5212   1   7   0.0015   0.0012   0.0145   0.0007  -0.0026  -0.0028   6.00  491.5
2024/05/06 11:58:07.000   28.306738640  -16.436439194   689.5212   1   7   0.0015   0.0012   0.0145   0.0007  -0.0026  -0.0028   7.00  488.8
2024/05/06 11:58:08.000   28.306738640  -16.436439193   689.5212   1   7   0.0015   0.0012   0.0145   0.0007  -0.0026  -0.0028   8.00  486.4
2024/05/06 11:58:09.000   28.306738640  -16.436439193   689.5212   1   7   0.0015   0.0012   0.0145   0.0007  -0.0026  -0.0028   9.00  484.3
2024/05/06 11:58:10.000   28.306738640  -16.436439193   689.5212   1   7   0.0015   0.0012   0.0145   0.0007  -0.0026  -0.0028  10.00  482.5
2024/05/06 11:58:11.000   28.306738640  -16.436439193   689.5212   1   7   0.0015   0.0012   0.0145   0.0007  -0.0026  -0.0028  11.00  481.1
2024/05/06 11:58:12.000   28.306738640  -16.436439193   689.5212   1   7   0.0015   0.0012   0.0145   0.0007  -0.0026  -0.0028  12.00  479.3
2024/05/06 11:58:13.000   28.306738640  -16.436439193   689.5212   1   7   0.0015   0.0012   0.0145   0.0007  -0.0026  -0.0028  13.00  477.5
2024/05/06 11:58:14.000   28.306738640  -16.436439193   689.5212   1   7   0.0015   0.0012   0.0145   0.0007  -0.0026  -0.0028  14.00  475.8
2024/05/06 11:58:15.000   28.306738640  -16.436439193   689.5212   1   7   0.0015   0.0012   0.0145   0.0007  -0.0026  -0.0028  15.00  474.4
2024/05/06 11:58:16.000   28.306738640  -16.436439193   689.5212   1   7   0.0015   0.0012   0.0145   0.0007  -0.0026  -0.0028 -14.00  472.9
2024/05/06 11:58:17.000   28.306738640  -16.436439193   689.5212   1   7   0.0015   0.0012   0.0145   0.0007  -0.0026  -0.0028 -13.00  471.5
2024/05/06 11:58:18.000   28.306738640  -16.436439193   689.5213   1   7   0.0015   0.0012   0.0144   0.0007  -0.0026  -0.0028 -12.00  470.2
2024/05/06 11:58:19.000   28.306738640  -16.436439193   689.5213   1   7   0.0015   0.0012   0.0144   0.0007  -0.0026  -0.0028 -11.00  468.9
2024/05/06 11:58:20.000   28.306738640  -16.436439193   689.5213   1   7   0.0015   0.0012   0.0144   0.0007  -0.0026  -0.0028 -10.00  467.8
2024/05/06 11:58:21.000   28.306738640  -16.436439193   689.5213   1   7   0.0015   0.0012   0.0144   0.0007  -0.0026  -0.0028  -9.00  466.4
2024/05/06 11:58:22.000   28.306738640  -16.436439193   689.5213   1   7   0.0015   0.0012   0.0144   0.0007  -0.0026  -0.0028  -8.00  465.2
2024/05/06 11:58:23.000   28.306738640  -16.436439193   689.5214   1   7   0.0015   0.0012   0.0144   0.0007  -0.0026  -0.0028  -7.00  463.4
2024/05/06 11:58:24.000   28.306738640  -16.436439193   689.5214   1   7   0.0015   0.0012   0.0144   0.0007  -0.0026  -0.0028  -6.00  462.1
2024/05/06 11:58:25.000   28.306738640  -16.436439193   689.5215   1   7   0.0015   0.0012   0.0144   0.0007  -0.0026  -0.0028  -5.00  460.7
2024/05/06 11:58:26.000   28.306738640  -16.436439193   689.5215   1   7   0.0015   0.0012   0.0144   0.0007  -0.0026  -0.0028  -4.00  459.3
2024/05/06 11:58:27.000   28.306738640  -16.436439193   689.5215   1   7   0.0015   0.0012   0.0144   0.0007  -0.0026  -0.0028  -3.00  457.9
2024/05/06 11:58:28.000   28.306738640  -16.436439193   689.5215   1   7   0.0015   0.0012   0.0144   0.0007  -0.0026  -0.0028  -2.00  456.4
2024/05/06 11:58:29.000   28.306738639  -16.436439193   689.5215   1   7   0.0015   0.0012   0.0144   0.0007  -0.0026  -0.0028  -1.00  453.1
2024/05/06 11:58:30.000   28.306738639  -16.436439193   689.5215   1   7   0.0015   0.0012   0.0145   0.0007  -0.0026  -0.0028   0.00  452.0
2024/05/06 11:58:31.000   28.306738639  -16.436439193   689.5216   1   7   0.0015   0.0012   0.0145   0.0007  -0.0026  -0.0028   1.00  450.9
2024/05/06 11:58:32.000   28.306738639  -16.436439193   689.5215   1   7   0.0015   0.0012   0.0145   0.0007  -0.0026  -0.0028   2.00  447.1
2024/05/06 11:58:33.000   28.306738639  -16.436439193   689.5215   1   7   0.0015   0.0012   0.0145   0.0007  -0.0026  -0.0028   3.00  444.1
2024/05/06 11:58:34.000   28.306738639  -16.436439193   689.5214   1   7   0.0015   0.0012   0.0145   0.0007  -0.0026  -0.0028   4.00  442.7
2024/05/06 11:58:35.000   28.306738639  -16.436439193   689.5212   1   7   0.0015   0.0012   0.0145   0.0007  -0.0026  -0.0028   5.00  441.3
2024/05/06 11:58:36.000   28.306738639  -16.436439193   689.5212   1   7   0.0015   0.0012   0.0145   0.0007  -0.0026  -0.0028   6.00  440.5
2024/05/06 11:58:37.000   28.306738639  -16.436439193   689.5211   1   7   0.0015   0.0012   0.0145   0.0007  -0.0026  -0.0028   7.00  439.5
2024/05/06 11:58:38.000   28.306738639  -16.436439193   689.5210   1   7   0.0015   0.0012   0.0145   0.0007  -0.0026  -0.0028   8.00  438.5
2024/05/06 11:58:39.000   28.306738639  -16.436439193   689.5210   1   7   0.0015   0.0012   0.0145   0.0007  -0.0026  -0.0028   9.00  438.1
2024/05/06 11:58:40.000   28.306738639  -16.436439193   689.5210   1   7   0.0015   0.0012   0.0145   0.0007  -0.0026  -0.0028  10.00  437.6
2024/05/06 11:58:41.000   28.306738639  -16.436439193   689.5210   1   7   0.0015   0.0012   0.0145   0.0007  -0.0026  -0.0028  11.00  437.0
2024/05/06 11:58:42.000   28.306738638  -16.436439193   689.5210   1   7   0.0015   0.0012   0.0145   0.0007  -0.0026  -0.0028  12.00  436.2
2024/05/06 11:58:43.000   28.306738638  -16.436439193   689.5210   1   7   0.0015   0.0012   0.0145   0.0007  -0.0026  -0.0028  13.00  435.4
2024/05/06 11:58:44.000   28.306738638  -16.436439193   689.5210   1   7   0.0015   0.0012   0.0145   0.0007  -0.0026  -0.0028  14.00  434.6
2024/05/06 11:58:45.000   28.306738638  -16.436439193   689.5210   1   7   0.0015   0.0012   0.0145   0.0007  -0.0026  -0.0028  15.00  433.8
2024/05/06 11:58:46.000   28.306738638  -16.436439193   689.5210   1   7   0.0015   0.0012   0.0145   0.0007  -0.0026  -0.0028 -14.00  432.9
2024/05/06 11:58:47.000   28.306738638  -16.436439193   689.5211   1   7   0.0015   0.0012   0.0144   0.0007  -0.0026  -0.0028 -13.00  431.8
2024/05/06 11:58:48.000   28.306738638  -16.436439193   689.5211   1   7   0.0015   0.0012   0.0144   0.0007  -0.0026  -0.0028 -12.00  431.0
2024/05/06 11:58:49.000   28.306738638  -16.436439193   689.5212   1   7   0.0015   0.0012   0.0144   0.0007  -0.0026  -0.0028 -11.00  430.1
2024/05/06 11:58:50.000   28.306738638  -16.436439193   689.5212   1   7   0.0015   0.0012   0.0144   0.0007  -0.0026  -0.0028 -10.00  429.2
2024/05/06 11:58:51.000   28.306738638  -16.436439193   689.5213   1   7   0.0015   0.0012   0.0144   0.0007  -0.0026  -0.0028  -9.00  428.3
2024/05/06 11:58:52.000   28.306738638  -16.436439193   689.5214   1   7   0.0015   0.0012   0.0144   0.0007  -0.0026  -0.0028  -8.00  427.2
2024/05/06 11:58:53.000   28.306738638  -16.436439193   689.5215   1   7   0.0015   0.0012   0.0144   0.0007  -0.0026  -0.0028  -7.00  426.2
2024/05/06 11:58:54.000   28.306738638  -16.436439194   689.5217   1   7   0.0015   0.0012   0.0144   0.0007  -0.0026  -0.0028  -6.00  425.1
2024/05/06 11:58:55.000   28.306738638  -16.436439194   689.5219   1   7   0.0015   0.0012   0.0144   0.0007  -0.0026  -0.0028  -5.00  424.0
2024/05/06 11:58:56.000   28.306738638  -16.436439194   689.5220   1   7   0.0015   0.0012   0.0144   0.0007  -0.0026  -0.0028  -4.00  423.7
2024/05/06 11:58:57.000   28.306738638  -16.436439194   689.5222   1   7   0.0015   0.0012   0.0144   0.0007  -0.0026  -0.0028  -3.00  422.9
2024/05/06 11:58:58.000   28.306738638  -16.436439194   689.5225   1   7   0.0015   0.0012   0.0144   0.0007  -0.0026  -0.0028  -2.00  421.9
2024/05/06 11:58:59.000   28.306738638  -16.436439194   689.5228   1   7   0.0015   0.0012   0.0144   0.0007  -0.0026  -0.0028  -1.00  422.1
2024/05/06 11:59:00.000   28.306738638  -16.436439194   689.5230   1   7   0.0015   0.0012   0.0144   0.0007  -0.0026  -0.0028   0.00  422.3
2024/05/06 11:59:01.000   28.306738638  -16.436439194   689.5230   1   7   0.0015   0.0012   0.0145   0.0007  -0.0026  -0.0028   1.00  423.6
2024/05/06 11:59:02.000   28.306738638  -16.436439194   689.5232   1   7   0.0015   0.0012   0.0145   0.0007  -0.0026  -0.0028   2.00  423.0
2024/05/06 11:59:03.000   28.306738638  -16.436439194   689.5234   1   7   0.0015   0.0012   0.0145   0.0007  -0.0026  -0.0028   3.00  424.0
2024/05/06 11:59:04.000   28.306738638  -16.436439194   689.5234   1   7   0.0015   0.0012   0.0145   0.0007  -0.0026  -0.0028   4.00  425.0
2024/05/06 11:59:05.000   28.306738638  -16.436439195   689.5236   1   7   0.0015   0.0012   0.0145   0.0007  -0.0026  -0.0028   5.00  424.7
2024/05/06 11:59:06.000   28.306738638  -16.436439195   689.5238   1   7   0.0015   0.0012   0.0145   0.0007  -0.0026  -0.0028   6.00  424.2
2024/05/06 11:59:07.000   28.306738641  -16.436439202   689.5285   1   7   0.0014   0.0010   0.0140   0.0007  -0.0023  -0.0026   7.00    3.1
2024/05/06 11:59:08.000   28.306738641  -16.436439202   689.5286   1   7   0.0014   0.0010   0.0140   0.0007  -0.0023  -0.0026   8.00    3.1
2024/05/06 11:59:09.000   28.306738641  -16.436439202   689.5287   1   7   0.0014   0.0010   0.0140   0.0007  -0.0023  -0.0026   9.00    3.1
2024/05/06 11:59:10.000   28.306738641  -16.436439202   689.5287   1   7   0.0014   0.0010   0.0140   0.0007  -0.0023  -0.0026  10.00    3.1
2024/05/06 11:59:11.000   28.306738641  -16.436439202   689.5287   1   7   0.0014   0.0010   0.0140   0.0007  -0.0023  -0.0026  11.00    3.1
2024/05/06 11:59:12.000   28.306738641  -16.436439202   689.5287   1   7   0.0013   0.0010   0.0140   0.0007  -0.0023  -0.0026  12.00    3.1
2024/05/06 11:59:13.000   28.306738641  -16.436439202   689.5288   1   7   0.0013   0.0010   0.0140   0.0007  -0.0023  -0.0026  13.00    3.1
2024/05/06 11:59:14.000   28.306738640  -16.436439203   689.5306   1   7   0.0013   0.0010   0.0131   0.0006  -0.0021  -0.0022  14.00    3.1
2024/05/06 11:59:15.000   28.306738640  -16.436439203   689.5307   1   7   0.0013   0.0010   0.0131   0.0006  -0.0021  -0.0022 -15.00    3.1
2024/05/06 11:59:16.000   28.306738640  -16.436439203   689.5307   1   7   0.0013   0.0010   0.0131   0.0006  -0.0020  -0.0022 -14.00    3.1
2024/05/06 11:59:17.000   28.306738640  -16.436439203   689.5307   1   7   0.0013   0.0010   0.0131   0.0006  -0.0020  -0.0022 -13.00    3.1
2024/05/06 11:59:18.000   28.306738640  -16.436439202   689.5307   1   7   0.0013   0.0010   0.0131   0.0006  -0.0020  -0.0022 -12.00    3.1
2024/05/06 11:59:19.000   28.306738640  -16.436439202   689.5307   1   7   0.0013   0.0010   0.0130   0.0006  -0.0020  -0.0022 -11.00    3.1
2024/05/06 11:59:20.000   28.306738640  -16.436439202   689.5308   1   7   0.0013   0.0010   0.0130   0.0006  -0.0020  -0.0022 -10.00    3.1
2024/05/06 11:59:21.000   28.306738640  -16.436439202   689.5308   1   7   0.0013   0.0010   0.0130   0.0006  -0.0020  -0.0022  -9.00    3.1
2024/05/06 11:59:22.000   28.306738640  -16.436439202   689.5308   1   7   0.0013   0.0010   0.0130   0.0006  -0.0020  -0.0022  -8.00    3.1
2024/05/06 11:59:23.000   28.306738640  -16.436439202   689.5308   1   7   0.0013   0.0010   0.0130   0.0006  -0.0020  -0.0022  -7.00    3.1
2024/05/06 11:59:24.000   28.306738640  -16.436439202   689.5308   1   7   0.0013   0.0010   0.0130   0.0006  -0.0020  -0.0022  -6.00    3.1
2024/05/06 11:59:25.000   28.306738640  -16.436439202   689.5309   1   7   0.0013   0.0010   0.0130   0.0006  -0.0020  -0.0022  -5.00    3.2
2024/05/06 11:59:26.000   28.306738640  -16.436439202   689.5309   1   7   0.0013   0.0010   0.0130   0.0006  -0.0020  -0.0022  -4.00    3.2
2024/05/06 11:59:27.000   28.306738640  -16.436439202   689.5310   1   7   0.0013   0.0010   0.0130   0.0006  -0.0020  -0.0022  -3.00    6.6
2024/05/06 11:59:28.000   28.306738640  -16.436439202   689.5309   1   7   0.0013   0.0010   0.0130   0.0006  -0.0020  -0.0022  -2.00    9.4
2024/05/06 11:59:29.000   28.306738638  -16.436439203   689.5279   1   7   0.0013   0.0010   0.0124   0.0006  -0.0022  -0.0024  -1.00    7.5
2024/05/06 11:59:30.000   28.306738638  -16.436439203   689.5279   1   7   0.0013   0.0010   0.0124   0.0006  -0.0022  -0.0024   0.00   11.2
2024/05/06 11:59:31.000   28.306738638  -16.436439203   689.5280   1   7   0.0013   0.0010   0.0124   0.0006  -0.0022  -0.0024   1.00   14.2
2024/05/06 11:59:32.000   28.306738638  -16.436439203   689.5279   1   7   0.0013   0.0010   0.0124   0.0006  -0.0022  -0.0024   2.00   17.4
2024/05/06 11:59:33.000   28.306738638  -16.436439203   689.5279   1   7   0.0013   0.0010   0.0124   0.0006  -0.0022  -0.0024   3.00   20.5
2024/05/06 11:59:34.000   28.306738638  -16.436439203   689.5279   1   7   0.0013   0.0010   0.0124   0.0006  -0.0022  -0.0024   4.00   23.6
2024/05/06 11:59:35.000   28.306738638  -16.436439203   689.5279   1   7   0.0013   0.0010   0.0124   0.0006  -0.0022  -0.0024   5.00   26.8
2024/05/06 11:59:36.000   28.306738638  -16.436439203   689.5279   1   7   0.0013   0.0010   0.0124   0.0006  -0.0022  -0.0024   6.00   30.0
2024/05/06 11:59:37.000   28.306738638  -16.436439203   689.5279   1   7   0.0013   0.0010   0.0124   0.0006  -0.0022  -0.0024   7.00   33.3
2024/05/06 11:59:38.000   28.306738638  -16.436439203   689.5279   1   7   0.0013   0.0010   0.0123   0.0006  -0.0022  -0.0024   8.00   36.7
2024/05/06 11:59:39.000   28.306738638  -16.436439203   689.5279   1   7   0.0013   0.0010   0.0123   0.0006  -0.0022  -0.0024   9.00   40.1
2024/05/06 11:59:40.000   28.306738638  -16.436439203   689.5279   1   7   0.0013   0.0010   0.0123   0.0006  -0.0022  -0.0024  10.00   43.4
2024/05/06 11:59:41.000   28.306738638  -16.436439203   689.5279   1   7   0.0013   0.0010   0.0123   0.0006  -0.0022  -0.0024  11.00   46.8
2024/05/06 11:59:42.000   28.306738638  -16.436439203   689.5279   1   7   0.0013   0.0010   0.0123   0.0006  -0.0022  -0.0024  12.00   50.3
2024/05/06 11:59:43.000   28.306738638  -16.436439203   689.5279   1   7   0.0013   0.0010   0.0123   0.0006  -0.0022  -0.0024  13.00   53.9
2024/05/06 11:59:44.000   28.306738638  -16.436439203   689.5279   1   7   0.0013   0.0010   0.0123   0.0006  -0.0022  -0.0024  14.00   57.6
2024/05/06 11:59:45.000   28.306738638  -16.436439203   689.5279   1   7   0.0013   0.0010   0.0123   0.0006  -0.0022  -0.0024 -15.00   61.3
2024/05/06 11:59:46.000   28.306738638  -16.436439203   689.5279   1   7   0.0013   0.0010   0.0123   0.0006  -0.0021  -0.0024 -14.00   65.1
2024/05/06 11:59:47.000   28.306738638  -16.436439203   689.5279   1   7   0.0013   0.0010   0.0123   0.0006  -0.0021  -0.0024 -13.00   68.8
2024/05/06 11:59:48.000   28.306738638  -16.436439203   689.5280   1   7   0.0013   0.0010   0.0123   0.0006  -0.0021  -0.0024 -12.00   72.6
2024/05/06 11:59:49.000   28.306738638  -16.436439203   689.5280   1   7   0.0013   0.0010   0.0123   0.0006  -0.0021  -0.0024 -11.00   76.5
2024/05/06 11:59:50.000   28.306738638  -16.436439203   689.5279   1   7   0.0013   0.0010   0.0123   0.0006  -0.0021  -0.0024 -10.00   80.5
2024/05/06 11:59:51.000   28.306738638  -16.436439203   689.5279   1   7   0.0013   0.0010   0.0123   0.0006  -0.0021  -0.0024  -9.00   84.5
2024/05/06 11:59:52.000   28.306738638  -16.436439203   689.5279   1   7   0.0013   0.0010   0.0123   0.0006  -0.0021  -0.0024  -8.00   88.6
2024/05/06 11:59:53.000   28.306738638  -16.436439203   689.5279   1   7   0.0013   0.0010   0.0123   0.0006  -0.0021  -0.0024  -7.00   92.7
2024/05/06 11:59:54.000   28.306738638  -16.436439203   689.5280   1   7   0.0013   0.0010   0.0123   0.0006  -0.0021  -0.0024  -6.00   96.5
2024/05/06 11:59:55.000   28.306738638  -16.436439203   689.5280   1   7   0.0013   0.0010   0.0122   0.0006  -0.0021  -0.0024  -5.00  100.1
2024/05/06 11:59:56.000   28.306738638  -16.436439203   689.5280   1   7   0.0013   0.0010   0.0122   0.0006  -0.0021  -0.0024  -4.00  104.3
2024/05/06 11:59:57.000   28.306738638  -16.436439203   689.5280   1   7   0.0013   0.0010   0.0122   0.0006  -0.0021  -0.0024  -3.00  108.6
2024/05/06 11:59:58.000   28.306738638  -16.436439203   689.5280   1   7   0.0013   0.0010   0.0122   0.0006  -0.0021  -0.0024  -2.00  112.6
2024/05/06 11:59:59.000   28.306738638  -16.436439203   689.5280   1   7   0.0013   0.0010   0.0122   0.0006  -0.0021  -0.0024  -1.00  116.4
2024/05/06 12:00:00.000   28.306738638  -16.436439203   689.5280   1   7   0.0012   0.0010   0.0122   0.0006  -0.0021  -0.0024   0.00  119.3
2024/05/06 12:00:01.000   28.306738638  -16.436439203   689.5279   1   7   0.0012   0.0010   0.0122   0.0006  -0.0021  -0.0024   1.00  122.5
2024/05/06 12:00:02.000   28.306738638  -16.436439203   689.5279   1   7   0.0012   0.0010   0.0122   0.0006  -0.0021  -0.0024   2.00  127.1
2024/05/06 12:00:03.000   28.306738638  -16.436439203   689.5279   1   7   0.0012   0.0010   0.0122   0.0006  -0.0021  -0.0024   3.00  131.0
2024/05/06 12:00:04.000   28.306738638  -16.436439203   689.5279   1   7   0.0012   0.0010   0.0122   0.0006  -0.0021  -0.0024   4.00  134.6
2024/05/06 12:00:05.000   28.306738638  -16.436439203   689.5279   1   7   0.0012   0.0010   0.0122   0.0006  -0.0021  -0.0024   5.00  138.0
2024/05/06 12:00:06.000   28.306738638  -16.436439203   689.5279   1   7   0.0012   0.0010   0.0122   0.0006  -0.0021  -0.0024   6.00  141.4
2024/05/06 12:00:07.000   28.306738638  -16.436439203   689.5279   1   7   0.0012   0.0010   0.0122   0.0006  -0.0021  -0.0024   7.00  145.0
2024/05/06 12:00:08.000   28.306738638  -16.436439203   689.5279   1   7   0.0012   0.0010   0.0122   0.0006  -0.0021  -0.0023   8.00  148.5
2024/05/06 12:00:09.000   28.306738638  -16.436439203   689.5280   1   7   0.0012   0.0010   0.0122   0.0006  -0.0021  -0.0023   9.00  152.4
2024/05/06 12:00:10.000   28.306738638  -16.436439203   689.5280   1   7   0.0012   0.0010   0.0122   0.0006  -0.0021  -0.0023  10.00  156.4
2024/05/06 12:00:11.000   28.306738638  -16.436439203   689.5280   1   7   0.0012   0.0010   0.0122   0.0006  -0.0021  -0.0023  11.00  160.7
2024/05/06 12:00:12.000   28.306738638  -16.436439203   689.5280   1   7   0.0012   0.0010   0.0122   0.0006  -0.0021  -0.0023  12.00  165.0
2024/05/06 12:00:13.000   28.306738638  -16.436439203   689.5280   1   7   0.0012   0.0010   0.0122   0.0006  -0.0021  -0.0023  13.00  169.2
2024/05/06 12:00:14.000   28.306738638  -16.436439203   689.5281   1   7   0.0012   0.0010   0.0121   0.0006  -0.0021  -0.0023  14.00  173.5
2024/05/06 12:00:15.000   28.306738638  -16.436439203   689.5281   1   7   0.0012   0.0010   0.0121   0.0006  -0.0021  -0.0023 -15.00  177.8
2024/05/06 12:00:16.000   28.306738638  -16.436439203   689.5281   1   7   0.0012   0.0010   0.0121   0.0006  -0.0021  -0.0023 -14.00  182.1
2024/05/06 12:00:17.000   28.306738638  -16.436439203   689.5281   1   7   0.0012   0.0010   0.0121   0.0006  -0.0021  -0.0023 -13.00  186.7
2024/05/06 12:00:18.000   28.306738638  -16.436439203   689.5281   1   7   0.0012   0.0010   0.0121   0.0006  -0.0021  -0.0023 -12.00  191.0
2024/05/06 12:00:19.000   28.306738638  -16.436439202   689.5281   1   7   0.0012   0.0010   0.0121   0.0006  -0.0021  -0.0023 -11.00  195.5
2024/05/06 12:00:20.000   28.306738638  -16.436439202   689.5281   1   7   0.0012   0.0010   0.0121   0.0006  -0.0021  -0.0023 -10.00  200.2
2024/05/06 12:00:21.000   28.306738638  -16.436439202   689.5281   1   7   0.0012   0.0010   0.0121   0.0006  -0.0021  -0.0023  -9.00  204.6
2024/05/06 12:00:22.000   28.306738638  -16.436439202   689.5280   1   7   0.0012   0.0010   0.0121   0.0006  -0.0021  -0.0023  -8.00  208.8
2024/05/06 12:00:23.000   28.306738638  -16.436439202   689.5281   1   7   0.0012   0.0010   0.0121   0.0006  -0.0021  -0.0023  -7.00  212.4
2024/05/06 12:00:24.000   28.306738638  -16.436439203   689.5281   1   7   0.0012   0.0010   0.0121   0.0006  -0.0021  -0.0023  -6.00  215.7
2024/05/06 12:00:25.000   28.306738638  -16.436439203   689.5280   1   7   0.0012   0.0010   0.0121   0.0006  -0.0021  -0.0023  -5.00  219.5
2024/05/06 12:00:26.000   28.306738638  -16.436439202   689.5280   1   7   0.0012   0.0010   0.0121   0.0006  -0.0021  -0.0023  -4.00  222.4
2024/05/06 12:00:27.000   28.306738638  -16.436439202   689.5281   1   7   0.0012   0.0010   0.0121   0.0006  -0.0021  -0.0023  -3.00  224.3
2024/05/06 12:00:28.000   28.306738638  -16.436439202   689.5281   1   7   0.0012   0.0010   0.0121   0.0006  -0.0021  -0.0023  -2.00  227.6
2024/05/06 12:00:29.000   28.306738638  -16.436439202   689.5279   1   7   0.0012   0.0010   0.0121   0.0006  -0.0021  -0.0023  -1.00  228.6
2024/05/06 12:00:30.000   28.306738638  -16.436439202   689.5279   1   7   0.0012   0.0010   0.0120   0.0006  -0.0021  -0.0023   0.00  230.0
2024/05/06 12:00:31.000   28.306738638  -16.436439202   689.5280   1   7   0.0012   0.0010   0.0120   0.0006  -0.0021  -0.0023   1.00  231.3
2024/05/06 12:00:32.000   28.306738638  -16.436439202   689.5280   1   7   0.0012   0.0010   0.0120   0.0006  -0.0021  -0.0023   2.00  232.6
2024/05/06 12:00:33.000   28.306738638  -16.436439202   689.5280   1   7   0.0012   0.0010   0.0120   0.0006  -0.0021  -0.0023   3.00  234.6
2024/05/06 12:00:34.000   28.306738638  -16.436439202   689.5281   1   7   0.0012   0.0010   0.0120   0.0006  -0.0021  -0.0023   4.00  237.6
2024/05/06 12:00:35.000   28.306738638  -16.436439202   689.5281   1   7   0.0012   0.0010   0.0120   0.0006  -0.0021  -0.0023   5.00  240.3
2024/05/06 12:00:36.000   28.306738638  -16.436439202   689.5282   1   7   0.0012   0.0010   0.0120   0.0006  -0.0021  -0.0023   6.00  243.2
2024/05/06 12:00:37.000   28.306738638  -16.436439202   689.5282   1   7   0.0012   0.0010   0.0120   0.0006  -0.0021  -0.0023   7.00  246.2
2024/05/06 12:00:38.000   28.306738638  -16.436439202   689.5282   1   7   0.0012   0.0010   0.0120   0.0006  -0.0021  -0.0023   8.00  248.9
2024/05/06 12:00:39.000   28.306738638  -16.436439202   689.5282   1   7   0.0012   0.0010   0.0120   0.0006  -0.0021  -0.0023   9.00  252.2
2024/05/06 12:00:40.000   28.306738638  -16.436439202   689.5282   1   7   0.0012   0.0010   0.0120   0.0006  -0.0021  -0.0023  10.00  255.1
2024/05/06 12:00:41.000   28.306738638  -16.436439202   689.5282   1   7   0.0012   0.0010   0.0120   0.0006  -0.0021  -0.0023  11.00  258.8
2024/05/06 12:00:42.000   28.306738638  -16.436439202   689.5282   1   7   0.0012   0.0010   0.0120   0.0006  -0.0021  -0.0023  12.00  262.7
2024/05/06 12:00:43.000   28.306738638  -16.436439202   689.5282   1   7   0.0012   0.0010   0.0120   0.0006  -0.0021  -0.0023  13.00  266.5
2024/05/06 12:00:44.000   28.306738638  -16.436439202   689.5282   1   7   0.0012   0.0010   0.0120   0.0006  -0.0021  -0.0023  14.00  270.1
2024/05/06 12:00:45.000   28.306738638  -16.436439202   689.5283   1   7   0.0012   0.0010   0.0120   0.0006  -0.0021  -0.0023 -15.00  274.1
2024/05/06 12:00:46.000   28.306738638  -16.436439202   689.5283   1   7   0.0012   0.0010   0.0120   0.0006  -0.0021  -0.0023 -14.00  278.1
2024/05/06 12:00:47.000   28.306738638  -16.436439202   689.5283   1   7   0.0012   0.0010   0.0120   0.0006  -0.0021  -0.0023 -13.00  281.4
2024/05/06 12:00:48.000   28.306738638  -16.436439202   689.5283   1   7   0.0012   0.0010   0.0120   0.0006  -0.0021  -0.0023 -12.00  284.6
2024/05/06 12:00:49.000   28.306738638  -16.436439202   689.5283   1   7   0.0012   0.0010   0.0120   0.0006  -0.0021  -0.0023 -11.00  288.1
2024/05/06 12:00:50.000   28.306738638  -16.436439202   689.5283   1   7   0.0012   0.0010   0.0120   0.0006  -0.0021  -0.0023 -10.00  291.4
2024/05/06 12:00:51.000   28.306738638  -16.436439202   689.5284   1   7   0.0012   0.0010   0.0120   0.0006  -0.0021  -0.0023  -9.00  294.1
2024/05/06 12:00:52.000   28.306738638  -16.436439202   689.5284   1   7   0.0012   0.0010   0.0120   0.0006  -0.0021  -0.0023  -8.00  297.0
2024/05/06 12:00:53.000   28.306738638  -16.436439202   689.5284   1   7   0.0012   0.0010   0.0119   0.0006  -0.0021  -0.0023  -7.00  300.3
2024/05/06 12:00:54.000   28.306738638  -16.436439202   689.5284   1   7   0.0012   0.0010   0.0119   0.0006  -0.0021  -0.0023  -6.00  304.3
2024/05/06 12:00:55.000   28.306738638  -16.436439202   689.5284   1   7   0.0012   0.0010   0.0119   0.0006  -0.0021  -0.0023  -5.00  307.0
2024/05/06 12:00:56.000   28.306738638  -16.436439202   689.5284   1   7   0.0012   0.0010   0.0119   0.0006  -0.0021  -0.0023  -4.00  309.5
2024/05/06 12:00:57.000   28.306738638  -16.436439202   689.5284   1   7   0.0012   0.0010   0.0119   0.0006  -0.0021  -0.0023  -3.00  312.1
2024/05/06 12:00:58.000   28.306738638  -16.436439202   689.5284   1   7   0.0012   0.0010   0.0119   0.0006  -0.0021  -0.0023  -2.00  314.9
2024/05/06 12:00:59.000   28.306738638  -16.436439202   689.5284   1   7   0.0012   0.0010   0.0119   0.0006  -0.0021  -0.0023  -1.00  314.8
2024/05/06 12:01:00.000   28.306738638  -16.436439202   689.5284   1   7   0.0012   0.0010   0.0119   0.0006  -0.0021  -0.0023   0.00  317.3
2024/05/06 12:01:01.000   28.306738638  -16.436439202   689.5284   1   7   0.0012   0.0010   0.0119   0.0006  -0.0021  -0.0023   1.00  318.8
2024/05/06 12:01:02.000   28.306738638  -16.436439202   689.5285   1   7   0.0012   0.0010   0.0119   0.0006  -0.0021  -0.0023   2.00  322.0
2024/05/06 12:01:03.000   28.306738638  -16.436439202   689.5284   1   7   0.0012   0.0010   0.0119   0.0006  -0.0021  -0.0023   3.00  326.0
2024/05/06 12:01:04.000   28.306738638  -16.436439202   689.5284   1   7   0.0012   0.0010   0.0119   0.0006  -0.0021  -0.0023   4.00  330.1
2024/05/06 12:01:05.000   28.306738638  -16.436439202   689.5285   1   7   0.0012   0.0010   0.0119   0.0006  -0.0021  -0.0023   5.00  335.7
2024/05/06 12:01:06.000   28.306738638  -16.436439202   689.5286   1   7   0.0012   0.0010   0.0119   0.0006  -0.0021  -0.0023   6.00  340.0
2024/05/06 12:01:07.000   28.306738638  -16.436439202   689.5286   1   7   0.0012   0.0010   0.0119   0.0006  -0.0021  -0.0023   7.00  343.0
2024/05/06 12:01:08.000   28.306738638  -16.436439202   689.5286   1   7   0.0012   0.0010   0.0119   0.0006  -0.0021  -0.0023   8.00  346.5
2024/05/06 12:01:09.000   28.306738638  -16.436439202   689.5286   1   7   0.0012   0.0010   0.0119   0.0006  -0.0021  -0.0023   9.00  350.7
2024/05/06 12:01:10.000   28.306738638  -16.436439202   689.5286   1   7   0.0012   0.0010   0.0119   0.0006  -0.0021  -0.0023  10.00  355.1
2024/05/06 12:01:11.000   28.306738638  -16.436439202   689.5286   1   7   0.0012   0.0010   0.0119   0.0006  -0.0021  -0.0023  11.00  359.4
2024/05/06 12:01:12.000   28.306738638  -16.436439202   689.5286   1   7   0.0012   0.0010   0.0119   0.0006  -0.0021  -0.0023  12.00  364.0
2024/05/06 12:01:13.000   28.306738638  -16.436439202   689.5286   1   7   0.0012   0.0010   0.0119   0.0006  -0.0021  -0.0023  13.00  368.4
2024/05/06 12:01:14.000   28.306738638  -16.436439202   689.5286   1   7   0.0012   0.0010   0.0119   0.0006  -0.0021  -0.0023  14.00  372.9
2024/05/06 12:01:15.000   28.306738638  -16.436439202   689.5286   1   7   0.0012   0.0010   0.0119   0.0006  -0.0021  -0.0023 -15.00  376.9
2024/05/06 12:01:16.000   28.306738638  -16.436439202   689.5287   1   7   0.0012   0.0010   0.0118   0.0006  -0.0021  -0.0023 -14.00  381.3
2024/05/06 12:01:17.000   28.306738638  -16.436439202   689.5287   1   7   0.0012   0.0010   0.0118   0.0006  -0.0021  -0.0023 -13.00  385.7
2024/05/06 12:01:18.000   28.306738638  -16.436439202   689.5287   1   7   0.0012   0.0010   0.0118   0.0006  -0.0021  -0.0023 -12.00  390.3
2024/05/06 12:01:19.000   28.306738638  -16.436439202   689.5287   1   7   0.0012   0.0010   0.0118   0.0006  -0.0021  -0.0023 -11.00  394.4
2024/05/06 12:01:20.000   28.306738638  -16.436439202   689.5287   1   7   0.0012   0.0010   0.0118   0.0006  -0.0021  -0.0023 -10.00  398.6
2024/05/06 12:01:21.000   28.306738638  -16.436439202   689.5287   1   7   0.0012   0.0010   0.0118   0.0006  -0.0021  -0.0023  -9.00  403.3
2024/05/06 12:01:22.000   28.306738638  -16.436439202   689.5287   1   7   0.0012   0.0010   0.0118   0.0006  -0.0021  -0.0023  -8.00  407.2
2024/05/06 12:01:23.000   28.306738638  -16.436439202   689.5288   1   7   0.0012   0.0010   0.0118   0.0006  -0.0021  -0.0023  -7.00  412.2
2024/05/06 12:01:24.000   28.306738638  -16.436439202   689.5288   1   7   0.0012   0.0010   0.0118   0.0006  -0.0021  -0.0023  -6.00  417.7
2024/05/06 12:01:25.000   28.306738638  -16.436439202   689.5287   1   7   0.0012   0.0010   0.0118   0.0006  -0.0021  -0.0023  -5.00  423.5
2024/05/06 12:01:26.000   28.306738638  -16.436439202   689.5288   1   7   0.0012   0.0010   0.0118   0.0006  -0.0021  -0.0023  -4.00  430.1
2024/05/06 12:01:27.000   28.306738638  -16.436439202   689.5288   1   7   0.0012   0.0010   0.0118   0.0006  -0.0021  -0.0023  -3.00  434.0
2024/05/06 12:01:28.000   28.306738638  -16.436439202   689.5288   1   7   0.0012   0.0010   0.0118   0.0006  -0.0021  -0.0023  -2.00  443.6
2024/05/06 12:01:29.000   28.306738638  -16.436439202   689.5289   1   7   0.0012   0.0010   0.0118   0.0006  -0.0021  -0.0023  -1.00  450.0
2024/05/06 12:01:30.000   28.306738638  -16.436439202   689.5288   1   7   0.0012   0.0010   0.0118   0.0006  -0.0021  -0.0023   0.00  458.8
2024/05/06 12:01:31.000   28.306738638  -16.436439202   689.5289   1   7   0.0012   0.0010   0.0118   0.0006  -0.0021  -0.0023   1.00  467.6
2024/05/06 12:01:32.000   28.306738638  -16.436439202   689.5290   1   7   0.0012   0.0010   0.0118   0.0006  -0.0021  -0.0023   2.00  474.1
2024/05/06 12:01:33.000   28.306738638  -16.436439202   689.5290   1   7   0.0012   0.0010   0.0118   0.0006  -0.0021  -0.0023   3.00  481.6
2024/05/06 12:01:34.000   28.306738638  -16.436439202   689.5290   1   7   0.0012   0.0010   0.0118   0.0006  -0.0021  -0.0023   4.00  487.5
2024/05/06 12:01:35.000   28.306738638  -16.436439202   689.5290   1   7   0.0012   0.0010   0.0118   0.0006  -0.0021  -0.0023   5.00  494.4
2024/05/06 12:01:36.000   28.306738638  -16.436439202   689.5290   1   7   0.0012   0.0010   0.0118   0.0006  -0.0021  -0.0023   6.00  499.3
2024/05/06 12:01:37.000   28.306738638  -16.436439202   689.5290   1   7   0.0012   0.0010   0.0118   0.0006  -0.0021  -0.0023   7.00  503.4
2024/05/06 12:01:38.000   28.306738638  -16.436439202   689.5290   1   7   0.0012   0.0010   0.0118   0.0006  -0.0021  -0.0023   8.00  507.1
2024/05/06 12:01:39.000   28.306738638  -16.436439202   689.5291   1   7   0.0012   0.0010   0.0117   0.0006  -0.0021  -0.0023   9.00  511.0
2024/05/06 12:01:40.000   28.306738638  -16.436439202   689.5291   1   7   0.0012   0.0010   0.0117   0.0006  -0.0021  -0.0023  10.00  515.8
2024/05/06 12:01:41.000   28.306738638  -16.436439202   689.5291   1   7   0.0012   0.0010   0.0117   0.0006  -0.0021  -0.0023  11.00  519.5
2024/05/06 12:01:42.000   28.306738638  -16.436439202   689.5291   1   7   0.0012   0.0010   0.0117   0.0006  -0.0021  -0.0023  12.00  522.9
2024/05/06 12:01:43.000   28.306738638  -16.436439202   689.5291   1   7   0.0012   0.0010   0.0117   0.0006  -0.0021  -0.0023  13.00  525.9
2024/05/06 12:01:44.000   28.306738638  -16.436439202   689.5292   1   7   0.0012   0.0010   0.0117   0.0006  -0.0021  -0.0023  14.00  529.5
2024/05/06 12:01:45.000   28.306738638  -16.436439202   689.5292   1   7   0.0012   0.0010   0.0117   0.0006  -0.0021  -0.0023 -15.00  532.5
2024/05/06 12:01:46.000   28.306738638  -16.436439202   689.5292   1   7   0.0012   0.0010   0.0117   0.0006  -0.0021  -0.0023 -14.00  535.3
2024/05/06 12:01:47.000   28.306738638  -16.436439202   689.5292   1   7   0.0012   0.0010   0.0117   0.0006  -0.0021  -0.0023 -13.00  537.6
2024/05/06 12:01:48.000   28.306738638  -16.436439202   689.5292   1   7   0.0012   0.0010   0.0117   0.0006  -0.0021  -0.0023 -12.00  540.3
2024/05/06 12:01:49.000   28.306738638  -16.436439202   689.5293   1   7   0.0012   0.0010   0.0117   0.0006  -0.0020  -0.0023 -11.00  542.9
2024/05/06 12:01:50.000   28.306738638  -16.436439202   689.5293   1   7   0.0012   0.0010   0.0117   0.0006  -0.0020  -0.0023 -10.00  545.2
2024/05/06 12:01:51.000   28.306738638  -16.436439202   689.5293   1   7   0.0012   0.0010   0.0117   0.0006  -0.0020  -0.0023  -9.00  546.6
2024/05/06 12:01:52.000   28.306738638  -16.436439202   689.5293   1   7   0.0012   0.0010   0.0117   0.0006  -0.0020  -0.0023  -8.00  548.0
2024/05/06 12:01:53.000   28.306738638  -16.436439202   689.5294   1   7   0.0012   0.0010   0.0117   0.0005  -0.0020  -0.0023  -7.00  550.0
2024/05/06 12:01:54.000   28.306738638  -16.436439202   689.5294   1   7   0.0012   0.0010   0.0117   0.0005  -0.0020  -0.0023  -6.00  549.1
2024/05/06 12:01:55.000   28.306738638  -16.436439202   689.5294   1   7   0.0012   0.0010   0.0117   0.0005  -0.0020  -0.0023  -5.00  547.3
2024/05/06 12:01:56.000   28.306738638  -16.436439201   689.5294   1   7   0.0012   0.0010   0.0117   0.0005  -0.0020  -0.0023  -4.00  546.1
2024/05/06 12:01:57.000   28.306738638  -16.436439201   689.5294   1   7   0.0012   0.0010   0.0117   0.0005  -0.0020  -0.0023  -3.00  543.5
2024/05/06 12:01:58.000   28.306738638  -16.436439201   689.5293   1   7   0.0012   0.0010   0.0117   0.0005  -0.0020  -0.0023  -2.00  540.8
2024/05/06 12:01:59.000   28.306738638  -16.436439201   689.5293   1   7   0.0012   0.0009   0.0117   0.0005  -0.0020  -0.0023  -1.00  532.4
2024/05/06 12:02:00.000   28.306738638  -16.436439201   689.5292   1   7   0.0012   0.0009   0.0116   0.0005  -0.0020  -0.0023   0.00  529.6
2024/05/06 12:02:01.000   28.306738638  -16.436439201   689.5292   1   7   0.0012   0.0009   0.0116   0.0005  -0.0020  -0.0023   1.00  529.6
2024/05/06 12:02:02.000   28.306738638  -16.436439201   689.5292   1   7   0.0012   0.0009   0.0116   0.0005  -0.0020  -0.0023   2.00  528.7
2024/05/06 12:02:03.000   28.306738638  -16.436439201   689.5293   1   7   0.0012   0.0009   0.0116   0.0005  -0.0020  -0.0023   3.00  528.7
2024/05/06 12:02:04.000   28.306738638  -16.436439201   689.5294   1   7   0.0012   0.0009   0.0116   0.0005  -0.0020  -0.0023   4.00  526.1
2024/05/06 12:02:05.000   28.306738638  -16.436439201   689.5294   1   7   0.0012   0.0009   0.0116   0.0005  -0.0020  -0.0023   5.00  526.9
2024/05/06 12:02:06.000   28.306738638  -16.436439201   689.5294   1   7   0.0012   0.0009   0.0116   0.0005  -0.0020  -0.0023   6.00  525.9
2024/05/06 12:02:07.000   28.306738638  -16.436439201   689.5294   1   7   0.0012   0.0009   0.0116   0.0005  -0.0020  -0.0023   7.00  524.7
2024/05/06 12:02:08.000   28.306738638  -16.436439201   689.5295   1   7   0.0012   0.0009   0.0116   0.0005  -0.0020  -0.0023   8.00  524.3
2024/05/06 12:02:09.000   28.306738638  -16.436439201   689.5295   1   7   0.0012   0.0009   0.0116   0.0005  -0.0020  -0.0023   9.00  524.6
2024/05/06 12:02:10.000   28.306738638  -16.436439201   689.5296   1   7   0.0012   0.0009   0.0116   0.0005  -0.0020  -0.0023  10.00  524.9
2024/05/06 12:02:11.000   28.306738638  -16.436439201   689.5296   1   7   0.0012   0.0009   0.0116   0.0005  -0.0020  -0.0023  11.00  526.4
