% program   : RTKPOST-EX 2.5.0
% inp file  : C:\Users\SallyHenry\Desktop\Sally Internship\GNSS gravi\DATA\Survey Rover Obs\GUI02.24o
% inp file  : C:\Users\SallyHenry\Desktop\Sally Internship\GNSS gravi\DATA\BaseStations\IZAN\IZAN00ESP_R_20241270000_01D_30S_MO.rnx
% inp file  : C:\Users\SallyHenry\Desktop\Sally Internship\GNSS gravi\DATA\BaseStations\IZAN\IZAN00ESP_R_20241270000_01D_MN.rnx
% inp file  : C:\Users\SallyHenry\Desktop\Sally Internship\GNSS gravi\DATA\aux_files\Survey\IGS0OPSFIN_20241270000_01D_15M_ORB.SP3
% inp file  : C:\Users\SallyHenry\Desktop\Sally Internship\GNSS gravi\DATA\aux_files\Survey\IGS0OPSFIN_20241270000_01D_30S_CLK.CLK
% obs start : 2024/05/06 13:11:22.0 GPST (week2313 133882.0s)
% obs end   : 2024/05/06 13:36:21.0 GPST (week2313 135381.0s)
% pos mode  : Static
% freqs     : L1+L2/E5b
% solution  : Combined-No Phase Reset
% elev mask : 15.0 deg
% dynamics  : on
% tidecorr  : solid
% ionos opt : Estimate TEC
% tropo opt : Estimate ZTD+Grad
% ephemeris : Precise
% navi sys  : GPS GLONASS Galileo QZSS BDS
% amb res   : Fix and Hold
% amb glo   : Fix and Hold
% amb bds   : on
% val thres : 3.0
% antenna1  :                       ( 0.0000  0.0000  1.8000)
% antenna2  :                       ( 0.0000  0.0000  0.0000)
% ref pos   :  28.308069410  -16.499677180  2417.4044
%
% (lat/lon/height=WGS84/ellipsoidal,Q=1:fix,2:float,3:sbas,4:dgps,5:single,6:ppp,ns=# of satellites)
%  GPST                  latitude(deg) longitude(deg)  height(m)   Q  ns   sdn(m)   sde(m)   sdu(m)  sdne(m)  sdeu(m)  sdun(m) age(s)  ratio
2024/05/06 13:11:22.000   28.316434560  -16.458119408  1376.7122   1   8   0.0017   0.0012   0.0385  -0.0005   0.0008  -0.0053  -8.00  465.7
2024/05/06 13:11:23.000   28.316434560  -16.458119408  1376.7123   1   8   0.0017   0.0012   0.0385  -0.0005   0.0008  -0.0053  -7.00  466.5
2024/05/06 13:11:24.000   28.316434560  -16.458119408  1376.7125   1   8   0.0017   0.0012   0.0385  -0.0005   0.0008  -0.0053  -6.00  466.7
2024/05/06 13:11:25.000   28.316434560  -16.458119408  1376.7126   1   8   0.0017   0.0012   0.0385  -0.0005   0.0008  -0.0053  -5.00  467.2
2024/05/06 13:11:26.000   28.316434560  -16.458119408  1376.7127   1   8   0.0017   0.0012   0.0385  -0.0005   0.0008  -0.0053  -4.00  467.7
2024/05/06 13:11:27.000   28.316434560  -16.458119408  1376.7129   1   8   0.0017   0.0012   0.0385  -0.0005   0.0008  -0.0053  -3.00  468.5
2024/05/06 13:11:28.000   28.316434560  -16.458119408  1376.7130   1   8   0.0017   0.0012   0.0385  -0.0005   0.0008  -0.0053  -2.00  469.5
2024/05/06 13:11:29.000   28.316434559  -16.458119408  1376.7130   1   8   0.0017   0.0012   0.0385  -0.0005   0.0008  -0.0053  -1.00  470.6
2024/05/06 13:11:30.000   28.316434559  -16.458119408  1376.7130   1   8   0.0017   0.0012   0.0385  -0.0005   0.0008  -0.0054   0.00  471.1
2024/05/06 13:11:31.000   28.316434559  -16.458119408  1376.7133   1   8   0.0017   0.0012   0.0385  -0.0005   0.0008  -0.0054   1.00  472.0
2024/05/06 13:11:32.000   28.316434559  -16.458119408  1376.7134   1   8   0.0017   0.0012   0.0385  -0.0005   0.0009  -0.0054   2.00  472.7
2024/05/06 13:11:33.000   28.316434558  -16.458119408  1376.7138   1   8   0.0017   0.0012   0.0385  -0.0005   0.0009  -0.0054   3.00  472.9
2024/05/06 13:11:34.000   28.316434558  -16.458119408  1376.7142   1   8   0.0017   0.0012   0.0386  -0.0005   0.0009  -0.0054   4.00  474.2
2024/05/06 13:11:35.000   28.316434558  -16.458119408  1376.7144   1   8   0.0017   0.0012   0.0386  -0.0005   0.0009  -0.0054   5.00  475.1
2024/05/06 13:11:36.000   28.316434558  -16.458119408  1376.7147   1   8   0.0017   0.0012   0.0386  -0.0005   0.0009  -0.0054   6.00  476.0
2024/05/06 13:11:37.000   28.316434557  -16.458119408  1376.7150   1   8   0.0017   0.0012   0.0386  -0.0005   0.0009  -0.0054   7.00  476.7
2024/05/06 13:11:38.000   28.316434557  -16.458119408  1376.7152   1   8   0.0017   0.0012   0.0386  -0.0005   0.0009  -0.0054   8.00  477.6
2024/05/06 13:11:39.000   28.316434557  -16.458119408  1376.7156   1   8   0.0017   0.0012   0.0386  -0.0005   0.0009  -0.0054   9.00  478.2
2024/05/06 13:11:40.000   28.316434557  -16.458119408  1376.7158   1   8   0.0017   0.0012   0.0386  -0.0005   0.0009  -0.0054  10.00  478.6
2024/05/06 13:11:41.000   28.316434557  -16.458119408  1376.7162   1   8   0.0017   0.0012   0.0386  -0.0005   0.0009  -0.0054  11.00  479.0
2024/05/06 13:11:42.000   28.316434557  -16.458119408  1376.7165   1   8   0.0017   0.0012   0.0385  -0.0005   0.0009  -0.0054  12.00  479.3
2024/05/06 13:11:43.000   28.316434557  -16.458119408  1376.7168   1   8   0.0017   0.0012   0.0385  -0.0005   0.0009  -0.0054  13.00  479.5
2024/05/06 13:11:44.000   28.316434556  -16.458119408  1376.7170   1   8   0.0017   0.0012   0.0385  -0.0005   0.0009  -0.0054  14.00  479.6
2024/05/06 13:11:45.000   28.316434556  -16.458119408  1376.7172   1   8   0.0017   0.0012   0.0385  -0.0005   0.0009  -0.0054  15.00  479.8
2024/05/06 13:11:46.000   28.316434556  -16.458119408  1376.7175   1   8   0.0017   0.0012   0.0385  -0.0005   0.0009  -0.0054 -14.00  480.0
2024/05/06 13:11:47.000   28.316434556  -16.458119408  1376.7177   1   8   0.0017   0.0012   0.0385  -0.0005   0.0009  -0.0054 -13.00  480.0
2024/05/06 13:11:48.000   28.316434556  -16.458119408  1376.7179   1   8   0.0017   0.0012   0.0385  -0.0005   0.0009  -0.0054 -12.00  480.0
2024/05/06 13:11:49.000   28.316434556  -16.458119409  1376.7181   1   8   0.0017   0.0012   0.0385  -0.0005   0.0009  -0.0054 -11.00  479.9
2024/05/06 13:11:50.000   28.316434556  -16.458119409  1376.7184   1   8   0.0017   0.0012   0.0385  -0.0005   0.0009  -0.0054 -10.00  479.9
2024/05/06 13:11:51.000   28.316434556  -16.458119409  1376.7186   1   8   0.0017   0.0012   0.0385  -0.0005   0.0009  -0.0054  -9.00  480.0
2024/05/06 13:11:52.000   28.316434555  -16.458119409  1376.7190   1   8   0.0017   0.0012   0.0385  -0.0005   0.0009  -0.0054  -8.00  480.3
2024/05/06 13:11:53.000   28.316434555  -16.458119409  1376.7192   1   8   0.0017   0.0012   0.0385  -0.0005   0.0009  -0.0054  -7.00  480.7
2024/05/06 13:11:54.000   28.316434555  -16.458119409  1376.7194   1   8   0.0017   0.0012   0.0385  -0.0005   0.0009  -0.0054  -6.00  481.2
2024/05/06 13:11:55.000   28.316434555  -16.458119409  1376.7196   1   8   0.0017   0.0012   0.0385  -0.0005   0.0009  -0.0054  -5.00  481.8
2024/05/06 13:11:56.000   28.316434555  -16.458119409  1376.7198   1   8   0.0017   0.0012   0.0385  -0.0005   0.0009  -0.0054  -4.00  482.8
2024/05/06 13:11:57.000   28.316434554  -16.458119409  1376.7201   1   8   0.0017   0.0012   0.0385  -0.0005   0.0009  -0.0054  -3.00  483.7
2024/05/06 13:11:58.000   28.316434554  -16.458119408  1376.7203   1   8   0.0017   0.0012   0.0385  -0.0005   0.0009  -0.0054  -2.00  485.5
2024/05/06 13:11:59.000   28.316434554  -16.458119408  1376.7205   1   8   0.0017   0.0012   0.0385  -0.0005   0.0009  -0.0054  -1.00  486.7
2024/05/06 13:12:00.000   28.316434554  -16.458119409  1376.7207   1   8   0.0017   0.0012   0.0385  -0.0005   0.0009  -0.0054   0.00  488.1
2024/05/06 13:12:01.000   28.316434553  -16.458119409  1376.7209   1   8   0.0017   0.0012   0.0385  -0.0005   0.0010  -0.0054   1.00  490.5
2024/05/06 13:12:02.000   28.316434553  -16.458119409  1376.7211   1   8   0.0017   0.0012   0.0385  -0.0005   0.0010  -0.0054   2.00  492.0
2024/05/06 13:12:03.000   28.316434553  -16.458119409  1376.7212   1   8   0.0017   0.0012   0.0385  -0.0005   0.0010  -0.0054   3.00  493.5
2024/05/06 13:12:04.000   28.316434553  -16.458119409  1376.7212   1   8   0.0017   0.0012   0.0386  -0.0006   0.0010  -0.0054   4.00  494.9
2024/05/06 13:12:05.000   28.316434552  -16.458119409  1376.7214   1   8   0.0017   0.0012   0.0386  -0.0006   0.0010  -0.0054   5.00  496.3
2024/05/06 13:12:06.000   28.316434552  -16.458119409  1376.7217   1   8   0.0017   0.0012   0.0386  -0.0006   0.0010  -0.0055   6.00  497.9
2024/05/06 13:12:07.000   28.316434552  -16.458119409  1376.7219   1   8   0.0017   0.0012   0.0386  -0.0006   0.0010  -0.0055   7.00  498.6
2024/05/06 13:12:08.000   28.316434552  -16.458119409  1376.7221   1   8   0.0017   0.0012   0.0386  -0.0006   0.0010  -0.0055   8.00  499.1
2024/05/06 13:12:09.000   28.316434552  -16.458119409  1376.7224   1   8   0.0017   0.0012   0.0386  -0.0006   0.0010  -0.0055   9.00  499.6
2024/05/06 13:12:10.000   28.316434552  -16.458119409  1376.7226   1   8   0.0017   0.0012   0.0386  -0.0006   0.0010  -0.0055  10.00  499.9
2024/05/06 13:12:11.000   28.316434552  -16.458119409  1376.7228   1   8   0.0017   0.0012   0.0386  -0.0006   0.0010  -0.0055  11.00  499.9
2024/05/06 13:12:12.000   28.316434551  -16.458119408  1376.7230   1   8   0.0017   0.0012   0.0385  -0.0006   0.0010  -0.0055  12.00  499.8
2024/05/06 13:12:13.000   28.316434551  -16.458119408  1376.7232   1   8   0.0017   0.0012   0.0385  -0.0006   0.0010  -0.0055  13.00  499.6
2024/05/06 13:12:14.000   28.316434551  -16.458119408  1376.7236   1   8   0.0017   0.0012   0.0385  -0.0005   0.0010  -0.0055  14.00  499.6
2024/05/06 13:12:15.000   28.316434551  -16.458119408  1376.7238   1   8   0.0017   0.0012   0.0385  -0.0005   0.0010  -0.0055  15.00  499.5
2024/05/06 13:12:16.000   28.316434551  -16.458119408  1376.7240   1   8   0.0017   0.0012   0.0385  -0.0005   0.0010  -0.0055 -14.00  499.4
2024/05/06 13:12:17.000   28.316434551  -16.458119408  1376.7242   1   8   0.0017   0.0012   0.0385  -0.0005   0.0010  -0.0055 -13.00  499.2
2024/05/06 13:12:18.000   28.316434551  -16.458119408  1376.7245   1   8   0.0017   0.0012   0.0385  -0.0005   0.0010  -0.0055 -12.00  498.9
2024/05/06 13:12:19.000   28.316434551  -16.458119408  1376.7247   1   8   0.0017   0.0012   0.0385  -0.0005   0.0010  -0.0055 -11.00  498.6
2024/05/06 13:12:20.000   28.316434551  -16.458119408  1376.7250   1   8   0.0017   0.0012   0.0385  -0.0005   0.0010  -0.0054 -10.00  498.4
2024/05/06 13:12:21.000   28.316434551  -16.458119408  1376.7253   1   8   0.0017   0.0012   0.0385  -0.0005   0.0010  -0.0054  -9.00  498.0
2024/05/06 13:12:22.000   28.316434550  -16.458119408  1376.7255   1   8   0.0017   0.0012   0.0385  -0.0005   0.0010  -0.0054  -8.00  497.8
2024/05/06 13:12:23.000   28.316434550  -16.458119408  1376.7257   1   8   0.0017   0.0012   0.0385  -0.0005   0.0010  -0.0054  -7.00  497.6
2024/05/06 13:12:24.000   28.316434550  -16.458119408  1376.7259   1   8   0.0017   0.0012   0.0385  -0.0005   0.0010  -0.0055  -6.00  497.3
2024/05/06 13:12:25.000   28.316434550  -16.458119408  1376.7261   1   8   0.0017   0.0012   0.0385  -0.0005   0.0010  -0.0055  -5.00  497.2
2024/05/06 13:12:26.000   28.316434550  -16.458119408  1376.7263   1   8   0.0017   0.0012   0.0385  -0.0005   0.0010  -0.0055  -4.00  497.3
2024/05/06 13:12:27.000   28.316434550  -16.458119408  1376.7266   1   8   0.0017   0.0012   0.0385  -0.0005   0.0010  -0.0055  -3.00  496.8
2024/05/06 13:12:28.000   28.316434549  -16.458119408  1376.7267   1   8   0.0017   0.0012   0.0385  -0.0005   0.0010  -0.0055  -2.00  496.2
2024/05/06 13:12:29.000   28.316434549  -16.458119408  1376.7269   1   8   0.0017   0.0012   0.0385  -0.0005   0.0010  -0.0055  -1.00  495.3
2024/05/06 13:12:30.000   28.316434549  -16.458119408  1376.7268   1   8   0.0017   0.0012   0.0385  -0.0006   0.0010  -0.0055   0.00  495.2
2024/05/06 13:12:31.000   28.316434549  -16.458119408  1376.7269   1   8   0.0017   0.0012   0.0385  -0.0006   0.0010  -0.0055   1.00  497.5
2024/05/06 13:12:32.000   28.316434549  -16.458119409  1376.7272   1   8   0.0017   0.0012   0.0385  -0.0006   0.0010  -0.0055   2.00  498.7
2024/05/06 13:12:33.000   28.316434548  -16.458119409  1376.7276   1   8   0.0017   0.0012   0.0386  -0.0006   0.0011  -0.0055   3.00  500.2
2024/05/06 13:12:34.000   28.316434548  -16.458119409  1376.7278   1   8   0.0017   0.0012   0.0386  -0.0006   0.0011  -0.0055   4.00  501.2
2024/05/06 13:12:35.000   28.316434548  -16.458119409  1376.7280   1   8   0.0018   0.0012   0.0386  -0.0006   0.0011  -0.0055   5.00  502.2
2024/05/06 13:12:36.000   28.316434548  -16.458119409  1376.7284   1   8   0.0018   0.0012   0.0386  -0.0006   0.0011  -0.0055   6.00  502.5
2024/05/06 13:12:37.000   28.316434548  -16.458119409  1376.7286   1   8   0.0018   0.0012   0.0386  -0.0006   0.0011  -0.0055   7.00  502.2
2024/05/06 13:12:38.000   28.316434548  -16.458119408  1376.7289   1   8   0.0018   0.0012   0.0386  -0.0006   0.0011  -0.0055   8.00  501.9
2024/05/06 13:12:39.000   28.316434548  -16.458119408  1376.7291   1   8   0.0018   0.0012   0.0386  -0.0006   0.0011  -0.0055   9.00  501.4
2024/05/06 13:12:40.000   28.316434548  -16.458119408  1376.7293   1   8   0.0018   0.0012   0.0386  -0.0006   0.0011  -0.0055  10.00  501.4
2024/05/06 13:12:41.000   28.316434547  -16.458119408  1376.7294   1   8   0.0018   0.0012   0.0386  -0.0006   0.0011  -0.0055  11.00  500.9
2024/05/06 13:12:42.000   28.316434547  -16.458119408  1376.7295   1   8   0.0018   0.0012   0.0386  -0.0006   0.0011  -0.0055  12.00  500.7
2024/05/06 13:12:43.000   28.316434547  -16.458119408  1376.7297   1   8   0.0017   0.0012   0.0385  -0.0006   0.0011  -0.0055  13.00  500.6
2024/05/06 13:12:44.000   28.316434547  -16.458119408  1376.7299   1   8   0.0017   0.0012   0.0385  -0.0006   0.0011  -0.0055  14.00  500.3
2024/05/06 13:12:45.000   28.316434547  -16.458119408  1376.7300   1   8   0.0017   0.0012   0.0385  -0.0006   0.0011  -0.0055  15.00  500.0
2024/05/06 13:12:46.000   28.316434547  -16.458119408  1376.7302   1   8   0.0017   0.0012   0.0385  -0.0006   0.0011  -0.0055 -14.00  499.7
2024/05/06 13:12:47.000   28.316434547  -16.458119408  1376.7303   1   8   0.0017   0.0012   0.0385  -0.0006   0.0011  -0.0055 -13.00  499.4
2024/05/06 13:12:48.000   28.316434547  -16.458119408  1376.7304   1   8   0.0017   0.0012   0.0385  -0.0006   0.0011  -0.0055 -12.00  499.0
2024/05/06 13:12:49.000   28.316434547  -16.458119408  1376.7306   1   8   0.0017   0.0012   0.0385  -0.0006   0.0011  -0.0055 -11.00  498.7
2024/05/06 13:12:50.000   28.316434547  -16.458119408  1376.7308   1   8   0.0017   0.0012   0.0385  -0.0006   0.0011  -0.0055 -10.00  498.5
2024/05/06 13:12:51.000   28.316434547  -16.458119408  1376.7310   1   8   0.0017   0.0012   0.0385  -0.0006   0.0011  -0.0055  -9.00  498.3
2024/05/06 13:12:52.000   28.316434547  -16.458119408  1376.7311   1   8   0.0017   0.0012   0.0385  -0.0006   0.0011  -0.0055  -8.00  497.9
2024/05/06 13:12:53.000   28.316434547  -16.458119408  1376.7313   1   8   0.0017   0.0012   0.0385  -0.0006   0.0011  -0.0055  -7.00  497.6
2024/05/06 13:12:54.000   28.316434547  -16.458119408  1376.7315   1   8   0.0017   0.0012   0.0385  -0.0006   0.0011  -0.0055  -6.00  497.9
2024/05/06 13:12:55.000   28.316434547  -16.458119408  1376.7316   1   8   0.0017   0.0012   0.0385  -0.0006   0.0011  -0.0055  -5.00  498.2
2024/05/06 13:12:56.000   28.316434547  -16.458119408  1376.7317   1   8   0.0017   0.0012   0.0385  -0.0006   0.0011  -0.0055  -4.00  499.4
2024/05/06 13:12:57.000   28.316434547  -16.458119408  1376.7318   1   8   0.0017   0.0012   0.0385  -0.0006   0.0011  -0.0055  -3.00  500.5
2024/05/06 13:12:58.000   28.316434546  -16.458119408  1376.7320   1   8   0.0017   0.0012   0.0385  -0.0006   0.0011  -0.0055  -2.00  502.3
2024/05/06 13:12:59.000   28.316434546  -16.458119409  1376.7320   1   8   0.0017   0.0012   0.0385  -0.0006   0.0011  -0.0055  -1.00  504.2
2024/05/06 13:13:00.000   28.316434546  -16.458119409  1376.7321   1   8   0.0018   0.0012   0.0385  -0.0006   0.0011  -0.0055   0.00  506.7
2024/05/06 13:13:01.000   28.316434546  -16.458119409  1376.7322   1   8   0.0018   0.0012   0.0385  -0.0006   0.0011  -0.0056   1.00  508.3
2024/05/06 13:13:02.000   28.316434546  -16.458119409  1376.7322   1   8   0.0018   0.0012   0.0385  -0.0006   0.0011  -0.0056   2.00  511.4
2024/05/06 13:13:03.000   28.316434547  -16.458119410  1376.7319   1   8   0.0018   0.0012   0.0386  -0.0006   0.0011  -0.0056   3.00  513.5
2024/05/06 13:13:04.000   28.316434547  -16.458119410  1376.7319   1   8   0.0018   0.0012   0.0386  -0.0006   0.0011  -0.0056   4.00  515.6
2024/05/06 13:13:05.000   28.316434547  -16.458119410  1376.7320   1   8   0.0018   0.0012   0.0386  -0.0006   0.0011  -0.0056   5.00  517.1
2024/05/06 13:13:06.000   28.316434547  -16.458119410  1376.7319   1   8   0.0018   0.0012   0.0386  -0.0006   0.0011  -0.0056   6.00  518.2
2024/05/06 13:13:07.000   28.316434547  -16.458119410  1376.7319   1   8   0.0018   0.0012   0.0386  -0.0006   0.0011  -0.0056   7.00  518.7
2024/05/06 13:13:08.000   28.316434547  -16.458119410  1376.7319   1   8   0.0018   0.0012   0.0386  -0.0006   0.0011  -0.0056   8.00  518.7
2024/05/06 13:13:09.000   28.316434547  -16.458119410  1376.7319   1   8   0.0018   0.0012   0.0386  -0.0006   0.0011  -0.0056   9.00  519.0
2024/05/06 13:13:10.000   28.316434547  -16.458119410  1376.7319   1   8   0.0018   0.0012   0.0386  -0.0006   0.0012  -0.0056  10.00  519.3
2024/05/06 13:13:11.000   28.316434547  -16.458119410  1376.7320   1   8   0.0018   0.0012   0.0386  -0.0006   0.0012  -0.0056  11.00  519.6
2024/05/06 13:13:12.000   28.316434546  -16.458119410  1376.7321   1   8   0.0018   0.0012   0.0386  -0.0006   0.0012  -0.0056  12.00  519.6
2024/05/06 13:13:13.000   28.316434546  -16.458119410  1376.7322   1   8   0.0018   0.0012   0.0386  -0.0006   0.0012  -0.0056  13.00  519.6
2024/05/06 13:13:14.000   28.316434546  -16.458119410  1376.7323   1   8   0.0018   0.0012   0.0385  -0.0006   0.0012  -0.0056  14.00  519.5
2024/05/06 13:13:15.000   28.316434546  -16.458119410  1376.7324   1   8   0.0018   0.0012   0.0385  -0.0006   0.0012  -0.0056  15.00  519.4
2024/05/06 13:13:16.000   28.316434546  -16.458119410  1376.7325   1   8   0.0018   0.0012   0.0385  -0.0006   0.0012  -0.0056 -14.00  519.1
2024/05/06 13:13:17.000   28.316434546  -16.458119410  1376.7326   1   8   0.0018   0.0012   0.0385  -0.0006   0.0012  -0.0056 -13.00  518.8
2024/05/06 13:13:18.000   28.316434546  -16.458119410  1376.7326   1   8   0.0018   0.0012   0.0385  -0.0006   0.0012  -0.0056 -12.00  518.6
2024/05/06 13:13:19.000   28.316434546  -16.458119410  1376.7327   1   8   0.0018   0.0012   0.0385  -0.0006   0.0012  -0.0056 -11.00  518.4
2024/05/06 13:13:20.000   28.316434546  -16.458119410  1376.7327   1   8   0.0018   0.0012   0.0385  -0.0006   0.0012  -0.0056 -10.00  518.5
2024/05/06 13:13:21.000   28.316434546  -16.458119410  1376.7327   1   8   0.0018   0.0012   0.0385  -0.0006   0.0012  -0.0056  -9.00  518.4
2024/05/06 13:13:22.000   28.316434546  -16.458119410  1376.7327   1   8   0.0018   0.0012   0.0385  -0.0006   0.0012  -0.0056  -8.00  518.7
2024/05/06 13:13:23.000   28.316434546  -16.458119410  1376.7328   1   8   0.0018   0.0012   0.0385  -0.0006   0.0012  -0.0056  -7.00  518.8
2024/05/06 13:13:24.000   28.316434546  -16.458119410  1376.7328   1   8   0.0018   0.0012   0.0385  -0.0006   0.0012  -0.0056  -6.00  519.2
2024/05/06 13:13:25.000   28.316434547  -16.458119411  1376.7326   1   8   0.0018   0.0012   0.0385  -0.0006   0.0012  -0.0056  -5.00  520.4
2024/05/06 13:13:26.000   28.316434547  -16.458119411  1376.7326   1   8   0.0018   0.0012   0.0385  -0.0006   0.0012  -0.0056  -4.00  521.2
2024/05/06 13:13:27.000   28.316434547  -16.458119411  1376.7325   1   8   0.0018   0.0012   0.0385  -0.0006   0.0012  -0.0056  -3.00  522.6
2024/05/06 13:13:28.000   28.316434547  -16.458119411  1376.7323   1   8   0.0018   0.0012   0.0385  -0.0006   0.0012  -0.0056  -2.00  524.4
2024/05/06 13:13:29.000   28.316434547  -16.458119411  1376.7321   1   8   0.0018   0.0012   0.0385  -0.0006   0.0012  -0.0056  -1.00  526.6
2024/05/06 13:13:30.000   28.316434548  -16.458119412  1376.7318   1   8   0.0018   0.0012   0.0385  -0.0006   0.0012  -0.0056   0.00  529.5
2024/05/06 13:13:31.000   28.316434548  -16.458119412  1376.7314   1   8   0.0018   0.0012   0.0385  -0.0006   0.0012  -0.0056   1.00  532.1
2024/05/06 13:13:32.000   28.316434548  -16.458119412  1376.7310   1   8   0.0018   0.0012   0.0385  -0.0006   0.0012  -0.0056   2.00  534.1
2024/05/06 13:13:33.000   28.316434548  -16.458119413  1376.7308   1   8   0.0018   0.0012   0.0386  -0.0006   0.0012  -0.0056   3.00  535.6
2024/05/06 13:13:34.000   28.316434548  -16.458119413  1376.7306   1   8   0.0018   0.0012   0.0386  -0.0006   0.0012  -0.0056   4.00  536.7
2024/05/06 13:13:35.000   28.316434549  -16.458119413  1376.7305   1   8   0.0018   0.0012   0.0386  -0.0006   0.0012  -0.0056   5.00  537.9
2024/05/06 13:13:36.000   28.316434549  -16.458119413  1376.7306   1   8   0.0018   0.0012   0.0386  -0.0006   0.0012  -0.0056   6.00  538.8
2024/05/06 13:13:37.000   28.316434549  -16.458119414  1376.7307   1   8   0.0018   0.0012   0.0386  -0.0006   0.0012  -0.0056   7.00  540.3
2024/05/06 13:13:38.000   28.316434549  -16.458119414  1376.7307   1   8   0.0018   0.0012   0.0386  -0.0006   0.0012  -0.0056   8.00  540.7
2024/05/06 13:13:39.000   28.316434549  -16.458119414  1376.7308   1   8   0.0018   0.0012   0.0386  -0.0006   0.0012  -0.0056   9.00  541.2
2024/05/06 13:13:40.000   28.316434549  -16.458119414  1376.7310   1   8   0.0018   0.0012   0.0386  -0.0006   0.0012  -0.0056  10.00  541.6
2024/05/06 13:13:41.000   28.316434549  -16.458119414  1376.7312   1   8   0.0018   0.0012   0.0386  -0.0006   0.0012  -0.0056  11.00  541.9
2024/05/06 13:13:42.000   28.316434548  -16.458119414  1376.7315   1   8   0.0018   0.0012   0.0386  -0.0006   0.0012  -0.0056  12.00  542.3
2024/05/06 13:13:43.000   28.316434548  -16.458119414  1376.7317   1   8   0.0018   0.0012   0.0386  -0.0006   0.0012  -0.0056  13.00  542.3
2024/05/06 13:13:44.000   28.316434548  -16.458119414  1376.7319   1   8   0.0018   0.0012   0.0386  -0.0006   0.0012  -0.0056  14.00  541.9
2024/05/06 13:13:45.000   28.316434548  -16.458119414  1376.7321   1   8   0.0018   0.0012   0.0385  -0.0006   0.0012  -0.0056  15.00  541.7
2024/05/06 13:13:46.000   28.316434548  -16.458119414  1376.7323   1   8   0.0018   0.0012   0.0385  -0.0006   0.0012  -0.0056 -14.00  541.6
2024/05/06 13:13:47.000   28.316434548  -16.458119414  1376.7325   1   8   0.0018   0.0012   0.0385  -0.0006   0.0012  -0.0056 -13.00  541.5
2024/05/06 13:13:48.000   28.316434548  -16.458119414  1376.7328   1   8   0.0018   0.0012   0.0385  -0.0006   0.0012  -0.0056 -12.00  541.4
2024/05/06 13:13:49.000   28.316434548  -16.458119414  1376.7329   1   8   0.0018   0.0012   0.0385  -0.0006   0.0012  -0.0056 -11.00  541.5
2024/05/06 13:13:50.000   28.316434548  -16.458119414  1376.7331   1   8   0.0018   0.0012   0.0385  -0.0006   0.0012  -0.0056 -10.00  541.5
2024/05/06 13:13:51.000   28.316434548  -16.458119415  1376.7332   1   8   0.0018   0.0012   0.0385  -0.0006   0.0013  -0.0056  -9.00  541.8
2024/05/06 13:13:52.000   28.316434548  -16.458119415  1376.7333   1   8   0.0018   0.0012   0.0385  -0.0006   0.0013  -0.0056  -8.00  542.3
2024/05/06 13:13:53.000   28.316434548  -16.458119415  1376.7333   1   8   0.0018   0.0012   0.0385  -0.0006   0.0013  -0.0056  -7.00  542.9
2024/05/06 13:13:54.000   28.316434548  -16.458119415  1376.7334   1   8   0.0018   0.0012   0.0385  -0.0006   0.0013  -0.0056  -6.00  543.6
2024/05/06 13:13:55.000   28.316434548  -16.458119415  1376.7335   1   8   0.0018   0.0012   0.0385  -0.0006   0.0013  -0.0056  -5.00  544.3
2024/05/06 13:13:56.000   28.316434548  -16.458119415  1376.7335   1   8   0.0018   0.0012   0.0385  -0.0006   0.0013  -0.0056  -4.00  545.4
2024/05/06 13:13:57.000   28.316434549  -16.458119415  1376.7332   1   8   0.0018   0.0012   0.0385  -0.0006   0.0013  -0.0056  -3.00  546.8
2024/05/06 13:13:58.000   28.316434549  -16.458119416  1376.7329   1   8   0.0018   0.0012   0.0385  -0.0006   0.0013  -0.0057  -2.00  548.5
2024/05/06 13:13:59.000   28.316434549  -16.458119416  1376.7325   1   8   0.0018   0.0012   0.0385  -0.0006   0.0013  -0.0057  -1.00  551.9
2024/05/06 13:14:00.000   28.316434550  -16.458119416  1376.7323   1   8   0.0018   0.0012   0.0385  -0.0006   0.0013  -0.0057   0.00  553.8
2024/05/06 13:14:01.000   28.316434550  -16.458119417  1376.7322   1   8   0.0018   0.0012   0.0385  -0.0006   0.0013  -0.0057   1.00  557.0
2024/05/06 13:14:02.000   28.316434550  -16.458119417  1376.7323   1   8   0.0018   0.0012   0.0386  -0.0006   0.0013  -0.0057   2.00  558.8
2024/05/06 13:14:03.000   28.316434551  -16.458119417  1376.7320   1   8   0.0018   0.0012   0.0386  -0.0006   0.0013  -0.0057   3.00  560.6
2024/05/06 13:14:04.000   28.316434551  -16.458119418  1376.7318   1   8   0.0018   0.0012   0.0386  -0.0006   0.0013  -0.0057   4.00  562.2
2024/05/06 13:14:05.000   28.316434551  -16.458119418  1376.7317   1   8   0.0018   0.0012   0.0386  -0.0006   0.0013  -0.0057   5.00  562.9
2024/05/06 13:14:06.000   28.316434551  -16.458119418  1376.7319   1   8   0.0018   0.0012   0.0386  -0.0006   0.0013  -0.0057   6.00  563.6
2024/05/06 13:14:07.000   28.316434551  -16.458119418  1376.7319   1   8   0.0018   0.0012   0.0386  -0.0006   0.0013  -0.0057   7.00  565.0
2024/05/06 13:14:08.000   28.316434552  -16.458119419  1376.7319   1   8   0.0018   0.0012   0.0386  -0.0006   0.0013  -0.0057   8.00  565.4
2024/05/06 13:14:09.000   28.316434552  -16.458119419  1376.7321   1   8   0.0018   0.0012   0.0386  -0.0006   0.0013  -0.0057   9.00  565.9
2024/05/06 13:14:10.000   28.316434552  -16.458119419  1376.7322   1   8   0.0018   0.0012   0.0386  -0.0006   0.0013  -0.0057  10.00  566.7
2024/05/06 13:14:11.000   28.316434552  -16.458119419  1376.7324   1   8   0.0018   0.0012   0.0386  -0.0006   0.0013  -0.0057  11.00  567.5
2024/05/06 13:14:12.000   28.316434552  -16.458119419  1376.7325   1   8   0.0018   0.0012   0.0386  -0.0006   0.0013  -0.0057  12.00  568.0
2024/05/06 13:14:13.000   28.316434552  -16.458119419  1376.7326   1   8   0.0018   0.0012   0.0386  -0.0006   0.0013  -0.0057  13.00  568.1
2024/05/06 13:14:14.000   28.316434552  -16.458119419  1376.7327   1   8   0.0018   0.0012   0.0386  -0.0006   0.0013  -0.0057  14.00  568.5
2024/05/06 13:14:15.000   28.316434552  -16.458119419  1376.7328   1   8   0.0018   0.0012   0.0386  -0.0006   0.0013  -0.0057  15.00  568.9
2024/05/06 13:14:16.000   28.316434552  -16.458119419  1376.7329   1   8   0.0018   0.0012   0.0385  -0.0006   0.0013  -0.0057 -14.00  568.9
2024/05/06 13:14:17.000   28.316434552  -16.458119419  1376.7330   1   8   0.0018   0.0012   0.0385  -0.0006   0.0013  -0.0057 -13.00  569.1
2024/05/06 13:14:18.000   28.316434552  -16.458119420  1376.7331   1   8   0.0018   0.0012   0.0385  -0.0006   0.0013  -0.0057 -12.00  569.6
2024/05/06 13:14:19.000   28.316434552  -16.458119420  1376.7332   1   8   0.0018   0.0012   0.0385  -0.0006   0.0013  -0.0057 -11.00  570.1
2024/05/06 13:14:20.000   28.316434552  -16.458119420  1376.7333   1   8   0.0018   0.0012   0.0385  -0.0006   0.0013  -0.0057 -10.00  570.9
2024/05/06 13:14:21.000   28.316434552  -16.458119420  1376.7334   1   8   0.0018   0.0012   0.0385  -0.0006   0.0013  -0.0057  -9.00  571.7
2024/05/06 13:14:22.000   28.316434552  -16.458119420  1376.7334   1   8   0.0018   0.0012   0.0385  -0.0006   0.0013  -0.0057  -8.00  572.9
2024/05/06 13:14:23.000   28.316434553  -16.458119420  1376.7334   1   8   0.0018   0.0012   0.0385  -0.0006   0.0013  -0.0057  -7.00  573.9
2024/05/06 13:14:24.000   28.316434553  -16.458119420  1376.7334   1   8   0.0018   0.0012   0.0385  -0.0006   0.0013  -0.0057  -6.00  575.0
2024/05/06 13:14:25.000   28.316434553  -16.458119420  1376.7333   1   8   0.0018   0.0012   0.0385  -0.0006   0.0013  -0.0057  -5.00  576.2
2024/05/06 13:14:26.000   28.316434553  -16.458119420  1376.7331   1   8   0.0018   0.0012   0.0385  -0.0006   0.0013  -0.0057  -4.00  577.4
2024/05/06 13:14:27.000   28.316434554  -16.458119421  1376.7330   1   8   0.0018   0.0012   0.0385  -0.0006   0.0013  -0.0057  -3.00  579.4
2024/05/06 13:14:28.000   28.316434554  -16.458119421  1376.7329   1   8   0.0018   0.0012   0.0385  -0.0006   0.0013  -0.0057  -2.00  581.3
2024/05/06 13:14:29.000   28.316434555  -16.458119421  1376.7325   1   8   0.0018   0.0012   0.0385  -0.0006   0.0013  -0.0057  -1.00  584.7
2024/05/06 13:14:30.000   28.316434556  -16.458119421  1376.7321   1   8   0.0018   0.0012   0.0385  -0.0006   0.0013  -0.0057   0.00  587.7
2024/05/06 13:14:31.000   28.316434557  -16.458119422  1376.7314   1   8   0.0018   0.0012   0.0386  -0.0006   0.0013  -0.0057   1.00  590.0
2024/05/06 13:14:32.000   28.316434557  -16.458119422  1376.7311   1   8   0.0018   0.0012   0.0386  -0.0006   0.0014  -0.0057   2.00  590.4
2024/05/06 13:14:33.000   28.316434558  -16.458119422  1376.7308   1   8   0.0018   0.0012   0.0386  -0.0006   0.0014  -0.0058   3.00  592.8
2024/05/06 13:14:34.000   28.316434559  -16.458119422  1376.7305   1   8   0.0018   0.0012   0.0386  -0.0006   0.0014  -0.0058   4.00  594.0
2024/05/06 13:14:35.000   28.316434559  -16.458119422  1376.7306   1   8   0.0018   0.0012   0.0386  -0.0006   0.0014  -0.0058   5.00  595.1
2024/05/06 13:14:36.000   28.316434559  -16.458119422  1376.7307   1   8   0.0018   0.0012   0.0386  -0.0006   0.0014  -0.0058   6.00  595.2
2024/05/06 13:14:37.000   28.316434559  -16.458119422  1376.7308   1   8   0.0018   0.0012   0.0386  -0.0006   0.0014  -0.0058   7.00  596.0
2024/05/06 13:14:38.000   28.316434559  -16.458119422  1376.7310   1   8   0.0018   0.0012   0.0386  -0.0006   0.0014  -0.0058   8.00  596.2
2024/05/06 13:14:39.000   28.316434560  -16.458119422  1376.7313   1   8   0.0018   0.0012   0.0386  -0.0006   0.0014  -0.0058   9.00  596.8
2024/05/06 13:14:40.000   28.316434560  -16.458119422  1376.7316   1   8   0.0018   0.0012   0.0386  -0.0006   0.0014  -0.0058  10.00  596.5
2024/05/06 13:14:41.000   28.316434560  -16.458119422  1376.7320   1   8   0.0018   0.0012   0.0386  -0.0006   0.0014  -0.0058  11.00  596.3
2024/05/06 13:14:42.000   28.316434560  -16.458119422  1376.7322   1   8   0.0018   0.0012   0.0386  -0.0006   0.0014  -0.0058  12.00  596.1
2024/05/06 13:14:43.000   28.316434560  -16.458119422  1376.7325   1   8   0.0018   0.0012   0.0386  -0.0006   0.0014  -0.0058  13.00  595.9
2024/05/06 13:14:44.000   28.316434559  -16.458119422  1376.7328   1   8   0.0018   0.0012   0.0386  -0.0006   0.0014  -0.0058  14.00  595.5
2024/05/06 13:14:45.000   28.316434559  -16.458119422  1376.7331   1   8   0.0018   0.0012   0.0386  -0.0006   0.0014  -0.0058  15.00  595.2
2024/05/06 13:14:46.000   28.316434559  -16.458119422  1376.7333   1   8   0.0018   0.0012   0.0386  -0.0006   0.0014  -0.0058 -14.00  594.7
2024/05/06 13:14:47.000   28.316434559  -16.458119422  1376.7336   1   8   0.0018   0.0012   0.0386  -0.0006   0.0014  -0.0058 -13.00  594.4
2024/05/06 13:14:48.000   28.316434559  -16.458119422  1376.7338   1   8   0.0018   0.0012   0.0385  -0.0006   0.0014  -0.0058 -12.00  593.8
2024/05/06 13:14:49.000   28.316434559  -16.458119422  1376.7341   1   8   0.0018   0.0012   0.0385  -0.0006   0.0014  -0.0058 -11.00  593.4
2024/05/06 13:14:50.000   28.316434559  -16.458119422  1376.7343   1   8   0.0018   0.0012   0.0385  -0.0006   0.0014  -0.0058 -10.00  593.1
2024/05/06 13:14:51.000   28.316434559  -16.458119422  1376.7345   1   8   0.0018   0.0012   0.0385  -0.0006   0.0014  -0.0058  -9.00  592.5
2024/05/06 13:14:52.000   28.316434560  -16.458119422  1376.7346   1   8   0.0018   0.0012   0.0385  -0.0006   0.0014  -0.0058  -8.00  592.3
2024/05/06 13:14:53.000   28.316434560  -16.458119422  1376.7348   1   8   0.0018   0.0012   0.0385  -0.0006   0.0014  -0.0058  -7.00  591.7
2024/05/06 13:14:54.000   28.316434560  -16.458119421  1376.7350   1   8   0.0018   0.0012   0.0385  -0.0006   0.0014  -0.0058  -6.00  591.0
2024/05/06 13:14:55.000   28.316434560  -16.458119422  1376.7352   1   8   0.0018   0.0012   0.0385  -0.0006   0.0014  -0.0058  -5.00  590.5
2024/05/06 13:14:56.000   28.316434560  -16.458119422  1376.7354   1   8   0.0018   0.0012   0.0385  -0.0006   0.0014  -0.0058  -4.00  590.2
2024/05/06 13:14:57.000   28.316434560  -16.458119422  1376.7355   1   8   0.0018   0.0012   0.0385  -0.0006   0.0014  -0.0058  -3.00  590.1
2024/05/06 13:14:58.000   28.316434561  -16.458119422  1376.7354   1   8   0.0018   0.0012   0.0385  -0.0006   0.0014  -0.0058  -2.00  589.5
2024/05/06 13:14:59.000   28.316434562  -16.458119422  1376.7353   1   8   0.0018   0.0012   0.0385  -0.0006   0.0014  -0.0058  -1.00  588.8
2024/05/06 13:15:00.000   28.316434562  -16.458119422  1376.7351   1   8   0.0018   0.0012   0.0386  -0.0006   0.0014  -0.0058   0.00  588.3
2024/05/06 13:15:01.000   28.316434563  -16.458119422  1376.7351   1   8   0.0018   0.0012   0.0386  -0.0006   0.0014  -0.0058   1.00  588.9
2024/05/06 13:15:02.000   28.316434563  -16.458119422  1376.7350   1   8   0.0018   0.0012   0.0386  -0.0006   0.0014  -0.0058   2.00  590.0
2024/05/06 13:15:03.000   28.316434564  -16.458119422  1376.7348   1   8   0.0018   0.0012   0.0386  -0.0006   0.0014  -0.0058   3.00  591.7
2024/05/06 13:15:04.000   28.316434565  -16.458119423  1376.7347   1   8   0.0018   0.0012   0.0386  -0.0006   0.0014  -0.0058   4.00  592.8
2024/05/06 13:15:05.000   28.316434565  -16.458119423  1376.7346   1   8   0.0018   0.0012   0.0386  -0.0006   0.0014  -0.0058   5.00  594.3
2024/05/06 13:15:06.000   28.316434565  -16.458119423  1376.7348   1   8   0.0018   0.0012   0.0386  -0.0006   0.0014  -0.0058   6.00  594.6
2024/05/06 13:15:07.000   28.316434565  -16.458119423  1376.7347   1   8   0.0018   0.0012   0.0386  -0.0006   0.0014  -0.0058   7.00  594.5
2024/05/06 13:15:08.000   28.316434566  -16.458119423  1376.7348   1   8   0.0018   0.0012   0.0386  -0.0006   0.0014  -0.0058   8.00  595.2
2024/05/06 13:15:09.000   28.316434566  -16.458119423  1376.7350   1   8   0.0018   0.0012   0.0386  -0.0006   0.0014  -0.0058   9.00  595.7
2024/05/06 13:15:10.000   28.316434566  -16.458119424  1376.7352   1   8   0.0018   0.0012   0.0386  -0.0006   0.0014  -0.0058  10.00  595.3
2024/05/06 13:15:11.000   28.316434566  -16.458119424  1376.7354   1   8   0.0018   0.0012   0.0386  -0.0006   0.0014  -0.0058  11.00  594.9
2024/05/06 13:15:12.000   28.316434566  -16.458119424  1376.7356   1   8   0.0018   0.0012   0.0386  -0.0006   0.0014  -0.0058  12.00  594.6
2024/05/06 13:15:13.000   28.316434566  -16.458119424  1376.7357   1   8   0.0018   0.0012   0.0386  -0.0006   0.0014  -0.0058  13.00  593.9
2024/05/06 13:15:14.000   28.316434566  -16.458119424  1376.7359   1   8   0.0018   0.0012   0.0386  -0.0006   0.0014  -0.0058  14.00  593.5
2024/05/06 13:15:15.000   28.316434566  -16.458119424  1376.7361   1   8   0.0018   0.0012   0.0386  -0.0006   0.0014  -0.0058  15.00  592.9
2024/05/06 13:15:16.000   28.316434566  -16.458119424  1376.7362   1   8   0.0018   0.0012   0.0386  -0.0006   0.0014  -0.0058 -14.00  592.3
2024/05/06 13:15:17.000   28.316434566  -16.458119424  1376.7364   1   8   0.0018   0.0012   0.0386  -0.0006   0.0014  -0.0058 -13.00  591.8
2024/05/06 13:15:18.000   28.316434566  -16.458119424  1376.7365   1   8   0.0018   0.0012   0.0386  -0.0006   0.0014  -0.0058 -12.00  591.3
2024/05/06 13:15:19.000   28.316434567  -16.458119424  1376.7367   1   8   0.0018   0.0012   0.0386  -0.0006   0.0014  -0.0058 -11.00  590.8
2024/05/06 13:15:20.000   28.316434567  -16.458119424  1376.7368   1   8   0.0018   0.0012   0.0386  -0.0006   0.0014  -0.0058 -10.00  590.3
2024/05/06 13:15:21.000   28.316434567  -16.458119424  1376.7369   1   8   0.0018   0.0012   0.0385  -0.0006   0.0014  -0.0058  -9.00  589.5
2024/05/06 13:15:22.000   28.316434567  -16.458119424  1376.7369   1   8   0.0018   0.0012   0.0385  -0.0006   0.0015  -0.0058  -8.00  588.6
2024/05/06 13:15:23.000   28.316434567  -16.458119424  1376.7370   1   8   0.0018   0.0012   0.0385  -0.0006   0.0015  -0.0058  -7.00  588.1
2024/05/06 13:15:24.000   28.316434568  -16.458119424  1376.7370   1   8   0.0018   0.0012   0.0385  -0.0006   0.0015  -0.0058  -6.00  587.7
2024/05/06 13:15:25.000   28.316434568  -16.458119424  1376.7370   1   8   0.0018   0.0012   0.0385  -0.0006   0.0015  -0.0058  -5.00  586.7
2024/05/06 13:15:26.000   28.316434568  -16.458119424  1376.7369   1   8   0.0018   0.0012   0.0385  -0.0006   0.0015  -0.0058  -4.00  585.5
2024/05/06 13:15:27.000   28.316434569  -16.458119424  1376.7367   1   8   0.0018   0.0012   0.0385  -0.0006   0.0015  -0.0058  -3.00  584.2
2024/05/06 13:15:28.000   28.316434570  -16.458119424  1376.7365   1   8   0.0018   0.0012   0.0385  -0.0006   0.0015  -0.0058  -2.00  582.7
2024/05/06 13:15:29.000   28.316434570  -16.458119424  1376.7360   1   8   0.0018   0.0012   0.0386  -0.0006   0.0015  -0.0058  -1.00  581.8
2024/05/06 13:15:30.000   28.316434572  -16.458119424  1376.7354   1   8   0.0018   0.0012   0.0386  -0.0006   0.0015  -0.0058   0.00  579.9
2024/05/06 13:15:31.000   28.316434573  -16.458119425  1376.7348   1   8   0.0018   0.0012   0.0386  -0.0006   0.0015  -0.0059   1.00  577.8
2024/05/06 13:15:32.000   28.316434573  -16.458119425  1376.7343   1   8   0.0018   0.0012   0.0386  -0.0006   0.0015  -0.0059   2.00  575.3
2024/05/06 13:15:33.000   28.316434574  -16.458119425  1376.7338   1   8   0.0018   0.0012   0.0386  -0.0006   0.0015  -0.0059   3.00  575.0
2024/05/06 13:15:34.000   28.316434575  -16.458119425  1376.7333   1   8   0.0018   0.0012   0.0387  -0.0006   0.0015  -0.0059   4.00  573.9
2024/05/06 13:15:35.000   28.316434575  -16.458119425  1376.7333   1   8   0.0018   0.0012   0.0387  -0.0006   0.0015  -0.0059   5.00  572.2
2024/05/06 13:15:36.000   28.316434575  -16.458119425  1376.7333   1   8   0.0018   0.0012   0.0387  -0.0006   0.0015  -0.0059   6.00  570.9
2024/05/06 13:15:37.000   28.316434576  -16.458119425  1376.7334   1   8   0.0018   0.0012   0.0387  -0.0006   0.0015  -0.0059   7.00  568.6
2024/05/06 13:15:38.000   28.316434576  -16.458119425  1376.7335   1   8   0.0018   0.0012   0.0387  -0.0006   0.0015  -0.0059   8.00  567.0
2024/05/06 13:15:39.000   28.316434576  -16.458119425  1376.7334   1   8   0.0018   0.0012   0.0387  -0.0006   0.0015  -0.0059   9.00  565.0
2024/05/06 13:15:40.000   28.316434576  -16.458119425  1376.7335   1   8   0.0018   0.0012   0.0387  -0.0006   0.0015  -0.0059  10.00  563.8
2024/05/06 13:15:41.000   28.316434576  -16.458119425  1376.7336   1   8   0.0018   0.0012   0.0387  -0.0006   0.0015  -0.0059  11.00  562.8
2024/05/06 13:15:42.000   28.316434576  -16.458119425  1376.7337   1   8   0.0018   0.0012   0.0386  -0.0006   0.0015  -0.0059  12.00  561.5
2024/05/06 13:15:43.000   28.316434576  -16.458119425  1376.7338   1   8   0.0018   0.0012   0.0386  -0.0006   0.0015  -0.0059  13.00  560.6
2024/05/06 13:15:44.000   28.316434576  -16.458119425  1376.7340   1   8   0.0018   0.0012   0.0386  -0.0006   0.0015  -0.0059  14.00  560.1
2024/05/06 13:15:45.000   28.316434576  -16.458119425  1376.7341   1   8   0.0018   0.0012   0.0386  -0.0006   0.0015  -0.0059  15.00  559.4
2024/05/06 13:15:46.000   28.316434576  -16.458119425  1376.7343   1   8   0.0018   0.0012   0.0386  -0.0006   0.0015  -0.0059 -14.00  558.9
2024/05/06 13:15:47.000   28.316434576  -16.458119425  1376.7345   1   8   0.0018   0.0012   0.0386  -0.0006   0.0015  -0.0059 -13.00  558.1
2024/05/06 13:15:48.000   28.316434576  -16.458119424  1376.7346   1   8   0.0018   0.0012   0.0386  -0.0006   0.0015  -0.0059 -12.00  557.6
2024/05/06 13:15:49.000   28.316434576  -16.458119424  1376.7348   1   8   0.0018   0.0012   0.0386  -0.0006   0.0015  -0.0059 -11.00  557.3
2024/05/06 13:15:50.000   28.316434576  -16.458119424  1376.7348   1   8   0.0018   0.0012   0.0386  -0.0006   0.0015  -0.0059 -10.00  556.6
2024/05/06 13:15:51.000   28.316434576  -16.458119424  1376.7349   1   8   0.0018   0.0012   0.0386  -0.0006   0.0015  -0.0059  -9.00  556.1
2024/05/06 13:15:52.000   28.316434576  -16.458119424  1376.7350   1   8   0.0018   0.0012   0.0386  -0.0006   0.0015  -0.0059  -8.00  555.5
2024/05/06 13:15:53.000   28.316434576  -16.458119424  1376.7351   1   8   0.0018   0.0012   0.0386  -0.0006   0.0015  -0.0059  -7.00  555.0
2024/05/06 13:15:54.000   28.316434577  -16.458119424  1376.7351   1   8   0.0018   0.0012   0.0386  -0.0006   0.0015  -0.0059  -6.00  554.4
2024/05/06 13:15:55.000   28.316434577  -16.458119424  1376.7352   1   8   0.0018   0.0012   0.0386  -0.0006   0.0015  -0.0059  -5.00  553.6
2024/05/06 13:15:56.000   28.316434577  -16.458119424  1376.7353   1   8   0.0018   0.0012   0.0386  -0.0006   0.0015  -0.0059  -4.00  552.4
2024/05/06 13:15:57.000   28.316434577  -16.458119424  1376.7351   1   8   0.0018   0.0012   0.0386  -0.0006   0.0015  -0.0059  -3.00  552.0
2024/05/06 13:15:58.000   28.316434578  -16.458119425  1376.7349   1   8   0.0018   0.0012   0.0386  -0.0006   0.0015  -0.0059  -2.00  551.7
2024/05/06 13:15:59.000   28.316434579  -16.458119425  1376.7346   1   8   0.0018   0.0012   0.0386  -0.0006   0.0015  -0.0059  -1.00  550.3
2024/05/06 13:16:00.000   28.316434579  -16.458119425  1376.7345   1   8   0.0018   0.0012   0.0386  -0.0006   0.0015  -0.0059   0.00  549.7
2024/05/06 13:16:01.000   28.316434580  -16.458119425  1376.7341   1   8   0.0018   0.0012   0.0386  -0.0006   0.0015  -0.0059   1.00  547.9
2024/05/06 13:16:02.000   28.316434581  -16.458119425  1376.7345   1   8   0.0018   0.0012   0.0387  -0.0006   0.0015  -0.0059   2.00  548.5
2024/05/06 13:16:03.000   28.316434581  -16.458119425  1376.7346   1   8   0.0018   0.0012   0.0387  -0.0006   0.0015  -0.0059   3.00  547.5
2024/05/06 13:16:04.000   28.316434582  -16.458119425  1376.7346   1   8   0.0018   0.0012   0.0387  -0.0006   0.0015  -0.0059   4.00  545.7
2024/05/06 13:16:05.000   28.316434582  -16.458119425  1376.7349   1   8   0.0018   0.0012   0.0387  -0.0006   0.0015  -0.0059   5.00  545.5
2024/05/06 13:16:06.000   28.316434582  -16.458119425  1376.7352   1   8   0.0018   0.0012   0.0387  -0.0006   0.0015  -0.0059   6.00  545.4
2024/05/06 13:16:07.000   28.316434583  -16.458119425  1376.7355   1   8   0.0018   0.0012   0.0387  -0.0006   0.0015  -0.0059   7.00  545.0
2024/05/06 13:16:08.000   28.316434583  -16.458119425  1376.7357   1   8   0.0018   0.0012   0.0387  -0.0006   0.0015  -0.0059   8.00  544.5
2024/05/06 13:16:09.000   28.316434583  -16.458119425  1376.7360   1   8   0.0018   0.0012   0.0387  -0.0006   0.0015  -0.0059   9.00  543.6
2024/05/06 13:16:10.000   28.316434583  -16.458119425  1376.7361   1   8   0.0018   0.0012   0.0387  -0.0006   0.0015  -0.0059  10.00  542.4
2024/05/06 13:16:11.000   28.316434583  -16.458119426  1376.7364   1   8   0.0018   0.0012   0.0387  -0.0006   0.0015  -0.0059  11.00  541.7
2024/05/06 13:16:12.000   28.316434583  -16.458119426  1376.7367   1   8   0.0018   0.0012   0.0387  -0.0006   0.0015  -0.0059  12.00  541.1
2024/05/06 13:16:13.000   28.316434583  -16.458119426  1376.7370   1   8   0.0018   0.0012   0.0387  -0.0006   0.0016  -0.0059  13.00  540.4
2024/05/06 13:16:14.000   28.316434583  -16.458119426  1376.7372   1   8   0.0018   0.0012   0.0387  -0.0006   0.0016  -0.0059  14.00  539.5
2024/05/06 13:16:15.000   28.316434583  -16.458119426  1376.7375   1   8   0.0018   0.0012   0.0387  -0.0006   0.0016  -0.0059  15.00  538.8
2024/05/06 13:16:16.000   28.316434583  -16.458119426  1376.7377   1   8   0.0018   0.0012   0.0386  -0.0006   0.0016  -0.0059 -14.00  538.1
2024/05/06 13:16:17.000   28.316434583  -16.458119426  1376.7379   1   8   0.0018   0.0012   0.0386  -0.0006   0.0016  -0.0059 -13.00  537.4
2024/05/06 13:16:18.000   28.316434583  -16.458119426  1376.7382   1   8   0.0018   0.0012   0.0386  -0.0006   0.0016  -0.0059 -12.00  536.8
2024/05/06 13:16:19.000   28.316434583  -16.458119425  1376.7384   1   8   0.0018   0.0012   0.0386  -0.0006   0.0016  -0.0059 -11.00  535.5
2024/05/06 13:16:20.000   28.316434583  -16.458119425  1376.7386   1   8   0.0018   0.0012   0.0386  -0.0006   0.0016  -0.0059 -10.00  534.4
2024/05/06 13:16:21.000   28.316434583  -16.458119425  1376.7389   1   8   0.0018   0.0012   0.0386  -0.0006   0.0016  -0.0059  -9.00  533.8
2024/05/06 13:16:22.000   28.316434583  -16.458119425  1376.7391   1   8   0.0018   0.0012   0.0386  -0.0006   0.0016  -0.0059  -8.00  532.8
2024/05/06 13:16:23.000   28.316434583  -16.458119425  1376.7394   1   8   0.0018   0.0012   0.0386  -0.0006   0.0016  -0.0059  -7.00  531.5
2024/05/06 13:16:24.000   28.316434583  -16.458119425  1376.7395   1   8   0.0018   0.0012   0.0386  -0.0006   0.0016  -0.0059  -6.00  530.2
2024/05/06 13:16:25.000   28.316434584  -16.458119425  1376.7398   1   8   0.0018   0.0012   0.0386  -0.0006   0.0016  -0.0059  -5.00  528.6
2024/05/06 13:16:26.000   28.316434584  -16.458119425  1376.7399   1   8   0.0018   0.0012   0.0386  -0.0006   0.0016  -0.0059  -4.00  527.2
2024/05/06 13:16:27.000   28.316434584  -16.458119425  1376.7399   1   8   0.0018   0.0012   0.0386  -0.0006   0.0016  -0.0059  -3.00  525.0
2024/05/06 13:16:28.000   28.316434585  -16.458119425  1376.7399   1   8   0.0018   0.0012   0.0386  -0.0006   0.0016  -0.0060  -2.00  522.9
2024/05/06 13:16:29.000   28.316434585  -16.458119425  1376.7396   1   8   0.0018   0.0012   0.0386  -0.0006   0.0016  -0.0060  -1.00  520.4
2024/05/06 13:16:30.000   28.316434586  -16.458119425  1376.7393   1   8   0.0018   0.0012   0.0386  -0.0006   0.0016  -0.0060   0.00  517.9
2024/05/06 13:16:31.000   28.316434587  -16.458119424  1376.7391   1   8   0.0018   0.0012   0.0387  -0.0006   0.0016  -0.0060   1.00  516.7
2024/05/06 13:16:32.000   28.316434588  -16.458119424  1376.7393   1   8   0.0018   0.0012   0.0387  -0.0006   0.0016  -0.0060   2.00  514.8
2024/05/06 13:16:33.000   28.316434588  -16.458119424  1376.7395   1   8   0.0018   0.0012   0.0387  -0.0006   0.0016  -0.0060   3.00  512.1
2024/05/06 13:16:34.000   28.316434589  -16.458119424  1376.7398   1   8   0.0018   0.0012   0.0387  -0.0006   0.0016  -0.0060   4.00  510.7
2024/05/06 13:16:35.000   28.316434589  -16.458119424  1376.7401   1   8   0.0018   0.0012   0.0387  -0.0006   0.0016  -0.0060   5.00  509.6
2024/05/06 13:16:36.000   28.316434589  -16.458119424  1376.7406   1   8   0.0018   0.0012   0.0387  -0.0006   0.0016  -0.0060   6.00  509.5
2024/05/06 13:16:37.000   28.316434589  -16.458119424  1376.7411   1   8   0.0018   0.0012   0.0387  -0.0006   0.0016  -0.0060   7.00  508.7
2024/05/06 13:16:38.000   28.316434589  -16.458119425  1376.7415   1   8   0.0018   0.0012   0.0387  -0.0006   0.0016  -0.0060   8.00  508.3
2024/05/06 13:16:39.000   28.316434589  -16.458119425  1376.7420   1   8   0.0018   0.0012   0.0387  -0.0006   0.0016  -0.0060   9.00  508.2
2024/05/06 13:16:40.000   28.316434589  -16.458119425  1376.7424   1   8   0.0018   0.0012   0.0387  -0.0006   0.0016  -0.0060  10.00  507.6
2024/05/06 13:16:41.000   28.316434590  -16.458119425  1376.7428   1   8   0.0018   0.0012   0.0387  -0.0006   0.0016  -0.0060  11.00  507.4
2024/05/06 13:16:42.000   28.316434590  -16.458119425  1376.7431   1   8   0.0018   0.0012   0.0387  -0.0006   0.0016  -0.0060  12.00  506.6
2024/05/06 13:16:43.000   28.316434590  -16.458119425  1376.7434   1   8   0.0018   0.0012   0.0387  -0.0006   0.0016  -0.0060  13.00  506.2
2024/05/06 13:16:44.000   28.316434590  -16.458119425  1376.7438   1   8   0.0018   0.0012   0.0387  -0.0006   0.0016  -0.0060  14.00  506.0
2024/05/06 13:16:45.000   28.316434590  -16.458119425  1376.7441   1   8   0.0018   0.0012   0.0387  -0.0006   0.0016  -0.0060  15.00  505.5
2024/05/06 13:16:46.000   28.316434590  -16.458119425  1376.7443   1   8   0.0018   0.0012   0.0387  -0.0006   0.0016  -0.0060 -14.00  504.9
2024/05/06 13:16:47.000   28.316434590  -16.458119425  1376.7446   1   8   0.0018   0.0012   0.0387  -0.0006   0.0016  -0.0060 -13.00  504.4
2024/05/06 13:16:48.000   28.316434590  -16.458119425  1376.7449   1   8   0.0018   0.0012   0.0387  -0.0006   0.0016  -0.0060 -12.00  503.8
2024/05/06 13:16:49.000   28.316434590  -16.458119425  1376.7451   1   8   0.0018   0.0012   0.0387  -0.0006   0.0016  -0.0060 -11.00  503.2
2024/05/06 13:16:50.000   28.316434590  -16.458119425  1376.7453   1   8   0.0018   0.0012   0.0387  -0.0006   0.0016  -0.0060 -10.00  502.4
2024/05/06 13:16:51.000   28.316434590  -16.458119425  1376.7456   1   8   0.0018   0.0012   0.0386  -0.0006   0.0016  -0.0060  -9.00  501.5
2024/05/06 13:16:52.000   28.316434590  -16.458119425  1376.7458   1   8   0.0018   0.0012   0.0386  -0.0006   0.0016  -0.0060  -8.00  500.5
2024/05/06 13:16:53.000   28.316434590  -16.458119425  1376.7461   1   8   0.0018   0.0012   0.0386  -0.0006   0.0016  -0.0060  -7.00  499.2
2024/05/06 13:16:54.000   28.316434590  -16.458119425  1376.7462   1   8   0.0018   0.0012   0.0386  -0.0006   0.0016  -0.0060  -6.00  497.9
2024/05/06 13:16:55.000   28.316434590  -16.458119425  1376.7464   1   8   0.0018   0.0012   0.0386  -0.0006   0.0016  -0.0060  -5.00  496.2
2024/05/06 13:16:56.000   28.316434591  -16.458119425  1376.7465   1   8   0.0018   0.0012   0.0386  -0.0006   0.0016  -0.0060  -4.00  494.0
2024/05/06 13:16:57.000   28.316434591  -16.458119425  1376.7466   1   8   0.0018   0.0012   0.0386  -0.0006   0.0016  -0.0060  -3.00  491.2
2024/05/06 13:16:58.000   28.316434591  -16.458119425  1376.7467   1   8   0.0018   0.0012   0.0387  -0.0006   0.0016  -0.0060  -2.00  488.4
2024/05/06 13:16:59.000   28.316434592  -16.458119424  1376.7466   1   8   0.0018   0.0012   0.0387  -0.0006   0.0016  -0.0060  -1.00  485.6
2024/05/06 13:17:00.000   28.316434592  -16.458119424  1376.7468   1   8   0.0018   0.0012   0.0387  -0.0006   0.0016  -0.0060   0.00  482.3
2024/05/06 13:17:01.000   28.316434592  -16.458119424  1376.7468   1   7   0.0019   0.0012   0.0387  -0.0006   0.0016  -0.0060   1.00  478.1
2024/05/06 13:17:02.000   28.316434593  -16.458119424  1376.7468   1   7   0.0019   0.0013   0.0387  -0.0006   0.0016  -0.0060   2.00  474.5
2024/05/06 13:17:03.000   28.316434593  -16.458119424  1376.7471   1   7   0.0019   0.0013   0.0387  -0.0006   0.0016  -0.0061   3.00  470.0
2024/05/06 13:17:04.000   28.316434553  -16.458119412  1376.7417   1   7   0.0015   0.0010   0.0358  -0.0004   0.0017  -0.0048   4.00    5.4
2024/05/06 13:17:05.000   28.316434553  -16.458119412  1376.7419   1   7   0.0015   0.0010   0.0358  -0.0004   0.0017  -0.0048   5.00    5.4
2024/05/06 13:17:06.000   28.316434553  -16.458119412  1376.7419   1   7   0.0015   0.0010   0.0358  -0.0004   0.0017  -0.0048   6.00    5.5
2024/05/06 13:17:07.000   28.316434553  -16.458119412  1376.7419   1   7   0.0015   0.0010   0.0358  -0.0004   0.0017  -0.0048   7.00    5.5
2024/05/06 13:17:08.000   28.316434554  -16.458119412  1376.7418   1   7   0.0015   0.0010   0.0358  -0.0004   0.0017  -0.0048   8.00    5.6
2024/05/06 13:17:09.000   28.316434554  -16.458119412  1376.7419   1   7   0.0015   0.0010   0.0358  -0.0004   0.0017  -0.0048   9.00    5.6
2024/05/06 13:17:10.000   28.316434554  -16.458119412  1376.7419   1   7   0.0015   0.0010   0.0358  -0.0004   0.0017  -0.0048  10.00    5.6
2024/05/06 13:17:11.000   28.316434554  -16.458119412  1376.7419   1   7   0.0015   0.0010   0.0358  -0.0004   0.0017  -0.0048  11.00    5.6
2024/05/06 13:17:12.000   28.316434554  -16.458119412  1376.7419   1   7   0.0015   0.0010   0.0358  -0.0004   0.0017  -0.0048  12.00    5.7
2024/05/06 13:17:13.000   28.316434554  -16.458119412  1376.7419   1   7   0.0015   0.0010   0.0358  -0.0004   0.0017  -0.0048  13.00    5.7
2024/05/06 13:17:14.000   28.316434554  -16.458119412  1376.7419   1   7   0.0015   0.0010   0.0358  -0.0004   0.0017  -0.0048  14.00    5.7
2024/05/06 13:17:15.000   28.316434554  -16.458119412  1376.7420   1   7   0.0015   0.0010   0.0358  -0.0004   0.0017  -0.0048 -15.00    5.8
2024/05/06 13:17:16.000   28.316434554  -16.458119412  1376.7424   1   7   0.0015   0.0010   0.0357  -0.0004   0.0017  -0.0048 -14.00    3.5
2024/05/06 13:17:17.000   28.316434554  -16.458119412  1376.7425   1   7   0.0015   0.0010   0.0357  -0.0004   0.0017  -0.0048 -13.00    3.5
2024/05/06 13:17:18.000   28.316434554  -16.458119412  1376.7424   1   7   0.0015   0.0010   0.0357  -0.0004   0.0017  -0.0048 -12.00    3.5
2024/05/06 13:17:19.000   28.316434554  -16.458119412  1376.7425   1   7   0.0015   0.0010   0.0357  -0.0004   0.0017  -0.0048 -11.00    3.5
2024/05/06 13:17:20.000   28.316434554  -16.458119412  1376.7425   1   7   0.0015   0.0010   0.0357  -0.0004   0.0017  -0.0048 -10.00    3.5
2024/05/06 13:17:21.000   28.316434554  -16.458119412  1376.7425   1   7   0.0015   0.0010   0.0357  -0.0004   0.0017  -0.0048  -9.00    3.5
2024/05/06 13:17:22.000   28.316434555  -16.458119412  1376.7424   1   7   0.0015   0.0010   0.0357  -0.0004   0.0017  -0.0048  -8.00    3.5
2024/05/06 13:17:23.000   28.316434555  -16.458119412  1376.7424   1   7   0.0015   0.0010   0.0356  -0.0004   0.0017  -0.0048  -7.00    3.5
2024/05/06 13:17:24.000   28.316434555  -16.458119412  1376.7422   1   7   0.0015   0.0010   0.0356  -0.0004   0.0017  -0.0048  -6.00    4.5
2024/05/06 13:17:25.000   28.316434555  -16.458119413  1376.7422   1   7   0.0015   0.0010   0.0356  -0.0004   0.0017  -0.0048  -5.00    5.4
2024/05/06 13:17:26.000   28.316434555  -16.458119413  1376.7420   1   7   0.0015   0.0010   0.0356  -0.0004   0.0017  -0.0048  -4.00    6.4
2024/05/06 13:17:27.000   28.316434555  -16.458119413  1376.7418   1   7   0.0015   0.0010   0.0356  -0.0004   0.0017  -0.0048  -3.00    7.3
2024/05/06 13:17:28.000   28.316434555  -16.458119413  1376.7414   1   7   0.0015   0.0010   0.0348  -0.0005   0.0013  -0.0049  -2.00    3.3
2024/05/06 13:17:29.000   28.316434555  -16.458119413  1376.7411   1   7   0.0015   0.0010   0.0348  -0.0005   0.0013  -0.0049  -1.00    3.8
2024/05/06 13:17:30.000   28.316434556  -16.458119413  1376.7407   1   7   0.0015   0.0010   0.0348  -0.0005   0.0013  -0.0049   0.00    4.3
2024/05/06 13:17:31.000   28.316434556  -16.458119413  1376.7402   1   7   0.0015   0.0010   0.0348  -0.0005   0.0013  -0.0049   1.00    4.8
2024/05/06 13:17:32.000   28.316434556  -16.458119413  1376.7400   1   7   0.0015   0.0010   0.0348  -0.0005   0.0013  -0.0049   2.00    5.4
2024/05/06 13:17:33.000   28.316434556  -16.458119413  1376.7399   1   7   0.0015   0.0010   0.0348  -0.0005   0.0013  -0.0049   3.00    5.9
2024/05/06 13:17:34.000   28.316434556  -16.458119413  1376.7398   1   7   0.0015   0.0010   0.0348  -0.0005   0.0013  -0.0049   4.00    6.4
2024/05/06 13:17:35.000   28.316434556  -16.458119413  1376.7397   1   7   0.0015   0.0010   0.0347  -0.0005   0.0013  -0.0049   5.00    6.9
2024/05/06 13:17:36.000   28.316434556  -16.458119413  1376.7397   1   7   0.0015   0.0010   0.0347  -0.0005   0.0013  -0.0049   6.00    7.5
2024/05/06 13:17:37.000   28.316434556  -16.458119413  1376.7398   1   7   0.0015   0.0010   0.0347  -0.0005   0.0013  -0.0049   7.00    8.0
2024/05/06 13:17:38.000   28.316434556  -16.458119413  1376.7397   1   7   0.0015   0.0010   0.0347  -0.0005   0.0013  -0.0049   8.00    8.5
2024/05/06 13:17:39.000   28.316434556  -16.458119413  1376.7396   1   7   0.0015   0.0010   0.0347  -0.0005   0.0013  -0.0049   9.00    9.0
2024/05/06 13:17:40.000   28.316434557  -16.458119413  1376.7396   1   7   0.0015   0.0010   0.0347  -0.0005   0.0013  -0.0049  10.00    9.6
2024/05/06 13:17:41.000   28.316434557  -16.458119413  1376.7397   1   7   0.0015   0.0010   0.0347  -0.0005   0.0013  -0.0049  11.00   10.1
2024/05/06 13:17:42.000   28.316434557  -16.458119413  1376.7397   1   7   0.0015   0.0010   0.0347  -0.0005   0.0013  -0.0049  12.00   10.6
2024/05/06 13:17:43.000   28.316434557  -16.458119413  1376.7398   1   7   0.0015   0.0010   0.0347  -0.0005   0.0013  -0.0049  13.00   11.1
2024/05/06 13:17:44.000   28.316434557  -16.458119413  1376.7399   1   7   0.0015   0.0010   0.0347  -0.0005   0.0013  -0.0049  14.00   11.7
2024/05/06 13:17:45.000   28.316434557  -16.458119413  1376.7400   1   7   0.0015   0.0010   0.0347  -0.0005   0.0013  -0.0049 -15.00   12.2
2024/05/06 13:17:46.000   28.316434557  -16.458119413  1376.7401   1   7   0.0015   0.0010   0.0347  -0.0005   0.0013  -0.0049 -14.00   12.8
2024/05/06 13:17:47.000   28.316434557  -16.458119413  1376.7402   1   7   0.0015   0.0010   0.0347  -0.0005   0.0013  -0.0049 -13.00   13.3
2024/05/06 13:17:48.000   28.316434557  -16.458119413  1376.7402   1   7   0.0015   0.0010   0.0346  -0.0005   0.0013  -0.0049 -12.00   13.9
2024/05/06 13:17:49.000   28.316434557  -16.458119413  1376.7403   1   7   0.0015   0.0010   0.0346  -0.0005   0.0013  -0.0049 -11.00   14.4
2024/05/06 13:17:50.000   28.316434557  -16.458119413  1376.7404   1   7   0.0015   0.0010   0.0346  -0.0005   0.0013  -0.0049 -10.00   15.0
2024/05/06 13:17:51.000   28.316434557  -16.458119413  1376.7404   1   7   0.0015   0.0010   0.0346  -0.0005   0.0013  -0.0049  -9.00   15.5
2024/05/06 13:17:52.000   28.316434557  -16.458119413  1376.7404   1   7   0.0015   0.0010   0.0346  -0.0005   0.0013  -0.0049  -8.00   16.1
2024/05/06 13:17:53.000   28.316434557  -16.458119413  1376.7405   1   7   0.0015   0.0010   0.0346  -0.0005   0.0013  -0.0049  -7.00   16.6
2024/05/06 13:17:54.000   28.316434557  -16.458119413  1376.7404   1   7   0.0015   0.0010   0.0346  -0.0005   0.0013  -0.0049  -6.00   17.1
2024/05/06 13:17:55.000   28.316434557  -16.458119413  1376.7404   1   7   0.0015   0.0010   0.0346  -0.0005   0.0013  -0.0049  -5.00   17.7
2024/05/06 13:17:56.000   28.316434557  -16.458119413  1376.7403   1   7   0.0015   0.0010   0.0346  -0.0005   0.0013  -0.0049  -4.00   18.2
2024/05/06 13:17:57.000   28.316434558  -16.458119413  1376.7402   1   7   0.0015   0.0010   0.0346  -0.0005   0.0013  -0.0049  -3.00   18.8
2024/05/06 13:17:58.000   28.316434558  -16.458119413  1376.7402   1   7   0.0015   0.0010   0.0345  -0.0005   0.0013  -0.0049  -2.00   19.3
2024/05/06 13:17:59.000   28.316434558  -16.458119413  1376.7402   1   7   0.0015   0.0010   0.0345  -0.0005   0.0013  -0.0049  -1.00   19.9
2024/05/06 13:18:00.000   28.316434558  -16.458119413  1376.7401   1   7   0.0015   0.0010   0.0345  -0.0004   0.0013  -0.0049   0.00   20.4
2024/05/06 13:18:01.000   28.316434558  -16.458119413  1376.7402   1   7   0.0015   0.0010   0.0345  -0.0004   0.0013  -0.0049   1.00   21.0
2024/05/06 13:18:02.000   28.316434558  -16.458119413  1376.7403   1   7   0.0015   0.0010   0.0345  -0.0004   0.0013  -0.0049   2.00   21.7
2024/05/06 13:18:03.000   28.316434558  -16.458119413  1376.7402   1   7   0.0015   0.0010   0.0345  -0.0004   0.0013  -0.0049   3.00   22.2
2024/05/06 13:18:04.000   28.316434558  -16.458119413  1376.7403   1   7   0.0015   0.0010   0.0345  -0.0004   0.0013  -0.0049   4.00   22.7
2024/05/06 13:18:05.000   28.316434558  -16.458119413  1376.7404   1   7   0.0015   0.0010   0.0345  -0.0004   0.0013  -0.0049   5.00   23.2
2024/05/06 13:18:06.000   28.316434558  -16.458119413  1376.7405   1   7   0.0015   0.0010   0.0345  -0.0004   0.0013  -0.0049   6.00   23.8
2024/05/06 13:18:07.000   28.316434558  -16.458119413  1376.7406   1   7   0.0015   0.0010   0.0345  -0.0005   0.0013  -0.0049   7.00   24.3
2024/05/06 13:18:08.000   28.316434558  -16.458119413  1376.7408   1   7   0.0015   0.0010   0.0345  -0.0005   0.0013  -0.0049   8.00   24.9
2024/05/06 13:18:09.000   28.316434558  -16.458119413  1376.7409   1   7   0.0015   0.0010   0.0345  -0.0005   0.0013  -0.0049   9.00   25.5
2024/05/06 13:18:10.000   28.316434558  -16.458119413  1376.7411   1   7   0.0015   0.0010   0.0345  -0.0005   0.0013  -0.0049  10.00   26.2
2024/05/06 13:18:11.000   28.316434558  -16.458119413  1376.7413   1   7   0.0015   0.0010   0.0345  -0.0005   0.0013  -0.0049  11.00   26.8
2024/05/06 13:18:12.000   28.316434558  -16.458119413  1376.7414   1   7   0.0015   0.0010   0.0344  -0.0005   0.0013  -0.0049  12.00   27.4
