% program   : RTKPOST-EX 2.5.0
% inp file  : C:\Users\SallyHenry\Desktop\Sally Internship\GNSS gravi\DATA\Survey Rover Obs\GUI02.24o
% inp file  : C:\Users\SallyHenry\Desktop\Sally Internship\GNSS gravi\DATA\BaseStations\TN01\TN0100ESP_R_20241270000_01D_30S_MO.rnx
% inp file  : C:\Users\SallyHenry\Desktop\Sally Internship\GNSS gravi\DATA\BaseStations\TN01\TN0100ESP_R_20241270000_01D_MN.rnx
% inp file  : C:\Users\SallyHenry\Desktop\Sally Internship\GNSS gravi\DATA\aux_files\Survey\IGS0OPSFIN_20241270000_01D_15M_ORB.SP3
% inp file  : C:\Users\SallyHenry\Desktop\Sally Internship\GNSS gravi\DATA\aux_files\Survey\IGS0OPSFIN_20241270000_01D_30S_CLK.CLK
% obs start : 2024/05/06 13:11:22.0 GPST (week2313 133882.0s)
% obs end   : 2024/05/06 13:36:21.0 GPST (week2313 135381.0s)
% pos mode  : Static
% freqs     : L1+L2/E5b
% solution  : Combined-No Phase Reset
% elev mask : 15.0 deg
% dynamics  : on
% tidecorr  : solid
% ionos opt : Estimate TEC
% tropo opt : Estimate ZTD+Grad
% ephemeris : Precise
% navi sys  : GPS GLONASS Galileo QZSS BDS
% amb res   : Fix and Hold
% amb glo   : Fix and Hold
% amb bds   : on
% val thres : 3.0
% antenna1  :                       ( 0.0000  0.0000  1.8000)
% antenna2  :                       ( 0.0000  0.0000  0.0771)
% ref pos   :  28.477186930  -16.241151700    51.7531
%
% (lat/lon/height=WGS84/ellipsoidal,Q=1:fix,2:float,3:sbas,4:dgps,5:single,6:ppp,ns=# of satellites)
%  GPST                  latitude(deg) longitude(deg)  height(m)   Q  ns   sdn(m)   sde(m)   sdu(m)  sdne(m)  sdeu(m)  sdun(m) age(s)  ratio
2024/05/06 13:11:22.000   28.316434562  -16.458119358  1376.7054   1   8   0.0018   0.0014   0.0418  -0.0003   0.0024  -0.0055  -8.00  999.9
2024/05/06 13:11:23.000   28.316434562  -16.458119358  1376.7055   1   8   0.0018   0.0014   0.0418  -0.0003   0.0024  -0.0055  -7.00  999.9
2024/05/06 13:11:24.000   28.316434562  -16.458119358  1376.7057   1   8   0.0018   0.0014   0.0418  -0.0003   0.0024  -0.0055  -6.00  999.9
2024/05/06 13:11:25.000   28.316434562  -16.458119358  1376.7058   1   8   0.0018   0.0014   0.0418  -0.0003   0.0024  -0.0055  -5.00  999.9
2024/05/06 13:11:26.000   28.316434562  -16.458119358  1376.7060   1   8   0.0018   0.0014   0.0418  -0.0003   0.0024  -0.0055  -4.00  999.9
2024/05/06 13:11:27.000   28.316434562  -16.458119358  1376.7064   1   8   0.0018   0.0014   0.0418  -0.0003   0.0024  -0.0055  -3.00  999.9
2024/05/06 13:11:28.000   28.316434561  -16.458119357  1376.7067   1   8   0.0018   0.0014   0.0418  -0.0003   0.0024  -0.0055  -2.00  999.9
2024/05/06 13:11:29.000   28.316434561  -16.458119357  1376.7070   1   8   0.0018   0.0014   0.0418  -0.0003   0.0024  -0.0055  -1.00  999.9
2024/05/06 13:11:30.000   28.316434560  -16.458119357  1376.7074   1   8   0.0018   0.0014   0.0418  -0.0003   0.0024  -0.0055   0.00  999.9
2024/05/06 13:11:31.000   28.316434560  -16.458119357  1376.7081   1   8   0.0018   0.0014   0.0418  -0.0003   0.0024  -0.0055   1.00  999.9
2024/05/06 13:11:32.000   28.316434560  -16.458119357  1376.7086   1   8   0.0018   0.0014   0.0418  -0.0003   0.0024  -0.0055   2.00  999.9
2024/05/06 13:11:33.000   28.316434559  -16.458119357  1376.7093   1   8   0.0018   0.0014   0.0418  -0.0003   0.0024  -0.0055   3.00  999.9
2024/05/06 13:11:34.000   28.316434559  -16.458119357  1376.7097   1   8   0.0018   0.0014   0.0418  -0.0003   0.0024  -0.0055   4.00  999.9
2024/05/06 13:11:35.000   28.316434558  -16.458119357  1376.7101   1   8   0.0018   0.0014   0.0418  -0.0003   0.0024  -0.0055   5.00  999.9
2024/05/06 13:11:36.000   28.316434558  -16.458119357  1376.7104   1   8   0.0018   0.0014   0.0418  -0.0003   0.0024  -0.0055   6.00  999.9
2024/05/06 13:11:37.000   28.316434558  -16.458119357  1376.7107   1   8   0.0018   0.0014   0.0418  -0.0003   0.0024  -0.0055   7.00  999.9
2024/05/06 13:11:38.000   28.316434558  -16.458119357  1376.7109   1   8   0.0018   0.0014   0.0418  -0.0003   0.0024  -0.0055   8.00  999.9
2024/05/06 13:11:39.000   28.316434558  -16.458119357  1376.7111   1   8   0.0018   0.0014   0.0418  -0.0003   0.0024  -0.0055   9.00  999.9
2024/05/06 13:11:40.000   28.316434557  -16.458119357  1376.7113   1   8   0.0018   0.0014   0.0418  -0.0003   0.0024  -0.0055  10.00  999.9
2024/05/06 13:11:41.000   28.316434557  -16.458119357  1376.7115   1   8   0.0018   0.0014   0.0418  -0.0003   0.0024  -0.0055  11.00  999.9
2024/05/06 13:11:42.000   28.316434557  -16.458119357  1376.7118   1   8   0.0018   0.0014   0.0418  -0.0003   0.0024  -0.0055  12.00  999.9
2024/05/06 13:11:43.000   28.316434557  -16.458119357  1376.7119   1   8   0.0018   0.0014   0.0418  -0.0003   0.0024  -0.0055  13.00  999.9
2024/05/06 13:11:44.000   28.316434557  -16.458119357  1376.7120   1   8   0.0018   0.0014   0.0418  -0.0003   0.0024  -0.0055  14.00  999.9
2024/05/06 13:11:45.000   28.316434557  -16.458119356  1376.7121   1   8   0.0018   0.0014   0.0418  -0.0003   0.0024  -0.0055  15.00  999.9
2024/05/06 13:11:46.000   28.316434557  -16.458119357  1376.7123   1   8   0.0018   0.0014   0.0418  -0.0003   0.0024  -0.0055 -14.00  999.9
2024/05/06 13:11:47.000   28.316434557  -16.458119356  1376.7124   1   8   0.0018   0.0014   0.0417  -0.0003   0.0024  -0.0055 -13.00  999.9
2024/05/06 13:11:48.000   28.316434557  -16.458119356  1376.7125   1   8   0.0018   0.0014   0.0417  -0.0003   0.0024  -0.0055 -12.00  999.9
2024/05/06 13:11:49.000   28.316434557  -16.458119356  1376.7126   1   8   0.0018   0.0014   0.0417  -0.0003   0.0024  -0.0055 -11.00  999.9
2024/05/06 13:11:50.000   28.316434556  -16.458119356  1376.7128   1   8   0.0018   0.0014   0.0417  -0.0003   0.0024  -0.0055 -10.00  999.9
2024/05/06 13:11:51.000   28.316434556  -16.458119356  1376.7129   1   8   0.0018   0.0014   0.0417  -0.0003   0.0024  -0.0055  -9.00  999.9
2024/05/06 13:11:52.000   28.316434556  -16.458119356  1376.7131   1   8   0.0018   0.0014   0.0417  -0.0003   0.0024  -0.0055  -8.00  999.9
2024/05/06 13:11:53.000   28.316434556  -16.458119356  1376.7132   1   8   0.0018   0.0014   0.0417  -0.0003   0.0024  -0.0055  -7.00  999.9
2024/05/06 13:11:54.000   28.316434556  -16.458119356  1376.7134   1   8   0.0018   0.0014   0.0417  -0.0003   0.0024  -0.0055  -6.00  999.9
2024/05/06 13:11:55.000   28.316434556  -16.458119356  1376.7136   1   8   0.0018   0.0014   0.0417  -0.0003   0.0024  -0.0055  -5.00  999.9
2024/05/06 13:11:56.000   28.316434555  -16.458119356  1376.7138   1   8   0.0018   0.0014   0.0417  -0.0003   0.0024  -0.0055  -4.00  999.9
2024/05/06 13:11:57.000   28.316434555  -16.458119356  1376.7140   1   8   0.0018   0.0014   0.0417  -0.0003   0.0024  -0.0055  -3.00  999.9
2024/05/06 13:11:58.000   28.316434555  -16.458119356  1376.7142   1   8   0.0018   0.0014   0.0417  -0.0003   0.0024  -0.0055  -2.00  999.9
2024/05/06 13:11:59.000   28.316434555  -16.458119356  1376.7146   1   8   0.0018   0.0014   0.0417  -0.0003   0.0024  -0.0055  -1.00  999.9
2024/05/06 13:12:00.000   28.316434554  -16.458119356  1376.7149   1   8   0.0018   0.0014   0.0417  -0.0003   0.0024  -0.0056   0.00  999.9
2024/05/06 13:12:01.000   28.316434554  -16.458119356  1376.7152   1   8   0.0018   0.0014   0.0417  -0.0003   0.0024  -0.0056   1.00  999.9
2024/05/06 13:12:02.000   28.316434554  -16.458119356  1376.7155   1   8   0.0018   0.0014   0.0418  -0.0003   0.0024  -0.0056   2.00  999.9
2024/05/06 13:12:03.000   28.316434553  -16.458119356  1376.7158   1   8   0.0018   0.0014   0.0418  -0.0003   0.0024  -0.0056   3.00  999.9
2024/05/06 13:12:04.000   28.316434553  -16.458119356  1376.7159   1   8   0.0018   0.0014   0.0418  -0.0003   0.0024  -0.0056   4.00  999.9
2024/05/06 13:12:05.000   28.316434553  -16.458119356  1376.7161   1   8   0.0018   0.0014   0.0418  -0.0003   0.0024  -0.0056   5.00  999.9
2024/05/06 13:12:06.000   28.316434553  -16.458119356  1376.7163   1   8   0.0018   0.0014   0.0418  -0.0003   0.0024  -0.0056   6.00  999.9
2024/05/06 13:12:07.000   28.316434553  -16.458119356  1376.7164   1   8   0.0018   0.0014   0.0418  -0.0003   0.0024  -0.0056   7.00  999.9
2024/05/06 13:12:08.000   28.316434553  -16.458119356  1376.7165   1   8   0.0018   0.0014   0.0418  -0.0003   0.0024  -0.0056   8.00  999.9
2024/05/06 13:12:09.000   28.316434553  -16.458119355  1376.7166   1   8   0.0018   0.0014   0.0418  -0.0003   0.0024  -0.0056   9.00  999.9
2024/05/06 13:12:10.000   28.316434553  -16.458119355  1376.7167   1   8   0.0018   0.0014   0.0418  -0.0003   0.0024  -0.0056  10.00  999.9
2024/05/06 13:12:11.000   28.316434552  -16.458119355  1376.7168   1   8   0.0018   0.0014   0.0417  -0.0003   0.0024  -0.0056  11.00  999.9
2024/05/06 13:12:12.000   28.316434552  -16.458119355  1376.7169   1   8   0.0018   0.0014   0.0417  -0.0003   0.0024  -0.0056  12.00  999.9
2024/05/06 13:12:13.000   28.316434552  -16.458119355  1376.7170   1   8   0.0018   0.0014   0.0417  -0.0003   0.0024  -0.0056  13.00  999.9
2024/05/06 13:12:14.000   28.316434552  -16.458119355  1376.7171   1   8   0.0018   0.0014   0.0417  -0.0003   0.0024  -0.0056  14.00  999.9
2024/05/06 13:12:15.000   28.316434552  -16.458119355  1376.7172   1   8   0.0018   0.0014   0.0417  -0.0003   0.0024  -0.0056  15.00  999.9
2024/05/06 13:12:16.000   28.316434552  -16.458119355  1376.7173   1   8   0.0018   0.0014   0.0417  -0.0003   0.0024  -0.0056 -14.00  999.9
2024/05/06 13:12:17.000   28.316434552  -16.458119355  1376.7174   1   8   0.0018   0.0014   0.0417  -0.0003   0.0024  -0.0056 -13.00  999.9
2024/05/06 13:12:18.000   28.316434552  -16.458119355  1376.7176   1   8   0.0018   0.0014   0.0417  -0.0003   0.0024  -0.0056 -12.00  999.9
2024/05/06 13:12:19.000   28.316434552  -16.458119355  1376.7177   1   8   0.0018   0.0014   0.0417  -0.0003   0.0024  -0.0056 -11.00  999.9
2024/05/06 13:12:20.000   28.316434552  -16.458119355  1376.7179   1   8   0.0018   0.0014   0.0417  -0.0003   0.0024  -0.0056 -10.00  999.9
2024/05/06 13:12:21.000   28.316434552  -16.458119355  1376.7180   1   8   0.0018   0.0014   0.0416  -0.0003   0.0024  -0.0056  -9.00  999.9
2024/05/06 13:12:22.000   28.316434552  -16.458119355  1376.7182   1   8   0.0018   0.0014   0.0416  -0.0003   0.0024  -0.0056  -8.00  999.9
2024/05/06 13:12:23.000   28.316434552  -16.458119355  1376.7183   1   8   0.0018   0.0014   0.0416  -0.0003   0.0024  -0.0056  -7.00  999.9
2024/05/06 13:12:24.000   28.316434551  -16.458119355  1376.7185   1   8   0.0018   0.0014   0.0416  -0.0003   0.0025  -0.0056  -6.00  999.9
2024/05/06 13:12:25.000   28.316434551  -16.458119355  1376.7186   1   8   0.0018   0.0014   0.0416  -0.0003   0.0025  -0.0056  -5.00  999.9
2024/05/06 13:12:26.000   28.316434551  -16.458119355  1376.7189   1   8   0.0018   0.0014   0.0416  -0.0003   0.0025  -0.0056  -4.00  999.9
2024/05/06 13:12:27.000   28.316434551  -16.458119355  1376.7191   1   8   0.0018   0.0014   0.0416  -0.0003   0.0025  -0.0056  -3.00  999.9
2024/05/06 13:12:28.000   28.316434551  -16.458119355  1376.7194   1   8   0.0018   0.0014   0.0416  -0.0003   0.0025  -0.0056  -2.00  999.9
2024/05/06 13:12:29.000   28.316434551  -16.458119355  1376.7196   1   8   0.0018   0.0014   0.0416  -0.0003   0.0025  -0.0056  -1.00  999.9
2024/05/06 13:12:30.000   28.316434550  -16.458119355  1376.7198   1   8   0.0018   0.0014   0.0417  -0.0003   0.0025  -0.0056   0.00  999.9
2024/05/06 13:12:31.000   28.316434550  -16.458119355  1376.7199   1   8   0.0018   0.0014   0.0417  -0.0003   0.0025  -0.0056   1.00  999.9
2024/05/06 13:12:32.000   28.316434550  -16.458119355  1376.7201   1   8   0.0018   0.0014   0.0417  -0.0003   0.0025  -0.0056   2.00  999.9
2024/05/06 13:12:33.000   28.316434549  -16.458119355  1376.7204   1   8   0.0018   0.0014   0.0417  -0.0003   0.0025  -0.0056   3.00  999.9
2024/05/06 13:12:34.000   28.316434549  -16.458119355  1376.7205   1   8   0.0018   0.0014   0.0417  -0.0003   0.0025  -0.0057   4.00  999.9
2024/05/06 13:12:35.000   28.316434549  -16.458119355  1376.7207   1   8   0.0018   0.0014   0.0417  -0.0003   0.0025  -0.0057   5.00  999.9
2024/05/06 13:12:36.000   28.316434549  -16.458119355  1376.7209   1   8   0.0018   0.0014   0.0417  -0.0003   0.0025  -0.0057   6.00  999.9
2024/05/06 13:12:37.000   28.316434549  -16.458119355  1376.7211   1   8   0.0018   0.0014   0.0417  -0.0003   0.0025  -0.0057   7.00  999.9
2024/05/06 13:12:38.000   28.316434549  -16.458119355  1376.7214   1   8   0.0018   0.0014   0.0417  -0.0003   0.0025  -0.0057   8.00  999.9
2024/05/06 13:12:39.000   28.316434549  -16.458119355  1376.7216   1   8   0.0018   0.0014   0.0417  -0.0003   0.0025  -0.0057   9.00  999.9
2024/05/06 13:12:40.000   28.316434549  -16.458119355  1376.7217   1   8   0.0018   0.0014   0.0417  -0.0003   0.0025  -0.0057  10.00  999.9
2024/05/06 13:12:41.000   28.316434549  -16.458119355  1376.7218   1   8   0.0018   0.0014   0.0417  -0.0003   0.0025  -0.0057  11.00  999.9
2024/05/06 13:12:42.000   28.316434549  -16.458119355  1376.7219   1   8   0.0018   0.0014   0.0417  -0.0003   0.0025  -0.0057  12.00  999.9
2024/05/06 13:12:43.000   28.316434549  -16.458119354  1376.7220   1   8   0.0018   0.0014   0.0417  -0.0003   0.0025  -0.0057  13.00  999.9
2024/05/06 13:12:44.000   28.316434549  -16.458119354  1376.7220   1   8   0.0018   0.0014   0.0417  -0.0003   0.0025  -0.0057  14.00  999.9
2024/05/06 13:12:45.000   28.316434549  -16.458119354  1376.7221   1   8   0.0018   0.0014   0.0416  -0.0003   0.0025  -0.0057  15.00  999.9
2024/05/06 13:12:46.000   28.316434549  -16.458119354  1376.7222   1   8   0.0018   0.0014   0.0416  -0.0003   0.0025  -0.0057 -14.00  999.9
2024/05/06 13:12:47.000   28.316434549  -16.458119354  1376.7222   1   8   0.0018   0.0014   0.0416  -0.0003   0.0025  -0.0057 -13.00  999.9
2024/05/06 13:12:48.000   28.316434549  -16.458119354  1376.7223   1   8   0.0018   0.0014   0.0416  -0.0003   0.0025  -0.0057 -12.00  999.9
2024/05/06 13:12:49.000   28.316434548  -16.458119354  1376.7224   1   8   0.0018   0.0014   0.0416  -0.0003   0.0025  -0.0057 -11.00  999.9
2024/05/06 13:12:50.000   28.316434548  -16.458119354  1376.7225   1   8   0.0018   0.0014   0.0416  -0.0003   0.0025  -0.0057 -10.00  999.9
2024/05/06 13:12:51.000   28.316434548  -16.458119354  1376.7226   1   8   0.0018   0.0014   0.0416  -0.0003   0.0025  -0.0057  -9.00  999.9
2024/05/06 13:12:52.000   28.316434548  -16.458119354  1376.7227   1   8   0.0018   0.0014   0.0416  -0.0003   0.0025  -0.0057  -8.00  999.9
2024/05/06 13:12:53.000   28.316434548  -16.458119354  1376.7229   1   8   0.0018   0.0014   0.0416  -0.0003   0.0025  -0.0057  -7.00  999.9
2024/05/06 13:12:54.000   28.316434548  -16.458119354  1376.7230   1   8   0.0018   0.0014   0.0416  -0.0003   0.0025  -0.0057  -6.00  999.9
2024/05/06 13:12:55.000   28.316434548  -16.458119354  1376.7231   1   8   0.0018   0.0014   0.0416  -0.0003   0.0025  -0.0057  -5.00  999.9
2024/05/06 13:12:56.000   28.316434548  -16.458119354  1376.7232   1   8   0.0018   0.0014   0.0416  -0.0003   0.0025  -0.0057  -4.00  999.9
2024/05/06 13:12:57.000   28.316434548  -16.458119354  1376.7232   1   8   0.0018   0.0014   0.0416  -0.0003   0.0025  -0.0057  -3.00  999.9
2024/05/06 13:12:58.000   28.316434548  -16.458119354  1376.7234   1   8   0.0018   0.0014   0.0416  -0.0003   0.0025  -0.0057  -2.00  999.9
2024/05/06 13:12:59.000   28.316434548  -16.458119354  1376.7235   1   8   0.0018   0.0014   0.0416  -0.0003   0.0025  -0.0057  -1.00  999.9
2024/05/06 13:13:00.000   28.316434548  -16.458119355  1376.7236   1   8   0.0018   0.0014   0.0416  -0.0003   0.0025  -0.0057   0.00  999.9
2024/05/06 13:13:01.000   28.316434548  -16.458119355  1376.7238   1   8   0.0018   0.0014   0.0416  -0.0003   0.0025  -0.0057   1.00  999.9
2024/05/06 13:13:02.000   28.316434548  -16.458119355  1376.7237   1   8   0.0018   0.0014   0.0416  -0.0003   0.0025  -0.0057   2.00  999.9
2024/05/06 13:13:03.000   28.316434548  -16.458119355  1376.7235   1   8   0.0018   0.0014   0.0416  -0.0004   0.0025  -0.0057   3.00  999.9
2024/05/06 13:13:04.000   28.316434548  -16.458119356  1376.7235   1   8   0.0018   0.0014   0.0416  -0.0004   0.0025  -0.0057   4.00  999.9
2024/05/06 13:13:05.000   28.316434548  -16.458119356  1376.7236   1   8   0.0018   0.0014   0.0416  -0.0004   0.0025  -0.0057   5.00  999.9
2024/05/06 13:13:06.000   28.316434548  -16.458119356  1376.7236   1   8   0.0018   0.0014   0.0416  -0.0004   0.0025  -0.0057   6.00  999.9
2024/05/06 13:13:07.000   28.316434548  -16.458119356  1376.7236   1   8   0.0018   0.0014   0.0416  -0.0004   0.0025  -0.0057   7.00  999.9
2024/05/06 13:13:08.000   28.316434547  -16.458119356  1376.7237   1   8   0.0018   0.0014   0.0416  -0.0004   0.0025  -0.0057   8.00  999.9
2024/05/06 13:13:09.000   28.316434547  -16.458119356  1376.7237   1   8   0.0018   0.0014   0.0416  -0.0004   0.0025  -0.0057   9.00  999.9
2024/05/06 13:13:10.000   28.316434547  -16.458119356  1376.7237   1   8   0.0018   0.0014   0.0416  -0.0004   0.0025  -0.0057  10.00  999.9
2024/05/06 13:13:11.000   28.316434547  -16.458119356  1376.7238   1   8   0.0018   0.0014   0.0416  -0.0004   0.0025  -0.0057  11.00  999.9
2024/05/06 13:13:12.000   28.316434547  -16.458119356  1376.7239   1   8   0.0018   0.0014   0.0416  -0.0004   0.0025  -0.0057  12.00  999.9
2024/05/06 13:13:13.000   28.316434547  -16.458119356  1376.7239   1   8   0.0018   0.0014   0.0416  -0.0004   0.0025  -0.0057  13.00  999.9
2024/05/06 13:13:14.000   28.316434547  -16.458119356  1376.7239   1   8   0.0018   0.0014   0.0416  -0.0004   0.0025  -0.0057  14.00  999.9
2024/05/06 13:13:15.000   28.316434547  -16.458119356  1376.7240   1   8   0.0018   0.0014   0.0416  -0.0004   0.0025  -0.0057  15.00  999.9
2024/05/06 13:13:16.000   28.316434547  -16.458119356  1376.7240   1   8   0.0018   0.0014   0.0416  -0.0004   0.0025  -0.0057 -14.00  999.9
2024/05/06 13:13:17.000   28.316434547  -16.458119356  1376.7240   1   8   0.0018   0.0014   0.0416  -0.0004   0.0025  -0.0057 -13.00  999.9
2024/05/06 13:13:18.000   28.316434547  -16.458119357  1376.7240   1   8   0.0018   0.0014   0.0415  -0.0003   0.0025  -0.0057 -12.00  999.9
2024/05/06 13:13:19.000   28.316434547  -16.458119357  1376.7240   1   8   0.0018   0.0014   0.0415  -0.0003   0.0025  -0.0057 -11.00  999.9
2024/05/06 13:13:20.000   28.316434547  -16.458119357  1376.7240   1   8   0.0018   0.0014   0.0415  -0.0003   0.0025  -0.0057 -10.00  999.9
2024/05/06 13:13:21.000   28.316434547  -16.458119357  1376.7240   1   8   0.0018   0.0014   0.0415  -0.0003   0.0025  -0.0057  -9.00  999.9
2024/05/06 13:13:22.000   28.316434547  -16.458119357  1376.7240   1   8   0.0018   0.0014   0.0415  -0.0003   0.0025  -0.0057  -8.00  999.9
2024/05/06 13:13:23.000   28.316434547  -16.458119357  1376.7240   1   8   0.0018   0.0014   0.0415  -0.0003   0.0025  -0.0057  -7.00  999.9
2024/05/06 13:13:24.000   28.316434547  -16.458119357  1376.7240   1   8   0.0018   0.0014   0.0415  -0.0003   0.0025  -0.0057  -6.00  999.9
2024/05/06 13:13:25.000   28.316434548  -16.458119357  1376.7239   1   8   0.0018   0.0014   0.0415  -0.0003   0.0025  -0.0057  -5.00  999.9
2024/05/06 13:13:26.000   28.316434548  -16.458119357  1376.7239   1   8   0.0018   0.0014   0.0415  -0.0003   0.0025  -0.0057  -4.00  999.9
2024/05/06 13:13:27.000   28.316434548  -16.458119357  1376.7240   1   8   0.0018   0.0014   0.0415  -0.0004   0.0025  -0.0057  -3.00  999.9
2024/05/06 13:13:28.000   28.316434548  -16.458119357  1376.7239   1   8   0.0018   0.0014   0.0415  -0.0004   0.0025  -0.0057  -2.00  999.9
2024/05/06 13:13:29.000   28.316434548  -16.458119358  1376.7241   1   8   0.0018   0.0014   0.0415  -0.0004   0.0025  -0.0057  -1.00  999.9
2024/05/06 13:13:30.000   28.316434548  -16.458119358  1376.7241   1   8   0.0018   0.0014   0.0415  -0.0004   0.0025  -0.0057   0.00  999.9
2024/05/06 13:13:31.000   28.316434548  -16.458119358  1376.7242   1   8   0.0018   0.0014   0.0415  -0.0004   0.0025  -0.0058   1.00  999.9
2024/05/06 13:13:32.000   28.316434548  -16.458119359  1376.7241   1   8   0.0018   0.0014   0.0416  -0.0004   0.0025  -0.0058   2.00  999.9
2024/05/06 13:13:33.000   28.316434548  -16.458119359  1376.7242   1   8   0.0018   0.0014   0.0416  -0.0004   0.0025  -0.0058   3.00  999.9
2024/05/06 13:13:34.000   28.316434548  -16.458119359  1376.7243   1   8   0.0018   0.0014   0.0416  -0.0004   0.0025  -0.0058   4.00  999.9
2024/05/06 13:13:35.000   28.316434548  -16.458119360  1376.7244   1   8   0.0018   0.0014   0.0416  -0.0004   0.0025  -0.0058   5.00  999.9
2024/05/06 13:13:36.000   28.316434548  -16.458119360  1376.7246   1   8   0.0018   0.0014   0.0416  -0.0004   0.0026  -0.0058   6.00  999.9
2024/05/06 13:13:37.000   28.316434548  -16.458119360  1376.7247   1   8   0.0018   0.0014   0.0416  -0.0004   0.0026  -0.0058   7.00  999.9
2024/05/06 13:13:38.000   28.316434548  -16.458119360  1376.7248   1   8   0.0018   0.0014   0.0416  -0.0004   0.0026  -0.0058   8.00  999.9
2024/05/06 13:13:39.000   28.316434548  -16.458119360  1376.7249   1   8   0.0018   0.0014   0.0416  -0.0004   0.0026  -0.0058   9.00  999.9
2024/05/06 13:13:40.000   28.316434548  -16.458119360  1376.7250   1   8   0.0018   0.0014   0.0416  -0.0004   0.0026  -0.0058  10.00  999.9
2024/05/06 13:13:41.000   28.316434548  -16.458119360  1376.7251   1   8   0.0018   0.0014   0.0416  -0.0004   0.0026  -0.0058  11.00  999.9
2024/05/06 13:13:42.000   28.316434548  -16.458119361  1376.7253   1   8   0.0018   0.0014   0.0415  -0.0004   0.0026  -0.0058  12.00  999.9
2024/05/06 13:13:43.000   28.316434547  -16.458119361  1376.7254   1   8   0.0018   0.0014   0.0415  -0.0004   0.0026  -0.0058  13.00  999.9
2024/05/06 13:13:44.000   28.316434547  -16.458119361  1376.7255   1   8   0.0018   0.0014   0.0415  -0.0004   0.0026  -0.0058  14.00  999.9
2024/05/06 13:13:45.000   28.316434547  -16.458119361  1376.7256   1   8   0.0018   0.0014   0.0415  -0.0004   0.0026  -0.0058  15.00  999.9
2024/05/06 13:13:46.000   28.316434547  -16.458119361  1376.7257   1   8   0.0018   0.0014   0.0415  -0.0004   0.0026  -0.0058 -14.00  999.9
2024/05/06 13:13:47.000   28.316434547  -16.458119361  1376.7258   1   8   0.0018   0.0014   0.0415  -0.0004   0.0026  -0.0058 -13.00  999.9
2024/05/06 13:13:48.000   28.316434547  -16.458119361  1376.7259   1   8   0.0018   0.0014   0.0415  -0.0004   0.0026  -0.0058 -12.00  999.9
2024/05/06 13:13:49.000   28.316434547  -16.458119361  1376.7259   1   8   0.0018   0.0014   0.0415  -0.0004   0.0026  -0.0058 -11.00  999.9
2024/05/06 13:13:50.000   28.316434547  -16.458119361  1376.7260   1   8   0.0018   0.0014   0.0415  -0.0004   0.0026  -0.0058 -10.00  999.9
2024/05/06 13:13:51.000   28.316434547  -16.458119361  1376.7260   1   8   0.0018   0.0014   0.0414  -0.0004   0.0026  -0.0058  -9.00  999.9
2024/05/06 13:13:52.000   28.316434547  -16.458119361  1376.7260   1   8   0.0018   0.0014   0.0414  -0.0004   0.0026  -0.0058  -8.00  999.9
2024/05/06 13:13:53.000   28.316434547  -16.458119361  1376.7260   1   8   0.0018   0.0014   0.0414  -0.0004   0.0026  -0.0058  -7.00  999.9
2024/05/06 13:13:54.000   28.316434547  -16.458119361  1376.7260   1   8   0.0018   0.0014   0.0414  -0.0004   0.0026  -0.0058  -6.00  999.9
2024/05/06 13:13:55.000   28.316434547  -16.458119361  1376.7261   1   8   0.0018   0.0014   0.0414  -0.0004   0.0026  -0.0058  -5.00  999.9
2024/05/06 13:13:56.000   28.316434548  -16.458119361  1376.7261   1   8   0.0018   0.0014   0.0414  -0.0004   0.0026  -0.0058  -4.00  999.9
2024/05/06 13:13:57.000   28.316434548  -16.458119362  1376.7258   1   8   0.0018   0.0014   0.0414  -0.0004   0.0026  -0.0058  -3.00  999.9
2024/05/06 13:13:58.000   28.316434548  -16.458119362  1376.7256   1   8   0.0018   0.0014   0.0414  -0.0004   0.0026  -0.0058  -2.00  999.9
2024/05/06 13:13:59.000   28.316434549  -16.458119362  1376.7253   1   8   0.0018   0.0014   0.0414  -0.0004   0.0026  -0.0058  -1.00  999.9
2024/05/06 13:14:00.000   28.316434549  -16.458119362  1376.7254   1   8   0.0018   0.0014   0.0415  -0.0004   0.0026  -0.0058   0.00  999.9
2024/05/06 13:14:01.000   28.316434549  -16.458119363  1376.7252   1   8   0.0018   0.0014   0.0415  -0.0004   0.0026  -0.0058   1.00  999.9
2024/05/06 13:14:02.000   28.316434549  -16.458119363  1376.7253   1   8   0.0018   0.0014   0.0415  -0.0004   0.0026  -0.0058   2.00  999.9
2024/05/06 13:14:03.000   28.316434550  -16.458119363  1376.7251   1   8   0.0018   0.0014   0.0415  -0.0004   0.0026  -0.0058   3.00  999.9
2024/05/06 13:14:04.000   28.316434550  -16.458119363  1376.7250   1   8   0.0018   0.0014   0.0415  -0.0004   0.0026  -0.0058   4.00  999.9
2024/05/06 13:14:05.000   28.316434550  -16.458119363  1376.7249   1   8   0.0018   0.0014   0.0415  -0.0004   0.0026  -0.0058   5.00  999.9
2024/05/06 13:14:06.000   28.316434550  -16.458119364  1376.7248   1   8   0.0018   0.0014   0.0415  -0.0004   0.0026  -0.0059   6.00  999.9
2024/05/06 13:14:07.000   28.316434550  -16.458119364  1376.7247   1   8   0.0018   0.0014   0.0415  -0.0004   0.0026  -0.0059   7.00  999.9
2024/05/06 13:14:08.000   28.316434551  -16.458119364  1376.7246   1   8   0.0018   0.0014   0.0415  -0.0004   0.0026  -0.0059   8.00  999.9
2024/05/06 13:14:09.000   28.316434551  -16.458119364  1376.7246   1   8   0.0018   0.0014   0.0415  -0.0004   0.0026  -0.0059   9.00  999.9
2024/05/06 13:14:10.000   28.316434551  -16.458119364  1376.7245   1   8   0.0018   0.0014   0.0415  -0.0004   0.0026  -0.0059  10.00  999.9
2024/05/06 13:14:11.000   28.316434551  -16.458119364  1376.7245   1   8   0.0018   0.0014   0.0415  -0.0004   0.0026  -0.0059  11.00  999.9
2024/05/06 13:14:12.000   28.316434551  -16.458119364  1376.7245   1   8   0.0018   0.0014   0.0415  -0.0004   0.0026  -0.0059  12.00  999.9
2024/05/06 13:14:13.000   28.316434551  -16.458119364  1376.7245   1   8   0.0018   0.0014   0.0415  -0.0004   0.0026  -0.0059  13.00  999.9
2024/05/06 13:14:14.000   28.316434551  -16.458119364  1376.7244   1   8   0.0018   0.0014   0.0415  -0.0004   0.0026  -0.0059  14.00  999.9
2024/05/06 13:14:15.000   28.316434551  -16.458119364  1376.7244   1   8   0.0018   0.0014   0.0415  -0.0004   0.0026  -0.0059  15.00  999.9
2024/05/06 13:14:16.000   28.316434551  -16.458119364  1376.7244   1   8   0.0018   0.0014   0.0414  -0.0004   0.0026  -0.0058 -14.00  999.9
2024/05/06 13:14:17.000   28.316434551  -16.458119364  1376.7244   1   8   0.0018   0.0014   0.0414  -0.0004   0.0026  -0.0058 -13.00  999.9
2024/05/06 13:14:18.000   28.316434551  -16.458119364  1376.7244   1   8   0.0018   0.0014   0.0414  -0.0004   0.0026  -0.0058 -12.00  999.9
2024/05/06 13:14:19.000   28.316434551  -16.458119364  1376.7243   1   8   0.0018   0.0014   0.0414  -0.0004   0.0026  -0.0058 -11.00  999.9
2024/05/06 13:14:20.000   28.316434552  -16.458119364  1376.7243   1   8   0.0018   0.0014   0.0414  -0.0004   0.0026  -0.0058 -10.00  999.9
2024/05/06 13:14:21.000   28.316434552  -16.458119364  1376.7243   1   8   0.0018   0.0014   0.0414  -0.0004   0.0026  -0.0058  -9.00  999.9
2024/05/06 13:14:22.000   28.316434552  -16.458119365  1376.7242   1   8   0.0018   0.0014   0.0414  -0.0004   0.0026  -0.0058  -8.00  999.9
2024/05/06 13:14:23.000   28.316434552  -16.458119365  1376.7241   1   8   0.0018   0.0014   0.0414  -0.0004   0.0026  -0.0058  -7.00  999.9
2024/05/06 13:14:24.000   28.316434552  -16.458119365  1376.7241   1   8   0.0018   0.0014   0.0414  -0.0004   0.0026  -0.0058  -6.00  999.9
2024/05/06 13:14:25.000   28.316434552  -16.458119365  1376.7240   1   8   0.0018   0.0014   0.0414  -0.0004   0.0026  -0.0058  -5.00  999.9
2024/05/06 13:14:26.000   28.316434553  -16.458119365  1376.7238   1   8   0.0018   0.0014   0.0414  -0.0004   0.0026  -0.0058  -4.00  999.9
2024/05/06 13:14:27.000   28.316434553  -16.458119365  1376.7238   1   8   0.0018   0.0014   0.0414  -0.0004   0.0026  -0.0059  -3.00  999.9
2024/05/06 13:14:28.000   28.316434553  -16.458119366  1376.7238   1   8   0.0018   0.0014   0.0414  -0.0004   0.0026  -0.0059  -2.00  999.9
2024/05/06 13:14:29.000   28.316434554  -16.458119366  1376.7236   1   8   0.0018   0.0014   0.0414  -0.0004   0.0026  -0.0059  -1.00  999.9
2024/05/06 13:14:30.000   28.316434554  -16.458119366  1376.7235   1   8   0.0018   0.0014   0.0414  -0.0004   0.0026  -0.0059   0.00  999.9
2024/05/06 13:14:31.000   28.316434555  -16.458119366  1376.7233   1   8   0.0018   0.0014   0.0414  -0.0004   0.0026  -0.0059   1.00  999.9
2024/05/06 13:14:32.000   28.316434555  -16.458119367  1376.7234   1   8   0.0018   0.0014   0.0414  -0.0004   0.0026  -0.0059   2.00  999.9
2024/05/06 13:14:33.000   28.316434555  -16.458119367  1376.7233   1   8   0.0019   0.0014   0.0415  -0.0004   0.0026  -0.0059   3.00  999.9
2024/05/06 13:14:34.000   28.316434556  -16.458119367  1376.7231   1   8   0.0019   0.0014   0.0415  -0.0004   0.0026  -0.0059   4.00  999.9
2024/05/06 13:14:35.000   28.316434556  -16.458119367  1376.7232   1   8   0.0019   0.0014   0.0415  -0.0004   0.0026  -0.0059   5.00  999.9
2024/05/06 13:14:36.000   28.316434556  -16.458119367  1376.7233   1   8   0.0019   0.0014   0.0415  -0.0004   0.0026  -0.0059   6.00  999.9
2024/05/06 13:14:37.000   28.316434556  -16.458119367  1376.7234   1   8   0.0019   0.0014   0.0415  -0.0004   0.0026  -0.0059   7.00  999.9
2024/05/06 13:14:38.000   28.316434556  -16.458119367  1376.7234   1   8   0.0019   0.0014   0.0415  -0.0004   0.0026  -0.0059   8.00  999.9
2024/05/06 13:14:39.000   28.316434556  -16.458119367  1376.7236   1   8   0.0019   0.0014   0.0415  -0.0004   0.0026  -0.0059   9.00  999.9
2024/05/06 13:14:40.000   28.316434556  -16.458119367  1376.7237   1   8   0.0019   0.0014   0.0415  -0.0004   0.0026  -0.0059  10.00  999.9
2024/05/06 13:14:41.000   28.316434556  -16.458119367  1376.7239   1   8   0.0019   0.0014   0.0414  -0.0004   0.0026  -0.0059  11.00  999.9
2024/05/06 13:14:42.000   28.316434556  -16.458119367  1376.7240   1   8   0.0019   0.0014   0.0414  -0.0004   0.0026  -0.0059  12.00  999.9
2024/05/06 13:14:43.000   28.316434556  -16.458119367  1376.7242   1   8   0.0019   0.0014   0.0414  -0.0004   0.0026  -0.0059  13.00  999.9
2024/05/06 13:14:44.000   28.316434556  -16.458119367  1376.7243   1   8   0.0019   0.0014   0.0414  -0.0004   0.0026  -0.0059  14.00  999.9
2024/05/06 13:14:45.000   28.316434556  -16.458119367  1376.7245   1   8   0.0019   0.0014   0.0414  -0.0004   0.0026  -0.0059  15.00  999.9
2024/05/06 13:14:46.000   28.316434556  -16.458119367  1376.7246   1   8   0.0019   0.0014   0.0414  -0.0004   0.0026  -0.0059 -14.00  999.9
2024/05/06 13:14:47.000   28.316434556  -16.458119367  1376.7248   1   8   0.0018   0.0014   0.0414  -0.0004   0.0026  -0.0059 -13.00  999.9
2024/05/06 13:14:48.000   28.316434556  -16.458119367  1376.7249   1   8   0.0018   0.0014   0.0414  -0.0004   0.0026  -0.0059 -12.00  999.9
2024/05/06 13:14:49.000   28.316434556  -16.458119367  1376.7251   1   8   0.0018   0.0014   0.0414  -0.0004   0.0026  -0.0059 -11.00  999.9
2024/05/06 13:14:50.000   28.316434556  -16.458119367  1376.7252   1   8   0.0018   0.0014   0.0413  -0.0004   0.0027  -0.0059 -10.00  999.9
2024/05/06 13:14:51.000   28.316434556  -16.458119367  1376.7253   1   8   0.0018   0.0014   0.0413  -0.0004   0.0027  -0.0059  -9.00  999.9
2024/05/06 13:14:52.000   28.316434556  -16.458119367  1376.7254   1   8   0.0018   0.0014   0.0413  -0.0004   0.0027  -0.0059  -8.00  999.9
2024/05/06 13:14:53.000   28.316434556  -16.458119367  1376.7255   1   8   0.0018   0.0014   0.0413  -0.0004   0.0027  -0.0059  -7.00  999.9
2024/05/06 13:14:54.000   28.316434556  -16.458119366  1376.7256   1   8   0.0018   0.0014   0.0413  -0.0004   0.0027  -0.0059  -6.00  999.9
2024/05/06 13:14:55.000   28.316434556  -16.458119366  1376.7258   1   8   0.0018   0.0014   0.0413  -0.0004   0.0027  -0.0059  -5.00  999.9
2024/05/06 13:14:56.000   28.316434556  -16.458119366  1376.7259   1   8   0.0018   0.0014   0.0413  -0.0004   0.0027  -0.0059  -4.00  999.9
2024/05/06 13:14:57.000   28.316434556  -16.458119366  1376.7261   1   8   0.0018   0.0014   0.0413  -0.0004   0.0027  -0.0059  -3.00  999.9
2024/05/06 13:14:58.000   28.316434556  -16.458119366  1376.7261   1   8   0.0019   0.0014   0.0413  -0.0004   0.0027  -0.0059  -2.00  999.9
2024/05/06 13:14:59.000   28.316434557  -16.458119367  1376.7261   1   8   0.0019   0.0014   0.0413  -0.0004   0.0027  -0.0059  -1.00  999.9
2024/05/06 13:15:00.000   28.316434557  -16.458119367  1376.7259   1   8   0.0019   0.0014   0.0414  -0.0004   0.0027  -0.0059   0.00  999.9
2024/05/06 13:15:01.000   28.316434557  -16.458119367  1376.7259   1   8   0.0019   0.0014   0.0414  -0.0004   0.0027  -0.0059   1.00  999.9
2024/05/06 13:15:02.000   28.316434558  -16.458119367  1376.7258   1   8   0.0019   0.0014   0.0414  -0.0004   0.0027  -0.0060   2.00  999.9
2024/05/06 13:15:03.000   28.316434558  -16.458119367  1376.7255   1   8   0.0019   0.0014   0.0414  -0.0004   0.0027  -0.0060   3.00  999.9
2024/05/06 13:15:04.000   28.316434558  -16.458119367  1376.7254   1   8   0.0019   0.0014   0.0414  -0.0004   0.0027  -0.0060   4.00  999.9
2024/05/06 13:15:05.000   28.316434558  -16.458119367  1376.7251   1   8   0.0019   0.0014   0.0414  -0.0004   0.0027  -0.0060   5.00  999.9
2024/05/06 13:15:06.000   28.316434558  -16.458119368  1376.7251   1   8   0.0019   0.0014   0.0414  -0.0004   0.0027  -0.0060   6.00  999.9
2024/05/06 13:15:07.000   28.316434559  -16.458119368  1376.7250   1   8   0.0019   0.0014   0.0414  -0.0004   0.0027  -0.0060   7.00  999.9
2024/05/06 13:15:08.000   28.316434559  -16.458119368  1376.7250   1   8   0.0019   0.0014   0.0414  -0.0004   0.0027  -0.0060   8.00  999.9
2024/05/06 13:15:09.000   28.316434559  -16.458119368  1376.7251   1   8   0.0019   0.0014   0.0414  -0.0004   0.0027  -0.0060   9.00  999.9
2024/05/06 13:15:10.000   28.316434559  -16.458119368  1376.7252   1   8   0.0019   0.0014   0.0414  -0.0004   0.0027  -0.0060  10.00  999.9
2024/05/06 13:15:11.000   28.316434559  -16.458119368  1376.7254   1   8   0.0019   0.0014   0.0414  -0.0004   0.0027  -0.0060  11.00  999.9
2024/05/06 13:15:12.000   28.316434559  -16.458119368  1376.7255   1   8   0.0019   0.0014   0.0414  -0.0004   0.0027  -0.0060  12.00  999.9
2024/05/06 13:15:13.000   28.316434559  -16.458119368  1376.7256   1   8   0.0019   0.0014   0.0414  -0.0004   0.0027  -0.0060  13.00  999.9
2024/05/06 13:15:14.000   28.316434559  -16.458119368  1376.7257   1   8   0.0019   0.0014   0.0414  -0.0004   0.0027  -0.0060  14.00  999.9
2024/05/06 13:15:15.000   28.316434559  -16.458119368  1376.7258   1   8   0.0019   0.0014   0.0414  -0.0004   0.0027  -0.0060  15.00  999.9
2024/05/06 13:15:16.000   28.316434559  -16.458119368  1376.7259   1   8   0.0019   0.0014   0.0413  -0.0004   0.0027  -0.0060 -14.00  999.9
2024/05/06 13:15:17.000   28.316434559  -16.458119368  1376.7260   1   8   0.0019   0.0014   0.0413  -0.0004   0.0027  -0.0060 -13.00  999.9
2024/05/06 13:15:18.000   28.316434559  -16.458119368  1376.7261   1   8   0.0019   0.0014   0.0413  -0.0004   0.0027  -0.0060 -12.00  999.9
2024/05/06 13:15:19.000   28.316434559  -16.458119368  1376.7261   1   8   0.0019   0.0014   0.0413  -0.0004   0.0027  -0.0060 -11.00  999.9
2024/05/06 13:15:20.000   28.316434559  -16.458119368  1376.7262   1   8   0.0019   0.0014   0.0413  -0.0004   0.0027  -0.0060 -10.00  999.9
2024/05/06 13:15:21.000   28.316434560  -16.458119368  1376.7262   1   8   0.0019   0.0014   0.0413  -0.0004   0.0027  -0.0060  -9.00  999.9
2024/05/06 13:15:22.000   28.316434560  -16.458119368  1376.7263   1   8   0.0019   0.0014   0.0413  -0.0004   0.0027  -0.0060  -8.00  999.9
2024/05/06 13:15:23.000   28.316434560  -16.458119368  1376.7263   1   8   0.0019   0.0014   0.0413  -0.0004   0.0027  -0.0060  -7.00  999.9
2024/05/06 13:15:24.000   28.316434560  -16.458119368  1376.7263   1   8   0.0019   0.0014   0.0413  -0.0004   0.0027  -0.0060  -6.00  999.9
2024/05/06 13:15:25.000   28.316434560  -16.458119368  1376.7263   1   8   0.0019   0.0014   0.0413  -0.0004   0.0027  -0.0060  -5.00  999.9
2024/05/06 13:15:26.000   28.316434561  -16.458119368  1376.7263   1   8   0.0019   0.0014   0.0413  -0.0004   0.0027  -0.0060  -4.00  999.9
2024/05/06 13:15:27.000   28.316434561  -16.458119368  1376.7263   1   8   0.0019   0.0014   0.0413  -0.0004   0.0027  -0.0060  -3.00  999.9
2024/05/06 13:15:28.000   28.316434562  -16.458119368  1376.7262   1   8   0.0019   0.0014   0.0413  -0.0004   0.0027  -0.0060  -2.00  999.9
2024/05/06 13:15:29.000   28.316434562  -16.458119368  1376.7260   1   8   0.0019   0.0014   0.0413  -0.0004   0.0027  -0.0060  -1.00  999.9
2024/05/06 13:15:30.000   28.316434563  -16.458119368  1376.7258   1   8   0.0019   0.0014   0.0413  -0.0004   0.0027  -0.0060   0.00  999.9
2024/05/06 13:15:31.000   28.316434564  -16.458119368  1376.7255   1   8   0.0019   0.0014   0.0413  -0.0004   0.0027  -0.0060   1.00  999.9
2024/05/06 13:15:32.000   28.316434565  -16.458119369  1376.7253   1   8   0.0019   0.0014   0.0413  -0.0004   0.0027  -0.0060   2.00  999.9
2024/05/06 13:15:33.000   28.316434565  -16.458119369  1376.7249   1   8   0.0019   0.0014   0.0414  -0.0004   0.0027  -0.0060   3.00  999.9
2024/05/06 13:15:34.000   28.316434566  -16.458119369  1376.7247   1   8   0.0019   0.0014   0.0414  -0.0004   0.0027  -0.0060   4.00  999.9
2024/05/06 13:15:35.000   28.316434566  -16.458119369  1376.7246   1   8   0.0019   0.0014   0.0414  -0.0004   0.0027  -0.0060   5.00  999.9
2024/05/06 13:15:36.000   28.316434566  -16.458119369  1376.7247   1   8   0.0019   0.0014   0.0414  -0.0004   0.0027  -0.0060   6.00  999.9
2024/05/06 13:15:37.000   28.316434566  -16.458119369  1376.7249   1   8   0.0019   0.0014   0.0414  -0.0004   0.0027  -0.0060   7.00  999.9
2024/05/06 13:15:38.000   28.316434566  -16.458119369  1376.7249   1   8   0.0019   0.0014   0.0414  -0.0004   0.0027  -0.0061   8.00  999.9
2024/05/06 13:15:39.000   28.316434566  -16.458119369  1376.7250   1   8   0.0019   0.0014   0.0414  -0.0004   0.0027  -0.0061   9.00  999.9
2024/05/06 13:15:40.000   28.316434566  -16.458119369  1376.7250   1   8   0.0019   0.0014   0.0414  -0.0004   0.0027  -0.0061  10.00  999.9
2024/05/06 13:15:41.000   28.316434566  -16.458119369  1376.7251   1   8   0.0019   0.0014   0.0414  -0.0004   0.0027  -0.0061  11.00  999.9
2024/05/06 13:15:42.000   28.316434566  -16.458119369  1376.7252   1   8   0.0019   0.0014   0.0413  -0.0004   0.0027  -0.0060  12.00  999.9
2024/05/06 13:15:43.000   28.316434566  -16.458119368  1376.7252   1   8   0.0019   0.0014   0.0413  -0.0004   0.0027  -0.0060  13.00  999.9
2024/05/06 13:15:44.000   28.316434566  -16.458119368  1376.7253   1   8   0.0019   0.0014   0.0413  -0.0004   0.0027  -0.0060  14.00  999.9
2024/05/06 13:15:45.000   28.316434566  -16.458119368  1376.7254   1   8   0.0019   0.0014   0.0413  -0.0004   0.0027  -0.0060  15.00  999.9
2024/05/06 13:15:46.000   28.316434566  -16.458119368  1376.7255   1   8   0.0019   0.0014   0.0413  -0.0004   0.0027  -0.0060 -14.00  999.9
2024/05/06 13:15:47.000   28.316434566  -16.458119368  1376.7256   1   8   0.0019   0.0014   0.0413  -0.0004   0.0027  -0.0060 -13.00  999.9
2024/05/06 13:15:48.000   28.316434566  -16.458119368  1376.7256   1   8   0.0019   0.0014   0.0413  -0.0004   0.0027  -0.0060 -12.00  999.9
2024/05/06 13:15:49.000   28.316434566  -16.458119368  1376.7257   1   8   0.0019   0.0014   0.0413  -0.0004   0.0027  -0.0060 -11.00  999.9
2024/05/06 13:15:50.000   28.316434566  -16.458119368  1376.7256   1   8   0.0019   0.0014   0.0413  -0.0004   0.0027  -0.0060 -10.00  999.9
2024/05/06 13:15:51.000   28.316434566  -16.458119368  1376.7256   1   8   0.0019   0.0014   0.0412  -0.0004   0.0027  -0.0060  -9.00  999.9
2024/05/06 13:15:52.000   28.316434566  -16.458119368  1376.7256   1   8   0.0019   0.0014   0.0412  -0.0004   0.0027  -0.0060  -8.00  999.9
2024/05/06 13:15:53.000   28.316434566  -16.458119368  1376.7256   1   8   0.0019   0.0014   0.0412  -0.0004   0.0027  -0.0060  -7.00  999.9
2024/05/06 13:15:54.000   28.316434567  -16.458119368  1376.7255   1   8   0.0019   0.0014   0.0412  -0.0004   0.0027  -0.0060  -6.00  999.9
2024/05/06 13:15:55.000   28.316434567  -16.458119368  1376.7255   1   8   0.0019   0.0014   0.0412  -0.0004   0.0027  -0.0060  -5.00  999.9
2024/05/06 13:15:56.000   28.316434567  -16.458119368  1376.7255   1   8   0.0019   0.0014   0.0412  -0.0004   0.0027  -0.0060  -4.00  999.9
2024/05/06 13:15:57.000   28.316434567  -16.458119368  1376.7252   1   8   0.0019   0.0014   0.0412  -0.0004   0.0027  -0.0060  -3.00  999.9
2024/05/06 13:15:58.000   28.316434568  -16.458119368  1376.7249   1   8   0.0019   0.0014   0.0412  -0.0004   0.0027  -0.0061  -2.00  999.9
2024/05/06 13:15:59.000   28.316434568  -16.458119368  1376.7245   1   8   0.0019   0.0014   0.0412  -0.0004   0.0027  -0.0061  -1.00  999.9
2024/05/06 13:16:00.000   28.316434569  -16.458119368  1376.7242   1   8   0.0019   0.0014   0.0413  -0.0004   0.0027  -0.0061   0.00  999.9
2024/05/06 13:16:01.000   28.316434570  -16.458119368  1376.7237   1   8   0.0019   0.0014   0.0413  -0.0004   0.0027  -0.0061   1.00  999.9
2024/05/06 13:16:02.000   28.316434570  -16.458119369  1376.7237   1   8   0.0019   0.0014   0.0413  -0.0004   0.0027  -0.0061   2.00  999.9
2024/05/06 13:16:03.000   28.316434570  -16.458119369  1376.7236   1   8   0.0019   0.0014   0.0413  -0.0004   0.0027  -0.0061   3.00  999.9
2024/05/06 13:16:04.000   28.316434571  -16.458119369  1376.7235   1   8   0.0019   0.0014   0.0413  -0.0004   0.0027  -0.0061   4.00  999.9
2024/05/06 13:16:05.000   28.316434571  -16.458119369  1376.7235   1   8   0.0019   0.0014   0.0413  -0.0004   0.0027  -0.0061   5.00  999.9
2024/05/06 13:16:06.000   28.316434571  -16.458119369  1376.7235   1   8   0.0019   0.0014   0.0413  -0.0004   0.0027  -0.0061   6.00  999.9
2024/05/06 13:16:07.000   28.316434571  -16.458119369  1376.7236   1   8   0.0019   0.0014   0.0413  -0.0004   0.0028  -0.0061   7.00  999.9
2024/05/06 13:16:08.000   28.316434572  -16.458119369  1376.7237   1   8   0.0019   0.0014   0.0413  -0.0004   0.0028  -0.0061   8.00  999.9
2024/05/06 13:16:09.000   28.316434572  -16.458119369  1376.7238   1   8   0.0019   0.0014   0.0413  -0.0004   0.0028  -0.0061   9.00  999.4
2024/05/06 13:16:10.000   28.316434572  -16.458119369  1376.7238   1   8   0.0019   0.0014   0.0413  -0.0004   0.0028  -0.0061  10.00  994.3
2024/05/06 13:16:11.000   28.316434572  -16.458119369  1376.7238   1   8   0.0019   0.0014   0.0413  -0.0004   0.0028  -0.0061  11.00  990.0
2024/05/06 13:16:12.000   28.316434572  -16.458119369  1376.7239   1   8   0.0019   0.0014   0.0413  -0.0004   0.0028  -0.0061  12.00  986.3
2024/05/06 13:16:13.000   28.316434572  -16.458119369  1376.7240   1   8   0.0019   0.0014   0.0413  -0.0004   0.0028  -0.0061  13.00  982.4
2024/05/06 13:16:14.000   28.316434572  -16.458119369  1376.7242   1   8   0.0019   0.0014   0.0413  -0.0004   0.0028  -0.0061  14.00  978.2
2024/05/06 13:16:15.000   28.316434572  -16.458119369  1376.7243   1   8   0.0019   0.0014   0.0413  -0.0004   0.0028  -0.0061  15.00  974.9
2024/05/06 13:16:16.000   28.316434572  -16.458119369  1376.7244   1   8   0.0019   0.0014   0.0413  -0.0004   0.0028  -0.0061 -14.00  971.6
2024/05/06 13:16:17.000   28.316434572  -16.458119369  1376.7245   1   8   0.0019   0.0014   0.0412  -0.0004   0.0028  -0.0061 -13.00  968.2
2024/05/06 13:16:18.000   28.316434572  -16.458119369  1376.7247   1   8   0.0019   0.0014   0.0412  -0.0004   0.0028  -0.0061 -12.00  964.9
2024/05/06 13:16:19.000   28.316434572  -16.458119369  1376.7248   1   8   0.0019   0.0014   0.0412  -0.0004   0.0028  -0.0061 -11.00  960.1
2024/05/06 13:16:20.000   28.316434572  -16.458119369  1376.7249   1   8   0.0019   0.0014   0.0412  -0.0004   0.0028  -0.0061 -10.00  955.5
2024/05/06 13:16:21.000   28.316434572  -16.458119369  1376.7249   1   8   0.0019   0.0014   0.0412  -0.0004   0.0028  -0.0061  -9.00  951.2
2024/05/06 13:16:22.000   28.316434572  -16.458119369  1376.7250   1   8   0.0019   0.0014   0.0412  -0.0004   0.0028  -0.0061  -8.00  946.3
2024/05/06 13:16:23.000   28.316434572  -16.458119369  1376.7251   1   8   0.0019   0.0014   0.0412  -0.0004   0.0028  -0.0061  -7.00  940.3
2024/05/06 13:16:24.000   28.316434572  -16.458119369  1376.7251   1   8   0.0019   0.0014   0.0412  -0.0004   0.0028  -0.0061  -6.00  933.7
2024/05/06 13:16:25.000   28.316434572  -16.458119369  1376.7252   1   8   0.0019   0.0014   0.0412  -0.0004   0.0028  -0.0061  -5.00  926.5
2024/05/06 13:16:26.000   28.316434573  -16.458119369  1376.7252   1   8   0.0019   0.0014   0.0412  -0.0004   0.0028  -0.0061  -4.00  919.0
2024/05/06 13:16:27.000   28.316434573  -16.458119368  1376.7251   1   8   0.0019   0.0014   0.0412  -0.0004   0.0028  -0.0061  -3.00  909.4
2024/05/06 13:16:28.000   28.316434573  -16.458119368  1376.7250   1   8   0.0019   0.0014   0.0412  -0.0004   0.0028  -0.0061  -2.00  899.6
2024/05/06 13:16:29.000   28.316434574  -16.458119368  1376.7246   1   8   0.0019   0.0014   0.0412  -0.0004   0.0028  -0.0061  -1.00  888.6
2024/05/06 13:16:30.000   28.316434574  -16.458119368  1376.7243   1   8   0.0019   0.0014   0.0412  -0.0004   0.0028  -0.0061   0.00  877.8
2024/05/06 13:16:31.000   28.316434575  -16.458119368  1376.7238   1   8   0.0019   0.0014   0.0413  -0.0004   0.0028  -0.0061   1.00  868.8
2024/05/06 13:16:32.000   28.316434576  -16.458119368  1376.7236   1   8   0.0019   0.0014   0.0413  -0.0004   0.0028  -0.0062   2.00  857.2
2024/05/06 13:16:33.000   28.316434577  -16.458119368  1376.7235   1   8   0.0019   0.0014   0.0413  -0.0004   0.0028  -0.0062   3.00  846.6
2024/05/06 13:16:34.000   28.316434577  -16.458119368  1376.7235   1   8   0.0019   0.0014   0.0413  -0.0004   0.0028  -0.0062   4.00  838.4
2024/05/06 13:16:35.000   28.316434577  -16.458119368  1376.7235   1   8   0.0019   0.0014   0.0413  -0.0004   0.0028  -0.0062   5.00  833.1
2024/05/06 13:16:36.000   28.316434578  -16.458119368  1376.7237   1   8   0.0019   0.0014   0.0413  -0.0004   0.0028  -0.0062   6.00  829.7
2024/05/06 13:16:37.000   28.316434578  -16.458119368  1376.7240   1   8   0.0019   0.0014   0.0413  -0.0004   0.0028  -0.0062   7.00  825.3
2024/05/06 13:16:38.000   28.316434578  -16.458119368  1376.7241   1   8   0.0019   0.0015   0.0413  -0.0004   0.0028  -0.0062   8.00  821.8
2024/05/06 13:16:39.000   28.316434578  -16.458119369  1376.7243   1   8   0.0019   0.0015   0.0413  -0.0004   0.0028  -0.0062   9.00  819.0
2024/05/06 13:16:40.000   28.316434578  -16.458119369  1376.7245   1   8   0.0019   0.0014   0.0413  -0.0004   0.0028  -0.0062  10.00  816.0
2024/05/06 13:16:41.000   28.316434578  -16.458119369  1376.7247   1   8   0.0019   0.0014   0.0413  -0.0004   0.0028  -0.0062  11.00  814.1
2024/05/06 13:16:42.000   28.316434578  -16.458119369  1376.7248   1   8   0.0019   0.0014   0.0413  -0.0004   0.0028  -0.0062  12.00  811.6
2024/05/06 13:16:43.000   28.316434578  -16.458119369  1376.7250   1   8   0.0019   0.0014   0.0413  -0.0004   0.0028  -0.0062  13.00  809.7
2024/05/06 13:16:44.000   28.316434578  -16.458119369  1376.7252   1   8   0.0019   0.0014   0.0413  -0.0004   0.0028  -0.0062  14.00  808.2
2024/05/06 13:16:45.000   28.316434578  -16.458119369  1376.7254   1   8   0.0019   0.0014   0.0412  -0.0004   0.0028  -0.0062  15.00  806.6
2024/05/06 13:16:46.000   28.316434578  -16.458119369  1376.7256   1   8   0.0019   0.0014   0.0412  -0.0004   0.0028  -0.0062 -14.00  804.6
2024/05/06 13:16:47.000   28.316434578  -16.458119369  1376.7258   1   8   0.0019   0.0014   0.0412  -0.0004   0.0028  -0.0062 -13.00  802.7
2024/05/06 13:16:48.000   28.316434578  -16.458119369  1376.7260   1   8   0.0019   0.0014   0.0412  -0.0004   0.0028  -0.0062 -12.00  800.8
2024/05/06 13:16:49.000   28.316434578  -16.458119369  1376.7261   1   8   0.0019   0.0014   0.0412  -0.0004   0.0028  -0.0062 -11.00  799.0
2024/05/06 13:16:50.000   28.316434579  -16.458119369  1376.7263   1   8   0.0019   0.0014   0.0412  -0.0004   0.0028  -0.0062 -10.00  796.5
2024/05/06 13:16:51.000   28.316434579  -16.458119369  1376.7265   1   8   0.0019   0.0014   0.0412  -0.0004   0.0028  -0.0062  -9.00  793.8
2024/05/06 13:16:52.000   28.316434579  -16.458119369  1376.7266   1   8   0.0019   0.0014   0.0412  -0.0004   0.0028  -0.0062  -8.00  790.9
2024/05/06 13:16:53.000   28.316434579  -16.458119369  1376.7268   1   8   0.0019   0.0014   0.0412  -0.0004   0.0028  -0.0062  -7.00  787.4
2024/05/06 13:16:54.000   28.316434579  -16.458119369  1376.7269   1   8   0.0019   0.0014   0.0412  -0.0004   0.0028  -0.0062  -6.00  784.0
2024/05/06 13:16:55.000   28.316434579  -16.458119369  1376.7270   1   8   0.0019   0.0014   0.0412  -0.0004   0.0028  -0.0062  -5.00  779.8
2024/05/06 13:16:56.000   28.316434579  -16.458119369  1376.7271   1   8   0.0019   0.0014   0.0412  -0.0004   0.0028  -0.0062  -4.00  774.3
2024/05/06 13:16:57.000   28.316434580  -16.458119369  1376.7272   1   8   0.0019   0.0014   0.0412  -0.0004   0.0028  -0.0062  -3.00  767.6
2024/05/06 13:16:58.000   28.316434580  -16.458119369  1376.7272   1   8   0.0019   0.0014   0.0412  -0.0004   0.0028  -0.0062  -2.00  760.9
2024/05/06 13:16:59.000   28.316434580  -16.458119369  1376.7271   1   8   0.0019   0.0014   0.0412  -0.0004   0.0028  -0.0062  -1.00  754.2
2024/05/06 13:17:00.000   28.316434581  -16.458119369  1376.7273   1   8   0.0019   0.0014   0.0412  -0.0004   0.0028  -0.0062   0.00  746.5
2024/05/06 13:17:01.000   28.316434581  -16.458119369  1376.7273   1   7   0.0019   0.0015   0.0412  -0.0004   0.0028  -0.0062   1.00  737.4
2024/05/06 13:17:02.000   28.316434581  -16.458119369  1376.7273   1   7   0.0019   0.0015   0.0413  -0.0004   0.0028  -0.0062   2.00  729.2
2024/05/06 13:17:03.000   28.316434581  -16.458119369  1376.7274   1   7   0.0019   0.0015   0.0413  -0.0004   0.0028  -0.0062   3.00  719.4
2024/05/06 13:17:04.000   28.316434582  -16.458119369  1376.7274   1   7   0.0019   0.0015   0.0413  -0.0004   0.0028  -0.0062   4.00  711.6
2024/05/06 13:17:05.000   28.316434582  -16.458119369  1376.7276   1   7   0.0019   0.0015   0.0413  -0.0004   0.0028  -0.0062   5.00  703.8
2024/05/06 13:17:06.000   28.316434582  -16.458119369  1376.7276   1   7   0.0019   0.0015   0.0413  -0.0004   0.0028  -0.0062   6.00  700.0
2024/05/06 13:17:07.000   28.316434582  -16.458119369  1376.7276   1   7   0.0019   0.0015   0.0413  -0.0004   0.0028  -0.0063   7.00  694.1
2024/05/06 13:17:08.000   28.316434582  -16.458119369  1376.7276   1   7   0.0019   0.0015   0.0413  -0.0004   0.0028  -0.0063   8.00  689.9
2024/05/06 13:17:09.000   28.316434582  -16.458119369  1376.7277   1   7   0.0019   0.0015   0.0413  -0.0004   0.0028  -0.0063   9.00  686.7
2024/05/06 13:17:10.000   28.316434582  -16.458119369  1376.7277   1   7   0.0019   0.0015   0.0413  -0.0004   0.0028  -0.0063  10.00  683.7
2024/05/06 13:17:11.000   28.316434582  -16.458119369  1376.7277   1   7   0.0019   0.0015   0.0413  -0.0004   0.0028  -0.0063  11.00  680.5
2024/05/06 13:17:12.000   28.316434582  -16.458119369  1376.7277   1   7   0.0019   0.0015   0.0413  -0.0004   0.0028  -0.0063  12.00  677.6
2024/05/06 13:17:13.000   28.316434582  -16.458119369  1376.7277   1   7   0.0019   0.0015   0.0412  -0.0004   0.0028  -0.0062  13.00  674.5
2024/05/06 13:17:14.000   28.316434582  -16.458119368  1376.7278   1   7   0.0019   0.0015   0.0412  -0.0004   0.0028  -0.0062  14.00  672.0
2024/05/06 13:17:15.000   28.316434582  -16.458119368  1376.7279   1   7   0.0019   0.0015   0.0412  -0.0004   0.0028  -0.0062  15.00  669.2
2024/05/06 13:17:16.000   28.316434582  -16.458119368  1376.7280   1   7   0.0019   0.0015   0.0412  -0.0004   0.0028  -0.0062 -14.00  666.3
2024/05/06 13:17:17.000   28.316434582  -16.458119368  1376.7281   1   7   0.0019   0.0015   0.0412  -0.0004   0.0028  -0.0062 -13.00  663.5
2024/05/06 13:17:18.000   28.316434582  -16.458119368  1376.7282   1   7   0.0019   0.0015   0.0412  -0.0004   0.0028  -0.0062 -12.00  660.6
2024/05/06 13:17:19.000   28.316434582  -16.458119368  1376.7283   1   7   0.0019   0.0015   0.0412  -0.0004   0.0028  -0.0062 -11.00  657.6
2024/05/06 13:17:20.000   28.316434582  -16.458119368  1376.7284   1   7   0.0019   0.0015   0.0412  -0.0004   0.0028  -0.0062 -10.00  654.6
2024/05/06 13:17:21.000   28.316434582  -16.458119368  1376.7284   1   7   0.0019   0.0015   0.0411  -0.0004   0.0028  -0.0062  -9.00  651.5
2024/05/06 13:17:22.000   28.316434582  -16.458119368  1376.7284   1   7   0.0019   0.0015   0.0411  -0.0004   0.0028  -0.0062  -8.00  648.8
2024/05/06 13:17:23.000   28.316434582  -16.458119368  1376.7285   1   7   0.0019   0.0015   0.0411  -0.0004   0.0028  -0.0062  -7.00  645.4
2024/05/06 13:17:24.000   28.316434582  -16.458119368  1376.7285   1   7   0.0019   0.0015   0.0411  -0.0004   0.0028  -0.0062  -6.00  641.7
2024/05/06 13:17:25.000   28.316434582  -16.458119368  1376.7285   1   7   0.0019   0.0015   0.0411  -0.0004   0.0029  -0.0062  -5.00  637.3
2024/05/06 13:17:26.000   28.316434583  -16.458119368  1376.7285   1   7   0.0019   0.0015   0.0411  -0.0004   0.0029  -0.0062  -4.00  634.3
2024/05/06 13:17:27.000   28.316434583  -16.458119368  1376.7285   1   7   0.0019   0.0015   0.0411  -0.0004   0.0029  -0.0062  -3.00  630.7
2024/05/06 13:17:28.000   28.316434583  -16.458119368  1376.7283   1   7   0.0019   0.0015   0.0411  -0.0004   0.0029  -0.0063  -2.00  624.9
2024/05/06 13:17:29.000   28.316434583  -16.458119368  1376.7282   1   7   0.0019   0.0015   0.0411  -0.0004   0.0029  -0.0063  -1.00  619.4
2024/05/06 13:17:30.000   28.316434583  -16.458119368  1376.7280   1   7   0.0020   0.0015   0.0412  -0.0004   0.0029  -0.0063   0.00  612.3
2024/05/06 13:17:31.000   28.316434584  -16.458119368  1376.7277   1   7   0.0020   0.0015   0.0412  -0.0004   0.0029  -0.0063   1.00  605.6
2024/05/06 13:17:32.000   28.316434584  -16.458119368  1376.7276   1   7   0.0020   0.0015   0.0412  -0.0004   0.0029  -0.0063   2.00  599.4
2024/05/06 13:17:33.000   28.316434584  -16.458119368  1376.7276   1   7   0.0020   0.0015   0.0412  -0.0004   0.0029  -0.0063   3.00  593.3
2024/05/06 13:17:34.000   28.316434585  -16.458119368  1376.7275   1   7   0.0020   0.0015   0.0412  -0.0005   0.0029  -0.0063   4.00  587.0
2024/05/06 13:17:35.000   28.316434585  -16.458119368  1376.7275   1   7   0.0020   0.0015   0.0412  -0.0005   0.0029  -0.0063   5.00  583.3
2024/05/06 13:17:36.000   28.316434585  -16.458119368  1376.7275   1   7   0.0020   0.0015   0.0412  -0.0005   0.0029  -0.0063   6.00  579.3
2024/05/06 13:17:37.000   28.316434585  -16.458119368  1376.7276   1   7   0.0020   0.0015   0.0412  -0.0005   0.0029  -0.0063   7.00  576.3
2024/05/06 13:17:38.000   28.316434585  -16.458119368  1376.7276   1   7   0.0020   0.0015   0.0412  -0.0005   0.0029  -0.0063   8.00  573.3
2024/05/06 13:17:39.000   28.316434585  -16.458119368  1376.7276   1   7   0.0020   0.0015   0.0412  -0.0005   0.0029  -0.0063   9.00  570.6
2024/05/06 13:17:40.000   28.316434586  -16.458119368  1376.7276   1   7   0.0020   0.0015   0.0412  -0.0005   0.0029  -0.0063  10.00  567.9
2024/05/06 13:17:41.000   28.316434586  -16.458119368  1376.7277   1   7   0.0020   0.0015   0.0412  -0.0005   0.0029  -0.0063  11.00  565.7
2024/05/06 13:17:42.000   28.316434586  -16.458119368  1376.7277   1   7   0.0020   0.0015   0.0412  -0.0005   0.0029  -0.0063  12.00  563.6
2024/05/06 13:17:43.000   28.316434586  -16.458119368  1376.7278   1   7   0.0020   0.0015   0.0412  -0.0005   0.0029  -0.0063  13.00  561.4
2024/05/06 13:17:44.000   28.316434586  -16.458119368  1376.7279   1   7   0.0020   0.0015   0.0412  -0.0005   0.0029  -0.0063  14.00  559.4
2024/05/06 13:17:45.000   28.316434586  -16.458119368  1376.7279   1   7   0.0020   0.0015   0.0412  -0.0005   0.0029  -0.0063  15.00  557.5
2024/05/06 13:17:46.000   28.316434586  -16.458119368  1376.7280   1   7   0.0020   0.0015   0.0411  -0.0005   0.0029  -0.0063 -14.00  555.6
2024/05/06 13:17:47.000   28.316434585  -16.458119368  1376.7281   1   7   0.0020   0.0015   0.0411  -0.0005   0.0029  -0.0063 -13.00  553.7
2024/05/06 13:17:48.000   28.316434585  -16.458119368  1376.7282   1   7   0.0020   0.0015   0.0411  -0.0005   0.0029  -0.0063 -12.00  551.9
2024/05/06 13:17:49.000   28.316434585  -16.458119368  1376.7282   1   7   0.0020   0.0015   0.0411  -0.0005   0.0029  -0.0063 -11.00  549.8
2024/05/06 13:17:50.000   28.316434585  -16.458119368  1376.7283   1   7   0.0020   0.0015   0.0411  -0.0005   0.0029  -0.0063 -10.00  548.1
2024/05/06 13:17:51.000   28.316434585  -16.458119368  1376.7283   1   7   0.0020   0.0015   0.0411  -0.0005   0.0029  -0.0063  -9.00  545.8
2024/05/06 13:17:52.000   28.316434585  -16.458119368  1376.7283   1   7   0.0020   0.0015   0.0411  -0.0005   0.0029  -0.0063  -8.00  544.0
2024/05/06 13:17:53.000   28.316434585  -16.458119368  1376.7283   1   7   0.0020   0.0015   0.0411  -0.0005   0.0029  -0.0063  -7.00  541.6
2024/05/06 13:17:54.000   28.316434585  -16.458119368  1376.7283   1   7   0.0020   0.0015   0.0411  -0.0005   0.0029  -0.0063  -6.00  539.5
2024/05/06 13:17:55.000   28.316434585  -16.458119368  1376.7283   1   7   0.0020   0.0015   0.0411  -0.0005   0.0029  -0.0063  -5.00  537.1
2024/05/06 13:17:56.000   28.316434585  -16.458119368  1376.7282   1   7   0.0020   0.0015   0.0411  -0.0005   0.0029  -0.0063  -4.00  533.9
2024/05/06 13:17:57.000   28.316434585  -16.458119368  1376.7283   1   7   0.0020   0.0015   0.0411  -0.0005   0.0029  -0.0063  -3.00  530.2
2024/05/06 13:17:58.000   28.316434585  -16.458119368  1376.7285   1   7   0.0020   0.0015   0.0411  -0.0005   0.0029  -0.0063  -2.00  526.4
2024/05/06 13:17:59.000   28.316434585  -16.458119368  1376.7287   1   7   0.0020   0.0015   0.0411  -0.0005   0.0029  -0.0063  -1.00  523.4
2024/05/06 13:18:00.000   28.316434585  -16.458119368  1376.7290   1   7   0.0020   0.0015   0.0411  -0.0005   0.0029  -0.0063   0.00  520.9
2024/05/06 13:18:01.000   28.316434585  -16.458119368  1376.7294   1   7   0.0020   0.0015   0.0411  -0.0005   0.0029  -0.0063   1.00  518.4
2024/05/06 13:18:02.000   28.316434585  -16.458119367  1376.7298   1   7   0.0020   0.0015   0.0412  -0.0005   0.0029  -0.0063   2.00  514.8
2024/05/06 13:18:03.000   28.316434585  -16.458119367  1376.7302   1   7   0.0020   0.0015   0.0412  -0.0005   0.0029  -0.0064   3.00  510.4
2024/05/06 13:18:04.000   28.316434585  -16.458119367  1376.7306   1   7   0.0020   0.0015   0.0412  -0.0005   0.0029  -0.0064   4.00  505.6
2024/05/06 13:18:05.000   28.316434585  -16.458119367  1376.7309   1   7   0.0020   0.0015   0.0412  -0.0005   0.0029  -0.0064   5.00  502.2
2024/05/06 13:18:06.000   28.316434585  -16.458119366  1376.7311   1   7   0.0020   0.0015   0.0412  -0.0005   0.0029  -0.0064   6.00  498.8
2024/05/06 13:18:07.000   28.316434585  -16.458119366  1376.7313   1   7   0.0020   0.0015   0.0412  -0.0005   0.0029  -0.0064   7.00  496.0
2024/05/06 13:18:08.000   28.316434585  -16.458119366  1376.7316   1   7   0.0020   0.0015   0.0412  -0.0005   0.0029  -0.0064   8.00  493.0
2024/05/06 13:18:09.000   28.316434585  -16.458119366  1376.7319   1   7   0.0020   0.0015   0.0412  -0.0005   0.0029  -0.0064   9.00  490.1
2024/05/06 13:18:10.000   28.316434584  -16.458119366  1376.7320   1   7   0.0020   0.0015   0.0412  -0.0005   0.0029  -0.0064  10.00  487.4
2024/05/06 13:18:11.000   28.316434584  -16.458119366  1376.7323   1   7   0.0020   0.0015   0.0412  -0.0005   0.0029  -0.0064  11.00  485.0
2024/05/06 13:18:12.000   28.316434584  -16.458119366  1376.7325   1   7   0.0020   0.0015   0.0412  -0.0005   0.0029  -0.0064  12.00  482.6
