% program   : RTKPOST-EX 2.5.0
% inp file  : C:\Users\SallyHenry\Desktop\Sally Internship\GNSS gravi\DATA\Survey Rover Obs\GUI09.24o
% inp file  : C:\Users\SallyHenry\Desktop\Sally Internship\GNSS gravi\DATA\BaseStations\TN01\TN0100ESP_R_20241290000_01D_30S_MO.rnx
% inp file  : C:\Users\SallyHenry\Desktop\Sally Internship\GNSS gravi\DATA\BaseStations\TN01\TN0100ESP_R_20241290000_01D_MN.rnx
% inp file  : C:\Users\SallyHenry\Desktop\Sally Internship\GNSS gravi\DATA\aux_files\Survey\IGS0OPSFIN_20241290000_01D_15M_ORB.SP3
% inp file  : C:\Users\SallyHenry\Desktop\Sally Internship\GNSS gravi\DATA\aux_files\Survey\IGS0OPSFIN_20241290000_01D_30S_CLK.CLK
% obs start : 2024/05/08 09:43:14.0 GPST (week2313 294194.0s)
% obs end   : 2024/05/08 09:58:15.0 GPST (week2313 295095.0s)
% pos mode  : Static
% freqs     : L1+L2/E5b
% solution  : Combined-No Phase Reset
% elev mask : 15.0 deg
% dynamics  : on
% tidecorr  : solid
% ionos opt : Estimate TEC
% tropo opt : Estimate ZTD+Grad
% ephemeris : Precise
% navi sys  : GPS GLONASS Galileo QZSS BDS
% amb res   : Fix and Hold
% amb glo   : Fix and Hold
% amb bds   : on
% val thres : 3.0
% antenna1  :                       ( 0.0000  0.0000  1.8000)
% antenna2  :                       ( 0.0000  0.0000  0.0771)
% ref pos   :  28.477186930  -16.241151700    51.7531
%
% (lat/lon/height=WGS84/ellipsoidal,Q=1:fix,2:float,3:sbas,4:dgps,5:single,6:ppp,ns=# of satellites)
%  GPST                  latitude(deg) longitude(deg)  height(m)   Q  ns   sdn(m)   sde(m)   sdu(m)  sdne(m)  sdeu(m)  sdun(m) age(s)  ratio
2024/05/08 09:43:14.000   28.411248498  -16.348042337   536.0516   2   6   0.0177   0.0586   0.1677   0.0252  -0.0822  -0.0347 -16.00    0.0
2024/05/08 09:43:15.000   28.411248499  -16.348042334   536.0507   2   6   0.0177   0.0586   0.1677   0.0252  -0.0821  -0.0346 -15.00    0.0
2024/05/08 09:43:16.000   28.411248499  -16.348042332   536.0501   2   6   0.0177   0.0586   0.1676   0.0251  -0.0821  -0.0346 -14.00    0.0
2024/05/08 09:43:17.000   28.411248500  -16.348042330   536.0497   2   6   0.0177   0.0585   0.1675   0.0251  -0.0820  -0.0346 -13.00    0.0
2024/05/08 09:43:18.000   28.411248500  -16.348042328   536.0492   2   6   0.0177   0.0585   0.1674   0.0251  -0.0820  -0.0346 -12.00    0.0
2024/05/08 09:43:19.000   28.411248501  -16.348042324   536.0485   2   6   0.0177   0.0585   0.1673   0.0251  -0.0819  -0.0345 -11.00    0.0
2024/05/08 09:43:20.000   28.411248502  -16.348042323   536.0479   2   6   0.0177   0.0584   0.1673   0.0251  -0.0818  -0.0345 -10.00    0.0
2024/05/08 09:43:21.000   28.411248502  -16.348042323   536.0476   2   6   0.0177   0.0584   0.1672   0.0251  -0.0818  -0.0345  -9.00    0.0
2024/05/08 09:43:22.000   28.411248503  -16.348042322   536.0473   2   6   0.0177   0.0584   0.1672   0.0250  -0.0817  -0.0345  -8.00    0.0
2024/05/08 09:43:23.000   28.411248504  -16.348042322   536.0468   2   6   0.0177   0.0583   0.1671   0.0250  -0.0817  -0.0344  -7.00    0.0
2024/05/08 09:43:24.000   28.411248505  -16.348042322   536.0461   2   6   0.0177   0.0583   0.1671   0.0250  -0.0816  -0.0344  -6.00    0.0
2024/05/08 09:43:25.000   28.411248507  -16.348042320   536.0453   2   6   0.0177   0.0583   0.1670   0.0250  -0.0816  -0.0344  -5.00    0.0
2024/05/08 09:43:26.000   28.411248508  -16.348042322   536.0451   2   6   0.0177   0.0583   0.1670   0.0250  -0.0815  -0.0344  -4.00    0.0
2024/05/08 09:43:27.000   28.411248511  -16.348042320   536.0440   2   6   0.0177   0.0582   0.1670   0.0250  -0.0815  -0.0343  -3.00    0.0
2024/05/08 09:43:28.000   28.411248514  -16.348042320   536.0443   2   6   0.0177   0.0582   0.1670   0.0250  -0.0815  -0.0343  -2.00    0.0
2024/05/08 09:43:29.000   28.411248518  -16.348042318   536.0443   2   6   0.0177   0.0582   0.1671   0.0250  -0.0814  -0.0343  -1.00    0.0
2024/05/08 09:43:30.000   28.411248522  -16.348042321   536.0455   2   6   0.0178   0.0582   0.1671   0.0249  -0.0814  -0.0343   0.00    0.0
2024/05/08 09:43:31.000   28.411248525  -16.348042329   536.0491   2   6   0.0178   0.0582   0.1672   0.0249  -0.0813  -0.0342   1.00    0.0
2024/05/08 09:43:32.000   28.411248528  -16.348042334   536.0501   2   6   0.0178   0.0582   0.1673   0.0249  -0.0813  -0.0342   2.00    0.0
2024/05/08 09:43:33.000   28.411248531  -16.348042340   536.0524   2   6   0.0178   0.0582   0.1673   0.0249  -0.0813  -0.0342   3.00    0.0
2024/05/08 09:43:34.000   28.411248532  -16.348042346   536.0538   2   6   0.0178   0.0582   0.1673   0.0249  -0.0812  -0.0342   4.00    0.0
2024/05/08 09:43:35.000   28.411248534  -16.348042350   536.0547   2   6   0.0178   0.0582   0.1674   0.0249  -0.0812  -0.0341   5.00    0.0
2024/05/08 09:43:36.000   28.411248536  -16.348042353   536.0551   2   6   0.0178   0.0581   0.1674   0.0249  -0.0812  -0.0341   6.00    0.0
2024/05/08 09:43:37.000   28.411248536  -16.348042358   536.0558   2   6   0.0178   0.0581   0.1673   0.0249  -0.0811  -0.0341   7.00    0.0
2024/05/08 09:43:38.000   28.411248537  -16.348042358   536.0559   2   6   0.0178   0.0581   0.1673   0.0249  -0.0811  -0.0341   8.00    0.0
2024/05/08 09:43:39.000   28.411248537  -16.348042361   536.0559   2   6   0.0178   0.0581   0.1673   0.0249  -0.0810  -0.0341   9.00    0.0
2024/05/08 09:43:40.000   28.411248537  -16.348042362   536.0560   2   6   0.0178   0.0580   0.1672   0.0248  -0.0810  -0.0340  10.00    0.0
2024/05/08 09:43:41.000   28.411248537  -16.348042361   536.0555   2   6   0.0178   0.0580   0.1672   0.0248  -0.0809  -0.0340  11.00    0.0
2024/05/08 09:43:42.000   28.411248537  -16.348042361   536.0551   2   6   0.0178   0.0580   0.1671   0.0248  -0.0809  -0.0340  12.00    0.0
2024/05/08 09:43:43.000   28.411248537  -16.348042363   536.0551   2   6   0.0178   0.0579   0.1671   0.0248  -0.0808  -0.0340  13.00    0.0
2024/05/08 09:43:44.000   28.411248538  -16.348042361   536.0548   2   6   0.0178   0.0579   0.1670   0.0248  -0.0808  -0.0339  14.00    0.0
2024/05/08 09:43:45.000   28.411248538  -16.348042361   536.0546   2   6   0.0178   0.0579   0.1670   0.0248  -0.0807  -0.0339 -15.00    0.0
2024/05/08 09:43:46.000   28.411248538  -16.348042360   536.0544   2   6   0.0178   0.0579   0.1669   0.0248  -0.0807  -0.0339 -14.00    0.0
2024/05/08 09:43:47.000   28.411248539  -16.348042357   536.0541   2   6   0.0178   0.0578   0.1669   0.0247  -0.0806  -0.0339 -13.00    0.0
2024/05/08 09:43:48.000   28.411248539  -16.348042357   536.0541   2   6   0.0178   0.0578   0.1668   0.0247  -0.0806  -0.0338 -12.00    0.0
2024/05/08 09:43:49.000   28.411248540  -16.348042357   536.0539   2   6   0.0178   0.0578   0.1668   0.0247  -0.0805  -0.0338 -11.00    0.0
2024/05/08 09:43:50.000   28.411248540  -16.348042358   536.0539   2   6   0.0178   0.0577   0.1667   0.0247  -0.0805  -0.0338 -10.00    0.0
2024/05/08 09:43:51.000   28.411248540  -16.348042359   536.0539   2   6   0.0178   0.0577   0.1667   0.0247  -0.0804  -0.0338  -9.00    0.0
2024/05/08 09:43:52.000   28.411248540  -16.348042359   536.0540   2   6   0.0178   0.0577   0.1667   0.0247  -0.0804  -0.0338  -8.00    0.0
2024/05/08 09:43:53.000   28.411248541  -16.348042361   536.0540   2   6   0.0178   0.0577   0.1666   0.0247  -0.0803  -0.0337  -7.00    0.0
2024/05/08 09:43:54.000   28.411248541  -16.348042364   536.0545   2   6   0.0178   0.0576   0.1666   0.0246  -0.0803  -0.0337  -6.00    0.0
2024/05/08 09:43:55.000   28.411248543  -16.348042364   536.0547   2   6   0.0178   0.0576   0.1666   0.0246  -0.0803  -0.0337  -5.00    0.0
2024/05/08 09:43:56.000   28.411248545  -16.348042367   536.0550   2   6   0.0178   0.0576   0.1665   0.0246  -0.0802  -0.0337  -4.00    0.0
2024/05/08 09:43:57.000   28.411248546  -16.348042369   536.0546   2   6   0.0178   0.0576   0.1665   0.0246  -0.0802  -0.0336  -3.00    0.0
2024/05/08 09:43:58.000   28.411248549  -16.348042374   536.0553   2   6   0.0178   0.0576   0.1666   0.0246  -0.0801  -0.0336  -2.00    0.0
2024/05/08 09:43:59.000   28.411248551  -16.348042378   536.0564   2   6   0.0178   0.0576   0.1666   0.0246  -0.0801  -0.0336  -1.00    0.0
2024/05/08 09:44:00.000   28.411248553  -16.348042384   536.0576   2   6   0.0179   0.0575   0.1667   0.0246  -0.0800  -0.0336   0.00    0.0
2024/05/08 09:44:01.000   28.411248556  -16.348042392   536.0585   2   6   0.0179   0.0575   0.1667   0.0246  -0.0800  -0.0336   1.00    0.0
2024/05/08 09:44:02.000   28.411248558  -16.348042400   536.0600   2   6   0.0179   0.0575   0.1668   0.0246  -0.0800  -0.0335   2.00    0.0
2024/05/08 09:44:03.000   28.411248560  -16.348042405   536.0614   2   6   0.0179   0.0575   0.1669   0.0246  -0.0800  -0.0335   3.00    0.0
2024/05/08 09:44:04.000   28.411248562  -16.348042410   536.0633   2   6   0.0179   0.0575   0.1669   0.0246  -0.0799  -0.0335   4.00    0.0
2024/05/08 09:44:05.000   28.411248563  -16.348042414   536.0641   2   6   0.0179   0.0575   0.1670   0.0245  -0.0799  -0.0335   5.00    0.0
2024/05/08 09:44:06.000   28.411248564  -16.348042415   536.0641   2   6   0.0179   0.0575   0.1670   0.0245  -0.0799  -0.0335   6.00    0.0
2024/05/08 09:44:07.000   28.411248566  -16.348042417   536.0648   2   6   0.0179   0.0575   0.1670   0.0245  -0.0798  -0.0334   7.00    0.0
2024/05/08 09:44:08.000   28.411248567  -16.348042418   536.0652   2   6   0.0179   0.0574   0.1670   0.0245  -0.0798  -0.0334   8.00    0.0
2024/05/08 09:44:09.000   28.411248568  -16.348042419   536.0658   2   6   0.0179   0.0574   0.1669   0.0245  -0.0797  -0.0334   9.00    0.0
2024/05/08 09:44:10.000   28.411248569  -16.348042419   536.0659   2   6   0.0179   0.0574   0.1669   0.0245  -0.0797  -0.0334  10.00    0.0
2024/05/08 09:44:11.000   28.411248570  -16.348042419   536.0663   2   6   0.0179   0.0574   0.1669   0.0245  -0.0797  -0.0334  11.00    0.0
2024/05/08 09:44:12.000   28.411248571  -16.348042418   536.0667   2   6   0.0179   0.0573   0.1669   0.0245  -0.0796  -0.0333  12.00    0.0
2024/05/08 09:44:13.000   28.411248572  -16.348042418   536.0669   2   6   0.0179   0.0573   0.1668   0.0245  -0.0796  -0.0333  13.00    0.0
2024/05/08 09:44:14.000   28.411248572  -16.348042418   536.0670   2   6   0.0179   0.0573   0.1668   0.0244  -0.0795  -0.0333  14.00    0.0
2024/05/08 09:44:15.000   28.411248573  -16.348042417   536.0668   2   6   0.0179   0.0573   0.1668   0.0244  -0.0795  -0.0333 -15.00    0.0
2024/05/08 09:44:16.000   28.411248573  -16.348042416   536.0669   2   6   0.0179   0.0572   0.1667   0.0244  -0.0795  -0.0333 -14.00    0.0
2024/05/08 09:44:17.000   28.411248574  -16.348042414   536.0667   2   6   0.0179   0.0572   0.1667   0.0244  -0.0794  -0.0332 -13.00    0.0
2024/05/08 09:44:18.000   28.411248575  -16.348042412   536.0666   2   6   0.0179   0.0572   0.1666   0.0244  -0.0794  -0.0332 -12.00    0.0
2024/05/08 09:44:19.000   28.411248577  -16.348042411   536.0667   2   6   0.0179   0.0572   0.1666   0.0244  -0.0793  -0.0332 -11.00    0.0
2024/05/08 09:44:20.000   28.411248578  -16.348042412   536.0674   2   6   0.0179   0.0571   0.1666   0.0244  -0.0793  -0.0332 -10.00    0.0
2024/05/08 09:44:21.000   28.411248579  -16.348042412   536.0680   2   6   0.0179   0.0571   0.1665   0.0244  -0.0792  -0.0332  -9.00    0.0
2024/05/08 09:44:22.000   28.411248580  -16.348042411   536.0686   2   6   0.0179   0.0571   0.1665   0.0243  -0.0792  -0.0331  -8.00    0.0
2024/05/08 09:44:23.000   28.411248582  -16.348042411   536.0695   2   6   0.0179   0.0571   0.1665   0.0243  -0.0792  -0.0331  -7.00    0.0
2024/05/08 09:44:24.000   28.411248584  -16.348042410   536.0698   2   6   0.0179   0.0570   0.1665   0.0243  -0.0791  -0.0331  -6.00    0.0
2024/05/08 09:44:25.000   28.411248586  -16.348042410   536.0704   2   6   0.0179   0.0570   0.1664   0.0243  -0.0791  -0.0331  -5.00    0.0
2024/05/08 09:44:26.000   28.411248588  -16.348042411   536.0716   2   6   0.0179   0.0570   0.1664   0.0243  -0.0790  -0.0331  -4.00    0.0
2024/05/08 09:44:27.000   28.411248590  -16.348042409   536.0719   2   6   0.0179   0.0570   0.1664   0.0243  -0.0790  -0.0330  -3.00    0.0
2024/05/08 09:44:28.000   28.411248591  -16.348042412   536.0729   2   6   0.0179   0.0570   0.1665   0.0243  -0.0790  -0.0330  -2.00    0.0
2024/05/08 09:44:29.000   28.411248593  -16.348042415   536.0751   2   6   0.0179   0.0570   0.1665   0.0243  -0.0789  -0.0330  -1.00    0.0
2024/05/08 09:44:30.000   28.411248595  -16.348042420   536.0771   2   6   0.0180   0.0570   0.1666   0.0243  -0.0789  -0.0330   0.00    0.0
2024/05/08 09:44:31.000   28.411248599  -16.348042426   536.0781   2   6   0.0180   0.0570   0.1667   0.0243  -0.0788  -0.0330   1.00    0.0
2024/05/08 09:44:32.000   28.411248601  -16.348042433   536.0801   2   6   0.0180   0.0569   0.1667   0.0242  -0.0788  -0.0329   2.00    0.0
2024/05/08 09:44:33.000   28.411248604  -16.348042438   536.0824   2   6   0.0180   0.0569   0.1668   0.0242  -0.0788  -0.0329   3.00    0.0
2024/05/08 09:44:34.000   28.411248606  -16.348042443   536.0846   2   6   0.0180   0.0569   0.1669   0.0242  -0.0788  -0.0329   4.00    0.0
2024/05/08 09:44:35.000   28.411248608  -16.348042446   536.0868   2   6   0.0180   0.0569   0.1669   0.0242  -0.0787  -0.0329   5.00    0.0
2024/05/08 09:44:36.000   28.411248609  -16.348042448   536.0889   2   6   0.0180   0.0569   0.1669   0.0242  -0.0787  -0.0329   6.00    0.0
2024/05/08 09:44:37.000   28.411248610  -16.348042451   536.0912   2   6   0.0180   0.0569   0.1669   0.0242  -0.0787  -0.0328   7.00    0.0
2024/05/08 09:44:38.000   28.411248612  -16.348042452   536.0927   2   6   0.0180   0.0569   0.1669   0.0242  -0.0786  -0.0328   8.00    0.0
2024/05/08 09:44:39.000   28.411248612  -16.348042456   536.0942   2   6   0.0180   0.0568   0.1669   0.0242  -0.0786  -0.0328   9.00    0.0
2024/05/08 09:44:40.000   28.411248613  -16.348042457   536.0950   2   6   0.0180   0.0568   0.1669   0.0242  -0.0786  -0.0328  10.00    0.0
2024/05/08 09:44:41.000   28.411248613  -16.348042458   536.0959   2   6   0.0180   0.0568   0.1669   0.0242  -0.0785  -0.0328  11.00    0.0
2024/05/08 09:44:42.000   28.411248614  -16.348042459   536.0964   2   6   0.0180   0.0568   0.1669   0.0242  -0.0785  -0.0328  12.00    0.0
2024/05/08 09:44:43.000   28.411248614  -16.348042460   536.0971   2   6   0.0180   0.0568   0.1668   0.0241  -0.0785  -0.0327  13.00    0.0
2024/05/08 09:44:44.000   28.411248614  -16.348042462   536.0981   2   6   0.0180   0.0567   0.1668   0.0241  -0.0784  -0.0327  14.00    0.0
2024/05/08 09:44:45.000   28.411248614  -16.348042462   536.0983   2   6   0.0180   0.0567   0.1668   0.0241  -0.0784  -0.0327 -15.00    0.0
2024/05/08 09:44:46.000   28.411248615  -16.348042462   536.0987   2   6   0.0180   0.0567   0.1667   0.0241  -0.0783  -0.0327 -14.00    0.0
2024/05/08 09:44:47.000   28.411248615  -16.348042463   536.0990   2   6   0.0180   0.0567   0.1667   0.0241  -0.0783  -0.0327 -13.00    0.0
2024/05/08 09:44:48.000   28.411248615  -16.348042464   536.0994   2   6   0.0180   0.0566   0.1667   0.0241  -0.0783  -0.0327 -12.00    0.0
2024/05/08 09:44:49.000   28.411248615  -16.348042465   536.0998   2   6   0.0180   0.0566   0.1667   0.0241  -0.0782  -0.0326 -11.00    0.0
2024/05/08 09:44:50.000   28.411248615  -16.348042467   536.1005   2   6   0.0180   0.0566   0.1666   0.0241  -0.0782  -0.0326 -10.00    0.0
2024/05/08 09:44:51.000   28.411248615  -16.348042470   536.1011   2   6   0.0180   0.0566   0.1666   0.0241  -0.0782  -0.0326  -9.00    0.0
2024/05/08 09:44:52.000   28.411248615  -16.348042473   536.1018   2   6   0.0180   0.0566   0.1666   0.0240  -0.0781  -0.0326  -8.00    0.0
2024/05/08 09:44:53.000   28.411248615  -16.348042474   536.1022   2   6   0.0180   0.0565   0.1666   0.0240  -0.0781  -0.0326  -7.00    0.0
2024/05/08 09:44:54.000   28.411248616  -16.348042476   536.1030   2   6   0.0180   0.0565   0.1666   0.0240  -0.0781  -0.0325  -6.00    0.0
2024/05/08 09:44:55.000   28.411248616  -16.348042479   536.1033   2   6   0.0180   0.0565   0.1666   0.0240  -0.0780  -0.0325  -5.00    0.0
2024/05/08 09:44:56.000   28.411248617  -16.348042482   536.1031   2   6   0.0180   0.0565   0.1666   0.0240  -0.0780  -0.0325  -4.00    0.0
2024/05/08 09:44:57.000   28.411248616  -16.348042487   536.1042   2   6   0.0180   0.0565   0.1666   0.0240  -0.0779  -0.0325  -3.00    0.0
2024/05/08 09:44:58.000   28.411248617  -16.348042491   536.1058   2   6   0.0181   0.0565   0.1666   0.0240  -0.0779  -0.0325  -2.00    0.0
2024/05/08 09:44:59.000   28.411248618  -16.348042495   536.1074   2   6   0.0181   0.0564   0.1667   0.0240  -0.0779  -0.0325  -1.00    0.0
2024/05/08 09:45:00.000   28.411248618  -16.348042498   536.1087   2   6   0.0181   0.0564   0.1667   0.0240  -0.0778  -0.0324   0.00    0.0
2024/05/08 09:45:01.000   28.411248620  -16.348042500   536.1088   2   6   0.0181   0.0564   0.1668   0.0240  -0.0778  -0.0324   1.00    0.0
2024/05/08 09:45:02.000   28.411248622  -16.348042504   536.1101   2   6   0.0181   0.0564   0.1669   0.0240  -0.0778  -0.0324   2.00    0.0
2024/05/08 09:45:03.000   28.411248622  -16.348042508   536.1109   2   6   0.0181   0.0564   0.1669   0.0240  -0.0778  -0.0324   3.00    0.0
2024/05/08 09:45:04.000   28.411248622  -16.348042511   536.1120   2   6   0.0181   0.0564   0.1670   0.0239  -0.0777  -0.0324   4.00    0.0
2024/05/08 09:45:05.000   28.411248622  -16.348042513   536.1131   2   6   0.0181   0.0564   0.1670   0.0239  -0.0777  -0.0323   5.00    0.0
2024/05/08 09:45:06.000   28.411248623  -16.348042516   536.1143   2   6   0.0182   0.0564   0.1671   0.0239  -0.0777  -0.0323   6.00    0.0
2024/05/08 09:45:07.000   28.411248623  -16.348042517   536.1147   2   6   0.0182   0.0564   0.1671   0.0239  -0.0776  -0.0323   7.00    0.0
2024/05/08 09:45:08.000   28.411248623  -16.348042518   536.1145   2   6   0.0182   0.0563   0.1671   0.0239  -0.0776  -0.0323   8.00    0.0
2024/05/08 09:45:09.000   28.411248623  -16.348042516   536.1136   2   6   0.0182   0.0563   0.1671   0.0239  -0.0776  -0.0323   9.00    0.0
2024/05/08 09:45:10.000   28.411248624  -16.348042515   536.1131   2   6   0.0182   0.0563   0.1671   0.0239  -0.0775  -0.0323  10.00    0.0
2024/05/08 09:45:11.000   28.411248624  -16.348042515   536.1128   2   6   0.0182   0.0563   0.1671   0.0239  -0.0775  -0.0323  11.00    0.0
2024/05/08 09:45:12.000   28.411248623  -16.348042515   536.1127   2   6   0.0182   0.0563   0.1670   0.0239  -0.0775  -0.0322  12.00    0.0
2024/05/08 09:45:13.000   28.411248624  -16.348042513   536.1122   2   6   0.0182   0.0563   0.1670   0.0239  -0.0775  -0.0322  13.00    0.0
2024/05/08 09:45:14.000   28.411248624  -16.348042513   536.1120   2   6   0.0182   0.0562   0.1670   0.0239  -0.0774  -0.0322  14.00    0.0
2024/05/08 09:45:15.000   28.411248624  -16.348042513   536.1119   2   6   0.0182   0.0562   0.1670   0.0238  -0.0774  -0.0322 -15.00    0.0
2024/05/08 09:45:16.000   28.411248624  -16.348042511   536.1113   2   6   0.0182   0.0562   0.1670   0.0238  -0.0774  -0.0322 -14.00    0.0
2024/05/08 09:45:17.000   28.411248624  -16.348042509   536.1108   2   6   0.0182   0.0562   0.1669   0.0238  -0.0773  -0.0322 -13.00    0.0
2024/05/08 09:45:18.000   28.411248624  -16.348042509   536.1105   2   6   0.0182   0.0562   0.1669   0.0238  -0.0773  -0.0321 -12.00    0.0
2024/05/08 09:45:19.000   28.411248625  -16.348042507   536.1100   2   6   0.0182   0.0561   0.1669   0.0238  -0.0773  -0.0321 -11.00    0.0
2024/05/08 09:45:20.000   28.411248625  -16.348042505   536.1094   2   6   0.0182   0.0561   0.1669   0.0238  -0.0772  -0.0321 -10.00    0.0
2024/05/08 09:45:21.000   28.411248625  -16.348042502   536.1086   2   6   0.0182   0.0561   0.1669   0.0238  -0.0772  -0.0321  -9.00    0.0
2024/05/08 09:45:22.000   28.411248625  -16.348042499   536.1076   2   6   0.0182   0.0561   0.1668   0.0238  -0.0772  -0.0321  -8.00    0.0
2024/05/08 09:45:23.000   28.411248625  -16.348042498   536.1068   2   6   0.0182   0.0561   0.1668   0.0238  -0.0771  -0.0321  -7.00    0.0
2024/05/08 09:45:24.000   28.411248624  -16.348042496   536.1062   2   6   0.0182   0.0560   0.1668   0.0238  -0.0771  -0.0321  -6.00    0.0
2024/05/08 09:45:25.000   28.411248624  -16.348042496   536.1060   2   6   0.0182   0.0560   0.1668   0.0238  -0.0771  -0.0320  -5.00    0.0
2024/05/08 09:45:26.000   28.411248624  -16.348042493   536.1052   2   6   0.0182   0.0560   0.1668   0.0237  -0.0770  -0.0320  -4.00    0.0
2024/05/08 09:45:27.000   28.411248624  -16.348042494   536.1050   2   6   0.0182   0.0560   0.1669   0.0237  -0.0770  -0.0320  -3.00    0.0
2024/05/08 09:45:28.000   28.411248624  -16.348042495   536.1053   2   6   0.0182   0.0560   0.1669   0.0237  -0.0770  -0.0320  -2.00    0.0
2024/05/08 09:45:29.000   28.411248625  -16.348042494   536.1053   2   6   0.0182   0.0560   0.1669   0.0237  -0.0769  -0.0320  -1.00    0.0
2024/05/08 09:45:30.000   28.411248626  -16.348042494   536.1059   2   6   0.0182   0.0560   0.1670   0.0237  -0.0769  -0.0320   0.00    0.0
2024/05/08 09:45:31.000   28.411248628  -16.348042492   536.1051   2   6   0.0182   0.0560   0.1671   0.0237  -0.0769  -0.0319   1.00    0.0
2024/05/08 09:45:32.000   28.411248631  -16.348042493   536.1075   2   6   0.0182   0.0560   0.1672   0.0237  -0.0769  -0.0319   2.00    0.0
2024/05/08 09:45:33.000   28.411248632  -16.348042496   536.1096   2   6   0.0183   0.0559   0.1672   0.0237  -0.0768  -0.0319   3.00    0.0
2024/05/08 09:45:34.000   28.411248633  -16.348042498   536.1107   2   6   0.0183   0.0559   0.1673   0.0237  -0.0768  -0.0319   4.00    0.0
2024/05/08 09:45:35.000   28.411248634  -16.348042500   536.1120   2   6   0.0183   0.0559   0.1673   0.0237  -0.0768  -0.0319   5.00    0.0
2024/05/08 09:45:36.000   28.411248635  -16.348042500   536.1132   2   6   0.0183   0.0559   0.1674   0.0237  -0.0768  -0.0319   6.00    0.0
2024/05/08 09:45:37.000   28.411248636  -16.348042499   536.1142   2   6   0.0183   0.0559   0.1674   0.0237  -0.0767  -0.0319   7.00    0.0
2024/05/08 09:45:38.000   28.411248638  -16.348042499   536.1152   2   6   0.0183   0.0559   0.1674   0.0237  -0.0767  -0.0318   8.00    0.0
2024/05/08 09:45:39.000   28.411248639  -16.348042499   536.1157   2   6   0.0183   0.0559   0.1674   0.0237  -0.0767  -0.0318   9.00    0.0
2024/05/08 09:45:40.000   28.411248640  -16.348042498   536.1161   2   6   0.0183   0.0559   0.1674   0.0236  -0.0766  -0.0318  10.00    0.0
2024/05/08 09:45:41.000   28.411248641  -16.348042499   536.1165   2   6   0.0183   0.0558   0.1674   0.0236  -0.0766  -0.0318  11.00    0.0
2024/05/08 09:45:42.000   28.411248641  -16.348042499   536.1170   2   6   0.0183   0.0558   0.1674   0.0236  -0.0766  -0.0318  12.00    0.0
2024/05/08 09:45:43.000   28.411248642  -16.348042499   536.1172   2   6   0.0183   0.0558   0.1674   0.0236  -0.0766  -0.0318  13.00    0.0
2024/05/08 09:45:44.000   28.411248642  -16.348042500   536.1179   2   6   0.0183   0.0558   0.1674   0.0236  -0.0765  -0.0318  14.00    0.0
2024/05/08 09:45:45.000   28.411248642  -16.348042500   536.1182   2   6   0.0183   0.0558   0.1673   0.0236  -0.0765  -0.0317 -15.00    0.0
2024/05/08 09:45:46.000   28.411248642  -16.348042501   536.1186   2   6   0.0183   0.0558   0.1673   0.0236  -0.0765  -0.0317 -14.00    0.0
2024/05/08 09:45:47.000   28.411248642  -16.348042502   536.1194   2   6   0.0183   0.0557   0.1673   0.0236  -0.0765  -0.0317 -13.00    0.0
2024/05/08 09:45:48.000   28.411248642  -16.348042504   536.1203   2   6   0.0183   0.0557   0.1673   0.0236  -0.0764  -0.0317 -12.00    0.0
2024/05/08 09:45:49.000   28.411248643  -16.348042505   536.1213   2   6   0.0183   0.0557   0.1673   0.0236  -0.0764  -0.0317 -11.00    0.0
2024/05/08 09:45:50.000   28.411248643  -16.348042505   536.1218   2   6   0.0183   0.0557   0.1673   0.0236  -0.0764  -0.0317 -10.00    0.0
2024/05/08 09:45:51.000   28.411248643  -16.348042507   536.1227   2   6   0.0183   0.0557   0.1672   0.0236  -0.0763  -0.0317  -9.00    0.0
2024/05/08 09:45:52.000   28.411248643  -16.348042509   536.1240   2   6   0.0183   0.0556   0.1672   0.0235  -0.0763  -0.0316  -8.00    0.0
2024/05/08 09:45:53.000   28.411248644  -16.348042510   536.1250   2   6   0.0183   0.0556   0.1672   0.0235  -0.0763  -0.0316  -7.00    0.0
2024/05/08 09:45:54.000   28.411248644  -16.348042513   536.1265   2   6   0.0183   0.0556   0.1672   0.0235  -0.0763  -0.0316  -6.00    0.0
2024/05/08 09:45:55.000   28.411248645  -16.348042514   536.1280   2   6   0.0183   0.0556   0.1672   0.0235  -0.0762  -0.0316  -5.00    0.0
2024/05/08 09:45:56.000   28.411248645  -16.348042515   536.1294   2   6   0.0183   0.0556   0.1672   0.0235  -0.0762  -0.0316  -4.00    0.0
2024/05/08 09:45:57.000   28.411248645  -16.348042516   536.1308   2   6   0.0183   0.0556   0.1673   0.0235  -0.0762  -0.0316  -3.00    0.0
2024/05/08 09:45:58.000   28.411248645  -16.348042517   536.1325   2   6   0.0183   0.0556   0.1673   0.0235  -0.0761  -0.0316  -2.00    0.0
2024/05/08 09:45:59.000   28.411248645  -16.348042521   536.1347   2   6   0.0183   0.0556   0.1674   0.0235  -0.0761  -0.0315  -1.00    0.0
2024/05/08 09:46:00.000   28.411248644  -16.348042526   536.1375   2   6   0.0183   0.0555   0.1674   0.0235  -0.0761  -0.0315   0.00    0.0
2024/05/08 09:46:01.000   28.411248644  -16.348042527   536.1370   2   6   0.0184   0.0555   0.1675   0.0235  -0.0761  -0.0315   1.00    0.0
2024/05/08 09:46:02.000   28.411248643  -16.348042533   536.1385   2   6   0.0184   0.0555   0.1676   0.0235  -0.0760  -0.0315   2.00    0.0
2024/05/08 09:46:03.000   28.411248644  -16.348042539   536.1409   2   6   0.0184   0.0555   0.1677   0.0235  -0.0760  -0.0315   3.00    0.0
2024/05/08 09:46:04.000   28.411248645  -16.348042545   536.1428   2   6   0.0184   0.0555   0.1677   0.0235  -0.0760  -0.0315   4.00    0.0
2024/05/08 09:46:05.000   28.411248645  -16.348042550   536.1438   2   6   0.0184   0.0555   0.1678   0.0235  -0.0760  -0.0315   5.00    0.0
2024/05/08 09:46:06.000   28.411248645  -16.348042553   536.1447   2   6   0.0184   0.0555   0.1678   0.0235  -0.0759  -0.0314   6.00    0.0
2024/05/08 09:46:07.000   28.411248645  -16.348042557   536.1459   2   6   0.0184   0.0555   0.1678   0.0234  -0.0759  -0.0314   7.00    0.0
2024/05/08 09:46:08.000   28.411248645  -16.348042562   536.1473   2   6   0.0184   0.0555   0.1678   0.0234  -0.0759  -0.0314   8.00    0.0
2024/05/08 09:46:09.000   28.411248645  -16.348042564   536.1480   2   6   0.0184   0.0555   0.1678   0.0234  -0.0759  -0.0314   9.00    0.0
2024/05/08 09:46:10.000   28.411248645  -16.348042567   536.1486   2   6   0.0184   0.0554   0.1678   0.0234  -0.0759  -0.0314  10.00    0.0
2024/05/08 09:46:11.000   28.411248645  -16.348042569   536.1490   2   6   0.0184   0.0554   0.1678   0.0234  -0.0758  -0.0314  11.00    0.0
2024/05/08 09:46:12.000   28.411248645  -16.348042571   536.1496   2   6   0.0184   0.0554   0.1678   0.0234  -0.0758  -0.0314  12.00    0.0
2024/05/08 09:46:13.000   28.411248644  -16.348042573   536.1501   2   6   0.0184   0.0554   0.1678   0.0234  -0.0758  -0.0314  13.00    0.0
2024/05/08 09:46:14.000   28.411248644  -16.348042575   536.1506   2   6   0.0184   0.0554   0.1678   0.0234  -0.0758  -0.0314  14.00    0.0
2024/05/08 09:46:15.000   28.411248644  -16.348042576   536.1509   2   6   0.0184   0.0554   0.1678   0.0234  -0.0757  -0.0313 -15.00    0.0
2024/05/08 09:46:16.000   28.411248643  -16.348042579   536.1514   2   6   0.0184   0.0554   0.1678   0.0234  -0.0757  -0.0313 -14.00    0.0
2024/05/08 09:46:17.000   28.411248643  -16.348042581   536.1518   2   6   0.0184   0.0553   0.1678   0.0234  -0.0757  -0.0313 -13.00    0.0
2024/05/08 09:46:18.000   28.411248642  -16.348042583   536.1522   2   6   0.0184   0.0553   0.1678   0.0234  -0.0757  -0.0313 -12.00    0.0
2024/05/08 09:46:19.000   28.411248642  -16.348042585   536.1524   2   6   0.0184   0.0553   0.1677   0.0234  -0.0756  -0.0313 -11.00    0.0
2024/05/08 09:46:20.000   28.411248641  -16.348042589   536.1527   2   6   0.0184   0.0553   0.1677   0.0233  -0.0756  -0.0313 -10.00    0.0
2024/05/08 09:46:21.000   28.411248641  -16.348042591   536.1528   2   6   0.0184   0.0553   0.1677   0.0233  -0.0756  -0.0313  -9.00    0.0
2024/05/08 09:46:22.000   28.411248640  -16.348042592   536.1532   2   6   0.0184   0.0553   0.1677   0.0233  -0.0756  -0.0313  -8.00    0.0
2024/05/08 09:46:23.000   28.411248640  -16.348042594   536.1534   2   6   0.0184   0.0552   0.1677   0.0233  -0.0755  -0.0312  -7.00    0.0
2024/05/08 09:46:24.000   28.411248639  -16.348042594   536.1532   2   6   0.0184   0.0552   0.1677   0.0233  -0.0755  -0.0312  -6.00    0.0
2024/05/08 09:46:25.000   28.411248639  -16.348042596   536.1535   2   6   0.0184   0.0552   0.1677   0.0233  -0.0755  -0.0312  -5.00    0.0
2024/05/08 09:46:26.000   28.411248639  -16.348042597   536.1539   2   6   0.0184   0.0552   0.1677   0.0233  -0.0755  -0.0312  -4.00    0.0
2024/05/08 09:46:27.000   28.411248639  -16.348042598   536.1543   2   6   0.0184   0.0552   0.1678   0.0233  -0.0754  -0.0312  -3.00    0.0
2024/05/08 09:46:28.000   28.411248639  -16.348042597   536.1546   2   6   0.0184   0.0552   0.1678   0.0233  -0.0754  -0.0312  -2.00    0.0
2024/05/08 09:46:29.000   28.411248639  -16.348042594   536.1544   2   6   0.0184   0.0552   0.1679   0.0233  -0.0754  -0.0312  -1.00    0.0
2024/05/08 09:46:30.000   28.411248641  -16.348042588   536.1541   2   6   0.0185   0.0552   0.1679   0.0233  -0.0754  -0.0312   0.00    0.0
2024/05/08 09:46:31.000   28.411248642  -16.348042588   536.1538   2   6   0.0185   0.0552   0.1680   0.0233  -0.0753  -0.0311   1.00    0.0
2024/05/08 09:46:32.000   28.411248643  -16.348042586   536.1543   2   6   0.0185   0.0552   0.1681   0.0233  -0.0753  -0.0311   2.00    0.0
2024/05/08 09:46:33.000   28.411248645  -16.348042584   536.1558   2   6   0.0185   0.0551   0.1682   0.0233  -0.0753  -0.0311   3.00    0.0
2024/05/08 09:46:34.000   28.411248645  -16.348042586   536.1575   2   6   0.0185   0.0551   0.1682   0.0233  -0.0753  -0.0311   4.00    0.0
2024/05/08 09:46:35.000   28.411248644  -16.348042587   536.1586   2   6   0.0185   0.0551   0.1683   0.0233  -0.0753  -0.0311   5.00    0.0
2024/05/08 09:46:36.000   28.411248644  -16.348042589   536.1597   2   6   0.0185   0.0551   0.1683   0.0232  -0.0752  -0.0311   6.00    0.0
2024/05/08 09:46:37.000   28.411248644  -16.348042590   536.1606   2   6   0.0185   0.0551   0.1683   0.0232  -0.0752  -0.0311   7.00    0.0
2024/05/08 09:46:38.000   28.411248644  -16.348042591   536.1609   2   6   0.0185   0.0551   0.1683   0.0232  -0.0752  -0.0311   8.00    0.0
2024/05/08 09:46:39.000   28.411248644  -16.348042593   536.1618   2   6   0.0185   0.0551   0.1683   0.0232  -0.0752  -0.0311   9.00    0.0
2024/05/08 09:46:40.000   28.411248644  -16.348042595   536.1627   2   6   0.0185   0.0551   0.1683   0.0232  -0.0752  -0.0310  10.00    0.0
2024/05/08 09:46:41.000   28.411248644  -16.348042596   536.1630   2   6   0.0185   0.0551   0.1683   0.0232  -0.0751  -0.0310  11.00    0.0
2024/05/08 09:46:42.000   28.411248644  -16.348042598   536.1635   2   6   0.0185   0.0550   0.1683   0.0232  -0.0751  -0.0310  12.00    0.0
2024/05/08 09:46:43.000   28.411248643  -16.348042600   536.1644   2   6   0.0185   0.0550   0.1683   0.0232  -0.0751  -0.0310  13.00    0.0
2024/05/08 09:46:44.000   28.411248643  -16.348042603   536.1650   2   6   0.0185   0.0550   0.1683   0.0232  -0.0751  -0.0310  14.00    0.0
2024/05/08 09:46:45.000   28.411248642  -16.348042605   536.1656   2   6   0.0185   0.0550   0.1683   0.0232  -0.0751  -0.0310 -15.00    0.0
2024/05/08 09:46:46.000   28.411248641  -16.348042607   536.1660   2   6   0.0185   0.0550   0.1683   0.0232  -0.0750  -0.0310 -14.00    0.0
2024/05/08 09:46:47.000   28.411248641  -16.348042609   536.1666   2   6   0.0185   0.0550   0.1683   0.0232  -0.0750  -0.0310 -13.00    0.0
2024/05/08 09:46:48.000   28.411248640  -16.348042611   536.1673   2   6   0.0185   0.0550   0.1683   0.0232  -0.0750  -0.0310 -12.00    0.0
2024/05/08 09:46:49.000   28.411248640  -16.348042612   536.1677   2   6   0.0185   0.0549   0.1683   0.0232  -0.0750  -0.0309 -11.00    0.0
2024/05/08 09:46:50.000   28.411248639  -16.348042614   536.1682   2   6   0.0185   0.0549   0.1683   0.0232  -0.0749  -0.0309 -10.00    0.0
2024/05/08 09:46:51.000   28.411248638  -16.348042616   536.1686   2   6   0.0185   0.0549   0.1683   0.0231  -0.0749  -0.0309  -9.00    0.0
2024/05/08 09:46:52.000   28.411248637  -16.348042619   536.1688   2   6   0.0185   0.0549   0.1683   0.0231  -0.0749  -0.0309  -8.00    0.0
2024/05/08 09:46:53.000   28.411248637  -16.348042620   536.1683   2   6   0.0185   0.0549   0.1683   0.0231  -0.0749  -0.0309  -7.00    0.0
2024/05/08 09:46:54.000   28.411248636  -16.348042621   536.1679   2   6   0.0185   0.0549   0.1683   0.0231  -0.0749  -0.0309  -6.00    0.0
2024/05/08 09:46:55.000   28.411248634  -16.348042621   536.1680   2   6   0.0185   0.0549   0.1683   0.0231  -0.0748  -0.0309  -5.00    0.0
2024/05/08 09:46:56.000   28.411248633  -16.348042620   536.1676   2   6   0.0185   0.0549   0.1683   0.0231  -0.0748  -0.0309  -4.00    0.0
2024/05/08 09:46:57.000   28.411248631  -16.348042618   536.1673   2   6   0.0185   0.0548   0.1683   0.0231  -0.0748  -0.0309  -3.00    0.0
2024/05/08 09:46:58.000   28.411248630  -16.348042616   536.1659   2   6   0.0186   0.0548   0.1684   0.0231  -0.0748  -0.0308  -2.00    0.0
2024/05/08 09:46:59.000   28.411248629  -16.348042613   536.1632   2   6   0.0186   0.0548   0.1684   0.0231  -0.0748  -0.0308  -1.00    0.0
2024/05/08 09:47:00.000   28.411248627  -16.348042610   536.1607   2   6   0.0186   0.0548   0.1685   0.0231  -0.0747  -0.0308   0.00    0.0
2024/05/08 09:47:01.000   28.411248627  -16.348042604   536.1581   2   6   0.0186   0.0548   0.1685   0.0231  -0.0747  -0.0308   1.00    0.0
2024/05/08 09:47:02.000   28.411248628  -16.348042600   536.1571   2   6   0.0186   0.0548   0.1686   0.0231  -0.0747  -0.0308   2.00    0.0
2024/05/08 09:47:03.000   28.411248627  -16.348042598   536.1567   2   6   0.0186   0.0548   0.1687   0.0231  -0.0747  -0.0308   3.00    0.0
2024/05/08 09:47:04.000   28.411248627  -16.348042597   536.1568   2   6   0.0186   0.0548   0.1688   0.0231  -0.0746  -0.0308   4.00    0.0
2024/05/08 09:47:05.000   28.411248627  -16.348042595   536.1557   2   6   0.0186   0.0548   0.1688   0.0231  -0.0746  -0.0308   5.00    0.0
2024/05/08 09:47:06.000   28.411248626  -16.348042595   536.1556   2   6   0.0186   0.0548   0.1688   0.0231  -0.0746  -0.0308   6.00    0.0
2024/05/08 09:47:07.000   28.411248626  -16.348042594   536.1556   2   6   0.0186   0.0548   0.1688   0.0231  -0.0746  -0.0307   7.00    0.0
2024/05/08 09:47:08.000   28.411248625  -16.348042595   536.1557   2   6   0.0186   0.0548   0.1689   0.0231  -0.0746  -0.0307   8.00    0.0
2024/05/08 09:47:09.000   28.411248625  -16.348042594   536.1556   2   6   0.0186   0.0547   0.1689   0.0230  -0.0746  -0.0307   9.00    0.0
2024/05/08 09:47:10.000   28.411248625  -16.348042595   536.1558   2   6   0.0186   0.0547   0.1689   0.0230  -0.0745  -0.0307  10.00    0.0
2024/05/08 09:47:11.000   28.411248624  -16.348042596   536.1563   2   6   0.0186   0.0547   0.1689   0.0230  -0.0745  -0.0307  11.00    0.0
2024/05/08 09:47:12.000   28.411248624  -16.348042597   536.1569   2   6   0.0186   0.0547   0.1689   0.0230  -0.0745  -0.0307  12.00    0.0
2024/05/08 09:47:13.000   28.411248624  -16.348042599   536.1578   2   6   0.0186   0.0547   0.1689   0.0230  -0.0745  -0.0307  13.00    0.0
2024/05/08 09:47:14.000   28.411248624  -16.348042598   536.1579   2   6   0.0186   0.0547   0.1689   0.0230  -0.0745  -0.0307  14.00    0.0
2024/05/08 09:47:15.000   28.411248624  -16.348042599   536.1584   2   6   0.0186   0.0547   0.1689   0.0230  -0.0744  -0.0307 -15.00    0.0
2024/05/08 09:47:16.000   28.411248624  -16.348042600   536.1587   2   6   0.0186   0.0547   0.1688   0.0230  -0.0744  -0.0307 -14.00    0.0
2024/05/08 09:47:17.000   28.411248624  -16.348042600   536.1589   2   6   0.0186   0.0546   0.1688   0.0230  -0.0744  -0.0307 -13.00    0.0
2024/05/08 09:47:18.000   28.411248624  -16.348042600   536.1594   2   6   0.0186   0.0546   0.1688   0.0230  -0.0744  -0.0306 -12.00    0.0
2024/05/08 09:47:19.000   28.411248624  -16.348042600   536.1598   2   6   0.0186   0.0546   0.1688   0.0230  -0.0744  -0.0306 -11.00    0.0
2024/05/08 09:47:20.000   28.411248624  -16.348042599   536.1601   2   6   0.0186   0.0546   0.1688   0.0230  -0.0744  -0.0306 -10.00    0.0
2024/05/08 09:47:21.000   28.411248625  -16.348042598   536.1604   2   6   0.0186   0.0546   0.1688   0.0230  -0.0743  -0.0306  -9.00    0.0
2024/05/08 09:47:22.000   28.411248625  -16.348042598   536.1608   2   6   0.0186   0.0546   0.1688   0.0230  -0.0743  -0.0306  -8.00    0.0
2024/05/08 09:47:23.000   28.411248625  -16.348042597   536.1612   2   6   0.0186   0.0546   0.1688   0.0230  -0.0743  -0.0306  -7.00    0.0
2024/05/08 09:47:24.000   28.411248626  -16.348042595   536.1618   2   6   0.0186   0.0546   0.1688   0.0230  -0.0743  -0.0306  -6.00    0.0
2024/05/08 09:47:25.000   28.411248627  -16.348042592   536.1622   2   6   0.0186   0.0545   0.1688   0.0229  -0.0743  -0.0306  -5.00    0.0
2024/05/08 09:47:26.000   28.411248628  -16.348042589   536.1618   2   6   0.0186   0.0545   0.1688   0.0229  -0.0742  -0.0306  -4.00    0.0
2024/05/08 09:47:27.000   28.411248628  -16.348042588   536.1617   2   6   0.0186   0.0545   0.1689   0.0229  -0.0742  -0.0306  -3.00    0.0
2024/05/08 09:47:28.000   28.411248628  -16.348042585   536.1616   2   6   0.0187   0.0545   0.1689   0.0229  -0.0742  -0.0306  -2.00    0.0
2024/05/08 09:47:29.000   28.411248629  -16.348042579   536.1602   2   6   0.0187   0.0545   0.1689   0.0229  -0.0742  -0.0305  -1.00    0.0
2024/05/08 09:47:30.000   28.411248628  -16.348042577   536.1593   2   6   0.0187   0.0545   0.1690   0.0229  -0.0742  -0.0305   0.00    0.0
2024/05/08 09:47:31.000   28.411248626  -16.348042576   536.1564   2   6   0.0187   0.0545   0.1691   0.0229  -0.0741  -0.0305   1.00    0.0
2024/05/08 09:47:32.000   28.411248626  -16.348042574   536.1562   2   6   0.0187   0.0545   0.1691   0.0229  -0.0741  -0.0305   2.00    0.0
2024/05/08 09:47:33.000   28.411248623  -16.348042573   536.1547   2   6   0.0187   0.0545   0.1692   0.0229  -0.0741  -0.0305   3.00    0.0
2024/05/08 09:47:34.000   28.411248620  -16.348042573   536.1537   2   6   0.0187   0.0545   0.1693   0.0229  -0.0741  -0.0305   4.00    0.0
2024/05/08 09:47:35.000   28.411248618  -16.348042574   536.1527   2   6   0.0187   0.0545   0.1693   0.0229  -0.0741  -0.0305   5.00    0.0
2024/05/08 09:47:36.000   28.411248617  -16.348042573   536.1527   2   6   0.0187   0.0545   0.1693   0.0229  -0.0741  -0.0305   6.00    0.0
2024/05/08 09:47:37.000   28.411248615  -16.348042572   536.1521   2   6   0.0187   0.0545   0.1694   0.0229  -0.0740  -0.0305   7.00    0.0
2024/05/08 09:47:38.000   28.411248614  -16.348042572   536.1513   2   6   0.0187   0.0544   0.1694   0.0229  -0.0740  -0.0305   8.00    0.0
2024/05/08 09:47:39.000   28.411248612  -16.348042570   536.1499   2   6   0.0187   0.0544   0.1694   0.0229  -0.0740  -0.0304   9.00    0.0
2024/05/08 09:47:40.000   28.411248611  -16.348042570   536.1494   2   6   0.0187   0.0544   0.1694   0.0229  -0.0740  -0.0304  10.00    0.0
2024/05/08 09:47:41.000   28.411248611  -16.348042569   536.1488   2   6   0.0187   0.0544   0.1694   0.0229  -0.0740  -0.0304  11.00    0.0
2024/05/08 09:47:42.000   28.411248610  -16.348042568   536.1483   2   6   0.0187   0.0544   0.1694   0.0229  -0.0740  -0.0304  12.00    0.0
2024/05/08 09:47:43.000   28.411248610  -16.348042566   536.1478   2   6   0.0187   0.0544   0.1694   0.0229  -0.0740  -0.0304  13.00    0.0
2024/05/08 09:47:44.000   28.411248610  -16.348042565   536.1474   2   6   0.0187   0.0544   0.1694   0.0228  -0.0739  -0.0304  14.00    0.0
2024/05/08 09:47:45.000   28.411248609  -16.348042565   536.1472   2   6   0.0187   0.0544   0.1694   0.0228  -0.0739  -0.0304 -15.00    0.0
2024/05/08 09:47:46.000   28.411248609  -16.348042564   536.1470   2   6   0.0187   0.0544   0.1694   0.0228  -0.0739  -0.0304 -14.00    0.0
2024/05/08 09:47:47.000   28.411248609  -16.348042561   536.1463   2   6   0.0187   0.0543   0.1693   0.0228  -0.0739  -0.0304 -13.00    0.0
2024/05/08 09:47:48.000   28.411248609  -16.348042560   536.1460   2   6   0.0187   0.0543   0.1693   0.0228  -0.0739  -0.0304 -12.00    0.0
2024/05/08 09:47:49.000   28.411248609  -16.348042560   536.1459   2   6   0.0187   0.0543   0.1693   0.0228  -0.0738  -0.0304 -11.00    0.0
2024/05/08 09:47:50.000   28.411248608  -16.348042559   536.1455   2   6   0.0187   0.0543   0.1693   0.0228  -0.0738  -0.0304 -10.00    0.0
2024/05/08 09:47:51.000   28.411248607  -16.348042557   536.1451   2   6   0.0187   0.0543   0.1693   0.0228  -0.0738  -0.0303  -9.00    0.0
2024/05/08 09:47:52.000   28.411248607  -16.348042555   536.1443   2   6   0.0187   0.0543   0.1693   0.0228  -0.0738  -0.0303  -8.00    0.0
2024/05/08 09:47:53.000   28.411248606  -16.348042553   536.1434   2   6   0.0187   0.0543   0.1693   0.0228  -0.0738  -0.0303  -7.00    0.0
2024/05/08 09:47:54.000   28.411248606  -16.348042550   536.1422   2   6   0.0187   0.0543   0.1693   0.0228  -0.0738  -0.0303  -6.00    0.0
2024/05/08 09:47:55.000   28.411248605  -16.348042547   536.1405   2   6   0.0187   0.0543   0.1693   0.0228  -0.0738  -0.0303  -5.00    0.0
2024/05/08 09:47:56.000   28.411248605  -16.348042543   536.1382   2   6   0.0187   0.0542   0.1694   0.0228  -0.0737  -0.0303  -4.00    0.0
2024/05/08 09:47:57.000   28.411248604  -16.348042540   536.1368   2   6   0.0187   0.0542   0.1694   0.0228  -0.0737  -0.0303  -3.00    0.0
2024/05/08 09:47:58.000   28.411248602  -16.348042539   536.1356   2   6   0.0187   0.0542   0.1694   0.0228  -0.0737  -0.0303  -2.00    1.3
2024/05/08 09:47:59.000   28.411248602  -16.348042536   536.1340   2   6   0.0187   0.0542   0.1695   0.0228  -0.0737  -0.0303  -1.00    1.3
2024/05/08 09:48:00.000   28.411248602  -16.348042533   536.1319   2   6   0.0188   0.0542   0.1695   0.0228  -0.0737  -0.0303   0.00    1.3
2024/05/08 09:48:01.000   28.411248602  -16.348042529   536.1303   2   6   0.0188   0.0542   0.1696   0.0228  -0.0737  -0.0303   1.00    1.5
2024/05/08 09:48:02.000   28.411248600  -16.348042528   536.1298   2   6   0.0188   0.0542   0.1696   0.0228  -0.0736  -0.0303   2.00    1.2
2024/05/08 09:48:03.000   28.411248598  -16.348042528   536.1286   2   6   0.0188   0.0542   0.1697   0.0228  -0.0736  -0.0302   3.00    1.0
2024/05/08 09:48:04.000   28.411248596  -16.348042529   536.1281   2   6   0.0188   0.0542   0.1697   0.0227  -0.0736  -0.0302   4.00    1.2
2024/05/08 09:48:05.000   28.411248595  -16.348042529   536.1267   2   6   0.0188   0.0542   0.1698   0.0227  -0.0736  -0.0302   5.00    1.0
2024/05/08 09:48:06.000   28.411248594  -16.348042528   536.1252   2   6   0.0188   0.0542   0.1698   0.0227  -0.0736  -0.0302   6.00    1.2
2024/05/08 09:48:07.000   28.411248593  -16.348042528   536.1243   2   6   0.0188   0.0542   0.1698   0.0227  -0.0736  -0.0302   7.00    1.1
2024/05/08 09:48:08.000   28.411248593  -16.348042525   536.1229   2   6   0.0188   0.0541   0.1698   0.0227  -0.0736  -0.0302   8.00    1.1
2024/05/08 09:48:09.000   28.411248591  -16.348042525   536.1219   2   6   0.0188   0.0541   0.1698   0.0227  -0.0735  -0.0302   9.00    2.3
2024/05/08 09:48:10.000   28.411248591  -16.348042524   536.1213   2   6   0.0188   0.0541   0.1698   0.0227  -0.0735  -0.0302  10.00    2.3
2024/05/08 09:48:11.000   28.411248591  -16.348042524   536.1212   2   6   0.0188   0.0541   0.1698   0.0227  -0.0735  -0.0302  11.00    2.3
2024/05/08 09:48:12.000   28.411248590  -16.348042523   536.1209   2   6   0.0188   0.0541   0.1698   0.0227  -0.0735  -0.0302  12.00    2.3
2024/05/08 09:48:13.000   28.411248590  -16.348042521   536.1203   2   6   0.0188   0.0541   0.1698   0.0227  -0.0735  -0.0302  13.00    2.3
2024/05/08 09:48:14.000   28.411248590  -16.348042520   536.1198   2   6   0.0188   0.0541   0.1698   0.0227  -0.0735  -0.0302  14.00    2.3
2024/05/08 09:48:15.000   28.411248589  -16.348042519   536.1192   2   6   0.0188   0.0541   0.1698   0.0227  -0.0735  -0.0301 -15.00    2.4
2024/05/08 09:48:16.000   28.411248589  -16.348042519   536.1188   2   6   0.0188   0.0541   0.1698   0.0227  -0.0734  -0.0301 -14.00    2.4
2024/05/08 09:48:17.000   28.411248589  -16.348042517   536.1182   2   6   0.0188   0.0540   0.1698   0.0227  -0.0734  -0.0301 -13.00    2.4
2024/05/08 09:48:18.000   28.411248589  -16.348042516   536.1175   2   6   0.0188   0.0540   0.1698   0.0227  -0.0734  -0.0301 -12.00    2.4
2024/05/08 09:48:19.000   28.411248589  -16.348042515   536.1171   2   6   0.0188   0.0540   0.1698   0.0227  -0.0734  -0.0301 -11.00    1.1
2024/05/08 09:48:20.000   28.411248589  -16.348042513   536.1164   2   6   0.0188   0.0540   0.1698   0.0227  -0.0734  -0.0301 -10.00    1.1
2024/05/08 09:48:21.000   28.411248589  -16.348042511   536.1152   2   6   0.0188   0.0540   0.1698   0.0227  -0.0734  -0.0301  -9.00    1.0
2024/05/08 09:48:22.000   28.411248588  -16.348042509   536.1138   2   6   0.0188   0.0540   0.1698   0.0227  -0.0733  -0.0301  -8.00    1.5
2024/05/08 09:48:23.000   28.411248589  -16.348042506   536.1124   2   6   0.0188   0.0540   0.1698   0.0227  -0.0733  -0.0301  -7.00    1.0
2024/05/08 09:48:24.000   28.411248589  -16.348042502   536.1109   2   6   0.0188   0.0540   0.1698   0.0226  -0.0733  -0.0301  -6.00    1.1
2024/05/08 09:48:25.000   28.411248589  -16.348042497   536.1090   2   6   0.0188   0.0540   0.1698   0.0226  -0.0733  -0.0301  -5.00    1.0
2024/05/08 09:48:26.000   28.411248589  -16.348042492   536.1077   2   6   0.0188   0.0540   0.1698   0.0226  -0.0733  -0.0301  -4.00    1.1
2024/05/08 09:48:27.000   28.411248588  -16.348042486   536.1059   2   6   0.0188   0.0539   0.1698   0.0226  -0.0733  -0.0301  -3.00    1.1
2024/05/08 09:48:28.000   28.411248588  -16.348042482   536.1043   2   6   0.0188   0.0539   0.1698   0.0226  -0.0733  -0.0301  -2.00    1.1
2024/05/08 09:48:29.000   28.411248588  -16.348042478   536.1027   2   6   0.0188   0.0539   0.1699   0.0226  -0.0733  -0.0301  -1.00    1.1
2024/05/08 09:48:30.000   28.411248587  -16.348042474   536.0998   2   6   0.0188   0.0539   0.1699   0.0226  -0.0732  -0.0300   0.00    2.9
2024/05/08 09:48:31.000   28.411248587  -16.348042470   536.0964   2   6   0.0188   0.0539   0.1700   0.0226  -0.0732  -0.0300   1.00    2.9
2024/05/08 09:48:32.000   28.411248587  -16.348042469   536.0958   2   6   0.0188   0.0539   0.1700   0.0226  -0.0732  -0.0300   2.00    2.9
2024/05/08 09:48:33.000   28.411248586  -16.348042466   536.0939   2   6   0.0188   0.0539   0.1701   0.0226  -0.0732  -0.0300   3.00    2.9
2024/05/08 09:48:34.000   28.411248585  -16.348042466   536.0940   2   6   0.0188   0.0539   0.1701   0.0226  -0.0732  -0.0300   4.00    2.9
2024/05/08 09:48:35.000   28.411248585  -16.348042463   536.0930   2   6   0.0188   0.0539   0.1701   0.0226  -0.0732  -0.0300   5.00    2.9
2024/05/08 09:48:36.000   28.411248585  -16.348042462   536.0919   2   6   0.0188   0.0539   0.1702   0.0226  -0.0732  -0.0300   6.00    2.9
2024/05/08 09:48:37.000   28.411248585  -16.348042460   536.0912   2   6   0.0188   0.0539   0.1702   0.0226  -0.0731  -0.0300   7.00    2.9
2024/05/08 09:48:38.000   28.411248585  -16.348042459   536.0906   2   6   0.0188   0.0539   0.1702   0.0226  -0.0731  -0.0300   8.00    2.8
2024/05/08 09:48:39.000   28.411248586  -16.348042456   536.0900   2   6   0.0189   0.0538   0.1702   0.0226  -0.0731  -0.0300   9.00    2.8
2024/05/08 09:48:40.000   28.411248587  -16.348042454   536.0894   2   6   0.0189   0.0538   0.1702   0.0226  -0.0731  -0.0300  10.00    1.3
2024/05/08 09:48:41.000   28.411248587  -16.348042451   536.0890   2   6   0.0189   0.0538   0.1702   0.0226  -0.0731  -0.0300  11.00    1.1
2024/05/08 09:48:42.000   28.411248588  -16.348042450   536.0886   2   6   0.0189   0.0538   0.1702   0.0226  -0.0731  -0.0300  12.00    1.3
2024/05/08 09:48:43.000   28.411248588  -16.348042448   536.0883   2   6   0.0189   0.0538   0.1702   0.0226  -0.0731  -0.0299  13.00    1.4
2024/05/08 09:48:44.000   28.411248589  -16.348042446   536.0879   2   6   0.0188   0.0538   0.1702   0.0226  -0.0731  -0.0299  14.00    1.3
2024/05/08 09:48:45.000   28.411248590  -16.348042444   536.0874   2   6   0.0188   0.0538   0.1702   0.0226  -0.0730  -0.0299 -15.00    1.0
2024/05/08 09:48:46.000   28.411248590  -16.348042443   536.0872   2   6   0.0188   0.0538   0.1702   0.0226  -0.0730  -0.0299 -14.00    1.3
2024/05/08 09:48:47.000   28.411248590  -16.348042441   536.0867   2   6   0.0188   0.0538   0.1702   0.0225  -0.0730  -0.0299 -13.00    1.2
2024/05/08 09:48:48.000   28.411248591  -16.348042439   536.0860   2   6   0.0188   0.0538   0.1702   0.0225  -0.0730  -0.0299 -12.00    1.3
2024/05/08 09:48:49.000   28.411248592  -16.348042437   536.0851   2   6   0.0188   0.0538   0.1702   0.0225  -0.0730  -0.0299 -11.00    1.0
2024/05/08 09:48:50.000   28.411248592  -16.348042435   536.0845   2   6   0.0188   0.0537   0.1702   0.0225  -0.0730  -0.0299 -10.00    1.3
2024/05/08 09:48:51.000   28.411248593  -16.348042433   536.0839   2   6   0.0188   0.0537   0.1702   0.0225  -0.0730  -0.0299  -9.00    2.8
2024/05/08 09:48:52.000   28.411248594  -16.348042430   536.0832   2   6   0.0188   0.0537   0.1701   0.0225  -0.0729  -0.0299  -8.00    2.8
2024/05/08 09:48:53.000   28.411248594  -16.348042429   536.0823   2   6   0.0188   0.0537   0.1701   0.0225  -0.0729  -0.0299  -7.00    2.8
2024/05/08 09:48:54.000   28.411248595  -16.348042426   536.0809   2   6   0.0188   0.0537   0.1701   0.0225  -0.0729  -0.0299  -6.00    2.7
2024/05/08 09:48:55.000   28.411248595  -16.348042424   536.0800   2   6   0.0188   0.0537   0.1701   0.0225  -0.0729  -0.0299  -5.00    2.7
2024/05/08 09:48:56.000   28.411248596  -16.348042422   536.0783   2   6   0.0188   0.0537   0.1701   0.0225  -0.0729  -0.0299  -4.00    2.7
2024/05/08 09:48:57.000   28.411248596  -16.348042418   536.0761   2   6   0.0188   0.0537   0.1702   0.0225  -0.0729  -0.0299  -3.00    2.7
2024/05/08 09:48:58.000   28.411248596  -16.348042415   536.0746   2   6   0.0188   0.0537   0.1702   0.0225  -0.0729  -0.0299  -2.00    2.7
2024/05/08 09:48:59.000   28.411248597  -16.348042412   536.0722   2   6   0.0188   0.0537   0.1702   0.0225  -0.0729  -0.0299  -1.00    2.6
2024/05/08 09:49:00.000   28.411248598  -16.348042408   536.0684   2   6   0.0188   0.0536   0.1702   0.0225  -0.0729  -0.0298   0.00    2.6
2024/05/08 09:49:01.000   28.411248600  -16.348042403   536.0646   2   6   0.0189   0.0536   0.1703   0.0225  -0.0728  -0.0298   1.00    1.5
2024/05/08 09:49:02.000   28.411248603  -16.348042400   536.0622   2   6   0.0189   0.0536   0.1703   0.0225  -0.0728  -0.0298   2.00    1.1
2024/05/08 09:49:03.000   28.411248604  -16.348042399   536.0601   2   6   0.0189   0.0536   0.1703   0.0225  -0.0728  -0.0298   3.00    1.5
2024/05/08 09:49:04.000   28.411248604  -16.348042397   536.0579   2   6   0.0189   0.0536   0.1704   0.0225  -0.0728  -0.0298   4.00    1.2
2024/05/08 09:49:05.000   28.411248604  -16.348042395   536.0563   2   6   0.0189   0.0536   0.1704   0.0225  -0.0728  -0.0298   5.00    1.6
2024/05/08 09:49:06.000   28.411248605  -16.348042394   536.0551   2   6   0.0189   0.0536   0.1704   0.0225  -0.0728  -0.0298   6.00    1.0
2024/05/08 09:49:07.000   28.411248605  -16.348042394   536.0544   2   6   0.0189   0.0536   0.1704   0.0225  -0.0728  -0.0298   7.00    1.6
2024/05/08 09:49:08.000   28.411248605  -16.348042391   536.0535   2   6   0.0189   0.0536   0.1704   0.0225  -0.0728  -0.0298   8.00    1.3
2024/05/08 09:49:09.000   28.411248605  -16.348042391   536.0529   2   6   0.0189   0.0536   0.1704   0.0225  -0.0728  -0.0298   9.00    1.6
2024/05/08 09:49:10.000   28.411248605  -16.348042389   536.0525   2   6   0.0189   0.0536   0.1704   0.0225  -0.0727  -0.0298  10.00    1.0
2024/05/08 09:49:11.000   28.411248605  -16.348042388   536.0527   2   6   0.0189   0.0536   0.1704   0.0225  -0.0727  -0.0298  11.00    1.6
2024/05/08 09:49:12.000   28.411248606  -16.348042385   536.0523   2   6   0.0189   0.0535   0.1704   0.0224  -0.0727  -0.0298  12.00    2.2
2024/05/08 09:49:13.000   28.411248606  -16.348042385   536.0521   2   6   0.0189   0.0535   0.1704   0.0224  -0.0727  -0.0298  13.00    1.6
2024/05/08 09:49:14.000   28.411248607  -16.348042383   536.0517   2   6   0.0189   0.0535   0.1704   0.0224  -0.0727  -0.0298  14.00    1.1
2024/05/08 09:49:15.000   28.411248607  -16.348042382   536.0514   2   6   0.0189   0.0535   0.1704   0.0224  -0.0727  -0.0298 -15.00    1.6
2024/05/08 09:49:16.000   28.411248607  -16.348042380   536.0508   2   6   0.0189   0.0535   0.1704   0.0224  -0.0727  -0.0297 -14.00    1.2
2024/05/08 09:49:17.000   28.411248608  -16.348042380   536.0504   2   6   0.0189   0.0535   0.1704   0.0224  -0.0727  -0.0297 -13.00    1.6
2024/05/08 09:49:18.000   28.411248608  -16.348042378   536.0498   2   6   0.0189   0.0535   0.1704   0.0224  -0.0726  -0.0297 -12.00    1.0
2024/05/08 09:49:19.000   28.411248608  -16.348042377   536.0494   2   6   0.0189   0.0535   0.1704   0.0224  -0.0726  -0.0297 -11.00    1.6
2024/05/08 09:49:20.000   28.411248609  -16.348042375   536.0486   2   6   0.0189   0.0535   0.1704   0.0224  -0.0726  -0.0297 -10.00    1.3
2024/05/08 09:49:21.000   28.411248609  -16.348042374   536.0479   2   6   0.0189   0.0535   0.1704   0.0224  -0.0726  -0.0297  -9.00    1.6
2024/05/08 09:49:22.000   28.411248609  -16.348042372   536.0467   2   6   0.0189   0.0535   0.1704   0.0224  -0.0726  -0.0297  -8.00    1.0
2024/05/08 09:49:23.000   28.411248609  -16.348042371   536.0462   2   6   0.0189   0.0535   0.1704   0.0224  -0.0726  -0.0297  -7.00    1.6
2024/05/08 09:49:24.000   28.411248609  -16.348042369   536.0453   2   6   0.0189   0.0534   0.1704   0.0224  -0.0726  -0.0297  -6.00    2.0
2024/05/08 09:49:25.000   28.411248609  -16.348042367   536.0441   2   6   0.0189   0.0534   0.1704   0.0224  -0.0726  -0.0297  -5.00    1.6
2024/05/08 09:49:26.000   28.411248609  -16.348042363   536.0430   2   6   0.0189   0.0534   0.1704   0.0224  -0.0726  -0.0297  -4.00    1.1
2024/05/08 09:49:27.000   28.411248610  -16.348042360   536.0416   2   6   0.0189   0.0534   0.1704   0.0224  -0.0725  -0.0297  -3.00    1.7
2024/05/08 09:49:28.000   28.411248610  -16.348042358   536.0387   2   6   0.0189   0.0534   0.1704   0.0224  -0.0725  -0.0297  -2.00    1.1
2024/05/08 09:49:29.000   28.411248609  -16.348042357   536.0372   2   6   0.0189   0.0534   0.1704   0.0224  -0.0725  -0.0297  -1.00    1.7
2024/05/08 09:49:30.000   28.411248608  -16.348042353   536.0360   2   6   0.0189   0.0534   0.1704   0.0224  -0.0725  -0.0297   0.00    1.0
2024/05/08 09:49:31.000   28.411248608  -16.348042344   536.0327   2   6   0.0189   0.0534   0.1704   0.0224  -0.0725  -0.0297   1.00    1.8
2024/05/08 09:49:32.000   28.411248609  -16.348042340   536.0294   2   6   0.0189   0.0534   0.1704   0.0224  -0.0725  -0.0297   2.00    1.3
2024/05/08 09:49:33.000   28.411248608  -16.348042336   536.0271   2   6   0.0189   0.0534   0.1705   0.0224  -0.0725  -0.0297   3.00    1.8
2024/05/08 09:49:34.000   28.411248609  -16.348042328   536.0251   2   6   0.0189   0.0533   0.1705   0.0224  -0.0725  -0.0297   4.00    1.1
2024/05/08 09:49:35.000   28.411248610  -16.348042321   536.0238   2   6   0.0189   0.0533   0.1705   0.0224  -0.0725  -0.0296   5.00    1.9
2024/05/08 09:49:36.000   28.411248611  -16.348042315   536.0232   2   6   0.0189   0.0533   0.1705   0.0224  -0.0725  -0.0296   6.00    1.9
2024/05/08 09:49:37.000   28.411248611  -16.348042311   536.0228   2   6   0.0189   0.0533   0.1705   0.0223  -0.0725  -0.0296   7.00    1.9
2024/05/08 09:49:38.000   28.411248612  -16.348042306   536.0222   2   6   0.0189   0.0533   0.1705   0.0223  -0.0724  -0.0296   8.00    1.1
2024/05/08 09:49:39.000   28.411248613  -16.348042300   536.0214   2   6   0.0189   0.0533   0.1705   0.0223  -0.0724  -0.0296   9.00    1.9
2024/05/08 09:49:40.000   28.411248613  -16.348042297   536.0215   2   6   0.0189   0.0533   0.1705   0.0223  -0.0724  -0.0296  10.00    1.0
2024/05/08 09:49:41.000   28.411248614  -16.348042292   536.0212   2   6   0.0189   0.0533   0.1705   0.0223  -0.0724  -0.0296  11.00    1.9
2024/05/08 09:49:42.000   28.411248615  -16.348042288   536.0209   2   6   0.0189   0.0533   0.1705   0.0223  -0.0724  -0.0296  12.00    1.0
2024/05/08 09:49:43.000   28.411248615  -16.348042284   536.0209   2   6   0.0189   0.0533   0.1705   0.0223  -0.0724  -0.0296  13.00    1.9
2024/05/08 09:49:44.000   28.411248616  -16.348042283   536.0211   2   6   0.0189   0.0533   0.1705   0.0223  -0.0724  -0.0296  14.00    1.3
2024/05/08 09:49:45.000   28.411248616  -16.348042281   536.0210   2   6   0.0189   0.0533   0.1705   0.0223  -0.0724  -0.0296 -15.00    1.9
2024/05/08 09:49:46.000   28.411248617  -16.348042278   536.0210   2   6   0.0189   0.0533   0.1705   0.0223  -0.0724  -0.0296 -14.00    1.0
2024/05/08 09:49:47.000   28.411248617  -16.348042275   536.0210   2   6   0.0189   0.0532   0.1705   0.0223  -0.0723  -0.0296 -13.00    1.8
2024/05/08 09:49:48.000   28.411248618  -16.348042272   536.0210   2   6   0.0189   0.0532   0.1705   0.0223  -0.0723  -0.0296 -12.00    1.9
2024/05/08 09:49:49.000   28.411248619  -16.348042269   536.0208   2   6   0.0189   0.0532   0.1705   0.0223  -0.0723  -0.0296 -11.00    1.8
2024/05/08 09:49:50.000   28.411248620  -16.348042264   536.0203   2   6   0.0189   0.0532   0.1705   0.0223  -0.0723  -0.0296 -10.00    1.2
2024/05/08 09:49:51.000   28.411248621  -16.348042260   536.0199   2   6   0.0189   0.0532   0.1705   0.0223  -0.0723  -0.0296  -9.00    1.8
2024/05/08 09:49:52.000   28.411248622  -16.348042254   536.0197   2   6   0.0189   0.0532   0.1704   0.0223  -0.0723  -0.0296  -8.00    1.0
2024/05/08 09:49:53.000   28.411248624  -16.348042248   536.0196   2   6   0.0188   0.0532   0.1704   0.0223  -0.0723  -0.0296  -7.00    1.8
2024/05/08 09:49:54.000   28.411248625  -16.348042243   536.0197   2   6   0.0188   0.0532   0.1704   0.0223  -0.0723  -0.0295  -6.00    1.0
2024/05/08 09:49:55.000   28.411248626  -16.348042237   536.0203   2   6   0.0188   0.0532   0.1704   0.0223  -0.0723  -0.0295  -5.00    1.8
2024/05/08 09:49:56.000   28.411248628  -16.348042231   536.0208   2   6   0.0188   0.0532   0.1704   0.0223  -0.0723  -0.0295  -4.00    1.2
2024/05/08 09:49:57.000   28.411248629  -16.348042223   536.0206   2   6   0.0188   0.0532   0.1704   0.0223  -0.0722  -0.0295  -3.00    1.8
2024/05/08 09:49:58.000   28.411248630  -16.348042213   536.0202   2   6   0.0188   0.0531   0.1704   0.0223  -0.0722  -0.0295  -2.00    1.0
2024/05/08 09:49:59.000   28.411248631  -16.348042202   536.0192   2   6   0.0188   0.0531   0.1704   0.0223  -0.0722  -0.0295  -1.00    1.8
2024/05/08 09:50:00.000   28.411248631  -16.348042191   536.0173   2   6   0.0188   0.0531   0.1704   0.0223  -0.0722  -0.0295   0.00    1.8
2024/05/08 09:50:01.000   28.411248631  -16.348042183   536.0169   2   6   0.0188   0.0531   0.1704   0.0223  -0.0722  -0.0295   1.00    1.8
2024/05/08 09:50:02.000   28.411248632  -16.348042174   536.0171   2   6   0.0188   0.0531   0.1704   0.0223  -0.0722  -0.0295   2.00    1.3
2024/05/08 09:50:03.000   28.411248632  -16.348042165   536.0178   2   6   0.0188   0.0531   0.1704   0.0223  -0.0722  -0.0295   3.00    1.8
2024/05/08 09:50:04.000   28.411248633  -16.348042157   536.0185   2   6   0.0188   0.0531   0.1704   0.0222  -0.0722  -0.0295   4.00    1.0
