% program   : RTKPOST-EX 2.5.0
% inp file  : C:\Users\SallyHenry\Desktop\Sally Internship\GNSS gravi\DATA\Survey Rover Obs\GUI05.24o
% inp file  : C:\Users\SallyHenry\Desktop\Sally Internship\GNSS gravi\DATA\BaseStations\TN01\TN0100ESP_R_20241270000_01D_30S_MO.rnx
% inp file  : C:\Users\SallyHenry\Desktop\Sally Internship\GNSS gravi\DATA\BaseStations\TN01\TN0100ESP_R_20241270000_01D_MN.rnx
% inp file  : C:\Users\SallyHenry\Desktop\Sally Internship\GNSS gravi\DATA\aux_files\Survey\IGS0OPSFIN_20241270000_01D_15M_ORB.SP3
% inp file  : C:\Users\SallyHenry\Desktop\Sally Internship\GNSS gravi\DATA\aux_files\Survey\IGS0OPSFIN_20241270000_01D_30S_CLK.CLK
% obs start : 2024/05/06 16:06:46.0 GPST (week2313 144406.0s)
% obs end   : 2024/05/06 16:22:37.0 GPST (week2313 145357.0s)
% pos mode  : Static
% freqs     : L1+L2/E5b
% solution  : Combined-No Phase Reset
% elev mask : 15.0 deg
% dynamics  : on
% tidecorr  : solid
% ionos opt : Estimate TEC
% tropo opt : Estimate ZTD+Grad
% ephemeris : Precise
% navi sys  : GPS GLONASS Galileo QZSS BDS
% amb res   : Fix and Hold
% amb glo   : Fix and Hold
% amb bds   : on
% val thres : 3.0
% antenna1  :                       ( 0.0000  0.0000  1.8000)
% antenna2  :                       ( 0.0000  0.0000  0.0771)
% ref pos   :  28.477186930  -16.241151700    51.7531
%
% (lat/lon/height=WGS84/ellipsoidal,Q=1:fix,2:float,3:sbas,4:dgps,5:single,6:ppp,ns=# of satellites)
%  GPST                  latitude(deg) longitude(deg)  height(m)   Q  ns   sdn(m)   sde(m)   sdu(m)  sdne(m)  sdeu(m)  sdun(m) age(s)  ratio
2024/05/06 16:06:46.000   28.339910471  -16.451888877  1331.8515   2   8   0.0181   0.0324   0.2748  -0.0131   0.0685  -0.0441 -14.00    0.0
2024/05/06 16:06:47.000   28.339910472  -16.451888877  1331.8491   2   8   0.0181   0.0323   0.2740  -0.0130   0.0683  -0.0440 -13.00    0.0
2024/05/06 16:06:48.000   28.339910472  -16.451888877  1331.8477   2   8   0.0180   0.0323   0.2734  -0.0130   0.0681  -0.0439 -12.00    0.0
2024/05/06 16:06:49.000   28.339910472  -16.451888878  1331.8437   2   8   0.0180   0.0323   0.2728  -0.0130   0.0679  -0.0438 -11.00    0.0
2024/05/06 16:06:50.000   28.339910473  -16.451888878  1331.8404   2   8   0.0180   0.0323   0.2724  -0.0129   0.0678  -0.0437 -10.00    0.0
2024/05/06 16:06:51.000   28.339910473  -16.451888878  1331.8362   2   8   0.0180   0.0323   0.2720  -0.0129   0.0676  -0.0436  -9.00    0.0
2024/05/06 16:06:52.000   28.339910473  -16.451888874  1331.8341   2   8   0.0180   0.0322   0.2717  -0.0129   0.0675  -0.0435  -8.00    0.0
2024/05/06 16:06:53.000   28.339910474  -16.451888871  1331.8313   2   8   0.0180   0.0322   0.2714  -0.0129   0.0674  -0.0435  -7.00    0.0
2024/05/06 16:06:54.000   28.339910474  -16.451888866  1331.8291   2   8   0.0180   0.0322   0.2712  -0.0129   0.0674  -0.0434  -6.00    0.0
2024/05/06 16:06:55.000   28.339910474  -16.451888861  1331.8263   2   8   0.0180   0.0322   0.2710  -0.0129   0.0673  -0.0434  -5.00    0.0
2024/05/06 16:06:56.000   28.339910473  -16.451888855  1331.8251   2   8   0.0180   0.0322   0.2709  -0.0128   0.0672  -0.0434  -4.00    0.0
2024/05/06 16:06:57.000   28.339910473  -16.451888848  1331.8223   2   8   0.0180   0.0322   0.2709  -0.0128   0.0672  -0.0433  -3.00    0.0
2024/05/06 16:06:58.000   28.339910473  -16.451888841  1331.8212   2   8   0.0181   0.0322   0.2708  -0.0128   0.0671  -0.0433  -2.00    0.0
2024/05/06 16:06:59.000   28.339910471  -16.451888831  1331.8223   2   8   0.0181   0.0322   0.2709  -0.0128   0.0671  -0.0433  -1.00    0.0
2024/05/06 16:07:00.000   28.339910472  -16.451888822  1331.8229   2   8   0.0181   0.0322   0.2710  -0.0128   0.0670  -0.0433   0.00    0.0
2024/05/06 16:07:01.000   28.339910471  -16.451888810  1331.8278   2   8   0.0181   0.0322   0.2708  -0.0128   0.0669  -0.0432   1.00    0.0
2024/05/06 16:07:02.000   28.339910471  -16.451888803  1331.8310   2   8   0.0181   0.0323   0.2708  -0.0128   0.0669  -0.0432   2.00    0.0
2024/05/06 16:07:03.000   28.339910471  -16.451888792  1331.8338   2   8   0.0181   0.0323   0.2709  -0.0128   0.0668  -0.0431   3.00    0.0
2024/05/06 16:07:04.000   28.339910471  -16.451888783  1331.8377   2   8   0.0181   0.0323   0.2709  -0.0128   0.0668  -0.0431   4.00    0.0
2024/05/06 16:07:05.000   28.339910471  -16.451888775  1331.8408   2   8   0.0182   0.0323   0.2709  -0.0128   0.0667  -0.0431   5.00    0.0
2024/05/06 16:07:06.000   28.339910471  -16.451888767  1331.8422   2   8   0.0182   0.0323   0.2709  -0.0128   0.0667  -0.0431   6.00    0.0
2024/05/06 16:07:07.000   28.339910470  -16.451888759  1331.8459   2   8   0.0182   0.0323   0.2709  -0.0128   0.0667  -0.0431   7.00    0.0
2024/05/06 16:07:08.000   28.339910470  -16.451888753  1331.8479   2   8   0.0182   0.0323   0.2709  -0.0128   0.0666  -0.0430   8.00    0.0
2024/05/06 16:07:09.000   28.339910469  -16.451888747  1331.8502   2   8   0.0182   0.0323   0.2709  -0.0128   0.0666  -0.0430   9.00    0.0
2024/05/06 16:07:10.000   28.339910469  -16.451888742  1331.8520   2   8   0.0182   0.0323   0.2708  -0.0127   0.0666  -0.0430  10.00    0.0
2024/05/06 16:07:11.000   28.339910468  -16.451888737  1331.8545   2   8   0.0182   0.0323   0.2707  -0.0127   0.0666  -0.0430  11.00    0.0
2024/05/06 16:07:12.000   28.339910467  -16.451888732  1331.8565   2   8   0.0182   0.0323   0.2707  -0.0127   0.0665  -0.0430  12.00    0.0
2024/05/06 16:07:13.000   28.339910467  -16.451888729  1331.8581   2   8   0.0182   0.0323   0.2706  -0.0127   0.0665  -0.0429  13.00    0.0
2024/05/06 16:07:14.000   28.339910466  -16.451888725  1331.8596   2   8   0.0182   0.0323   0.2706  -0.0127   0.0665  -0.0429  14.00    0.0
2024/05/06 16:07:15.000   28.339910466  -16.451888722  1331.8606   2   8   0.0182   0.0323   0.2705  -0.0127   0.0664  -0.0429 -15.00    0.0
2024/05/06 16:07:16.000   28.339910466  -16.451888720  1331.8613   2   8   0.0182   0.0323   0.2704  -0.0127   0.0664  -0.0429 -14.00    0.0
2024/05/06 16:07:17.000   28.339910466  -16.451888717  1331.8624   2   8   0.0182   0.0323   0.2704  -0.0127   0.0664  -0.0429 -13.00    0.0
2024/05/06 16:07:18.000   28.339910465  -16.451888715  1331.8637   2   8   0.0182   0.0323   0.2703  -0.0127   0.0664  -0.0429 -12.00    0.0
2024/05/06 16:07:19.000   28.339910465  -16.451888713  1331.8644   2   8   0.0182   0.0322   0.2703  -0.0127   0.0663  -0.0428 -11.00    0.0
2024/05/06 16:07:20.000   28.339910465  -16.451888710  1331.8654   2   8   0.0182   0.0322   0.2702  -0.0127   0.0663  -0.0428 -10.00    0.0
2024/05/06 16:07:21.000   28.339910465  -16.451888707  1331.8669   2   8   0.0182   0.0322   0.2702  -0.0127   0.0663  -0.0428  -9.00    0.0
2024/05/06 16:07:22.000   28.339910465  -16.451888704  1331.8685   2   8   0.0182   0.0322   0.2702  -0.0127   0.0663  -0.0428  -8.00    0.0
2024/05/06 16:07:23.000   28.339910466  -16.451888701  1331.8695   2   8   0.0182   0.0322   0.2702  -0.0127   0.0663  -0.0428  -7.00    0.0
2024/05/06 16:07:24.000   28.339910466  -16.451888698  1331.8702   2   8   0.0182   0.0323   0.2702  -0.0127   0.0662  -0.0428  -6.00    0.0
2024/05/06 16:07:25.000   28.339910465  -16.451888694  1331.8705   2   8   0.0182   0.0323   0.2703  -0.0127   0.0662  -0.0428  -5.00    0.0
2024/05/06 16:07:26.000   28.339910465  -16.451888690  1331.8707   2   8   0.0182   0.0323   0.2703  -0.0127   0.0662  -0.0428  -4.00    0.0
2024/05/06 16:07:27.000   28.339910466  -16.451888685  1331.8706   2   8   0.0182   0.0323   0.2704  -0.0127   0.0662  -0.0428  -3.00    0.0
2024/05/06 16:07:28.000   28.339910465  -16.451888679  1331.8693   2   8   0.0182   0.0323   0.2706  -0.0127   0.0662  -0.0428  -2.00    0.0
2024/05/06 16:07:29.000   28.339910465  -16.451888670  1331.8680   2   8   0.0182   0.0323   0.2707  -0.0127   0.0662  -0.0428  -1.00    0.0
2024/05/06 16:07:30.000   28.339910465  -16.451888660  1331.8691   2   8   0.0182   0.0323   0.2709  -0.0127   0.0662  -0.0428   0.00    0.0
2024/05/06 16:07:31.000   28.339910463  -16.451888650  1331.8734   2   8   0.0183   0.0323   0.2707  -0.0126   0.0661  -0.0427   1.00    0.0
2024/05/06 16:07:32.000   28.339910465  -16.451888643  1331.8724   2   8   0.0183   0.0323   0.2708  -0.0126   0.0661  -0.0427   2.00    0.0
2024/05/06 16:07:33.000   28.339910465  -16.451888636  1331.8723   2   8   0.0183   0.0324   0.2709  -0.0126   0.0660  -0.0427   3.00    0.0
2024/05/06 16:07:34.000   28.339910465  -16.451888631  1331.8725   2   8   0.0183   0.0324   0.2710  -0.0126   0.0660  -0.0426   4.00    0.0
2024/05/06 16:07:35.000   28.339910466  -16.451888628  1331.8731   2   8   0.0183   0.0324   0.2711  -0.0126   0.0660  -0.0426   5.00    0.0
2024/05/06 16:07:36.000   28.339910467  -16.451888625  1331.8737   2   8   0.0183   0.0324   0.2712  -0.0126   0.0660  -0.0426   6.00    0.0
2024/05/06 16:07:37.000   28.339910467  -16.451888623  1331.8736   2   8   0.0183   0.0324   0.2712  -0.0126   0.0660  -0.0426   7.00    0.0
2024/05/06 16:07:38.000   28.339910467  -16.451888621  1331.8742   2   8   0.0183   0.0324   0.2712  -0.0126   0.0660  -0.0426   8.00    0.0
2024/05/06 16:07:39.000   28.339910467  -16.451888620  1331.8744   2   8   0.0183   0.0324   0.2713  -0.0126   0.0660  -0.0426   9.00    0.0
2024/05/06 16:07:40.000   28.339910467  -16.451888620  1331.8744   2   8   0.0183   0.0324   0.2713  -0.0126   0.0659  -0.0426  10.00    0.0
2024/05/06 16:07:41.000   28.339910467  -16.451888620  1331.8738   2   8   0.0183   0.0324   0.2713  -0.0126   0.0659  -0.0426  11.00    0.0
2024/05/06 16:07:42.000   28.339910467  -16.451888618  1331.8740   2   8   0.0183   0.0324   0.2713  -0.0126   0.0659  -0.0426  12.00    0.0
2024/05/06 16:07:43.000   28.339910467  -16.451888618  1331.8741   2   8   0.0183   0.0324   0.2712  -0.0126   0.0659  -0.0426  13.00    0.0
2024/05/06 16:07:44.000   28.339910468  -16.451888618  1331.8739   2   8   0.0184   0.0324   0.2712  -0.0126   0.0659  -0.0426  14.00    0.0
2024/05/06 16:07:45.000   28.339910468  -16.451888618  1331.8737   2   8   0.0184   0.0324   0.2712  -0.0126   0.0659  -0.0425 -15.00    0.0
2024/05/06 16:07:46.000   28.339910468  -16.451888617  1331.8740   2   8   0.0184   0.0324   0.2712  -0.0126   0.0659  -0.0425 -14.00    0.0
2024/05/06 16:07:47.000   28.339910468  -16.451888617  1331.8741   2   8   0.0184   0.0324   0.2711  -0.0126   0.0658  -0.0425 -13.00    0.0
2024/05/06 16:07:48.000   28.339910468  -16.451888617  1331.8742   2   8   0.0184   0.0324   0.2711  -0.0126   0.0658  -0.0425 -12.00    0.0
2024/05/06 16:07:49.000   28.339910468  -16.451888617  1331.8735   2   8   0.0184   0.0324   0.2711  -0.0126   0.0658  -0.0425 -11.00    0.0
2024/05/06 16:07:50.000   28.339910468  -16.451888618  1331.8721   2   8   0.0184   0.0324   0.2711  -0.0126   0.0658  -0.0425 -10.00    0.0
2024/05/06 16:07:51.000   28.339910468  -16.451888618  1331.8707   2   8   0.0184   0.0324   0.2711  -0.0126   0.0658  -0.0425  -9.00    0.0
2024/05/06 16:07:52.000   28.339910469  -16.451888618  1331.8688   2   8   0.0184   0.0324   0.2711  -0.0126   0.0658  -0.0425  -8.00    0.0
2024/05/06 16:07:53.000   28.339910470  -16.451888620  1331.8661   2   8   0.0184   0.0324   0.2711  -0.0126   0.0658  -0.0425  -7.00    0.0
2024/05/06 16:07:54.000   28.339910471  -16.451888621  1331.8623   2   8   0.0184   0.0324   0.2712  -0.0126   0.0658  -0.0425  -6.00    0.0
2024/05/06 16:07:55.000   28.339910472  -16.451888622  1331.8587   2   8   0.0184   0.0324   0.2712  -0.0126   0.0657  -0.0425  -5.00    0.0
2024/05/06 16:07:56.000   28.339910473  -16.451888621  1331.8547   2   8   0.0184   0.0324   0.2713  -0.0126   0.0657  -0.0425  -4.00    0.0
2024/05/06 16:07:57.000   28.339910474  -16.451888620  1331.8504   2   8   0.0184   0.0324   0.2714  -0.0126   0.0657  -0.0425  -3.00    0.0
2024/05/06 16:07:58.000   28.339910475  -16.451888616  1331.8464   2   8   0.0184   0.0325   0.2715  -0.0126   0.0657  -0.0425  -2.00    0.0
2024/05/06 16:07:59.000   28.339910477  -16.451888613  1331.8432   2   8   0.0184   0.0325   0.2716  -0.0126   0.0657  -0.0425  -1.00    0.0
2024/05/06 16:08:00.000   28.339910479  -16.451888610  1331.8385   2   8   0.0184   0.0325   0.2718  -0.0126   0.0657  -0.0425   0.00    0.0
2024/05/06 16:08:01.000   28.339910480  -16.451888611  1331.8306   2   8   0.0185   0.0325   0.2716  -0.0125   0.0656  -0.0424   1.00    0.0
2024/05/06 16:08:02.000   28.339910481  -16.451888610  1331.8217   2   8   0.0185   0.0325   0.2716  -0.0125   0.0656  -0.0424   2.00    0.0
2024/05/06 16:08:03.000   28.339910482  -16.451888608  1331.8130   2   8   0.0185   0.0325   0.2717  -0.0125   0.0655  -0.0423   3.00    0.0
2024/05/06 16:08:04.000   28.339910482  -16.451888608  1331.8059   2   8   0.0185   0.0325   0.2718  -0.0125   0.0655  -0.0423   4.00    0.0
2024/05/06 16:08:05.000   28.339910484  -16.451888607  1331.7994   2   8   0.0185   0.0326   0.2718  -0.0125   0.0655  -0.0423   5.00    0.0
2024/05/06 16:08:06.000   28.339910485  -16.451888606  1331.7932   2   8   0.0185   0.0326   0.2719  -0.0125   0.0655  -0.0423   6.00    0.0
2024/05/06 16:08:07.000   28.339910485  -16.451888604  1331.7870   2   8   0.0185   0.0326   0.2719  -0.0125   0.0654  -0.0423   7.00    0.0
2024/05/06 16:08:08.000   28.339910486  -16.451888603  1331.7813   2   8   0.0185   0.0326   0.2719  -0.0125   0.0654  -0.0423   8.00    0.0
2024/05/06 16:08:09.000   28.339910487  -16.451888603  1331.7771   2   8   0.0185   0.0326   0.2720  -0.0125   0.0654  -0.0423   9.00    0.0
2024/05/06 16:08:10.000   28.339910487  -16.451888602  1331.7737   2   8   0.0185   0.0326   0.2720  -0.0125   0.0654  -0.0423  10.00    0.0
2024/05/06 16:08:11.000   28.339910488  -16.451888602  1331.7701   2   8   0.0185   0.0326   0.2719  -0.0125   0.0654  -0.0423  11.00    0.0
2024/05/06 16:08:12.000   28.339910488  -16.451888601  1331.7677   2   8   0.0185   0.0326   0.2719  -0.0125   0.0654  -0.0423  12.00    0.0
2024/05/06 16:08:13.000   28.339910488  -16.451888600  1331.7664   2   8   0.0185   0.0326   0.2719  -0.0125   0.0654  -0.0423  13.00    0.0
2024/05/06 16:08:14.000   28.339910488  -16.451888600  1331.7654   2   8   0.0185   0.0326   0.2719  -0.0125   0.0654  -0.0422  14.00    0.0
2024/05/06 16:08:15.000   28.339910488  -16.451888599  1331.7644   2   8   0.0185   0.0326   0.2719  -0.0125   0.0653  -0.0422 -15.00    0.0
2024/05/06 16:08:16.000   28.339910488  -16.451888599  1331.7637   2   8   0.0185   0.0326   0.2719  -0.0125   0.0653  -0.0422 -14.00    0.0
2024/05/06 16:08:17.000   28.339910488  -16.451888598  1331.7629   2   8   0.0185   0.0326   0.2718  -0.0125   0.0653  -0.0422 -13.00    0.0
2024/05/06 16:08:18.000   28.339910488  -16.451888598  1331.7618   2   8   0.0185   0.0326   0.2718  -0.0125   0.0653  -0.0422 -12.00    0.0
2024/05/06 16:08:19.000   28.339910488  -16.451888597  1331.7604   2   8   0.0185   0.0326   0.2718  -0.0125   0.0653  -0.0422 -11.00    0.0
2024/05/06 16:08:20.000   28.339910488  -16.451888596  1331.7589   2   8   0.0186   0.0326   0.2718  -0.0125   0.0653  -0.0422 -10.00    0.0
2024/05/06 16:08:21.000   28.339910489  -16.451888595  1331.7568   2   8   0.0186   0.0326   0.2718  -0.0125   0.0653  -0.0422  -9.00    0.0
2024/05/06 16:08:22.000   28.339910488  -16.451888595  1331.7550   2   8   0.0186   0.0326   0.2718  -0.0125   0.0652  -0.0422  -8.00    0.0
2024/05/06 16:08:23.000   28.339910488  -16.451888594  1331.7521   2   8   0.0186   0.0326   0.2718  -0.0125   0.0652  -0.0422  -7.00    0.0
2024/05/06 16:08:24.000   28.339910488  -16.451888593  1331.7489   2   8   0.0186   0.0326   0.2718  -0.0125   0.0652  -0.0422  -6.00    0.0
2024/05/06 16:08:25.000   28.339910488  -16.451888592  1331.7449   2   8   0.0186   0.0326   0.2718  -0.0125   0.0652  -0.0422  -5.00    0.0
2024/05/06 16:08:26.000   28.339910489  -16.451888592  1331.7410   2   8   0.0186   0.0326   0.2719  -0.0125   0.0652  -0.0422  -4.00    0.0
2024/05/06 16:08:27.000   28.339910489  -16.451888593  1331.7359   2   8   0.0186   0.0326   0.2719  -0.0125   0.0652  -0.0422  -3.00    0.0
2024/05/06 16:08:28.000   28.339910489  -16.451888594  1331.7306   2   8   0.0186   0.0326   0.2720  -0.0125   0.0651  -0.0422  -2.00    0.0
2024/05/06 16:08:29.000   28.339910490  -16.451888596  1331.7235   2   8   0.0186   0.0327   0.2721  -0.0125   0.0651  -0.0421  -1.00    0.0
2024/05/06 16:08:30.000   28.339910491  -16.451888597  1331.7140   2   8   0.0186   0.0327   0.2722  -0.0125   0.0651  -0.0421   0.00    0.0
2024/05/06 16:08:31.000   28.339910491  -16.451888599  1331.7050   2   8   0.0187   0.0327   0.2720  -0.0125   0.0650  -0.0421   1.00    0.0
2024/05/06 16:08:32.000   28.339910492  -16.451888604  1331.6951   2   8   0.0187   0.0327   0.2720  -0.0124   0.0649  -0.0420   2.00    0.0
2024/05/06 16:08:33.000   28.339910493  -16.451888609  1331.6874   2   8   0.0187   0.0327   0.2720  -0.0124   0.0649  -0.0420   3.00    0.0
2024/05/06 16:08:34.000   28.339910495  -16.451888615  1331.6810   2   8   0.0187   0.0327   0.2720  -0.0124   0.0649  -0.0420   4.00    0.0
2024/05/06 16:08:35.000   28.339910496  -16.451888619  1331.6754   2   8   0.0187   0.0327   0.2720  -0.0124   0.0648  -0.0420   5.00    0.0
2024/05/06 16:08:36.000   28.339910497  -16.451888622  1331.6705   2   8   0.0187   0.0327   0.2721  -0.0124   0.0648  -0.0420   6.00    0.0
2024/05/06 16:08:37.000   28.339910498  -16.451888625  1331.6665   2   8   0.0187   0.0327   0.2721  -0.0124   0.0648  -0.0420   7.00    0.0
2024/05/06 16:08:38.000   28.339910499  -16.451888628  1331.6630   2   8   0.0187   0.0327   0.2721  -0.0124   0.0648  -0.0420   8.00    0.0
2024/05/06 16:08:39.000   28.339910499  -16.451888630  1331.6608   2   8   0.0187   0.0327   0.2721  -0.0124   0.0648  -0.0419   9.00    0.0
2024/05/06 16:08:40.000   28.339910500  -16.451888633  1331.6583   2   8   0.0187   0.0327   0.2721  -0.0124   0.0647  -0.0419  10.00    0.0
2024/05/06 16:08:41.000   28.339910500  -16.451888634  1331.6565   2   8   0.0187   0.0328   0.2720  -0.0124   0.0647  -0.0419  11.00    0.0
2024/05/06 16:08:42.000   28.339910501  -16.451888636  1331.6551   2   8   0.0187   0.0328   0.2720  -0.0124   0.0647  -0.0419  12.00    0.0
2024/05/06 16:08:43.000   28.339910501  -16.451888637  1331.6539   2   8   0.0187   0.0328   0.2720  -0.0124   0.0647  -0.0419  13.00    0.0
2024/05/06 16:08:44.000   28.339910501  -16.451888638  1331.6526   2   8   0.0187   0.0328   0.2720  -0.0124   0.0647  -0.0419  14.00    0.0
2024/05/06 16:08:45.000   28.339910501  -16.451888638  1331.6516   2   8   0.0187   0.0328   0.2720  -0.0124   0.0647  -0.0419 -15.00    0.0
2024/05/06 16:08:46.000   28.339910501  -16.451888639  1331.6511   2   8   0.0187   0.0328   0.2719  -0.0124   0.0647  -0.0419 -14.00    0.0
2024/05/06 16:08:47.000   28.339910501  -16.451888639  1331.6502   2   8   0.0187   0.0328   0.2719  -0.0124   0.0646  -0.0419 -13.00    0.0
2024/05/06 16:08:48.000   28.339910502  -16.451888640  1331.6491   2   8   0.0187   0.0328   0.2719  -0.0124   0.0646  -0.0419 -12.00    0.0
2024/05/06 16:08:49.000   28.339910502  -16.451888641  1331.6476   2   8   0.0187   0.0328   0.2719  -0.0124   0.0646  -0.0419 -11.00    0.0
2024/05/06 16:08:50.000   28.339910502  -16.451888642  1331.6454   2   8   0.0187   0.0328   0.2718  -0.0124   0.0646  -0.0419 -10.00    0.0
2024/05/06 16:08:51.000   28.339910501  -16.451888643  1331.6436   2   8   0.0188   0.0328   0.2718  -0.0124   0.0646  -0.0419  -9.00    0.0
2024/05/06 16:08:52.000   28.339910501  -16.451888644  1331.6410   2   8   0.0188   0.0328   0.2718  -0.0124   0.0646  -0.0419  -8.00    0.0
2024/05/06 16:08:53.000   28.339910501  -16.451888645  1331.6386   2   8   0.0188   0.0328   0.2718  -0.0124   0.0645  -0.0418  -7.00    0.0
2024/05/06 16:08:54.000   28.339910501  -16.451888646  1331.6353   2   8   0.0188   0.0328   0.2718  -0.0124   0.0645  -0.0418  -6.00    0.0
2024/05/06 16:08:55.000   28.339910501  -16.451888647  1331.6315   2   8   0.0188   0.0328   0.2718  -0.0124   0.0645  -0.0418  -5.00    0.0
2024/05/06 16:08:56.000   28.339910501  -16.451888646  1331.6278   2   8   0.0188   0.0328   0.2718  -0.0124   0.0645  -0.0418  -4.00    0.0
2024/05/06 16:08:57.000   28.339910501  -16.451888646  1331.6235   2   8   0.0188   0.0328   0.2718  -0.0124   0.0645  -0.0418  -3.00    0.0
2024/05/06 16:08:58.000   28.339910502  -16.451888645  1331.6199   2   8   0.0188   0.0328   0.2718  -0.0124   0.0644  -0.0418  -2.00    0.0
2024/05/06 16:08:59.000   28.339910504  -16.451888647  1331.6154   2   8   0.0188   0.0328   0.2719  -0.0124   0.0644  -0.0418  -1.00    0.0
2024/05/06 16:09:00.000   28.339910503  -16.451888646  1331.6126   2   8   0.0188   0.0328   0.2719  -0.0124   0.0644  -0.0418   0.00    0.0
2024/05/06 16:09:01.000   28.339910503  -16.451888648  1331.6125   2   8   0.0188   0.0328   0.2718  -0.0124   0.0643  -0.0417   1.00    0.0
2024/05/06 16:09:02.000   28.339910502  -16.451888646  1331.6123   2   8   0.0189   0.0328   0.2717  -0.0124   0.0642  -0.0417   2.00    0.0
2024/05/06 16:09:03.000   28.339910502  -16.451888645  1331.6099   2   8   0.0189   0.0329   0.2717  -0.0124   0.0642  -0.0417   3.00    0.0
2024/05/06 16:09:04.000   28.339910504  -16.451888646  1331.6070   2   8   0.0189   0.0329   0.2717  -0.0124   0.0641  -0.0417   4.00    0.0
2024/05/06 16:09:05.000   28.339910504  -16.451888645  1331.6048   2   8   0.0189   0.0329   0.2717  -0.0124   0.0641  -0.0416   5.00    0.0
2024/05/06 16:09:06.000   28.339910504  -16.451888645  1331.6045   2   8   0.0189   0.0329   0.2717  -0.0124   0.0641  -0.0416   6.00    0.0
2024/05/06 16:09:07.000   28.339910503  -16.451888644  1331.6040   2   8   0.0189   0.0329   0.2717  -0.0123   0.0641  -0.0416   7.00    0.0
2024/05/06 16:09:08.000   28.339910503  -16.451888642  1331.6039   2   8   0.0189   0.0329   0.2717  -0.0123   0.0640  -0.0416   8.00    0.0
2024/05/06 16:09:09.000   28.339910503  -16.451888641  1331.6039   2   8   0.0189   0.0329   0.2717  -0.0123   0.0640  -0.0416   9.00    0.0
2024/05/06 16:09:10.000   28.339910502  -16.451888640  1331.6044   2   8   0.0189   0.0329   0.2717  -0.0123   0.0640  -0.0416  10.00    0.0
2024/05/06 16:09:11.000   28.339910502  -16.451888638  1331.6044   2   8   0.0189   0.0329   0.2717  -0.0123   0.0640  -0.0416  11.00    0.0
2024/05/06 16:09:12.000   28.339910502  -16.451888637  1331.6044   2   8   0.0189   0.0329   0.2716  -0.0123   0.0640  -0.0416  12.00    0.0
2024/05/06 16:09:13.000   28.339910502  -16.451888636  1331.6043   2   8   0.0189   0.0329   0.2716  -0.0123   0.0640  -0.0416  13.00    0.0
2024/05/06 16:09:14.000   28.339910502  -16.451888635  1331.6050   2   8   0.0189   0.0329   0.2716  -0.0123   0.0639  -0.0416  14.00    0.0
2024/05/06 16:09:15.000   28.339910502  -16.451888635  1331.6049   2   8   0.0189   0.0329   0.2716  -0.0123   0.0639  -0.0416 -15.00    0.0
2024/05/06 16:09:16.000   28.339910502  -16.451888635  1331.6049   2   8   0.0189   0.0329   0.2715  -0.0123   0.0639  -0.0416 -14.00    0.0
2024/05/06 16:09:17.000   28.339910502  -16.451888635  1331.6046   2   8   0.0189   0.0329   0.2715  -0.0123   0.0639  -0.0415 -13.00    0.0
2024/05/06 16:09:18.000   28.339910502  -16.451888635  1331.6049   2   8   0.0189   0.0329   0.2715  -0.0123   0.0639  -0.0415 -12.00    0.0
2024/05/06 16:09:19.000   28.339910502  -16.451888635  1331.6052   2   8   0.0189   0.0329   0.2714  -0.0123   0.0639  -0.0415 -11.00    0.0
2024/05/06 16:09:20.000   28.339910502  -16.451888635  1331.6054   2   8   0.0189   0.0329   0.2714  -0.0123   0.0639  -0.0415 -10.00    0.0
2024/05/06 16:09:21.000   28.339910503  -16.451888636  1331.6052   2   8   0.0190   0.0329   0.2714  -0.0123   0.0638  -0.0415  -9.00    0.0
2024/05/06 16:09:22.000   28.339910502  -16.451888636  1331.6056   2   8   0.0190   0.0329   0.2714  -0.0123   0.0638  -0.0415  -8.00    0.0
2024/05/06 16:09:23.000   28.339910502  -16.451888637  1331.6053   2   8   0.0190   0.0329   0.2713  -0.0123   0.0638  -0.0415  -7.00    0.0
2024/05/06 16:09:24.000   28.339910502  -16.451888638  1331.6054   2   8   0.0190   0.0329   0.2713  -0.0123   0.0638  -0.0415  -6.00    0.0
2024/05/06 16:09:25.000   28.339910503  -16.451888639  1331.6054   2   8   0.0190   0.0329   0.2713  -0.0123   0.0638  -0.0415  -5.00    0.0
2024/05/06 16:09:26.000   28.339910503  -16.451888641  1331.6052   2   8   0.0190   0.0329   0.2713  -0.0123   0.0637  -0.0415  -4.00    0.0
2024/05/06 16:09:27.000   28.339910504  -16.451888643  1331.6054   2   8   0.0190   0.0329   0.2713  -0.0123   0.0637  -0.0415  -3.00    0.0
2024/05/06 16:09:28.000   28.339910504  -16.451888645  1331.6058   2   8   0.0190   0.0329   0.2713  -0.0123   0.0637  -0.0415  -2.00    0.0
2024/05/06 16:09:29.000   28.339910504  -16.451888646  1331.6076   2   8   0.0190   0.0330   0.2713  -0.0123   0.0636  -0.0415  -1.00    0.0
2024/05/06 16:09:30.000   28.339910506  -16.451888649  1331.6101   2   8   0.0190   0.0330   0.2714  -0.0123   0.0636  -0.0414   0.00    0.0
2024/05/06 16:09:31.000   28.339910506  -16.451888648  1331.6167   2   8   0.0190   0.0330   0.2712  -0.0123   0.0635  -0.0414   1.00    0.0
2024/05/06 16:09:32.000   28.339910506  -16.451888649  1331.6199   2   8   0.0191   0.0330   0.2712  -0.0123   0.0635  -0.0414   2.00    0.0
2024/05/06 16:09:33.000   28.339910506  -16.451888651  1331.6215   2   8   0.0191   0.0330   0.2712  -0.0123   0.0634  -0.0414   3.00    0.0
2024/05/06 16:09:34.000   28.339910507  -16.451888654  1331.6240   2   8   0.0191   0.0330   0.2711  -0.0123   0.0634  -0.0413   4.00    0.0
2024/05/06 16:09:35.000   28.339910507  -16.451888657  1331.6262   2   8   0.0191   0.0330   0.2711  -0.0123   0.0634  -0.0413   5.00    0.0
2024/05/06 16:09:36.000   28.339910507  -16.451888661  1331.6288   2   8   0.0191   0.0330   0.2711  -0.0123   0.0633  -0.0413   6.00    0.0
2024/05/06 16:09:37.000   28.339910507  -16.451888665  1331.6310   2   8   0.0191   0.0330   0.2711  -0.0123   0.0633  -0.0413   7.00    0.0
2024/05/06 16:09:38.000   28.339910508  -16.451888669  1331.6333   2   8   0.0191   0.0330   0.2711  -0.0123   0.0633  -0.0413   8.00    0.0
2024/05/06 16:09:39.000   28.339910508  -16.451888673  1331.6348   2   8   0.0191   0.0331   0.2711  -0.0123   0.0633  -0.0413   9.00    0.0
2024/05/06 16:09:40.000   28.339910508  -16.451888676  1331.6365   2   8   0.0191   0.0331   0.2711  -0.0123   0.0633  -0.0413  10.00    0.0
2024/05/06 16:09:41.000   28.339910508  -16.451888678  1331.6385   2   8   0.0191   0.0331   0.2710  -0.0123   0.0632  -0.0413  11.00    0.0
2024/05/06 16:09:42.000   28.339910508  -16.451888681  1331.6399   2   8   0.0191   0.0331   0.2710  -0.0123   0.0632  -0.0413  12.00    0.0
2024/05/06 16:09:43.000   28.339910508  -16.451888683  1331.6411   2   8   0.0191   0.0331   0.2710  -0.0123   0.0632  -0.0413  13.00    0.0
2024/05/06 16:09:44.000   28.339910508  -16.451888686  1331.6419   2   8   0.0191   0.0331   0.2710  -0.0123   0.0632  -0.0412  14.00    0.0
2024/05/06 16:09:45.000   28.339910508  -16.451888688  1331.6424   2   8   0.0191   0.0331   0.2709  -0.0123   0.0632  -0.0412 -15.00    0.0
2024/05/06 16:09:46.000   28.339910509  -16.451888690  1331.6429   2   8   0.0191   0.0331   0.2709  -0.0123   0.0632  -0.0412 -14.00    0.0
2024/05/06 16:09:47.000   28.339910509  -16.451888692  1331.6436   2   8   0.0191   0.0331   0.2709  -0.0123   0.0632  -0.0412 -13.00    0.0
2024/05/06 16:09:48.000   28.339910509  -16.451888695  1331.6442   2   8   0.0191   0.0331   0.2708  -0.0123   0.0632  -0.0412 -12.00    0.0
2024/05/06 16:09:49.000   28.339910509  -16.451888698  1331.6452   2   8   0.0191   0.0331   0.2708  -0.0122   0.0631  -0.0412 -11.00    0.0
2024/05/06 16:09:50.000   28.339910509  -16.451888701  1331.6456   2   8   0.0191   0.0331   0.2708  -0.0122   0.0631  -0.0412 -10.00    0.0
2024/05/06 16:09:51.000   28.339910509  -16.451888704  1331.6463   2   8   0.0191   0.0331   0.2708  -0.0122   0.0631  -0.0412  -9.00    0.0
2024/05/06 16:09:52.000   28.339910509  -16.451888709  1331.6470   2   8   0.0192   0.0331   0.2707  -0.0122   0.0631  -0.0412  -8.00    0.0
2024/05/06 16:09:53.000   28.339910508  -16.451888713  1331.6476   2   8   0.0192   0.0331   0.2707  -0.0122   0.0631  -0.0412  -7.00    0.0
2024/05/06 16:09:54.000   28.339910508  -16.451888718  1331.6486   2   8   0.0192   0.0331   0.2707  -0.0122   0.0631  -0.0412  -6.00    0.0
2024/05/06 16:09:55.000   28.339910508  -16.451888722  1331.6501   2   8   0.0192   0.0331   0.2707  -0.0122   0.0630  -0.0412  -5.00    0.0
2024/05/06 16:09:56.000   28.339910507  -16.451888726  1331.6520   2   8   0.0192   0.0331   0.2706  -0.0122   0.0630  -0.0412  -4.00    0.0
2024/05/06 16:09:57.000   28.339910507  -16.451888731  1331.6539   2   8   0.0192   0.0331   0.2706  -0.0122   0.0630  -0.0412  -3.00    0.0
2024/05/06 16:09:58.000   28.339910505  -16.451888735  1331.6563   2   8   0.0192   0.0331   0.2706  -0.0122   0.0630  -0.0412  -2.00    0.0
2024/05/06 16:09:59.000   28.339910503  -16.451888739  1331.6603   2   8   0.0192   0.0331   0.2706  -0.0122   0.0630  -0.0411  -1.00    0.0
2024/05/06 16:10:00.000   28.339910501  -16.451888743  1331.6653   2   8   0.0192   0.0331   0.2707  -0.0122   0.0629  -0.0411   0.00    0.0
2024/05/06 16:10:01.000   28.339910497  -16.451888743  1331.6765   2   8   0.0192   0.0331   0.2706  -0.0122   0.0629  -0.0411   1.00    0.0
2024/05/06 16:10:02.000   28.339910493  -16.451888743  1331.6853   2   8   0.0193   0.0332   0.2705  -0.0122   0.0628  -0.0411   2.00    0.0
2024/05/06 16:10:03.000   28.339910489  -16.451888745  1331.6925   2   8   0.0193   0.0332   0.2705  -0.0122   0.0628  -0.0411   3.00    0.0
2024/05/06 16:10:04.000   28.339910486  -16.451888748  1331.6981   2   8   0.0193   0.0332   0.2705  -0.0122   0.0628  -0.0410   4.00    0.0
2024/05/06 16:10:05.000   28.339910483  -16.451888749  1331.7030   2   8   0.0193   0.0332   0.2705  -0.0122   0.0627  -0.0410   5.00    0.0
2024/05/06 16:10:06.000   28.339910481  -16.451888751  1331.7077   2   8   0.0193   0.0332   0.2705  -0.0122   0.0627  -0.0410   6.00    0.0
2024/05/06 16:10:07.000   28.339910480  -16.451888752  1331.7115   2   8   0.0193   0.0332   0.2704  -0.0122   0.0627  -0.0410   7.00    0.0
2024/05/06 16:10:08.000   28.339910478  -16.451888753  1331.7142   2   8   0.0193   0.0332   0.2704  -0.0122   0.0627  -0.0410   8.00    0.0
2024/05/06 16:10:09.000   28.339910477  -16.451888754  1331.7168   2   8   0.0193   0.0332   0.2704  -0.0122   0.0627  -0.0410   9.00    0.0
2024/05/06 16:10:10.000   28.339910476  -16.451888755  1331.7187   2   8   0.0193   0.0332   0.2704  -0.0122   0.0627  -0.0410  10.00    0.0
2024/05/06 16:10:11.000   28.339910476  -16.451888755  1331.7209   2   8   0.0193   0.0332   0.2704  -0.0122   0.0627  -0.0410  11.00    0.0
2024/05/06 16:10:12.000   28.339910475  -16.451888755  1331.7224   2   8   0.0193   0.0332   0.2703  -0.0122   0.0626  -0.0410  12.00    0.0
2024/05/06 16:10:13.000   28.339910474  -16.451888754  1331.7240   2   8   0.0193   0.0332   0.2703  -0.0122   0.0626  -0.0410  13.00    0.0
2024/05/06 16:10:14.000   28.339910474  -16.451888754  1331.7256   2   8   0.0193   0.0332   0.2703  -0.0122   0.0626  -0.0410  14.00    0.0
2024/05/06 16:10:15.000   28.339910474  -16.451888754  1331.7266   2   8   0.0193   0.0332   0.2703  -0.0122   0.0626  -0.0410 -15.00    0.0
2024/05/06 16:10:16.000   28.339910473  -16.451888753  1331.7279   2   8   0.0193   0.0332   0.2702  -0.0122   0.0626  -0.0410 -14.00    0.0
2024/05/06 16:10:17.000   28.339910473  -16.451888753  1331.7295   2   8   0.0193   0.0332   0.2702  -0.0122   0.0626  -0.0409 -13.00    0.0
2024/05/06 16:10:18.000   28.339910472  -16.451888752  1331.7312   2   8   0.0193   0.0332   0.2702  -0.0122   0.0626  -0.0409 -12.00    0.0
2024/05/06 16:10:19.000   28.339910472  -16.451888753  1331.7329   2   8   0.0193   0.0332   0.2701  -0.0122   0.0626  -0.0409 -11.00    0.0
2024/05/06 16:10:20.000   28.339910471  -16.451888753  1331.7351   2   8   0.0193   0.0332   0.2701  -0.0122   0.0626  -0.0409 -10.00    0.0
2024/05/06 16:10:21.000   28.339910470  -16.451888754  1331.7369   2   8   0.0193   0.0332   0.2701  -0.0122   0.0625  -0.0409  -9.00    0.0
2024/05/06 16:10:22.000   28.339910470  -16.451888756  1331.7392   2   8   0.0193   0.0332   0.2701  -0.0122   0.0625  -0.0409  -8.00    0.0
2024/05/06 16:10:23.000   28.339910469  -16.451888758  1331.7420   2   8   0.0193   0.0332   0.2700  -0.0122   0.0625  -0.0409  -7.00    0.0
2024/05/06 16:10:24.000   28.339910468  -16.451888760  1331.7453   2   8   0.0193   0.0332   0.2700  -0.0122   0.0625  -0.0409  -6.00    0.0
2024/05/06 16:10:25.000   28.339910466  -16.451888763  1331.7496   2   8   0.0194   0.0333   0.2700  -0.0122   0.0625  -0.0409  -5.00    0.0
2024/05/06 16:10:26.000   28.339910465  -16.451888767  1331.7541   2   8   0.0194   0.0333   0.2700  -0.0122   0.0625  -0.0409  -4.00    0.0
2024/05/06 16:10:27.000   28.339910463  -16.451888771  1331.7596   2   8   0.0194   0.0333   0.2699  -0.0122   0.0625  -0.0409  -3.00    0.0
2024/05/06 16:10:28.000   28.339910461  -16.451888777  1331.7656   2   8   0.0194   0.0333   0.2699  -0.0122   0.0624  -0.0409  -2.00    0.0
2024/05/06 16:10:29.000   28.339910460  -16.451888783  1331.7721   2   8   0.0194   0.0333   0.2699  -0.0122   0.0624  -0.0409  -1.00    0.0
2024/05/06 16:10:30.000   28.339910458  -16.451888789  1331.7782   2   8   0.0194   0.0333   0.2699  -0.0122   0.0624  -0.0409   0.00    0.0
2024/05/06 16:10:31.000   28.339910454  -16.451888795  1331.7827   2   8   0.0194   0.0333   0.2698  -0.0122   0.0623  -0.0408   1.00    0.0
2024/05/06 16:10:32.000   28.339910451  -16.451888803  1331.7881   2   8   0.0194   0.0333   0.2698  -0.0122   0.0623  -0.0408   2.00    0.0
2024/05/06 16:10:33.000   28.339910449  -16.451888813  1331.7935   2   8   0.0195   0.0333   0.2698  -0.0122   0.0623  -0.0408   3.00    0.0
2024/05/06 16:10:34.000   28.339910447  -16.451888820  1331.7980   2   8   0.0195   0.0334   0.2697  -0.0122   0.0623  -0.0408   4.00    0.0
2024/05/06 16:10:35.000   28.339910445  -16.451888828  1331.8017   2   8   0.0195   0.0334   0.2697  -0.0122   0.0623  -0.0408   5.00    0.0
2024/05/06 16:10:36.000   28.339910444  -16.451888835  1331.8042   2   8   0.0195   0.0334   0.2697  -0.0122   0.0622  -0.0408   6.00    0.0
2024/05/06 16:10:37.000   28.339910443  -16.451888842  1331.8055   2   8   0.0195   0.0334   0.2697  -0.0122   0.0622  -0.0408   7.00    0.0
2024/05/06 16:10:38.000   28.339910442  -16.451888846  1331.8064   2   8   0.0195   0.0334   0.2697  -0.0122   0.0622  -0.0408   8.00    0.0
2024/05/06 16:10:39.000   28.339910441  -16.451888851  1331.8071   2   8   0.0195   0.0334   0.2696  -0.0122   0.0622  -0.0408   9.00    0.0
2024/05/06 16:10:40.000   28.339910441  -16.451888855  1331.8081   2   8   0.0195   0.0334   0.2696  -0.0122   0.0622  -0.0407  10.00    0.0
2024/05/06 16:10:41.000   28.339910440  -16.451888859  1331.8090   2   8   0.0195   0.0334   0.2696  -0.0122   0.0622  -0.0407  11.00    0.0
2024/05/06 16:10:42.000   28.339910439  -16.451888862  1331.8103   2   8   0.0195   0.0334   0.2696  -0.0122   0.0622  -0.0407  12.00    0.0
2024/05/06 16:10:43.000   28.339910439  -16.451888864  1331.8111   2   8   0.0195   0.0334   0.2695  -0.0122   0.0622  -0.0407  13.00    0.0
2024/05/06 16:10:44.000   28.339910438  -16.451888867  1331.8118   2   8   0.0195   0.0334   0.2695  -0.0122   0.0622  -0.0407  14.00    0.0
2024/05/06 16:10:45.000   28.339910438  -16.451888869  1331.8126   2   8   0.0195   0.0334   0.2695  -0.0122   0.0622  -0.0407 -15.00    0.0
2024/05/06 16:10:46.000   28.339910438  -16.451888870  1331.8138   2   8   0.0195   0.0334   0.2695  -0.0122   0.0621  -0.0407 -14.00    0.0
2024/05/06 16:10:47.000   28.339910437  -16.451888872  1331.8149   2   8   0.0195   0.0334   0.2694  -0.0122   0.0621  -0.0407 -13.00    0.0
2024/05/06 16:10:48.000   28.339910437  -16.451888874  1331.8160   2   8   0.0195   0.0334   0.2694  -0.0122   0.0621  -0.0407 -12.00    0.0
2024/05/06 16:10:49.000   28.339910436  -16.451888876  1331.8173   2   8   0.0195   0.0334   0.2694  -0.0122   0.0621  -0.0407 -11.00    0.0
2024/05/06 16:10:50.000   28.339910436  -16.451888879  1331.8192   2   8   0.0195   0.0334   0.2694  -0.0122   0.0621  -0.0407 -10.00    0.0
2024/05/06 16:10:51.000   28.339910435  -16.451888882  1331.8211   2   8   0.0195   0.0334   0.2693  -0.0122   0.0621  -0.0407  -9.00    0.0
2024/05/06 16:10:52.000   28.339910435  -16.451888886  1331.8225   2   8   0.0195   0.0334   0.2693  -0.0122   0.0621  -0.0407  -8.00    0.0
2024/05/06 16:10:53.000   28.339910434  -16.451888891  1331.8239   2   8   0.0195   0.0334   0.2693  -0.0122   0.0621  -0.0407  -7.00    0.0
2024/05/06 16:10:54.000   28.339910433  -16.451888897  1331.8267   2   8   0.0195   0.0334   0.2692  -0.0122   0.0621  -0.0407  -6.00    0.0
2024/05/06 16:10:55.000   28.339910432  -16.451888903  1331.8294   2   8   0.0195   0.0334   0.2692  -0.0122   0.0621  -0.0407  -5.00    0.0
2024/05/06 16:10:56.000   28.339910431  -16.451888909  1331.8322   2   8   0.0195   0.0334   0.2692  -0.0122   0.0621  -0.0407  -4.00    0.0
2024/05/06 16:10:57.000   28.339910429  -16.451888915  1331.8360   2   8   0.0195   0.0334   0.2692  -0.0122   0.0620  -0.0407  -3.00    0.0
2024/05/06 16:10:58.000   28.339910427  -16.451888922  1331.8403   2   8   0.0196   0.0335   0.2691  -0.0122   0.0620  -0.0407  -2.00    0.0
2024/05/06 16:10:59.000   28.339910425  -16.451888927  1331.8455   2   8   0.0196   0.0335   0.2691  -0.0122   0.0620  -0.0407  -1.00    0.0
2024/05/06 16:11:00.000   28.339910423  -16.451888933  1331.8509   2   8   0.0196   0.0335   0.2691  -0.0122   0.0620  -0.0406   0.00    0.0
2024/05/06 16:11:01.000   28.339910421  -16.451888939  1331.8578   2   8   0.0196   0.0335   0.2690  -0.0122   0.0620  -0.0406   1.00    0.0
2024/05/06 16:11:02.000   28.339910418  -16.451888945  1331.8656   2   8   0.0196   0.0335   0.2690  -0.0122   0.0620  -0.0406   2.00    0.0
2024/05/06 16:11:03.000   28.339910416  -16.451888950  1331.8713   2   8   0.0196   0.0335   0.2690  -0.0122   0.0619  -0.0406   3.00    0.0
2024/05/06 16:11:04.000   28.339910415  -16.451888953  1331.8763   2   8   0.0196   0.0335   0.2689  -0.0122   0.0619  -0.0406   4.00    0.0
2024/05/06 16:11:05.000   28.339910413  -16.451888954  1331.8815   2   8   0.0196   0.0336   0.2689  -0.0122   0.0619  -0.0406   5.00    0.0
2024/05/06 16:11:06.000   28.339910412  -16.451888954  1331.8859   2   8   0.0197   0.0336   0.2689  -0.0122   0.0619  -0.0406   6.00    0.0
2024/05/06 16:11:07.000   28.339910412  -16.451888955  1331.8896   2   8   0.0197   0.0336   0.2689  -0.0122   0.0619  -0.0406   7.00    0.0
2024/05/06 16:11:08.000   28.339910411  -16.451888955  1331.8927   2   8   0.0197   0.0336   0.2688  -0.0122   0.0619  -0.0406   8.00    0.0
2024/05/06 16:11:09.000   28.339910411  -16.451888956  1331.8951   2   8   0.0197   0.0336   0.2688  -0.0122   0.0619  -0.0406   9.00    0.0
2024/05/06 16:11:10.000   28.339910410  -16.451888956  1331.8974   2   8   0.0197   0.0336   0.2688  -0.0122   0.0619  -0.0405  10.00    0.0
2024/05/06 16:11:11.000   28.339910409  -16.451888956  1331.9001   2   8   0.0197   0.0336   0.2688  -0.0122   0.0619  -0.0405  11.00    0.0
2024/05/06 16:11:12.000   28.339910409  -16.451888954  1331.9026   2   8   0.0197   0.0336   0.2688  -0.0122   0.0619  -0.0405  12.00    0.0
2024/05/06 16:11:13.000   28.339910408  -16.451888953  1331.9049   2   8   0.0197   0.0336   0.2687  -0.0122   0.0619  -0.0405  13.00    0.0
2024/05/06 16:11:14.000   28.339910408  -16.451888953  1331.9068   2   8   0.0197   0.0336   0.2687  -0.0122   0.0619  -0.0405  14.00    0.0
2024/05/06 16:11:15.000   28.339910408  -16.451888952  1331.9088   2   8   0.0197   0.0336   0.2687  -0.0122   0.0619  -0.0405 -15.00    0.0
2024/05/06 16:11:16.000   28.339910407  -16.451888951  1331.9107   2   8   0.0197   0.0336   0.2687  -0.0122   0.0618  -0.0405 -14.00    0.0
2024/05/06 16:11:17.000   28.339910407  -16.451888950  1331.9121   2   8   0.0197   0.0336   0.2686  -0.0122   0.0618  -0.0405 -13.00    0.0
2024/05/06 16:11:18.000   28.339910407  -16.451888949  1331.9146   2   8   0.0197   0.0336   0.2686  -0.0122   0.0618  -0.0405 -12.00    0.0
2024/05/06 16:11:19.000   28.339910406  -16.451888947  1331.9168   2   8   0.0197   0.0336   0.2686  -0.0122   0.0618  -0.0405 -11.00    0.0
2024/05/06 16:11:20.000   28.339910406  -16.451888946  1331.9197   2   8   0.0197   0.0336   0.2686  -0.0122   0.0618  -0.0405 -10.00    0.0
2024/05/06 16:11:21.000   28.339910405  -16.451888944  1331.9226   2   8   0.0197   0.0336   0.2685  -0.0122   0.0618  -0.0405  -9.00    0.0
2024/05/06 16:11:22.000   28.339910405  -16.451888942  1331.9257   2   8   0.0197   0.0336   0.2685  -0.0122   0.0618  -0.0405  -8.00    0.0
2024/05/06 16:11:23.000   28.339910404  -16.451888940  1331.9291   2   8   0.0197   0.0336   0.2685  -0.0122   0.0618  -0.0405  -7.00    0.0
2024/05/06 16:11:24.000   28.339910404  -16.451888938  1331.9332   2   8   0.0197   0.0336   0.2684  -0.0122   0.0618  -0.0405  -6.00    0.0
2024/05/06 16:11:25.000   28.339910403  -16.451888935  1331.9388   2   8   0.0197   0.0336   0.2684  -0.0122   0.0618  -0.0405  -5.00    0.0
2024/05/06 16:11:26.000   28.339910403  -16.451888932  1331.9448   2   8   0.0197   0.0336   0.2684  -0.0122   0.0618  -0.0405  -4.00    0.0
2024/05/06 16:11:27.000   28.339910402  -16.451888928  1331.9519   2   8   0.0197   0.0336   0.2683  -0.0122   0.0618  -0.0405  -3.00    0.0
2024/05/06 16:11:28.000   28.339910401  -16.451888924  1331.9594   2   8   0.0197   0.0336   0.2683  -0.0122   0.0618  -0.0405  -2.00    0.0
2024/05/06 16:11:29.000   28.339910401  -16.451888921  1331.9668   2   8   0.0197   0.0337   0.2683  -0.0122   0.0618  -0.0405  -1.00    0.0
2024/05/06 16:11:30.000   28.339910400  -16.451888917  1331.9753   2   8   0.0197   0.0337   0.2682  -0.0122   0.0618  -0.0405   0.00    0.0
2024/05/06 16:11:31.000   28.339910400  -16.451888915  1331.9833   2   8   0.0198   0.0337   0.2682  -0.0122   0.0617  -0.0405   1.00    0.0
2024/05/06 16:11:32.000   28.339910399  -16.451888914  1331.9897   2   8   0.0198   0.0337   0.2681  -0.0122   0.0617  -0.0404   2.00    0.0
2024/05/06 16:11:33.000   28.339910398  -16.451888913  1331.9943   2   8   0.0198   0.0337   0.2681  -0.0122   0.0617  -0.0404   3.00    0.0
2024/05/06 16:11:34.000   28.339910397  -16.451888912  1331.9976   2   8   0.0198   0.0337   0.2681  -0.0122   0.0617  -0.0404   4.00    0.0
2024/05/06 16:11:35.000   28.339910397  -16.451888911  1332.0008   2   8   0.0198   0.0337   0.2680  -0.0122   0.0617  -0.0404   5.00    0.0
2024/05/06 16:11:36.000   28.339910396  -16.451888910  1332.0033   2   8   0.0198   0.0337   0.2680  -0.0122   0.0617  -0.0404   6.00    0.0
2024/05/06 16:11:37.000   28.339910395  -16.451888909  1332.0055   2   8   0.0198   0.0337   0.2680  -0.0122   0.0617  -0.0404   7.00    0.0
2024/05/06 16:11:38.000   28.339910395  -16.451888908  1332.0075   2   8   0.0198   0.0337   0.2680  -0.0122   0.0617  -0.0404   8.00    0.0
2024/05/06 16:11:39.000   28.339910395  -16.451888907  1332.0092   2   8   0.0198   0.0338   0.2679  -0.0122   0.0617  -0.0404   9.00    0.0
2024/05/06 16:11:40.000   28.339910395  -16.451888905  1332.0103   2   8   0.0198   0.0338   0.2679  -0.0122   0.0617  -0.0404  10.00    0.0
2024/05/06 16:11:41.000   28.339910394  -16.451888904  1332.0113   2   8   0.0198   0.0338   0.2679  -0.0122   0.0617  -0.0404  11.00    0.0
2024/05/06 16:11:42.000   28.339910394  -16.451888902  1332.0126   2   8   0.0198   0.0338   0.2679  -0.0122   0.0617  -0.0404  12.00    0.0
2024/05/06 16:11:43.000   28.339910394  -16.451888901  1332.0135   2   8   0.0198   0.0338   0.2678  -0.0122   0.0617  -0.0404  13.00    0.0
2024/05/06 16:11:44.000   28.339910393  -16.451888899  1332.0141   2   8   0.0198   0.0338   0.2678  -0.0122   0.0616  -0.0404  14.00    0.0
2024/05/06 16:11:45.000   28.339910393  -16.451888898  1332.0148   2   8   0.0198   0.0338   0.2678  -0.0122   0.0616  -0.0404 -15.00    0.0
2024/05/06 16:11:46.000   28.339910393  -16.451888897  1332.0150   2   8   0.0198   0.0338   0.2678  -0.0122   0.0616  -0.0404 -14.00    0.0
2024/05/06 16:11:47.000   28.339910392  -16.451888896  1332.0159   2   8   0.0198   0.0338   0.2677  -0.0122   0.0616  -0.0404 -13.00    0.0
2024/05/06 16:11:48.000   28.339910392  -16.451888895  1332.0165   2   8   0.0198   0.0338   0.2677  -0.0122   0.0616  -0.0404 -12.00    0.0
2024/05/06 16:11:49.000   28.339910392  -16.451888893  1332.0173   2   8   0.0198   0.0338   0.2677  -0.0122   0.0616  -0.0404 -11.00    0.0
2024/05/06 16:11:50.000   28.339910391  -16.451888892  1332.0179   2   8   0.0198   0.0338   0.2677  -0.0121   0.0616  -0.0404 -10.00    0.0
2024/05/06 16:11:51.000   28.339910391  -16.451888890  1332.0189   2   8   0.0198   0.0338   0.2676  -0.0121   0.0616  -0.0404  -9.00    0.0
2024/05/06 16:11:52.000   28.339910391  -16.451888889  1332.0201   2   8   0.0198   0.0338   0.2676  -0.0121   0.0616  -0.0404  -8.00    0.0
2024/05/06 16:11:53.000   28.339910391  -16.451888888  1332.0214   2   8   0.0198   0.0338   0.2676  -0.0121   0.0616  -0.0404  -7.00    0.0
2024/05/06 16:11:54.000   28.339910391  -16.451888886  1332.0225   2   8   0.0198   0.0338   0.2675  -0.0121   0.0616  -0.0404  -6.00    0.0
2024/05/06 16:11:55.000   28.339910391  -16.451888883  1332.0247   2   8   0.0199   0.0338   0.2675  -0.0121   0.0616  -0.0404  -5.00    0.0
2024/05/06 16:11:56.000   28.339910392  -16.451888881  1332.0265   2   8   0.0199   0.0338   0.2675  -0.0121   0.0616  -0.0404  -4.00    0.0
2024/05/06 16:11:57.000   28.339910393  -16.451888879  1332.0291   2   8   0.0199   0.0338   0.2674  -0.0121   0.0616  -0.0404  -3.00    0.0
2024/05/06 16:11:58.000   28.339910394  -16.451888878  1332.0321   2   8   0.0199   0.0338   0.2674  -0.0121   0.0616  -0.0404  -2.00    0.0
2024/05/06 16:11:59.000   28.339910394  -16.451888879  1332.0342   2   8   0.0199   0.0338   0.2674  -0.0122   0.0616  -0.0404  -1.00    1.2
2024/05/06 16:12:00.000   28.339910394  -16.451888879  1332.0370   2   8   0.0199   0.0338   0.2673  -0.0122   0.0616  -0.0404   0.00    1.0
2024/05/06 16:12:01.000   28.339910395  -16.451888882  1332.0384   2   8   0.0199   0.0338   0.2672  -0.0122   0.0616  -0.0404   1.00    1.0
2024/05/06 16:12:02.000   28.339910394  -16.451888885  1332.0391   2   8   0.0199   0.0338   0.2672  -0.0122   0.0616  -0.0404   2.00    1.1
2024/05/06 16:12:03.000   28.339910394  -16.451888887  1332.0386   2   8   0.0199   0.0339   0.2672  -0.0122   0.0615  -0.0403   3.00    1.0
2024/05/06 16:12:04.000   28.339910393  -16.451888890  1332.0380   2   8   0.0199   0.0339   0.2671  -0.0122   0.0615  -0.0403   4.00    1.1
2024/05/06 16:12:05.000   28.339910393  -16.451888894  1332.0365   2   8   0.0199   0.0339   0.2671  -0.0122   0.0615  -0.0403   5.00    1.0
2024/05/06 16:12:06.000   28.339910392  -16.451888896  1332.0363   2   8   0.0200   0.0339   0.2671  -0.0122   0.0615  -0.0403   6.00    1.1
2024/05/06 16:12:07.000   28.339910392  -16.451888899  1332.0365   2   8   0.0200   0.0339   0.2670  -0.0122   0.0615  -0.0403   7.00    1.1
2024/05/06 16:12:08.000   28.339910392  -16.451888902  1332.0366   2   8   0.0200   0.0339   0.2670  -0.0122   0.0615  -0.0403   8.00    1.0
2024/05/06 16:12:09.000   28.339910391  -16.451888904  1332.0365   2   8   0.0200   0.0339   0.2670  -0.0122   0.0615  -0.0403   9.00    1.0
2024/05/06 16:12:10.000   28.339910391  -16.451888906  1332.0372   2   8   0.0200   0.0339   0.2670  -0.0122   0.0615  -0.0403  10.00    1.0
2024/05/06 16:12:11.000   28.339910391  -16.451888908  1332.0375   2   8   0.0200   0.0339   0.2670  -0.0122   0.0615  -0.0403  11.00    1.0
2024/05/06 16:12:12.000   28.339910390  -16.451888910  1332.0384   2   8   0.0200   0.0339   0.2669  -0.0122   0.0615  -0.0403  12.00    1.1
2024/05/06 16:12:13.000   28.339910390  -16.451888912  1332.0387   2   8   0.0200   0.0339   0.2669  -0.0122   0.0615  -0.0403  13.00    1.0
2024/05/06 16:12:14.000   28.339910390  -16.451888913  1332.0393   2   8   0.0200   0.0339   0.2669  -0.0121   0.0615  -0.0403  14.00    1.1
2024/05/06 16:12:15.000   28.339910390  -16.451888914  1332.0402   2   8   0.0200   0.0339   0.2669  -0.0121   0.0615  -0.0403 -15.00    1.1
2024/05/06 16:12:16.000   28.339910391  -16.451888915  1332.0404   2   8   0.0200   0.0339   0.2668  -0.0121   0.0615  -0.0403 -14.00    1.0
2024/05/06 16:12:17.000   28.339910391  -16.451888916  1332.0407   2   8   0.0200   0.0339   0.2668  -0.0121   0.0615  -0.0403 -13.00    1.0
2024/05/06 16:12:18.000   28.339910391  -16.451888918  1332.0416   2   8   0.0200   0.0339   0.2668  -0.0121   0.0615  -0.0403 -12.00    1.0
2024/05/06 16:12:19.000   28.339910391  -16.451888919  1332.0424   2   8   0.0200   0.0339   0.2668  -0.0121   0.0615  -0.0403 -11.00    1.0
2024/05/06 16:12:20.000   28.339910390  -16.451888921  1332.0430   2   8   0.0200   0.0339   0.2667  -0.0121   0.0615  -0.0403 -10.00    1.0
2024/05/06 16:12:21.000   28.339910390  -16.451888923  1332.0433   2   8   0.0200   0.0339   0.2667  -0.0121   0.0615  -0.0403  -9.00    1.1
2024/05/06 16:12:22.000   28.339910390  -16.451888925  1332.0441   2   8   0.0200   0.0339   0.2667  -0.0121   0.0615  -0.0403  -8.00    1.1
2024/05/06 16:12:23.000   28.339910390  -16.451888927  1332.0453   2   8   0.0200   0.0339   0.2667  -0.0121   0.0615  -0.0403  -7.00    1.1
2024/05/06 16:12:24.000   28.339910389  -16.451888930  1332.0464   2   8   0.0200   0.0339   0.2666  -0.0121   0.0615  -0.0403  -6.00    1.0
2024/05/06 16:12:25.000   28.339910389  -16.451888934  1332.0476   2   8   0.0200   0.0339   0.2666  -0.0121   0.0615  -0.0403  -5.00    1.0
2024/05/06 16:12:26.000   28.339910388  -16.451888938  1332.0490   2   8   0.0200   0.0339   0.2666  -0.0121   0.0614  -0.0403  -4.00    1.1
2024/05/06 16:12:27.000   28.339910386  -16.451888942  1332.0507   2   8   0.0200   0.0339   0.2665  -0.0121   0.0614  -0.0403  -3.00    1.0
2024/05/06 16:12:28.000   28.339910385  -16.451888945  1332.0537   2   8   0.0200   0.0339   0.2665  -0.0121   0.0614  -0.0403  -2.00    1.0
2024/05/06 16:12:29.000   28.339910383  -16.451888947  1332.0553   2   8   0.0200   0.0339   0.2664  -0.0121   0.0615  -0.0403  -1.00    1.1
2024/05/06 16:12:30.000   28.339910379  -16.451888945  1332.0561   2   8   0.0200   0.0340   0.2664  -0.0122   0.0615  -0.0403   0.00    1.0
2024/05/06 16:12:31.000   28.339910376  -16.451888943  1332.0568   2   8   0.0200   0.0340   0.2663  -0.0122   0.0614  -0.0403   1.00    1.0
2024/05/06 16:12:32.000   28.339910373  -16.451888943  1332.0568   2   8   0.0200   0.0340   0.2662  -0.0122   0.0614  -0.0403   2.00    1.0
2024/05/06 16:12:33.000   28.339910371  -16.451888942  1332.0580   2   8   0.0200   0.0340   0.2662  -0.0122   0.0614  -0.0403   3.00    1.0
2024/05/06 16:12:34.000   28.339910370  -16.451888940  1332.0578   2   8   0.0201   0.0340   0.2662  -0.0122   0.0614  -0.0403   4.00    1.2
2024/05/06 16:12:35.000   28.339910369  -16.451888939  1332.0577   2   8   0.0201   0.0340   0.2661  -0.0122   0.0614  -0.0403   5.00    1.0
2024/05/06 16:12:36.000   28.339910368  -16.451888939  1332.0580   2   8   0.0201   0.0340   0.2661  -0.0122   0.0614  -0.0403   6.00    1.0
2024/05/06 16:12:37.000   28.339910367  -16.451888939  1332.0579   2   8   0.0201   0.0340   0.2661  -0.0122   0.0614  -0.0403   7.00    1.1
2024/05/06 16:12:38.000   28.339910366  -16.451888939  1332.0576   2   8   0.0201   0.0340   0.2661  -0.0122   0.0614  -0.0403   8.00    1.0
2024/05/06 16:12:39.000   28.339910365  -16.451888940  1332.0571   2   8   0.0201   0.0340   0.2660  -0.0122   0.0614  -0.0403   9.00    1.1
2024/05/06 16:12:40.000   28.339910365  -16.451888940  1332.0569   2   8   0.0201   0.0340   0.2660  -0.0122   0.0614  -0.0403  10.00    1.0
2024/05/06 16:12:41.000   28.339910364  -16.451888939  1332.0569   2   8   0.0201   0.0340   0.2660  -0.0122   0.0614  -0.0403  11.00    1.0
2024/05/06 16:12:42.000   28.339910364  -16.451888939  1332.0570   2   8   0.0201   0.0340   0.2660  -0.0122   0.0614  -0.0403  12.00    1.1
2024/05/06 16:12:43.000   28.339910363  -16.451888938  1332.0571   2   8   0.0201   0.0340   0.2660  -0.0122   0.0614  -0.0403  13.00    1.1
2024/05/06 16:12:44.000   28.339910363  -16.451888938  1332.0573   2   8   0.0201   0.0340   0.2659  -0.0122   0.0614  -0.0403  14.00    1.0
2024/05/06 16:12:45.000   28.339910363  -16.451888937  1332.0578   2   8   0.0201   0.0340   0.2659  -0.0122   0.0614  -0.0403 -15.00    1.1
2024/05/06 16:12:46.000   28.339910363  -16.451888937  1332.0580   2   8   0.0201   0.0340   0.2659  -0.0121   0.0614  -0.0403 -14.00    1.0
2024/05/06 16:12:47.000   28.339910363  -16.451888936  1332.0582   2   8   0.0201   0.0340   0.2659  -0.0121   0.0614  -0.0403 -13.00    1.1
2024/05/06 16:12:48.000   28.339910362  -16.451888935  1332.0583   2   8   0.0201   0.0340   0.2658  -0.0121   0.0614  -0.0403 -12.00    1.0
2024/05/06 16:12:49.000   28.339910362  -16.451888935  1332.0585   2   8   0.0201   0.0340   0.2658  -0.0121   0.0614  -0.0403 -11.00    1.0
2024/05/06 16:12:50.000   28.339910362  -16.451888935  1332.0587   2   8   0.0201   0.0340   0.2658  -0.0121   0.0614  -0.0403 -10.00    1.1
2024/05/06 16:12:51.000   28.339910362  -16.451888934  1332.0592   2   8   0.0201   0.0340   0.2658  -0.0121   0.0614  -0.0403  -9.00    1.1
2024/05/06 16:12:52.000   28.339910361  -16.451888933  1332.0599   2   8   0.0201   0.0340   0.2657  -0.0121   0.0614  -0.0403  -8.00    1.0
2024/05/06 16:12:53.000   28.339910361  -16.451888932  1332.0602   2   8   0.0201   0.0340   0.2657  -0.0121   0.0614  -0.0403  -7.00    1.1
2024/05/06 16:12:54.000   28.339910361  -16.451888932  1332.0606   2   8   0.0201   0.0340   0.2657  -0.0121   0.0614  -0.0403  -6.00    1.0
2024/05/06 16:12:55.000   28.339910360  -16.451888932  1332.0612   2   8   0.0201   0.0340   0.2656  -0.0121   0.0614  -0.0403  -5.00    1.1
2024/05/06 16:12:56.000   28.339910360  -16.451888932  1332.0616   2   8   0.0201   0.0340   0.2656  -0.0121   0.0614  -0.0403  -4.00    1.0
2024/05/06 16:12:57.000   28.339910359  -16.451888932  1332.0623   2   8   0.0201   0.0340   0.2655  -0.0121   0.0614  -0.0403  -3.00    1.0
2024/05/06 16:12:58.000   28.339910359  -16.451888932  1332.0642   2   8   0.0201   0.0340   0.2655  -0.0122   0.0614  -0.0403  -2.00    1.1
2024/05/06 16:12:59.000   28.339910358  -16.451888931  1332.0651   2   8   0.0201   0.0340   0.2654  -0.0122   0.0614  -0.0403  -1.00    1.2
2024/05/06 16:13:00.000   28.339910357  -16.451888930  1332.0666   2   8   0.0201   0.0340   0.2654  -0.0122   0.0614  -0.0403   0.00    1.1
2024/05/06 16:13:01.000   28.339910356  -16.451888930  1332.0674   2   8   0.0201   0.0340   0.2653  -0.0122   0.0614  -0.0403   1.00    1.0
2024/05/06 16:13:02.000   28.339910355  -16.451888932  1332.0656   2   8   0.0201   0.0341   0.2653  -0.0122   0.0614  -0.0404   2.00    1.0
2024/05/06 16:13:03.000   28.339910355  -16.451888935  1332.0656   2   8   0.0201   0.0341   0.2652  -0.0122   0.0614  -0.0404   3.00    1.0
2024/05/06 16:13:04.000   28.339910355  -16.451888936  1332.0669   2   8   0.0201   0.0341   0.2652  -0.0122   0.0614  -0.0404   4.00    1.0
2024/05/06 16:13:05.000   28.339910356  -16.451888939  1332.0682   2   8   0.0202   0.0341   0.2652  -0.0122   0.0614  -0.0404   5.00    1.0
2024/05/06 16:13:06.000   28.339910356  -16.451888941  1332.0695   2   8   0.0202   0.0341   0.2651  -0.0122   0.0614  -0.0404   6.00    1.0
2024/05/06 16:13:07.000   28.339910356  -16.451888942  1332.0699   2   8   0.0202   0.0341   0.2651  -0.0122   0.0614  -0.0404   7.00    1.2
2024/05/06 16:13:08.000   28.339910356  -16.451888944  1332.0708   2   8   0.0202   0.0341   0.2651  -0.0122   0.0614  -0.0404   8.00    1.0
2024/05/06 16:13:09.000   28.339910356  -16.451888944  1332.0722   2   8   0.0202   0.0341   0.2651  -0.0122   0.0614  -0.0404   9.00    1.0
2024/05/06 16:13:10.000   28.339910356  -16.451888945  1332.0731   2   8   0.0202   0.0341   0.2650  -0.0122   0.0614  -0.0404  10.00    1.0
2024/05/06 16:13:11.000   28.339910356  -16.451888945  1332.0744   2   8   0.0202   0.0341   0.2650  -0.0122   0.0614  -0.0404  11.00    1.0
2024/05/06 16:13:12.000   28.339910356  -16.451888945  1332.0753   2   8   0.0202   0.0341   0.2650  -0.0122   0.0614  -0.0404  12.00    1.0
2024/05/06 16:13:13.000   28.339910357  -16.451888945  1332.0758   2   8   0.0202   0.0341   0.2650  -0.0122   0.0614  -0.0404  13.00    1.0
2024/05/06 16:13:14.000   28.339910357  -16.451888945  1332.0766   2   8   0.0202   0.0341   0.2650  -0.0122   0.0614  -0.0404  14.00    1.0
2024/05/06 16:13:15.000   28.339910357  -16.451888944  1332.0770   2   8   0.0202   0.0341   0.2649  -0.0122   0.0614  -0.0404 -15.00    1.2
2024/05/06 16:13:16.000   28.339910357  -16.451888944  1332.0776   2   8   0.0202   0.0341   0.2649  -0.0122   0.0614  -0.0404 -14.00    1.1
2024/05/06 16:13:17.000   28.339910358  -16.451888944  1332.0783   2   8   0.0202   0.0341   0.2649  -0.0122   0.0613  -0.0404 -13.00    1.1
2024/05/06 16:13:18.000   28.339910358  -16.451888944  1332.0790   2   8   0.0202   0.0341   0.2649  -0.0122   0.0613  -0.0404 -12.00    1.0
2024/05/06 16:13:19.000   28.339910358  -16.451888944  1332.0797   2   8   0.0202   0.0341   0.2648  -0.0122   0.0613  -0.0404 -11.00    1.0
2024/05/06 16:13:20.000   28.339910358  -16.451888943  1332.0798   2   8   0.0202   0.0341   0.2648  -0.0122   0.0613  -0.0404 -10.00    1.0
2024/05/06 16:13:21.000   28.339910358  -16.451888943  1332.0803   2   8   0.0202   0.0341   0.2648  -0.0122   0.0613  -0.0404  -9.00    1.0
2024/05/06 16:13:22.000   28.339910359  -16.451888943  1332.0810   2   8   0.0202   0.0341   0.2648  -0.0122   0.0613  -0.0404  -8.00    1.1
2024/05/06 16:13:23.000   28.339910360  -16.451888943  1332.0817   2   8   0.0202   0.0341   0.2647  -0.0122   0.0613  -0.0404  -7.00    1.2
2024/05/06 16:13:24.000   28.339910361  -16.451888942  1332.0822   2   8   0.0202   0.0341   0.2647  -0.0122   0.0613  -0.0404  -6.00    1.1
2024/05/06 16:13:25.000   28.339910362  -16.451888941  1332.0833   2   8   0.0202   0.0341   0.2647  -0.0122   0.0613  -0.0404  -5.00    1.1
2024/05/06 16:13:26.000   28.339910364  -16.451888941  1332.0839   2   8   0.0202   0.0341   0.2646  -0.0122   0.0613  -0.0404  -4.00    1.0
2024/05/06 16:13:27.000   28.339910366  -16.451888943  1332.0836   2   8   0.0202   0.0341   0.2646  -0.0122   0.0613  -0.0404  -3.00    1.0
2024/05/06 16:13:28.000   28.339910366  -16.451888943  1332.0832   2   8   0.0202   0.0341   0.2645  -0.0122   0.0613  -0.0404  -2.00    1.0
2024/05/06 16:13:29.000   28.339910367  -16.451888943  1332.0818   2   8   0.0202   0.0341   0.2645  -0.0122   0.0613  -0.0404  -1.00    1.0
2024/05/06 16:13:30.000   28.339910368  -16.451888942  1332.0800   2   8   0.0202   0.0341   0.2644  -0.0122   0.0614  -0.0404   0.00    1.1
2024/05/06 16:13:31.000   28.339910367  -16.451888942  1332.0784   2   8   0.0202   0.0341   0.2643  -0.0122   0.0614  -0.0404   1.00    1.0
2024/05/06 16:13:32.000   28.339910367  -16.451888942  1332.0768   2   8   0.0202   0.0341   0.2643  -0.0122   0.0614  -0.0404   2.00    1.0
2024/05/06 16:13:33.000   28.339910366  -16.451888940  1332.0739   2   8   0.0202   0.0341   0.2642  -0.0122   0.0614  -0.0405   3.00    1.0
2024/05/06 16:13:34.000   28.339910364  -16.451888938  1332.0711   2   8   0.0202   0.0341   0.2642  -0.0122   0.0614  -0.0405   4.00    1.0
2024/05/06 16:13:35.000   28.339910362  -16.451888936  1332.0688   2   8   0.0202   0.0341   0.2642  -0.0122   0.0614  -0.0405   5.00    1.0
2024/05/06 16:13:36.000   28.339910361  -16.451888933  1332.0665   2   8   0.0202   0.0341   0.2641  -0.0122   0.0614  -0.0405   6.00    1.0
