% program   : RTKPOST-EX 2.5.0
% inp file  : C:\Users\SallyHenry\Desktop\Sally Internship\GNSS gravi\DATA\Survey Rover Obs\GUI06.24o
% inp file  : C:\Users\SallyHenry\Desktop\Sally Internship\GNSS gravi\DATA\BaseStations\IZAN\IZAN00ESP_R_20241270000_01D_30S_MO.rnx
% inp file  : C:\Users\SallyHenry\Desktop\Sally Internship\GNSS gravi\DATA\BaseStations\IZAN\IZAN00ESP_R_20241270000_01D_MN.rnx
% inp file  : C:\Users\SallyHenry\Desktop\Sally Internship\GNSS gravi\DATA\aux_files\Survey\IGS0OPSFIN_20241270000_01D_15M_ORB.SP3
% inp file  : C:\Users\SallyHenry\Desktop\Sally Internship\GNSS gravi\DATA\aux_files\Survey\IGS0OPSFIN_20241270000_01D_30S_CLK.CLK
% obs start : 2024/05/06 16:42:44.0 GPST (week2313 146564.0s)
% obs end   : 2024/05/06 16:58:29.0 GPST (week2313 147509.0s)
% pos mode  : Static
% freqs     : L1+L2/E5b
% solution  : Combined-No Phase Reset
% elev mask : 15.0 deg
% dynamics  : on
% tidecorr  : solid
% ionos opt : Estimate TEC
% tropo opt : Estimate ZTD+Grad
% ephemeris : Precise
% navi sys  : GPS GLONASS Galileo QZSS BDS
% amb res   : Fix and Hold
% amb glo   : Fix and Hold
% amb bds   : on
% val thres : 3.0
% antenna1  :                       ( 0.0000  0.0000  1.8000)
% antenna2  :                       ( 0.0000  0.0000  0.0000)
% ref pos   :  28.308069410  -16.499677180  2417.4044
%
% (lat/lon/height=WGS84/ellipsoidal,Q=1:fix,2:float,3:sbas,4:dgps,5:single,6:ppp,ns=# of satellites)
%  GPST                  latitude(deg) longitude(deg)  height(m)   Q  ns   sdn(m)   sde(m)   sdu(m)  sdne(m)  sdeu(m)  sdun(m) age(s)  ratio
2024/05/06 16:42:44.000   28.332866966  -16.453988013  1209.9219   1   7   0.0042   0.0013   0.0325   0.0006   0.0034   0.0090  14.00   85.9
2024/05/06 16:42:45.000   28.332866966  -16.453988013  1209.9219   1   7   0.0042   0.0013   0.0325   0.0006   0.0034   0.0090  15.00   84.5
2024/05/06 16:42:46.000   28.332866966  -16.453988013  1209.9219   1   7   0.0042   0.0013   0.0325   0.0006   0.0034   0.0091 -14.00   83.1
2024/05/06 16:42:47.000   28.332866966  -16.453988013  1209.9218   1   7   0.0042   0.0013   0.0325   0.0006   0.0033   0.0091 -13.00   81.8
2024/05/06 16:42:48.000   28.332866965  -16.453988013  1209.9217   1   7   0.0042   0.0013   0.0325   0.0006   0.0033   0.0091 -12.00   80.5
2024/05/06 16:42:49.000   28.332866965  -16.453988013  1209.9215   1   7   0.0042   0.0013   0.0326   0.0006   0.0033   0.0091 -11.00   79.2
2024/05/06 16:42:50.000   28.332866965  -16.453988013  1209.9213   1   7   0.0042   0.0013   0.0326   0.0006   0.0033   0.0091 -10.00   77.9
2024/05/06 16:42:51.000   28.332866964  -16.453988013  1209.9209   1   7   0.0042   0.0013   0.0326   0.0006   0.0033   0.0092  -9.00   76.4
2024/05/06 16:42:52.000   28.332866963  -16.453988013  1209.9204   1   7   0.0042   0.0013   0.0327   0.0006   0.0033   0.0092  -8.00   74.8
2024/05/06 16:42:53.000   28.332866962  -16.453988013  1209.9198   1   7   0.0042   0.0013   0.0327   0.0006   0.0033   0.0092  -7.00   72.9
2024/05/06 16:42:54.000   28.332866961  -16.453988013  1209.9194   1   7   0.0043   0.0013   0.0328   0.0006   0.0033   0.0093  -6.00   70.7
2024/05/06 16:42:55.000   28.332866960  -16.453988013  1209.9187   1   7   0.0043   0.0013   0.0329   0.0006   0.0033   0.0093  -5.00   68.0
2024/05/06 16:42:56.000   28.332866953  -16.453988013  1209.9140   1   7   0.0045   0.0013   0.0337   0.0006   0.0033   0.0098  -4.00   52.8
2024/05/06 16:42:57.000   28.332866952  -16.453988013  1209.9131   1   7   0.0045   0.0013   0.0338   0.0006   0.0033   0.0098  -3.00   46.9
2024/05/06 16:42:58.000   28.332866952  -16.453988012  1209.9129   1   7   0.0045   0.0013   0.0339   0.0006   0.0033   0.0099  -2.00  658.9
2024/05/06 16:42:59.000   28.332866952  -16.453988012  1209.9124   1   7   0.0045   0.0013   0.0339   0.0006   0.0033   0.0099  -1.00  660.3
2024/05/06 16:43:00.000   28.332866966  -16.453988012  1209.9219   1   7   0.0039   0.0013   0.0312   0.0007   0.0033   0.0083   0.00  110.0
2024/05/06 16:43:01.000   28.332866965  -16.453988012  1209.9212   1   7   0.0039   0.0013   0.0314   0.0007   0.0033   0.0084   1.00  108.9
2024/05/06 16:43:02.000   28.332866963  -16.453988012  1209.9198   1   7   0.0040   0.0013   0.0316   0.0006   0.0033   0.0085   2.00  108.1
2024/05/06 16:43:03.000   28.332866962  -16.453988011  1209.9185   1   7   0.0040   0.0013   0.0318   0.0006   0.0033   0.0086   3.00  107.2
2024/05/06 16:43:04.000   28.332866961  -16.453988011  1209.9178   1   7   0.0041   0.0013   0.0319   0.0006   0.0033   0.0087   4.00  105.5
2024/05/06 16:43:05.000   28.332866960  -16.453988011  1209.9171   1   7   0.0041   0.0013   0.0320   0.0006   0.0033   0.0087   5.00  103.6
2024/05/06 16:43:06.000   28.332866959  -16.453988011  1209.9166   1   7   0.0041   0.0013   0.0321   0.0006   0.0033   0.0088   6.00  102.0
2024/05/06 16:43:07.000   28.332866959  -16.453988011  1209.9163   1   7   0.0041   0.0013   0.0322   0.0006   0.0033   0.0089   7.00  100.3
2024/05/06 16:43:08.000   28.332866959  -16.453988011  1209.9161   1   7   0.0041   0.0013   0.0323   0.0006   0.0033   0.0089   8.00   98.5
2024/05/06 16:43:09.000   28.332866959  -16.453988011  1209.9159   1   7   0.0042   0.0013   0.0323   0.0006   0.0033   0.0090   9.00   96.7
2024/05/06 16:43:10.000   28.332866959  -16.453988011  1209.9157   1   7   0.0042   0.0013   0.0324   0.0006   0.0033   0.0090  10.00   95.0
2024/05/06 16:43:11.000   28.332866959  -16.453988010  1209.9157   1   7   0.0042   0.0013   0.0324   0.0006   0.0033   0.0090  11.00   93.1
2024/05/06 16:43:12.000   28.332866959  -16.453988010  1209.9156   1   7   0.0042   0.0013   0.0324   0.0006   0.0033   0.0090  12.00   91.3
2024/05/06 16:43:13.000   28.332866959  -16.453988010  1209.9156   1   7   0.0042   0.0013   0.0325   0.0006   0.0033   0.0091  13.00   89.6
2024/05/06 16:43:14.000   28.332866959  -16.453988010  1209.9156   1   7   0.0042   0.0013   0.0325   0.0006   0.0033   0.0091  14.00   87.9
2024/05/06 16:43:15.000   28.332866960  -16.453988010  1209.9156   1   7   0.0042   0.0013   0.0325   0.0006   0.0033   0.0091  15.00   86.3
2024/05/06 16:43:16.000   28.332866960  -16.453988010  1209.9156   1   7   0.0042   0.0013   0.0325   0.0006   0.0033   0.0091 -14.00   84.8
2024/05/06 16:43:17.000   28.332866960  -16.453988010  1209.9156   1   7   0.0042   0.0013   0.0325   0.0006   0.0033   0.0091 -13.00   83.2
2024/05/06 16:43:18.000   28.332866960  -16.453988010  1209.9155   1   7   0.0042   0.0013   0.0325   0.0006   0.0033   0.0091 -12.00   81.5
2024/05/06 16:43:19.000   28.332866960  -16.453988010  1209.9154   1   7   0.0042   0.0013   0.0325   0.0006   0.0033   0.0092 -11.00   79.8
2024/05/06 16:43:20.000   28.332866960  -16.453988010  1209.9154   1   7   0.0042   0.0013   0.0326   0.0006   0.0033   0.0092 -10.00   78.0
2024/05/06 16:43:21.000   28.332866960  -16.453988010  1209.9154   1   7   0.0043   0.0013   0.0326   0.0006   0.0033   0.0092  -9.00   76.2
2024/05/06 16:43:22.000   28.332866960  -16.453988010  1209.9153   1   7   0.0043   0.0013   0.0327   0.0006   0.0033   0.0092  -8.00   74.4
2024/05/06 16:43:23.000   28.332866960  -16.453988010  1209.9154   1   7   0.0043   0.0013   0.0327   0.0006   0.0033   0.0093  -7.00   72.5
2024/05/06 16:43:24.000   28.332866960  -16.453988010  1209.9151   1   7   0.0043   0.0013   0.0328   0.0006   0.0033   0.0093  -6.00   70.2
2024/05/06 16:43:25.000   28.332866959  -16.453988009  1209.9147   1   7   0.0043   0.0013   0.0329   0.0006   0.0033   0.0094  -5.00   67.1
2024/05/06 16:43:26.000   28.332866952  -16.453988009  1209.9102   1   7   0.0045   0.0013   0.0338   0.0006   0.0033   0.0099  -4.00   52.6
2024/05/06 16:43:27.000   28.332866952  -16.453988009  1209.9099   1   7   0.0045   0.0013   0.0338   0.0006   0.0033   0.0099  -3.00   46.3
2024/05/06 16:43:28.000   28.332866953  -16.453988008  1209.9103   1   7   0.0046   0.0013   0.0340   0.0006   0.0033   0.0100  -2.00  642.4
2024/05/06 16:43:29.000   28.332866952  -16.453988008  1209.9098   1   7   0.0046   0.0013   0.0340   0.0006   0.0033   0.0100  -1.00  642.2
2024/05/06 16:43:30.000   28.332866959  -16.453988008  1209.9144   1   7   0.0039   0.0013   0.0311   0.0006   0.0033   0.0083   0.00  110.3
2024/05/06 16:43:31.000   28.332866958  -16.453988007  1209.9131   1   7   0.0040   0.0013   0.0313   0.0006   0.0033   0.0084   1.00  109.2
2024/05/06 16:43:32.000   28.332866956  -16.453988007  1209.9121   1   7   0.0040   0.0013   0.0315   0.0006   0.0033   0.0085   2.00  108.0
2024/05/06 16:43:33.000   28.332866956  -16.453988007  1209.9112   1   7   0.0041   0.0013   0.0317   0.0006   0.0033   0.0086   3.00  106.8
2024/05/06 16:43:34.000   28.332866955  -16.453988007  1209.9103   1   7   0.0041   0.0013   0.0319   0.0006   0.0033   0.0087   4.00  105.5
2024/05/06 16:43:35.000   28.332866955  -16.453988007  1209.9096   1   7   0.0041   0.0013   0.0320   0.0006   0.0033   0.0088   5.00  103.7
2024/05/06 16:43:36.000   28.332866955  -16.453988007  1209.9093   1   7   0.0041   0.0013   0.0321   0.0006   0.0033   0.0089   6.00  102.1
2024/05/06 16:43:37.000   28.332866956  -16.453988006  1209.9089   1   7   0.0042   0.0013   0.0322   0.0006   0.0033   0.0089   7.00  100.3
2024/05/06 16:43:38.000   28.332866956  -16.453988007  1209.9087   1   7   0.0042   0.0013   0.0322   0.0006   0.0033   0.0090   8.00   98.7
2024/05/06 16:43:39.000   28.332866956  -16.453988007  1209.9086   1   7   0.0042   0.0013   0.0323   0.0006   0.0033   0.0090   9.00   97.1
2024/05/06 16:43:40.000   28.332866957  -16.453988007  1209.9084   1   7   0.0042   0.0013   0.0324   0.0006   0.0033   0.0090  10.00   95.5
2024/05/06 16:43:41.000   28.332866957  -16.453988007  1209.9084   1   7   0.0042   0.0013   0.0324   0.0006   0.0033   0.0091  11.00   94.0
2024/05/06 16:43:42.000   28.332866958  -16.453988007  1209.9084   1   7   0.0042   0.0013   0.0324   0.0006   0.0033   0.0091  12.00   92.5
2024/05/06 16:43:43.000   28.332866958  -16.453988007  1209.9085   1   7   0.0042   0.0013   0.0324   0.0006   0.0033   0.0091  13.00   91.0
2024/05/06 16:43:44.000   28.332866959  -16.453988007  1209.9086   1   7   0.0042   0.0013   0.0325   0.0006   0.0033   0.0091  14.00   89.6
2024/05/06 16:43:45.000   28.332866959  -16.453988007  1209.9087   1   7   0.0043   0.0013   0.0325   0.0006   0.0033   0.0091  15.00   88.1
2024/05/06 16:43:46.000   28.332866960  -16.453988007  1209.9088   1   7   0.0043   0.0013   0.0325   0.0006   0.0033   0.0091 -14.00   86.6
2024/05/06 16:43:47.000   28.332866960  -16.453988007  1209.9089   1   7   0.0043   0.0013   0.0325   0.0006   0.0033   0.0092 -13.00   85.1
2024/05/06 16:43:48.000   28.332866960  -16.453988007  1209.9089   1   7   0.0043   0.0013   0.0325   0.0006   0.0033   0.0092 -12.00   83.5
2024/05/06 16:43:49.000   28.332866961  -16.453988007  1209.9091   1   7   0.0043   0.0013   0.0325   0.0006   0.0033   0.0092 -11.00   81.9
2024/05/06 16:43:50.000   28.332866961  -16.453988007  1209.9092   1   7   0.0043   0.0013   0.0326   0.0006   0.0033   0.0092 -10.00   80.2
2024/05/06 16:43:51.000   28.332866961  -16.453988007  1209.9093   1   7   0.0043   0.0013   0.0326   0.0006   0.0033   0.0093  -9.00   78.2
2024/05/06 16:43:52.000   28.332866962  -16.453988007  1209.9093   1   7   0.0043   0.0013   0.0327   0.0006   0.0033   0.0093  -8.00   76.2
2024/05/06 16:43:53.000   28.332866962  -16.453988007  1209.9094   1   7   0.0043   0.0013   0.0327   0.0006   0.0033   0.0093  -7.00   74.0
2024/05/06 16:43:54.000   28.332866962  -16.453988007  1209.9094   1   7   0.0043   0.0013   0.0328   0.0006   0.0033   0.0094  -6.00   71.5
2024/05/06 16:43:55.000   28.332866962  -16.453988006  1209.9091   1   7   0.0044   0.0013   0.0329   0.0006   0.0033   0.0095  -5.00   68.0
2024/05/06 16:43:56.000   28.332866956  -16.453988006  1209.9050   1   7   0.0046   0.0013   0.0338   0.0006   0.0033   0.0100  -4.00   52.8
2024/05/06 16:43:57.000   28.332866957  -16.453988006  1209.9054   1   7   0.0046   0.0013   0.0338   0.0006   0.0033   0.0100  -3.00   46.5
2024/05/06 16:43:58.000   28.332866959  -16.453988006  1209.9067   1   7   0.0046   0.0013   0.0340   0.0006   0.0033   0.0101  -2.00  630.5
2024/05/06 16:43:59.000   28.332866959  -16.453988005  1209.9066   1   7   0.0046   0.0013   0.0340   0.0006   0.0033   0.0101  -1.00  630.4
2024/05/06 16:44:00.000   28.332866968  -16.453988005  1209.9129   1   7   0.0040   0.0013   0.0311   0.0006   0.0033   0.0083   0.00  114.3
2024/05/06 16:44:01.000   28.332866967  -16.453988004  1209.9127   1   7   0.0040   0.0013   0.0313   0.0006   0.0033   0.0084   1.00  112.1
2024/05/06 16:44:02.000   28.332866965  -16.453988004  1209.9122   1   7   0.0040   0.0013   0.0315   0.0006   0.0033   0.0085   2.00  110.1
2024/05/06 16:44:03.000   28.332866964  -16.453988003  1209.9122   1   7   0.0041   0.0013   0.0317   0.0006   0.0033   0.0086   3.00  108.0
2024/05/06 16:44:04.000   28.332866963  -16.453988003  1209.9120   1   7   0.0041   0.0013   0.0318   0.0006   0.0033   0.0087   4.00  106.1
2024/05/06 16:44:05.000   28.332866962  -16.453988002  1209.9118   1   7   0.0042   0.0013   0.0320   0.0006   0.0033   0.0088   5.00  104.1
2024/05/06 16:44:06.000   28.332866961  -16.453988002  1209.9116   1   7   0.0042   0.0013   0.0321   0.0006   0.0033   0.0089   6.00  102.2
2024/05/06 16:44:07.000   28.332866960  -16.453988002  1209.9114   1   7   0.0042   0.0013   0.0322   0.0006   0.0033   0.0089   7.00  100.3
2024/05/06 16:44:08.000   28.332866959  -16.453988002  1209.9113   1   7   0.0042   0.0013   0.0322   0.0006   0.0033   0.0090   8.00   98.3
2024/05/06 16:44:09.000   28.332866958  -16.453988002  1209.9113   1   7   0.0042   0.0013   0.0323   0.0006   0.0033   0.0090   9.00   96.6
2024/05/06 16:44:10.000   28.332866958  -16.453988002  1209.9113   1   7   0.0043   0.0013   0.0323   0.0006   0.0033   0.0091  10.00   94.8
2024/05/06 16:44:11.000   28.332866958  -16.453988002  1209.9113   1   7   0.0043   0.0013   0.0324   0.0006   0.0033   0.0091  11.00   93.1
2024/05/06 16:44:12.000   28.332866957  -16.453988001  1209.9111   1   7   0.0043   0.0013   0.0324   0.0006   0.0033   0.0091  12.00   91.3
2024/05/06 16:44:13.000   28.332866957  -16.453988001  1209.9112   1   7   0.0043   0.0013   0.0324   0.0006   0.0033   0.0091  13.00   89.8
2024/05/06 16:44:14.000   28.332866957  -16.453988001  1209.9112   1   7   0.0043   0.0013   0.0324   0.0006   0.0033   0.0092  14.00   88.2
2024/05/06 16:44:15.000   28.332866957  -16.453988001  1209.9112   1   7   0.0043   0.0013   0.0325   0.0006   0.0033   0.0092  15.00   86.5
2024/05/06 16:44:16.000   28.332866957  -16.453988001  1209.9112   1   7   0.0043   0.0013   0.0325   0.0006   0.0033   0.0092 -14.00   85.0
2024/05/06 16:44:17.000   28.332866957  -16.453988001  1209.9113   1   7   0.0043   0.0013   0.0325   0.0006   0.0033   0.0092 -13.00   83.5
2024/05/06 16:44:18.000   28.332866957  -16.453988001  1209.9114   1   7   0.0043   0.0013   0.0325   0.0006   0.0033   0.0092 -12.00   81.9
2024/05/06 16:44:19.000   28.332866957  -16.453988001  1209.9113   1   7   0.0043   0.0013   0.0325   0.0006   0.0032   0.0093 -11.00   80.2
2024/05/06 16:44:20.000   28.332866956  -16.453988001  1209.9113   1   7   0.0043   0.0013   0.0326   0.0006   0.0032   0.0093 -10.00   78.4
2024/05/06 16:44:21.000   28.332866956  -16.453988001  1209.9113   1   7   0.0043   0.0013   0.0326   0.0006   0.0032   0.0093  -9.00   76.8
2024/05/06 16:44:22.000   28.332866956  -16.453988001  1209.9113   1   7   0.0044   0.0013   0.0327   0.0006   0.0032   0.0093  -8.00   74.9
2024/05/06 16:44:23.000   28.332866956  -16.453988001  1209.9113   1   7   0.0044   0.0013   0.0327   0.0006   0.0032   0.0094  -7.00   72.8
2024/05/06 16:44:24.000   28.332866956  -16.453988001  1209.9113   1   7   0.0044   0.0013   0.0328   0.0006   0.0032   0.0094  -6.00   70.6
2024/05/06 16:44:25.000   28.332866956  -16.453988001  1209.9116   1   7   0.0044   0.0013   0.0329   0.0006   0.0032   0.0095  -5.00   67.9
2024/05/06 16:44:26.000   28.332866954  -16.453988001  1209.9102   1   7   0.0046   0.0013   0.0338   0.0006   0.0032   0.0100  -4.00   51.4
2024/05/06 16:44:27.000   28.332866956  -16.453988001  1209.9109   1   7   0.0046   0.0013   0.0339   0.0006   0.0032   0.0101  -3.00   45.9
2024/05/06 16:44:28.000   28.332866958  -16.453988001  1209.9118   1   7   0.0047   0.0013   0.0341   0.0006   0.0032   0.0102  -2.00  599.0
2024/05/06 16:44:29.000   28.332866958  -16.453988001  1209.9121   1   7   0.0047   0.0013   0.0341   0.0006   0.0032   0.0102  -1.00  600.6
2024/05/06 16:44:30.000   28.332866954  -16.453988001  1209.9091   1   7   0.0040   0.0013   0.0311   0.0006   0.0033   0.0083   0.00  111.8
2024/05/06 16:44:31.000   28.332866955  -16.453988001  1209.9092   1   7   0.0040   0.0013   0.0313   0.0006   0.0033   0.0084   1.00  109.7
2024/05/06 16:44:32.000   28.332866955  -16.453988001  1209.9088   1   7   0.0041   0.0013   0.0315   0.0006   0.0033   0.0086   2.00  107.3
2024/05/06 16:44:33.000   28.332866956  -16.453988001  1209.9089   1   7   0.0041   0.0013   0.0316   0.0006   0.0033   0.0087   3.00  105.0
2024/05/06 16:44:34.000   28.332866957  -16.453988001  1209.9090   1   7   0.0042   0.0013   0.0318   0.0006   0.0033   0.0088   4.00  102.7
2024/05/06 16:44:35.000   28.332866957  -16.453988001  1209.9090   1   7   0.0042   0.0013   0.0319   0.0006   0.0033   0.0089   5.00  100.5
2024/05/06 16:44:36.000   28.332866957  -16.453988001  1209.9091   1   7   0.0042   0.0013   0.0321   0.0006   0.0032   0.0089   6.00   98.6
2024/05/06 16:44:37.000   28.332866958  -16.453988001  1209.9092   1   7   0.0042   0.0013   0.0322   0.0006   0.0032   0.0090   7.00   96.5
2024/05/06 16:44:38.000   28.332866958  -16.453988000  1209.9093   1   7   0.0043   0.0013   0.0322   0.0006   0.0032   0.0090   8.00   94.5
2024/05/06 16:44:39.000   28.332866958  -16.453988000  1209.9096   1   7   0.0043   0.0013   0.0323   0.0006   0.0032   0.0091   9.00   92.7
2024/05/06 16:44:40.000   28.332866958  -16.453988000  1209.9096   1   7   0.0043   0.0013   0.0323   0.0006   0.0032   0.0091  10.00   90.8
2024/05/06 16:44:41.000   28.332866959  -16.453988000  1209.9097   1   7   0.0043   0.0013   0.0324   0.0006   0.0032   0.0091  11.00   88.9
2024/05/06 16:44:42.000   28.332866959  -16.453988000  1209.9099   1   7   0.0043   0.0013   0.0324   0.0006   0.0032   0.0092  12.00   87.2
2024/05/06 16:44:43.000   28.332866959  -16.453988000  1209.9100   1   7   0.0043   0.0013   0.0324   0.0006   0.0032   0.0092  13.00   85.5
2024/05/06 16:44:44.000   28.332866959  -16.453988000  1209.9101   1   7   0.0043   0.0013   0.0324   0.0006   0.0032   0.0092  14.00   83.9
2024/05/06 16:44:45.000   28.332866959  -16.453988000  1209.9103   1   7   0.0043   0.0013   0.0325   0.0006   0.0032   0.0092  15.00   82.4
2024/05/06 16:44:46.000   28.332866959  -16.453988000  1209.9104   1   7   0.0043   0.0013   0.0325   0.0006   0.0032   0.0092 -14.00   81.0
2024/05/06 16:44:47.000   28.332866960  -16.453988000  1209.9106   1   7   0.0043   0.0013   0.0325   0.0006   0.0032   0.0093 -13.00   79.5
2024/05/06 16:44:48.000   28.332866960  -16.453988000  1209.9108   1   7   0.0044   0.0013   0.0325   0.0006   0.0032   0.0093 -12.00   78.0
2024/05/06 16:44:49.000   28.332866960  -16.453988000  1209.9109   1   7   0.0044   0.0013   0.0325   0.0006   0.0032   0.0093 -11.00   76.5
2024/05/06 16:44:50.000   28.332866960  -16.453988000  1209.9111   1   7   0.0044   0.0013   0.0326   0.0006   0.0032   0.0093 -10.00   75.0
2024/05/06 16:44:51.000   28.332866960  -16.453987999  1209.9112   1   7   0.0044   0.0013   0.0326   0.0006   0.0032   0.0094  -9.00   73.3
2024/05/06 16:44:52.000   28.332866960  -16.453987999  1209.9113   1   7   0.0044   0.0013   0.0327   0.0006   0.0032   0.0094  -8.00   71.3
2024/05/06 16:44:53.000   28.332866961  -16.453987999  1209.9113   1   7   0.0044   0.0013   0.0327   0.0006   0.0032   0.0094  -7.00   69.3
2024/05/06 16:44:54.000   28.332866961  -16.453987999  1209.9114   1   7   0.0044   0.0013   0.0328   0.0006   0.0032   0.0095  -6.00   67.2
2024/05/06 16:44:55.000   28.332866961  -16.453987999  1209.9116   1   7   0.0045   0.0013   0.0329   0.0006   0.0032   0.0096  -5.00   64.8
2024/05/06 16:44:56.000   28.332866962  -16.453987999  1209.9119   1   7   0.0047   0.0013   0.0339   0.0006   0.0032   0.0101  -4.00   48.9
2024/05/06 16:44:57.000   28.332866962  -16.453987999  1209.9112   1   7   0.0047   0.0013   0.0339   0.0006   0.0032   0.0101  -3.00   42.5
2024/05/06 16:44:58.000   28.332866966  -16.453987998  1209.9133   1   7   0.0047   0.0013   0.0341   0.0006   0.0032   0.0103  -2.00  567.1
2024/05/06 16:44:59.000   28.332866966  -16.453987998  1209.9128   1   7   0.0047   0.0013   0.0341   0.0006   0.0032   0.0103  -1.00  567.1
2024/05/06 16:45:00.000   28.332866963  -16.453987998  1209.9103   1   7   0.0040   0.0013   0.0310   0.0006   0.0032   0.0083   0.00  108.5
2024/05/06 16:45:01.000   28.332866963  -16.453987998  1209.9104   1   7   0.0041   0.0013   0.0312   0.0006   0.0032   0.0085   1.00  107.2
2024/05/06 16:45:02.000   28.332866964  -16.453987998  1209.9103   1   7   0.0041   0.0013   0.0314   0.0006   0.0032   0.0086   2.00  105.4
2024/05/06 16:45:03.000   28.332866965  -16.453987998  1209.9110   1   7   0.0042   0.0013   0.0316   0.0006   0.0032   0.0087   3.00  103.5
2024/05/06 16:45:04.000   28.332866966  -16.453987998  1209.9111   1   7   0.0042   0.0013   0.0318   0.0006   0.0032   0.0088   4.00  101.6
2024/05/06 16:45:05.000   28.332866968  -16.453987998  1209.9116   1   7   0.0042   0.0013   0.0319   0.0006   0.0032   0.0089   5.00   99.7
2024/05/06 16:45:06.000   28.332866969  -16.453987998  1209.9121   1   7   0.0043   0.0013   0.0321   0.0006   0.0032   0.0090   6.00   97.7
2024/05/06 16:45:07.000   28.332866970  -16.453987998  1209.9123   1   7   0.0043   0.0013   0.0321   0.0006   0.0032   0.0090   7.00   95.7
2024/05/06 16:45:08.000   28.332866970  -16.453987998  1209.9126   1   7   0.0043   0.0013   0.0322   0.0006   0.0032   0.0091   8.00   93.9
2024/05/06 16:45:09.000   28.332866971  -16.453987998  1209.9127   1   7   0.0043   0.0013   0.0323   0.0006   0.0032   0.0091   9.00   92.0
2024/05/06 16:45:10.000   28.332866971  -16.453987998  1209.9129   1   7   0.0043   0.0013   0.0323   0.0006   0.0032   0.0092  10.00   90.4
2024/05/06 16:45:11.000   28.332866972  -16.453987998  1209.9131   1   7   0.0043   0.0013   0.0324   0.0006   0.0032   0.0092  11.00   88.6
2024/05/06 16:45:12.000   28.332866972  -16.453987998  1209.9131   1   7   0.0044   0.0013   0.0324   0.0006   0.0032   0.0092  12.00   86.9
2024/05/06 16:45:13.000   28.332866972  -16.453987998  1209.9133   1   7   0.0044   0.0013   0.0324   0.0006   0.0032   0.0092  13.00   85.3
2024/05/06 16:45:14.000   28.332866972  -16.453987998  1209.9134   1   7   0.0044   0.0013   0.0325   0.0006   0.0032   0.0093  14.00   83.8
2024/05/06 16:45:15.000   28.332866973  -16.453987998  1209.9135   1   7   0.0044   0.0013   0.0325   0.0006   0.0032   0.0093  15.00   82.3
2024/05/06 16:45:16.000   28.332866973  -16.453987998  1209.9137   1   7   0.0044   0.0013   0.0325   0.0006   0.0032   0.0093 -14.00   80.9
2024/05/06 16:45:17.000   28.332866973  -16.453987998  1209.9138   1   7   0.0044   0.0013   0.0325   0.0006   0.0032   0.0093 -13.00   79.3
2024/05/06 16:45:18.000   28.332866973  -16.453987998  1209.9140   1   7   0.0044   0.0013   0.0325   0.0006   0.0032   0.0093 -12.00   77.7
2024/05/06 16:45:19.000   28.332866974  -16.453987998  1209.9140   1   7   0.0044   0.0013   0.0325   0.0006   0.0032   0.0094 -11.00   76.1
2024/05/06 16:45:20.000   28.332866974  -16.453987998  1209.9141   1   7   0.0044   0.0013   0.0326   0.0006   0.0032   0.0094 -10.00   74.3
2024/05/06 16:45:21.000   28.332866974  -16.453987998  1209.9143   1   7   0.0044   0.0013   0.0326   0.0006   0.0032   0.0094  -9.00   72.6
2024/05/06 16:45:22.000   28.332866974  -16.453987998  1209.9145   1   7   0.0044   0.0013   0.0327   0.0006   0.0032   0.0095  -8.00   70.8
2024/05/06 16:45:23.000   28.332866974  -16.453987998  1209.9145   1   7   0.0045   0.0013   0.0327   0.0006   0.0032   0.0095  -7.00   68.8
2024/05/06 16:45:24.000   28.332866974  -16.453987998  1209.9148   1   7   0.0045   0.0013   0.0328   0.0006   0.0032   0.0096  -6.00   66.4
2024/05/06 16:45:25.000   28.332866974  -16.453987998  1209.9147   1   7   0.0045   0.0013   0.0329   0.0006   0.0032   0.0096  -5.00   63.6
2024/05/06 16:45:26.000   28.332866970  -16.453987998  1209.9124   1   7   0.0047   0.0013   0.0339   0.0006   0.0032   0.0102  -4.00   48.8
2024/05/06 16:45:27.000   28.332866971  -16.453987998  1209.9127   1   7   0.0047   0.0013   0.0340   0.0006   0.0032   0.0102  -3.00   43.1
2024/05/06 16:45:28.000   28.332866973  -16.453987998  1209.9138   1   7   0.0048   0.0013   0.0342   0.0006   0.0032   0.0104  -2.00  530.3
2024/05/06 16:45:29.000   28.332866972  -16.453987998  1209.9134   1   7   0.0048   0.0013   0.0342   0.0006   0.0032   0.0104  -1.00  530.0
2024/05/06 16:45:30.000   28.332866968  -16.453987998  1209.9112   1   7   0.0040   0.0013   0.0310   0.0006   0.0032   0.0084   0.00  103.7
2024/05/06 16:45:31.000   28.332866967  -16.453987998  1209.9109   1   7   0.0041   0.0013   0.0312   0.0006   0.0032   0.0085   1.00  101.6
2024/05/06 16:45:32.000   28.332866967  -16.453987998  1209.9105   1   7   0.0041   0.0013   0.0314   0.0006   0.0032   0.0086   2.00   99.5
2024/05/06 16:45:33.000   28.332866967  -16.453987997  1209.9102   1   7   0.0042   0.0013   0.0316   0.0006   0.0032   0.0087   3.00   97.1
2024/05/06 16:45:34.000   28.332866967  -16.453987997  1209.9101   1   7   0.0042   0.0013   0.0318   0.0006   0.0032   0.0088   4.00   94.9
2024/05/06 16:45:35.000   28.332866967  -16.453987997  1209.9099   1   7   0.0043   0.0013   0.0319   0.0006   0.0032   0.0089   5.00   92.9
2024/05/06 16:45:36.000   28.332866966  -16.453987997  1209.9097   1   7   0.0043   0.0013   0.0321   0.0006   0.0032   0.0090   6.00   90.8
2024/05/06 16:45:37.000   28.332866966  -16.453987997  1209.9096   1   7   0.0043   0.0013   0.0321   0.0006   0.0032   0.0091   7.00   88.8
2024/05/06 16:45:38.000   28.332866966  -16.453987997  1209.9096   1   7   0.0043   0.0013   0.0322   0.0006   0.0032   0.0091   8.00   87.0
2024/05/06 16:45:39.000   28.332866967  -16.453987997  1209.9098   1   7   0.0044   0.0013   0.0323   0.0006   0.0032   0.0092   9.00   85.5
2024/05/06 16:45:40.000   28.332866967  -16.453987997  1209.9099   1   7   0.0044   0.0013   0.0323   0.0006   0.0032   0.0092  10.00   83.8
2024/05/06 16:45:41.000   28.332866967  -16.453987997  1209.9101   1   7   0.0044   0.0013   0.0324   0.0006   0.0032   0.0092  11.00   82.2
2024/05/06 16:45:42.000   28.332866968  -16.453987997  1209.9102   1   7   0.0044   0.0013   0.0324   0.0006   0.0032   0.0093  12.00   80.7
2024/05/06 16:45:43.000   28.332866968  -16.453987997  1209.9103   1   7   0.0044   0.0013   0.0324   0.0006   0.0032   0.0093  13.00   79.2
2024/05/06 16:45:44.000   28.332866967  -16.453988009  1209.8903   1   7   0.0037   0.0012   0.0268   0.0004   0.0024   0.0077  14.00    3.1
2024/05/06 16:45:45.000   28.332866967  -16.453988009  1209.8902   1   7   0.0037   0.0012   0.0268   0.0004   0.0024   0.0077 -15.00    3.1
2024/05/06 16:45:46.000   28.332866967  -16.453988009  1209.8902   1   7   0.0037   0.0012   0.0267   0.0004   0.0023   0.0076 -14.00    3.0
2024/05/06 16:45:47.000   28.332866969  -16.453987997  1209.9112   1   7   0.0044   0.0013   0.0325   0.0006   0.0032   0.0094 -13.00   73.7
2024/05/06 16:45:48.000   28.332866970  -16.453987997  1209.9114   1   7   0.0044   0.0013   0.0325   0.0006   0.0032   0.0094 -12.00   72.4
2024/05/06 16:45:49.000   28.332866970  -16.453987997  1209.9117   1   7   0.0044   0.0013   0.0326   0.0006   0.0032   0.0094 -11.00   71.0
2024/05/06 16:45:50.000   28.332866970  -16.453987997  1209.9119   1   7   0.0045   0.0013   0.0326   0.0006   0.0032   0.0094 -10.00   69.5
2024/05/06 16:45:51.000   28.332866971  -16.453987997  1209.9121   1   7   0.0045   0.0013   0.0326   0.0006   0.0032   0.0095  -9.00   67.9
2024/05/06 16:45:52.000   28.332866971  -16.453987997  1209.9124   1   7   0.0045   0.0013   0.0327   0.0006   0.0032   0.0095  -8.00   66.3
2024/05/06 16:45:53.000   28.332866972  -16.453987997  1209.9126   1   7   0.0045   0.0013   0.0328   0.0006   0.0032   0.0096  -7.00   64.3
2024/05/06 16:45:54.000   28.332866972  -16.453987997  1209.9130   1   7   0.0045   0.0013   0.0329   0.0006   0.0032   0.0096  -6.00   62.1
2024/05/06 16:45:55.000   28.332866973  -16.453987997  1209.9134   1   7   0.0046   0.0013   0.0330   0.0006   0.0032   0.0097  -5.00   59.8
2024/05/06 16:45:56.000   28.332866971  -16.453987997  1209.9122   1   7   0.0048   0.0013   0.0340   0.0005   0.0031   0.0103  -4.00   45.2
2024/05/06 16:45:57.000   28.332866972  -16.453987997  1209.9123   1   7   0.0048   0.0013   0.0340   0.0005   0.0031   0.0103  -3.00   39.4
2024/05/06 16:45:58.000   28.332866977  -16.453987997  1209.9154   1   7   0.0049   0.0013   0.0343   0.0005   0.0031   0.0105  -2.00  493.9
2024/05/06 16:45:59.000   28.332866978  -16.453987996  1209.9154   1   7   0.0049   0.0013   0.0343   0.0005   0.0031   0.0105  -1.00  492.8
2024/05/06 16:46:00.000   28.332866953  -16.453987996  1209.9003   1   7   0.0041   0.0013   0.0310   0.0006   0.0032   0.0084   0.00   92.3
2024/05/06 16:46:01.000   28.332866954  -16.453987996  1209.9003   1   7   0.0041   0.0013   0.0312   0.0006   0.0032   0.0085   1.00   90.6
2024/05/06 16:46:02.000   28.332866953  -16.453987996  1209.8999   1   7   0.0042   0.0013   0.0314   0.0006   0.0032   0.0086   2.00   88.6
2024/05/06 16:46:03.000   28.332866954  -16.453987996  1209.9001   1   7   0.0042   0.0013   0.0316   0.0006   0.0032   0.0088   3.00   86.9
2024/05/06 16:46:04.000   28.332866955  -16.453987996  1209.9007   1   7   0.0043   0.0013   0.0318   0.0006   0.0032   0.0089   4.00   85.5
2024/05/06 16:46:05.000   28.332866956  -16.453987996  1209.9011   1   7   0.0043   0.0013   0.0319   0.0006   0.0032   0.0090   5.00   83.8
2024/05/06 16:46:06.000   28.332866958  -16.453987996  1209.9018   1   7   0.0043   0.0013   0.0321   0.0006   0.0032   0.0091   6.00   82.6
2024/05/06 16:46:07.000   28.332866959  -16.453987997  1209.9023   1   7   0.0044   0.0013   0.0322   0.0006   0.0032   0.0091   7.00   81.2
2024/05/06 16:46:08.000   28.332866961  -16.453987997  1209.9029   1   7   0.0044   0.0013   0.0322   0.0006   0.0032   0.0092   8.00   79.9
2024/05/06 16:46:09.000   28.332866962  -16.453987997  1209.9034   1   7   0.0044   0.0013   0.0323   0.0006   0.0032   0.0092   9.00   78.6
2024/05/06 16:46:10.000   28.332866963  -16.453987997  1209.9037   1   7   0.0044   0.0013   0.0324   0.0006   0.0032   0.0093  10.00   77.2
2024/05/06 16:46:11.000   28.332866965  -16.453987997  1209.9041   1   7   0.0044   0.0013   0.0324   0.0006   0.0032   0.0093  11.00   75.8
2024/05/06 16:46:12.000   28.332866966  -16.453987997  1209.9045   1   7   0.0044   0.0013   0.0324   0.0006   0.0032   0.0093  12.00   74.5
2024/05/06 16:46:13.000   28.332866967  -16.453987997  1209.9049   1   7   0.0044   0.0013   0.0325   0.0006   0.0032   0.0093  13.00   73.2
2024/05/06 16:46:14.000   28.332866968  -16.453987998  1209.9052   1   7   0.0044   0.0013   0.0325   0.0006   0.0032   0.0094  14.00   72.0
2024/05/06 16:46:15.000   28.332866969  -16.453987998  1209.9056   1   7   0.0045   0.0013   0.0325   0.0006   0.0032   0.0094  15.00   70.8
2024/05/06 16:46:16.000   28.332866969  -16.453987998  1209.9059   1   7   0.0045   0.0013   0.0325   0.0006   0.0032   0.0094 -14.00   69.7
2024/05/06 16:46:17.000   28.332866970  -16.453987998  1209.9062   1   7   0.0045   0.0013   0.0325   0.0006   0.0032   0.0094 -13.00   68.7
2024/05/06 16:46:18.000   28.332866971  -16.453987998  1209.9066   1   7   0.0045   0.0013   0.0326   0.0006   0.0032   0.0094 -12.00   67.5
2024/05/06 16:46:19.000   28.332866973  -16.453987998  1209.9071   1   7   0.0045   0.0013   0.0326   0.0006   0.0032   0.0095 -11.00   66.5
2024/05/06 16:46:20.000   28.332866974  -16.453987998  1209.9075   1   7   0.0045   0.0013   0.0326   0.0006   0.0031   0.0095 -10.00   65.3
2024/05/06 16:46:21.000   28.332866975  -16.453987999  1209.9079   1   7   0.0045   0.0013   0.0327   0.0006   0.0031   0.0095  -9.00   63.9
2024/05/06 16:46:22.000   28.332866977  -16.453987999  1209.9085   1   7   0.0045   0.0013   0.0327   0.0006   0.0031   0.0096  -8.00   62.6
2024/05/06 16:46:23.000   28.332866978  -16.453987999  1209.9091   1   7   0.0045   0.0013   0.0328   0.0006   0.0031   0.0096  -7.00   61.3
2024/05/06 16:46:24.000   28.332866980  -16.453987999  1209.9098   1   7   0.0046   0.0013   0.0329   0.0006   0.0031   0.0097  -6.00   59.6
2024/05/06 16:46:25.000   28.332866982  -16.453987999  1209.9107   1   7   0.0046   0.0013   0.0330   0.0006   0.0031   0.0098  -5.00   57.6
2024/05/06 16:46:26.000   28.332866986  -16.453988000  1209.9125   1   7   0.0048   0.0013   0.0341   0.0005   0.0031   0.0104  -4.00   42.8
2024/05/06 16:46:27.000   28.332866988  -16.453988000  1209.9132   1   7   0.0048   0.0013   0.0341   0.0005   0.0031   0.0104  -3.00   38.4
2024/05/06 16:46:28.000   28.332866995  -16.453988000  1209.9164   1   7   0.0049   0.0013   0.0343   0.0005   0.0031   0.0105  -2.00  472.0
2024/05/06 16:46:29.000   28.332866995  -16.453988000  1209.9162   1   7   0.0049   0.0013   0.0344   0.0005   0.0031   0.0105  -1.00  472.7
2024/05/06 16:46:30.000   28.332866974  -16.453988000  1209.9033   1   7   0.0041   0.0013   0.0309   0.0006   0.0032   0.0084   0.00   97.1
2024/05/06 16:46:31.000   28.332866975  -16.453988000  1209.9036   1   7   0.0042   0.0013   0.0312   0.0006   0.0032   0.0085   1.00   95.6
2024/05/06 16:46:32.000   28.332866977  -16.453988000  1209.9046   1   7   0.0042   0.0013   0.0314   0.0006   0.0032   0.0087   2.00   94.3
2024/05/06 16:46:33.000   28.332866978  -16.453988000  1209.9050   1   7   0.0043   0.0013   0.0316   0.0006   0.0032   0.0088   3.00   93.1
2024/05/06 16:46:34.000   28.332866980  -16.453988000  1209.9058   1   7   0.0043   0.0013   0.0318   0.0006   0.0032   0.0089   4.00   92.1
2024/05/06 16:46:35.000   28.332866981  -16.453988000  1209.9063   1   7   0.0043   0.0013   0.0319   0.0006   0.0032   0.0090   5.00   90.7
2024/05/06 16:46:36.000   28.332866982  -16.453988000  1209.9070   1   7   0.0044   0.0013   0.0321   0.0006   0.0032   0.0091   6.00   89.6
2024/05/06 16:46:37.000   28.332866984  -16.453988000  1209.9076   1   7   0.0044   0.0013   0.0322   0.0006   0.0032   0.0092   7.00   88.3
2024/05/06 16:46:38.000   28.332866984  -16.453988000  1209.9079   1   7   0.0044   0.0013   0.0323   0.0006   0.0032   0.0092   8.00   86.9
2024/05/06 16:46:39.000   28.332866986  -16.453988000  1209.9086   1   7   0.0044   0.0013   0.0323   0.0006   0.0032   0.0093   9.00   85.8
2024/05/06 16:46:40.000   28.332866987  -16.453988000  1209.9090   1   7   0.0044   0.0013   0.0324   0.0005   0.0032   0.0093  10.00   84.5
2024/05/06 16:46:41.000   28.332866988  -16.453988000  1209.9094   1   7   0.0045   0.0013   0.0324   0.0005   0.0032   0.0093  11.00   83.0
2024/05/06 16:46:42.000   28.332866988  -16.453988000  1209.9098   1   7   0.0045   0.0013   0.0325   0.0005   0.0031   0.0094  12.00   81.6
2024/05/06 16:46:43.000   28.332866989  -16.453988000  1209.9101   1   7   0.0045   0.0013   0.0325   0.0005   0.0031   0.0094  13.00   80.2
2024/05/06 16:46:44.000   28.332866990  -16.453988000  1209.9104   1   7   0.0045   0.0013   0.0325   0.0005   0.0031   0.0094  14.00   78.9
2024/05/06 16:46:45.000   28.332866990  -16.453988000  1209.9106   1   7   0.0045   0.0013   0.0325   0.0005   0.0031   0.0094  15.00   77.6
2024/05/06 16:46:46.000   28.332866991  -16.453988000  1209.9108   1   7   0.0045   0.0013   0.0325   0.0005   0.0031   0.0094 -14.00   76.2
2024/05/06 16:46:47.000   28.332866991  -16.453988001  1209.9110   1   7   0.0045   0.0013   0.0326   0.0005   0.0031   0.0095 -13.00   74.9
2024/05/06 16:46:48.000   28.332866992  -16.453988001  1209.9113   1   7   0.0045   0.0013   0.0326   0.0005   0.0031   0.0095 -12.00   73.5
2024/05/06 16:46:49.000   28.332866993  -16.453988001  1209.9116   1   7   0.0045   0.0013   0.0326   0.0005   0.0031   0.0095 -11.00   72.2
2024/05/06 16:46:50.000   28.332866994  -16.453988001  1209.9119   1   7   0.0045   0.0013   0.0327   0.0005   0.0031   0.0095 -10.00   70.8
2024/05/06 16:46:51.000   28.332866994  -16.453988001  1209.9122   1   7   0.0046   0.0013   0.0327   0.0005   0.0031   0.0096  -9.00   69.3
2024/05/06 16:46:52.000   28.332866995  -16.453988001  1209.9127   1   7   0.0046   0.0013   0.0328   0.0005   0.0031   0.0096  -8.00   67.7
2024/05/06 16:46:53.000   28.332866996  -16.453988001  1209.9132   1   7   0.0046   0.0013   0.0328   0.0005   0.0031   0.0097  -7.00   66.0
2024/05/06 16:46:54.000   28.332866998  -16.453988001  1209.9138   1   7   0.0046   0.0013   0.0329   0.0005   0.0031   0.0097  -6.00   64.0
2024/05/06 16:46:55.000   28.332866999  -16.453988002  1209.9145   1   7   0.0047   0.0013   0.0331   0.0005   0.0031   0.0098  -5.00   61.7
2024/05/06 16:46:56.000   28.332867002  -16.453988002  1209.9163   1   7   0.0049   0.0013   0.0342   0.0005   0.0031   0.0105  -4.00   46.4
2024/05/06 16:46:57.000   28.332867002  -16.453988002  1209.9165   1   7   0.0049   0.0013   0.0342   0.0005   0.0031   0.0105  -3.00   40.9
2024/05/06 16:46:58.000   28.332867005  -16.453988002  1209.9185   1   7   0.0050   0.0013   0.0344   0.0005   0.0031   0.0106  -2.00  455.3
2024/05/06 16:46:59.000   28.332867005  -16.453988002  1209.9185   1   7   0.0050   0.0013   0.0345   0.0005   0.0031   0.0106  -1.00  457.9
2024/05/06 16:47:00.000   28.332866991  -16.453988002  1209.9109   1   7   0.0041   0.0013   0.0309   0.0006   0.0032   0.0084   0.00  101.8
2024/05/06 16:47:01.000   28.332866990  -16.453988001  1209.9112   1   7   0.0042   0.0013   0.0312   0.0006   0.0032   0.0086   1.00  101.1
2024/05/06 16:47:02.000   28.332866990  -16.453988001  1209.9118   1   7   0.0042   0.0013   0.0314   0.0006   0.0032   0.0087   2.00  101.0
2024/05/06 16:47:03.000   28.332866990  -16.453988001  1209.9126   1   7   0.0043   0.0013   0.0316   0.0006   0.0032   0.0088   3.00  100.6
2024/05/06 16:47:04.000   28.332866990  -16.453988000  1209.9134   1   7   0.0043   0.0013   0.0318   0.0006   0.0031   0.0090   4.00  100.1
2024/05/06 16:47:05.000   28.332866990  -16.453988000  1209.9139   1   7   0.0044   0.0013   0.0320   0.0005   0.0031   0.0091   5.00   99.7
2024/05/06 16:47:06.000   28.332866989  -16.453988000  1209.9144   1   7   0.0044   0.0013   0.0321   0.0005   0.0031   0.0091   6.00   98.9
2024/05/06 16:47:07.000   28.332866990  -16.453988000  1209.9148   1   7   0.0044   0.0013   0.0322   0.0005   0.0031   0.0092   7.00   97.8
2024/05/06 16:47:08.000   28.332866989  -16.453988000  1209.9150   1   7   0.0045   0.0013   0.0323   0.0005   0.0031   0.0093   8.00   96.6
2024/05/06 16:47:09.000   28.332866989  -16.453988000  1209.9153   1   7   0.0045   0.0013   0.0324   0.0005   0.0031   0.0093   9.00   95.4
2024/05/06 16:47:10.000   28.332866989  -16.453988000  1209.9156   1   7   0.0045   0.0013   0.0324   0.0005   0.0031   0.0094  10.00   94.2
2024/05/06 16:47:11.000   28.332866989  -16.453988000  1209.9157   1   7   0.0045   0.0013   0.0325   0.0005   0.0031   0.0094  11.00   92.9
2024/05/06 16:47:12.000   28.332866989  -16.453988000  1209.9159   1   7   0.0045   0.0013   0.0325   0.0005   0.0031   0.0094  12.00   91.4
2024/05/06 16:47:13.000   28.332866989  -16.453988000  1209.9161   1   7   0.0045   0.0013   0.0325   0.0005   0.0031   0.0094  13.00   90.0
2024/05/06 16:47:14.000   28.332866989  -16.453988000  1209.9163   1   7   0.0045   0.0013   0.0326   0.0005   0.0031   0.0095  14.00   88.5
2024/05/06 16:47:15.000   28.332866988  -16.453988000  1209.9164   1   7   0.0045   0.0013   0.0326   0.0005   0.0031   0.0095  15.00   87.0
2024/05/06 16:47:16.000   28.332866988  -16.453988000  1209.9165   1   7   0.0045   0.0013   0.0326   0.0005   0.0031   0.0095 -14.00   85.6
2024/05/06 16:47:17.000   28.332866988  -16.453988000  1209.9167   1   7   0.0046   0.0013   0.0326   0.0005   0.0031   0.0095 -13.00   84.1
2024/05/06 16:47:18.000   28.332866988  -16.453987999  1209.9169   1   7   0.0046   0.0013   0.0326   0.0005   0.0031   0.0095 -12.00   82.5
2024/05/06 16:47:19.000   28.332866988  -16.453987999  1209.9171   1   7   0.0046   0.0013   0.0327   0.0005   0.0031   0.0096 -11.00   80.9
2024/05/06 16:47:20.000   28.332866988  -16.453987999  1209.9173   1   7   0.0046   0.0013   0.0327   0.0005   0.0031   0.0096 -10.00   79.2
2024/05/06 16:47:21.000   28.332866988  -16.453987999  1209.9175   1   7   0.0046   0.0013   0.0328   0.0005   0.0031   0.0096  -9.00   77.5
2024/05/06 16:47:22.000   28.332866988  -16.453987999  1209.9178   1   7   0.0046   0.0013   0.0328   0.0005   0.0031   0.0097  -8.00   75.5
2024/05/06 16:47:23.000   28.332866988  -16.453987999  1209.9181   1   7   0.0046   0.0013   0.0329   0.0005   0.0031   0.0097  -7.00   73.5
2024/05/06 16:47:24.000   28.332866988  -16.453987999  1209.9186   1   7   0.0047   0.0013   0.0330   0.0005   0.0031   0.0098  -6.00   71.3
2024/05/06 16:47:25.000   28.332866988  -16.453987998  1209.9191   1   7   0.0047   0.0013   0.0331   0.0005   0.0031   0.0099  -5.00   68.5
2024/05/06 16:47:26.000   28.332866989  -16.453987998  1209.9196   1   7   0.0049   0.0013   0.0343   0.0005   0.0031   0.0105  -4.00   51.1
2024/05/06 16:47:27.000   28.332866988  -16.453987998  1209.9201   1   7   0.0050   0.0013   0.0343   0.0005   0.0031   0.0106  -3.00   45.0
2024/05/06 16:47:28.000   28.332866992  -16.453987998  1209.9225   1   7   0.0050   0.0013   0.0345   0.0005   0.0031   0.0107  -2.00  481.2
2024/05/06 16:47:29.000   28.332866991  -16.453987997  1209.9228   1   7   0.0050   0.0013   0.0346   0.0005   0.0031   0.0107  -1.00  480.8
2024/05/06 16:47:30.000   28.332866978  -16.453987997  1209.9163   1   7   0.0042   0.0013   0.0309   0.0006   0.0031   0.0085   0.00  107.5
2024/05/06 16:47:31.000   28.332866978  -16.453987997  1209.9178   1   7   0.0042   0.0013   0.0312   0.0006   0.0031   0.0086   1.00  106.3
2024/05/06 16:47:32.000   28.332866978  -16.453987996  1209.9183   1   7   0.0043   0.0013   0.0314   0.0005   0.0031   0.0087   2.00  104.6
2024/05/06 16:47:33.000   28.332866978  -16.453987996  1209.9192   1   7   0.0043   0.0013   0.0316   0.0005   0.0031   0.0089   3.00  102.9
2024/05/06 16:47:34.000   28.332866978  -16.453987995  1209.9199   1   7   0.0044   0.0013   0.0318   0.0005   0.0031   0.0090   4.00  100.9
2024/05/06 16:47:35.000   28.332866978  -16.453987995  1209.9207   1   7   0.0044   0.0013   0.0320   0.0005   0.0031   0.0091   5.00   99.3
2024/05/06 16:47:36.000   28.332866979  -16.453987995  1209.9213   1   7   0.0044   0.0013   0.0321   0.0005   0.0031   0.0092   6.00   97.6
2024/05/06 16:47:37.000   28.332866979  -16.453987995  1209.9217   1   7   0.0045   0.0013   0.0322   0.0005   0.0031   0.0093   7.00   96.2
2024/05/06 16:47:38.000   28.332866979  -16.453987995  1209.9222   1   7   0.0045   0.0013   0.0323   0.0005   0.0031   0.0093   8.00   94.7
2024/05/06 16:47:39.000   28.332866979  -16.453987994  1209.9226   1   7   0.0045   0.0013   0.0324   0.0005   0.0031   0.0094   9.00   93.2
2024/05/06 16:47:40.000   28.332866979  -16.453987994  1209.9229   1   7   0.0045   0.0013   0.0325   0.0005   0.0031   0.0094  10.00   91.7
2024/05/06 16:47:41.000   28.332866980  -16.453987994  1209.9232   1   7   0.0045   0.0013   0.0325   0.0005   0.0031   0.0094  11.00   90.2
2024/05/06 16:47:42.000   28.332866980  -16.453987994  1209.9234   1   7   0.0046   0.0013   0.0325   0.0005   0.0031   0.0095  12.00   88.7
2024/05/06 16:47:43.000   28.332866980  -16.453987994  1209.9237   1   7   0.0046   0.0013   0.0326   0.0005   0.0031   0.0095  13.00   87.3
2024/05/06 16:47:44.000   28.332866980  -16.453987994  1209.9239   1   7   0.0046   0.0013   0.0326   0.0005   0.0031   0.0095  14.00   86.0
2024/05/06 16:47:45.000   28.332866980  -16.453987994  1209.9242   1   7   0.0046   0.0013   0.0326   0.0005   0.0031   0.0095  15.00   84.6
2024/05/06 16:47:46.000   28.332866981  -16.453987994  1209.9244   1   7   0.0046   0.0013   0.0326   0.0005   0.0031   0.0096 -14.00   83.3
2024/05/06 16:47:47.000   28.332866981  -16.453987994  1209.9246   1   7   0.0046   0.0013   0.0327   0.0005   0.0031   0.0096 -13.00   81.9
2024/05/06 16:47:48.000   28.332866981  -16.453987994  1209.9248   1   7   0.0046   0.0013   0.0327   0.0005   0.0031   0.0096 -12.00   80.5
2024/05/06 16:47:49.000   28.332866981  -16.453987994  1209.9250   1   7   0.0046   0.0013   0.0327   0.0005   0.0031   0.0096 -11.00   79.2
2024/05/06 16:47:50.000   28.332866982  -16.453987994  1209.9253   1   7   0.0046   0.0013   0.0328   0.0005   0.0031   0.0097 -10.00   77.7
2024/05/06 16:47:51.000   28.332866982  -16.453987994  1209.9254   1   7   0.0046   0.0013   0.0328   0.0005   0.0031   0.0097  -9.00   76.2
2024/05/06 16:47:52.000   28.332866983  -16.453987994  1209.9257   1   7   0.0047   0.0013   0.0329   0.0005   0.0031   0.0097  -8.00   74.5
2024/05/06 16:47:53.000   28.332866983  -16.453987994  1209.9259   1   7   0.0047   0.0013   0.0329   0.0005   0.0031   0.0098  -7.00   72.7
2024/05/06 16:47:54.000   28.332866984  -16.453987993  1209.9263   1   7   0.0047   0.0013   0.0331   0.0005   0.0031   0.0099  -6.00   70.9
2024/05/06 16:47:55.000   28.332866985  -16.453987993  1209.9267   1   7   0.0047   0.0013   0.0332   0.0005   0.0031   0.0100  -5.00   68.5
2024/05/06 16:47:56.000   28.332866983  -16.453987993  1209.9255   1   7   0.0050   0.0013   0.0344   0.0005   0.0031   0.0106  -4.00   52.1
2024/05/06 16:47:57.000   28.332866984  -16.453987993  1209.9257   1   7   0.0050   0.0013   0.0344   0.0005   0.0031   0.0107  -3.00   46.3
2024/05/06 16:47:58.000   28.332866988  -16.453987993  1209.9275   1   7   0.0051   0.0013   0.0347   0.0005   0.0031   0.0108  -2.00  477.0
2024/05/06 16:47:59.000   28.332866988  -16.453987993  1209.9273   1   7   0.0051   0.0013   0.0347   0.0005   0.0031   0.0108  -1.00  478.2
2024/05/06 16:48:00.000   28.332866993  -16.453987993  1209.9300   1   7   0.0042   0.0013   0.0310   0.0005   0.0031   0.0085   0.00  114.5
2024/05/06 16:48:01.000   28.332866994  -16.453987992  1209.9306   1   7   0.0042   0.0013   0.0312   0.0005   0.0031   0.0086   1.00  113.0
2024/05/06 16:48:02.000   28.332866994  -16.453987992  1209.9307   1   7   0.0043   0.0013   0.0314   0.0005   0.0031   0.0088   2.00  111.0
2024/05/06 16:48:03.000   28.332866995  -16.453987992  1209.9311   1   7   0.0044   0.0013   0.0317   0.0005   0.0031   0.0089   3.00  109.3
2024/05/06 16:48:04.000   28.332866996  -16.453987992  1209.9313   1   7   0.0044   0.0013   0.0319   0.0005   0.0031   0.0090   4.00  107.6
2024/05/06 16:48:05.000   28.332866996  -16.453987992  1209.9312   1   7   0.0044   0.0013   0.0320   0.0005   0.0031   0.0091   5.00  105.6
2024/05/06 16:48:06.000   28.332866996  -16.453987992  1209.9312   1   7   0.0045   0.0013   0.0322   0.0005   0.0031   0.0092   6.00  103.9
2024/05/06 16:48:07.000   28.332866997  -16.453987992  1209.9315   1   7   0.0045   0.0013   0.0323   0.0005   0.0031   0.0093   7.00  102.3
2024/05/06 16:48:08.000   28.332866998  -16.453987992  1209.9317   1   7   0.0045   0.0013   0.0324   0.0005   0.0031   0.0094   8.00  100.5
2024/05/06 16:48:09.000   28.332866998  -16.453987992  1209.9320   1   7   0.0046   0.0013   0.0324   0.0005   0.0031   0.0094   9.00   98.8
2024/05/06 16:48:10.000   28.332866998  -16.453987992  1209.9321   1   7   0.0046   0.0013   0.0325   0.0005   0.0031   0.0095  10.00   97.0
2024/05/06 16:48:11.000   28.332866999  -16.453987992  1209.9322   1   7   0.0046   0.0013   0.0326   0.0005   0.0031   0.0095  11.00   95.4
2024/05/06 16:48:12.000   28.332866999  -16.453987992  1209.9323   1   7   0.0046   0.0013   0.0326   0.0005   0.0031   0.0095  12.00   93.8
2024/05/06 16:48:13.000   28.332866999  -16.453987992  1209.9325   1   7   0.0046   0.0013   0.0326   0.0005   0.0031   0.0096  13.00   92.2
2024/05/06 16:48:14.000   28.332867000  -16.453987992  1209.9326   1   7   0.0046   0.0013   0.0327   0.0005   0.0031   0.0096  14.00   90.6
2024/05/06 16:48:15.000   28.332867000  -16.453987992  1209.9326   1   7   0.0046   0.0013   0.0327   0.0005   0.0031   0.0096  15.00   89.1
2024/05/06 16:48:16.000   28.332867000  -16.453987992  1209.9327   1   7   0.0046   0.0013   0.0327   0.0005   0.0031   0.0096 -14.00   87.6
2024/05/06 16:48:17.000   28.332867000  -16.453987992  1209.9328   1   7   0.0046   0.0013   0.0327   0.0005   0.0031   0.0096 -13.00   86.1
2024/05/06 16:48:18.000   28.332867000  -16.453987992  1209.9329   1   7   0.0046   0.0013   0.0327   0.0005   0.0031   0.0097 -12.00   84.5
2024/05/06 16:48:19.000   28.332867000  -16.453987992  1209.9330   1   7   0.0047   0.0013   0.0328   0.0005   0.0031   0.0097 -11.00   82.9
2024/05/06 16:48:20.000   28.332867001  -16.453987992  1209.9332   1   7   0.0047   0.0013   0.0328   0.0005   0.0031   0.0097 -10.00   81.2
2024/05/06 16:48:21.000   28.332867001  -16.453987992  1209.9333   1   7   0.0047   0.0013   0.0329   0.0005   0.0031   0.0098  -9.00   79.5
2024/05/06 16:48:22.000   28.332867001  -16.453987992  1209.9333   1   7   0.0047   0.0013   0.0329   0.0005   0.0031   0.0098  -8.00   77.6
2024/05/06 16:48:23.000   28.332867001  -16.453987992  1209.9333   1   7   0.0047   0.0013   0.0330   0.0005   0.0031   0.0099  -7.00   75.5
2024/05/06 16:48:24.000   28.332867000  -16.453987992  1209.9332   1   7   0.0048   0.0013   0.0331   0.0005   0.0031   0.0099  -6.00   73.3
2024/05/06 16:48:25.000   28.332867000  -16.453987992  1209.9329   1   7   0.0048   0.0013   0.0333   0.0005   0.0031   0.0100  -5.00   70.5
2024/05/06 16:48:26.000   28.332866992  -16.453987991  1209.9280   1   7   0.0051   0.0013   0.0345   0.0005   0.0030   0.0107  -4.00   55.0
2024/05/06 16:48:27.000   28.332866992  -16.453987991  1209.9283   1   7   0.0051   0.0013   0.0345   0.0005   0.0030   0.0108  -3.00   49.1
2024/05/06 16:48:28.000   28.332866993  -16.453987991  1209.9296   1   7   0.0052   0.0013   0.0348   0.0005   0.0030   0.0109  -2.00  481.7
2024/05/06 16:48:29.000   28.332866992  -16.453987990  1209.9297   1   7   0.0052   0.0013   0.0348   0.0005   0.0030   0.0109  -1.00  486.2
2024/05/06 16:48:30.000   28.332867002  -16.453987990  1209.9369   1   7   0.0042   0.0013   0.0310   0.0005   0.0031   0.0085   0.00  121.3
2024/05/06 16:48:31.000   28.332867001  -16.453987989  1209.9366   1   7   0.0043   0.0013   0.0312   0.0005   0.0031   0.0087   1.00  120.1
2024/05/06 16:48:32.000   28.332866999  -16.453987989  1209.9361   1   7   0.0043   0.0013   0.0315   0.0005   0.0031   0.0088   2.00  119.2
2024/05/06 16:48:33.000   28.332866998  -16.453987988  1209.9358   1   7   0.0044   0.0013   0.0317   0.0005   0.0031   0.0090   3.00  117.9
2024/05/06 16:48:34.000   28.332866996  -16.453987988  1209.9353   1   7   0.0044   0.0013   0.0319   0.0005   0.0031   0.0091   4.00  116.8
2024/05/06 16:48:35.000   28.332866995  -16.453987988  1209.9353   1   7   0.0045   0.0013   0.0321   0.0005   0.0031   0.0092   5.00  115.7
2024/05/06 16:48:36.000   28.332866994  -16.453987987  1209.9349   1   7   0.0045   0.0013   0.0322   0.0005   0.0031   0.0093   6.00  114.5
2024/05/06 16:48:37.000   28.332866993  -16.453987987  1209.9345   1   7   0.0045   0.0013   0.0323   0.0005   0.0031   0.0094   7.00  113.2
2024/05/06 16:48:38.000   28.332866992  -16.453987987  1209.9344   1   7   0.0046   0.0013   0.0324   0.0005   0.0031   0.0094   8.00  111.8
2024/05/06 16:48:39.000   28.332866991  -16.453987987  1209.9341   1   7   0.0046   0.0013   0.0325   0.0005   0.0031   0.0095   9.00  110.5
2024/05/06 16:48:40.000   28.332866990  -16.453987987  1209.9341   1   7   0.0046   0.0013   0.0326   0.0005   0.0031   0.0095  10.00  109.2
2024/05/06 16:48:41.000   28.332866990  -16.453987987  1209.9338   1   7   0.0046   0.0013   0.0326   0.0005   0.0031   0.0096  11.00  107.5
2024/05/06 16:48:42.000   28.332866989  -16.453987987  1209.9338   1   7   0.0046   0.0013   0.0327   0.0005   0.0031   0.0096  12.00  105.8
2024/05/06 16:48:43.000   28.332866989  -16.453987987  1209.9337   1   7   0.0047   0.0013   0.0327   0.0005   0.0031   0.0096  13.00  104.1
2024/05/06 16:48:44.000   28.332866989  -16.453987987  1209.9336   1   7   0.0047   0.0013   0.0327   0.0005   0.0031   0.0096  14.00  102.5
2024/05/06 16:48:45.000   28.332866989  -16.453987986  1209.9336   1   7   0.0047   0.0013   0.0327   0.0005   0.0031   0.0097  15.00  100.8
2024/05/06 16:48:46.000   28.332866988  -16.453987986  1209.9335   1   7   0.0047   0.0013   0.0328   0.0005   0.0031   0.0097 -14.00   99.1
2024/05/06 16:48:47.000   28.332866988  -16.453987986  1209.9334   1   7   0.0047   0.0013   0.0328   0.0005   0.0031   0.0097 -13.00   97.3
2024/05/06 16:48:48.000   28.332866988  -16.453987986  1209.9334   1   7   0.0047   0.0013   0.0328   0.0005   0.0031   0.0097 -12.00   95.6
2024/05/06 16:48:49.000   28.332866988  -16.453987986  1209.9334   1   7   0.0047   0.0013   0.0328   0.0005   0.0031   0.0098 -11.00   93.6
2024/05/06 16:48:50.000   28.332866988  -16.453987986  1209.9333   1   7   0.0047   0.0013   0.0329   0.0005   0.0031   0.0098 -10.00   91.6
2024/05/06 16:48:51.000   28.332866988  -16.453987986  1209.9331   1   7   0.0047   0.0013   0.0329   0.0005   0.0031   0.0098  -9.00   89.5
2024/05/06 16:48:52.000   28.332866987  -16.453987986  1209.9330   1   7   0.0048   0.0013   0.0330   0.0005   0.0031   0.0099  -8.00   87.3
2024/05/06 16:48:53.000   28.332866987  -16.453987986  1209.9327   1   7   0.0048   0.0013   0.0331   0.0005   0.0031   0.0099  -7.00   85.0
2024/05/06 16:48:54.000   28.332866987  -16.453987986  1209.9324   1   7   0.0048   0.0013   0.0332   0.0005   0.0031   0.0100  -6.00   81.8
2024/05/06 16:48:55.000   28.332866986  -16.453987986  1209.9320   1   7   0.0048   0.0013   0.0333   0.0005   0.0031   0.0101  -5.00   78.7
2024/05/06 16:48:56.000   28.332866981  -16.453987986  1209.9284   1   7   0.0051   0.0013   0.0346   0.0005   0.0030   0.0108  -4.00   60.5
2024/05/06 16:48:57.000   28.332866982  -16.453987986  1209.9284   1   7   0.0051   0.0013   0.0346   0.0005   0.0030   0.0109  -3.00   53.7
2024/05/06 16:48:58.000   28.332866986  -16.453987986  1209.9305   1   7   0.0052   0.0013   0.0349   0.0004   0.0030   0.0110  -2.00  516.7
2024/05/06 16:48:59.000   28.332866987  -16.453987986  1209.9305   1   7   0.0052   0.0013   0.0349   0.0004   0.0030   0.0111  -1.00  521.3
2024/05/06 16:49:00.000   28.332867003  -16.453987986  1209.9396   1   7   0.0042   0.0013   0.0310   0.0005   0.0031   0.0086   0.00  133.2
2024/05/06 16:49:01.000   28.332867002  -16.453987986  1209.9386   1   7   0.0043   0.0013   0.0313   0.0005   0.0031   0.0087   1.00  132.1
2024/05/06 16:49:02.000   28.332867002  -16.453987986  1209.9384   1   7   0.0044   0.0013   0.0315   0.0005   0.0031   0.0089   2.00  131.0
2024/05/06 16:49:03.000   28.332867002  -16.453987986  1209.9381   1   7   0.0044   0.0013   0.0318   0.0005   0.0031   0.0090   3.00  129.9
2024/05/06 16:49:04.000   28.332867002  -16.453987986  1209.9381   1   7   0.0045   0.0013   0.0320   0.0005   0.0031   0.0091   4.00  128.5
2024/05/06 16:49:05.000   28.332867002  -16.453987986  1209.9380   1   7   0.0045   0.0013   0.0321   0.0005   0.0031   0.0093   5.00  127.1
2024/05/06 16:49:06.000   28.332867002  -16.453987986  1209.9377   1   7   0.0046   0.0013   0.0323   0.0005   0.0031   0.0093   6.00  126.0
2024/05/06 16:49:07.000   28.332867002  -16.453987986  1209.9372   1   7   0.0046   0.0013   0.0324   0.0005   0.0031   0.0094   7.00  124.7
2024/05/06 16:49:08.000   28.332867001  -16.453987986  1209.9367   1   7   0.0046   0.0013   0.0325   0.0005   0.0031   0.0095   8.00  123.3
2024/05/06 16:49:09.000   28.332867001  -16.453987986  1209.9366   1   7   0.0046   0.0013   0.0326   0.0005   0.0031   0.0095   9.00  121.9
2024/05/06 16:49:10.000   28.332867001  -16.453987986  1209.9365   1   7   0.0047   0.0013   0.0326   0.0005   0.0031   0.0096  10.00  120.5
2024/05/06 16:49:11.000   28.332867000  -16.453987986  1209.9363   1   7   0.0047   0.0013   0.0327   0.0005   0.0031   0.0096  11.00  118.9
2024/05/06 16:49:12.000   28.332867000  -16.453987986  1209.9361   1   7   0.0047   0.0013   0.0327   0.0005   0.0031   0.0097  12.00  117.4
2024/05/06 16:49:13.000   28.332866999  -16.453987986  1209.9360   1   7   0.0047   0.0013   0.0328   0.0005   0.0031   0.0097  13.00  115.9
2024/05/06 16:49:14.000   28.332866999  -16.453987986  1209.9359   1   7   0.0047   0.0013   0.0328   0.0005   0.0031   0.0097  14.00  114.3
2024/05/06 16:49:15.000   28.332866999  -16.453987986  1209.9358   1   7   0.0047   0.0013   0.0328   0.0005   0.0031   0.0097  15.00  112.7
2024/05/06 16:49:16.000   28.332866999  -16.453987986  1209.9357   1   7   0.0047   0.0013   0.0328   0.0005   0.0031   0.0098 -14.00  111.0
2024/05/06 16:49:17.000   28.332866999  -16.453987986  1209.9357   1   7   0.0047   0.0013   0.0329   0.0005   0.0031   0.0098 -13.00  109.3
2024/05/06 16:49:18.000   28.332866998  -16.453987986  1209.9356   1   7   0.0047   0.0013   0.0329   0.0005   0.0031   0.0098 -12.00  107.6
2024/05/06 16:49:19.000   28.332866998  -16.453987986  1209.9355   1   7   0.0047   0.0013   0.0329   0.0005   0.0031   0.0098 -11.00  105.8
2024/05/06 16:49:20.000   28.332866998  -16.453987986  1209.9353   1   7   0.0048   0.0013   0.0330   0.0005   0.0031   0.0099 -10.00  103.8
2024/05/06 16:49:21.000   28.332866998  -16.453987986  1209.9351   1   7   0.0048   0.0013   0.0330   0.0005   0.0031   0.0099  -9.00  101.8
2024/05/06 16:49:22.000   28.332866997  -16.453987986  1209.9347   1   7   0.0048   0.0013   0.0331   0.0005   0.0031   0.0100  -8.00   99.8
2024/05/06 16:49:23.000   28.332866997  -16.453987986  1209.9344   1   7   0.0048   0.0013   0.0332   0.0005   0.0031   0.0100  -7.00   97.4
2024/05/06 16:49:24.000   28.332866996  -16.453987986  1209.9339   1   7   0.0049   0.0013   0.0333   0.0005   0.0031   0.0101  -6.00   94.5
2024/05/06 16:49:25.000   28.332866995  -16.453987986  1209.9334   1   7   0.0049   0.0013   0.0334   0.0005   0.0031   0.0102  -5.00   91.0
2024/05/06 16:49:26.000   28.332866988  -16.453987985  1209.9290   1   7   0.0052   0.0013   0.0347   0.0004   0.0030   0.0109  -4.00   70.0
2024/05/06 16:49:27.000   28.332866989  -16.453987985  1209.9291   1   7   0.0052   0.0013   0.0348   0.0004   0.0030   0.0110  -3.00   61.7
2024/05/06 16:49:28.000   28.332866992  -16.453987985  1209.9306   1   7   0.0053   0.0013   0.0351   0.0004   0.0030   0.0112  -2.00  565.6
2024/05/06 16:49:29.000   28.332866992  -16.453987985  1209.9303   1   7   0.0053   0.0013   0.0351   0.0004   0.0030   0.0112  -1.00  570.3
2024/05/06 16:49:30.000   28.332867005  -16.453987985  1209.9377   1   7   0.0043   0.0013   0.0311   0.0005   0.0031   0.0086   0.00  156.3
2024/05/06 16:49:31.000   28.332867006  -16.453987985  1209.9378   1   7   0.0043   0.0013   0.0313   0.0005   0.0031   0.0088   1.00  155.1
2024/05/06 16:49:32.000   28.332867005  -16.453987985  1209.9369   1   7   0.0044   0.0013   0.0316   0.0005   0.0031   0.0089   2.00  153.1
2024/05/06 16:49:33.000   28.332867005  -16.453987985  1209.9366   1   7   0.0045   0.0013   0.0318   0.0005   0.0031   0.0091   3.00  150.9
2024/05/06 16:49:34.000   28.332867006  -16.453987985  1209.9365   1   7   0.0045   0.0013   0.0320   0.0005   0.0031   0.0092   4.00  148.4
