% program   : RTKPOST-EX 2.5.0
% inp file  : C:\Users\SallyHenry\Desktop\Sally Internship\GNSS gravi\DATA\Survey Rover Obs\GUI03.24o
% inp file  : C:\Users\SallyHenry\Desktop\Sally Internship\GNSS gravi\DATA\BaseStations\TN01\TN0100ESP_R_20241270000_01D_30S_MO.rnx
% inp file  : C:\Users\SallyHenry\Desktop\Sally Internship\GNSS gravi\DATA\BaseStations\TN01\TN0100ESP_R_20241270000_01D_MN.rnx
% inp file  : C:\Users\SallyHenry\Desktop\Sally Internship\GNSS gravi\DATA\aux_files\Survey\IGS0OPSFIN_20241270000_01D_15M_ORB.SP3
% inp file  : C:\Users\SallyHenry\Desktop\Sally Internship\GNSS gravi\DATA\aux_files\Survey\IGS0OPSFIN_20241270000_01D_30S_CLK.CLK
% obs start : 2024/05/06 13:46:16.0 GPST (week2313 135976.0s)
% obs end   : 2024/05/06 14:01:17.0 GPST (week2313 136877.0s)
% pos mode  : Static
% freqs     : L1+L2/E5b
% solution  : Combined-No Phase Reset
% elev mask : 15.0 deg
% dynamics  : on
% tidecorr  : solid
% ionos opt : Estimate TEC
% tropo opt : Estimate ZTD+Grad
% ephemeris : Precise
% navi sys  : GPS GLONASS Galileo QZSS BDS
% amb res   : Fix and Hold
% amb glo   : Fix and Hold
% amb bds   : on
% val thres : 3.0
% antenna1  :                       ( 0.0000  0.0000  1.8000)
% antenna2  :                       ( 0.0000  0.0000  0.0771)
% ref pos   :  28.477186930  -16.241151700    51.7531
%
% (lat/lon/height=WGS84/ellipsoidal,Q=1:fix,2:float,3:sbas,4:dgps,5:single,6:ppp,ns=# of satellites)
%  GPST                  latitude(deg) longitude(deg)  height(m)   Q  ns   sdn(m)   sde(m)   sdu(m)  sdne(m)  sdeu(m)  sdun(m) age(s)  ratio
2024/05/06 13:46:16.000   28.318723485  -16.447785454  1068.9577   2   7   0.0189   0.0665   0.1227   0.0141   0.0087  -0.0353 -14.00    0.0
2024/05/06 13:46:17.000   28.318723485  -16.447785444  1068.9566   2   7   0.0189   0.0664   0.1227   0.0141   0.0090  -0.0353 -13.00    0.0
2024/05/06 13:46:19.000   28.318723486  -16.447785431  1068.9551   2   7   0.0189   0.0663   0.1227   0.0140   0.0092  -0.0353 -11.00    0.0
2024/05/06 13:46:20.000   28.318723486  -16.447785420  1068.9541   2   7   0.0189   0.0663   0.1227   0.0140   0.0094  -0.0353 -10.00    0.0
2024/05/06 13:46:21.000   28.318723486  -16.447785409  1068.9528   2   7   0.0190   0.0662   0.1227   0.0140   0.0096  -0.0353  -9.00    0.0
2024/05/06 13:46:22.000   28.318723485  -16.447785404  1068.9521   2   7   0.0190   0.0661   0.1227   0.0140   0.0098  -0.0353  -8.00    0.0
2024/05/06 13:46:23.000   28.318723483  -16.447785396  1068.9512   2   7   0.0190   0.0661   0.1228   0.0139   0.0099  -0.0353  -7.00    0.0
2024/05/06 13:46:24.000   28.318723481  -16.447785389  1068.9506   2   7   0.0190   0.0660   0.1228   0.0139   0.0101  -0.0353  -6.00    0.0
2024/05/06 13:46:25.000   28.318723479  -16.447785383  1068.9499   2   7   0.0190   0.0660   0.1229   0.0139   0.0103  -0.0353  -5.00    0.0
2024/05/06 13:46:26.000   28.318723476  -16.447785376  1068.9487   2   7   0.0190   0.0659   0.1229   0.0138   0.0104  -0.0354  -4.00    0.0
2024/05/06 13:46:27.000   28.318723472  -16.447785375  1068.9475   2   7   0.0190   0.0659   0.1230   0.0138   0.0106  -0.0354  -3.00    0.0
2024/05/06 13:46:28.000   28.318723467  -16.447785376  1068.9466   2   7   0.0190   0.0659   0.1232   0.0138   0.0108  -0.0354  -2.00    0.0
2024/05/06 13:46:29.000   28.318723461  -16.447785378  1068.9465   2   7   0.0190   0.0659   0.1233   0.0138   0.0110  -0.0355  -1.00    0.0
2024/05/06 13:46:30.000   28.318723453  -16.447785372  1068.9470   2   7   0.0191   0.0658   0.1235   0.0137   0.0112  -0.0355   0.00    0.0
2024/05/06 13:46:31.000   28.318723447  -16.447785378  1068.9453   2   7   0.0191   0.0658   0.1237   0.0137   0.0114  -0.0356   1.00    0.0
2024/05/06 13:46:32.000   28.318723443  -16.447785382  1068.9438   2   7   0.0191   0.0658   0.1239   0.0137   0.0116  -0.0356   2.00    0.0
2024/05/06 13:46:33.000   28.318723441  -16.447785380  1068.9436   2   7   0.0192   0.0658   0.1240   0.0136   0.0118  -0.0357   3.00    0.0
2024/05/06 13:46:34.000   28.318723441  -16.447785377  1068.9438   2   7   0.0192   0.0658   0.1242   0.0136   0.0120  -0.0357   4.00    0.0
2024/05/06 13:46:35.000   28.318723442  -16.447785370  1068.9451   2   7   0.0192   0.0657   0.1243   0.0136   0.0121  -0.0358   5.00    0.0
2024/05/06 13:46:36.000   28.318723442  -16.447785363  1068.9460   2   7   0.0192   0.0657   0.1244   0.0136   0.0123  -0.0358   6.00    0.0
2024/05/06 13:46:37.000   28.318723441  -16.447785362  1068.9472   2   7   0.0192   0.0657   0.1244   0.0135   0.0124  -0.0358   7.00    0.0
2024/05/06 13:46:38.000   28.318723441  -16.447785360  1068.9476   2   7   0.0192   0.0656   0.1245   0.0135   0.0125  -0.0358   8.00    0.0
2024/05/06 13:46:39.000   28.318723441  -16.447785353  1068.9485   2   7   0.0192   0.0656   0.1245   0.0135   0.0126  -0.0358   9.00    0.0
2024/05/06 13:46:40.000   28.318723440  -16.447785350  1068.9492   2   7   0.0192   0.0656   0.1246   0.0135   0.0127  -0.0358  10.00    0.0
2024/05/06 13:46:41.000   28.318723440  -16.447785351  1068.9496   2   7   0.0192   0.0655   0.1246   0.0135   0.0128  -0.0358  11.00    0.0
2024/05/06 13:46:42.000   28.318723440  -16.447785352  1068.9502   2   7   0.0192   0.0655   0.1246   0.0134   0.0129  -0.0358  12.00    0.0
2024/05/06 13:46:43.000   28.318723440  -16.447785352  1068.9507   2   7   0.0192   0.0654   0.1246   0.0134   0.0129  -0.0358  13.00    0.0
2024/05/06 13:46:44.000   28.318723439  -16.447785355  1068.9513   2   7   0.0193   0.0654   0.1246   0.0134   0.0130  -0.0358  14.00    0.0
2024/05/06 13:46:45.000   28.318723439  -16.447785354  1068.9518   2   7   0.0193   0.0654   0.1246   0.0134   0.0131  -0.0358 -15.00    0.0
2024/05/06 13:46:46.000   28.318723439  -16.447785355  1068.9525   2   7   0.0193   0.0653   0.1247   0.0134   0.0132  -0.0358 -14.00    0.0
2024/05/06 13:46:47.000   28.318723438  -16.447785357  1068.9530   2   7   0.0193   0.0653   0.1247   0.0133   0.0132  -0.0358 -13.00    0.0
2024/05/06 13:46:48.000   28.318723438  -16.447785357  1068.9536   2   7   0.0193   0.0652   0.1247   0.0133   0.0133  -0.0358 -12.00    0.0
2024/05/06 13:46:49.000   28.318723438  -16.447785358  1068.9543   2   7   0.0193   0.0652   0.1247   0.0133   0.0134  -0.0359 -11.00    0.0
2024/05/06 13:46:50.000   28.318723437  -16.447785362  1068.9552   2   7   0.0193   0.0652   0.1247   0.0133   0.0134  -0.0359 -10.00    0.0
2024/05/06 13:46:51.000   28.318723437  -16.447785364  1068.9561   2   7   0.0193   0.0651   0.1248   0.0133   0.0135  -0.0359  -9.00    0.0
2024/05/06 13:46:52.000   28.318723436  -16.447785368  1068.9571   2   7   0.0193   0.0651   0.1248   0.0133   0.0136  -0.0359  -8.00    0.0
2024/05/06 13:46:53.000   28.318723435  -16.447785370  1068.9581   2   7   0.0193   0.0651   0.1248   0.0132   0.0136  -0.0359  -7.00    0.0
2024/05/06 13:46:54.000   28.318723434  -16.447785372  1068.9593   2   7   0.0193   0.0650   0.1249   0.0132   0.0137  -0.0359  -6.00    0.0
2024/05/06 13:46:55.000   28.318723433  -16.447785373  1068.9605   2   7   0.0193   0.0650   0.1249   0.0132   0.0138  -0.0359  -5.00    0.0
2024/05/06 13:46:56.000   28.318723431  -16.447785374  1068.9620   2   7   0.0193   0.0650   0.1250   0.0132   0.0138  -0.0359  -4.00    0.0
2024/05/06 13:46:57.000   28.318723430  -16.447785375  1068.9631   2   7   0.0193   0.0650   0.1251   0.0132   0.0139  -0.0360  -3.00    0.0
2024/05/06 13:46:58.000   28.318723427  -16.447785378  1068.9649   2   7   0.0193   0.0650   0.1252   0.0132   0.0140  -0.0360  -2.00    0.0
2024/05/06 13:46:59.000   28.318723425  -16.447785379  1068.9668   2   7   0.0194   0.0649   0.1254   0.0131   0.0141  -0.0360  -1.00    0.0
2024/05/06 13:47:00.000   28.318723423  -16.447785378  1068.9690   2   7   0.0194   0.0650   0.1256   0.0131   0.0142  -0.0361   0.00    0.0
2024/05/06 13:47:01.000   28.318723420  -16.447785380  1068.9712   2   7   0.0194   0.0650   0.1258   0.0131   0.0144  -0.0362   1.00    0.0
2024/05/06 13:47:02.000   28.318723419  -16.447785377  1068.9727   2   7   0.0195   0.0650   0.1260   0.0131   0.0145  -0.0362   2.00    0.0
2024/05/06 13:47:03.000   28.318723417  -16.447785376  1068.9745   2   7   0.0195   0.0650   0.1261   0.0130   0.0147  -0.0363   3.00    0.0
2024/05/06 13:47:04.000   28.318723414  -16.447785374  1068.9764   2   7   0.0195   0.0649   0.1263   0.0130   0.0148  -0.0363   4.00    0.0
2024/05/06 13:47:05.000   28.318723412  -16.447785372  1068.9779   2   7   0.0195   0.0649   0.1264   0.0130   0.0149  -0.0363   5.00    0.0
2024/05/06 13:47:06.000   28.318723410  -16.447785370  1068.9789   2   7   0.0195   0.0649   0.1265   0.0130   0.0150  -0.0364   6.00    0.0
2024/05/06 13:47:07.000   28.318723409  -16.447785370  1068.9794   2   7   0.0196   0.0649   0.1266   0.0130   0.0150  -0.0364   7.00    0.0
2024/05/06 13:47:08.000   28.318723408  -16.447785371  1068.9799   2   7   0.0196   0.0649   0.1266   0.0130   0.0151  -0.0364   8.00    0.0
2024/05/06 13:47:09.000   28.318723408  -16.447785372  1068.9803   2   7   0.0196   0.0649   0.1267   0.0129   0.0152  -0.0364   9.00    0.0
2024/05/06 13:47:10.000   28.318723407  -16.447785372  1068.9806   2   7   0.0196   0.0648   0.1267   0.0129   0.0152  -0.0364  10.00    0.0
2024/05/06 13:47:11.000   28.318723406  -16.447785374  1068.9810   2   7   0.0196   0.0648   0.1267   0.0129   0.0153  -0.0364  11.00    0.0
2024/05/06 13:47:12.000   28.318723405  -16.447785375  1068.9813   2   7   0.0196   0.0648   0.1268   0.0129   0.0153  -0.0364  12.00    0.0
2024/05/06 13:47:13.000   28.318723405  -16.447785378  1068.9816   2   7   0.0196   0.0648   0.1268   0.0129   0.0154  -0.0364  13.00    0.0
2024/05/06 13:47:14.000   28.318723404  -16.447785381  1068.9819   2   7   0.0196   0.0647   0.1268   0.0129   0.0154  -0.0364  14.00    0.0
2024/05/06 13:47:15.000   28.318723404  -16.447785382  1068.9822   2   7   0.0196   0.0647   0.1268   0.0129   0.0154  -0.0364 -15.00    0.0
2024/05/06 13:47:16.000   28.318723403  -16.447785384  1068.9828   2   7   0.0196   0.0647   0.1268   0.0128   0.0155  -0.0364 -14.00    0.0
2024/05/06 13:47:17.000   28.318723402  -16.447785386  1068.9834   2   7   0.0196   0.0647   0.1268   0.0128   0.0155  -0.0364 -13.00    0.0
2024/05/06 13:47:18.000   28.318723402  -16.447785385  1068.9839   2   7   0.0196   0.0646   0.1269   0.0128   0.0156  -0.0364 -12.00    0.0
2024/05/06 13:47:19.000   28.318723402  -16.447785384  1068.9846   2   7   0.0196   0.0646   0.1269   0.0128   0.0156  -0.0364 -11.00    0.0
2024/05/06 13:47:20.000   28.318723402  -16.447785383  1068.9853   2   7   0.0196   0.0646   0.1269   0.0128   0.0156  -0.0365 -10.00    0.0
2024/05/06 13:47:21.000   28.318723401  -16.447785386  1068.9859   2   7   0.0196   0.0646   0.1269   0.0128   0.0157  -0.0365  -9.00    0.0
2024/05/06 13:47:22.000   28.318723401  -16.447785385  1068.9866   2   7   0.0196   0.0645   0.1270   0.0128   0.0157  -0.0365  -8.00    0.0
2024/05/06 13:47:23.000   28.318723400  -16.447785383  1068.9872   2   7   0.0196   0.0645   0.1270   0.0128   0.0158  -0.0365  -7.00    0.0
2024/05/06 13:47:24.000   28.318723399  -16.447785383  1068.9881   2   7   0.0196   0.0645   0.1271   0.0128   0.0158  -0.0365  -6.00    0.0
2024/05/06 13:47:25.000   28.318723399  -16.447785384  1068.9888   2   7   0.0196   0.0645   0.1271   0.0127   0.0158  -0.0365  -5.00    0.0
2024/05/06 13:47:26.000   28.318723398  -16.447785385  1068.9892   2   7   0.0196   0.0645   0.1272   0.0127   0.0159  -0.0365  -4.00    0.0
2024/05/06 13:47:27.000   28.318723398  -16.447785384  1068.9898   2   7   0.0197   0.0645   0.1273   0.0127   0.0159  -0.0366  -3.00    0.0
2024/05/06 13:47:28.000   28.318723398  -16.447785384  1068.9905   2   7   0.0197   0.0645   0.1274   0.0127   0.0160  -0.0366  -2.00    0.0
2024/05/06 13:47:29.000   28.318723397  -16.447785385  1068.9911   2   7   0.0197   0.0645   0.1276   0.0127   0.0161  -0.0366  -1.00    0.0
2024/05/06 13:47:30.000   28.318723397  -16.447785385  1068.9912   2   7   0.0197   0.0645   0.1278   0.0127   0.0162  -0.0367   0.00    0.0
2024/05/06 13:47:31.000   28.318723396  -16.447785390  1068.9920   2   7   0.0198   0.0645   0.1280   0.0127   0.0163  -0.0368   1.00    0.0
2024/05/06 13:47:32.000   28.318723395  -16.447785394  1068.9929   2   7   0.0198   0.0645   0.1281   0.0126   0.0164  -0.0368   2.00    0.0
2024/05/06 13:47:33.000   28.318723395  -16.447785396  1068.9937   2   7   0.0198   0.0645   0.1283   0.0126   0.0165  -0.0369   3.00    0.0
2024/05/06 13:47:34.000   28.318723396  -16.447785401  1068.9938   2   7   0.0199   0.0645   0.1285   0.0126   0.0166  -0.0369   4.00    0.0
2024/05/06 13:47:35.000   28.318723395  -16.447785403  1068.9946   2   7   0.0199   0.0645   0.1286   0.0126   0.0167  -0.0369   5.00    0.0
2024/05/06 13:47:36.000   28.318723394  -16.447785406  1068.9951   2   7   0.0199   0.0645   0.1287   0.0126   0.0167  -0.0370   6.00    0.0
2024/05/06 13:47:37.000   28.318723394  -16.447785407  1068.9961   2   7   0.0199   0.0645   0.1287   0.0126   0.0168  -0.0370   7.00    0.0
2024/05/06 13:47:38.000   28.318723393  -16.447785407  1068.9967   2   7   0.0199   0.0645   0.1288   0.0125   0.0168  -0.0370   8.00    0.0
2024/05/06 13:47:39.000   28.318723393  -16.447785406  1068.9968   2   7   0.0199   0.0644   0.1288   0.0125   0.0169  -0.0370   9.00    0.0
2024/05/06 13:47:40.000   28.318723393  -16.447785406  1068.9970   2   7   0.0199   0.0644   0.1289   0.0125   0.0169  -0.0370  10.00    0.0
2024/05/06 13:47:41.000   28.318723392  -16.447785407  1068.9974   2   7   0.0199   0.0644   0.1289   0.0125   0.0170  -0.0370  11.00    0.0
2024/05/06 13:47:42.000   28.318723392  -16.447785407  1068.9977   2   7   0.0199   0.0644   0.1289   0.0125   0.0170  -0.0370  12.00    0.0
2024/05/06 13:47:43.000   28.318723392  -16.447785409  1068.9982   2   7   0.0199   0.0644   0.1290   0.0125   0.0170  -0.0370  13.00    0.0
2024/05/06 13:47:44.000   28.318723392  -16.447785410  1068.9985   2   7   0.0199   0.0644   0.1290   0.0125   0.0171  -0.0370  14.00    0.0
2024/05/06 13:47:45.000   28.318723392  -16.447785409  1068.9987   2   7   0.0199   0.0643   0.1290   0.0125   0.0171  -0.0370 -15.00    0.0
2024/05/06 13:47:46.000   28.318723392  -16.447785409  1068.9989   2   7   0.0199   0.0643   0.1290   0.0125   0.0171  -0.0371 -14.00    0.0
2024/05/06 13:47:47.000   28.318723392  -16.447785410  1068.9991   2   7   0.0199   0.0643   0.1290   0.0125   0.0171  -0.0371 -13.00    0.0
2024/05/06 13:47:48.000   28.318723392  -16.447785411  1068.9994   2   7   0.0199   0.0643   0.1290   0.0125   0.0172  -0.0371 -12.00    0.0
2024/05/06 13:47:49.000   28.318723392  -16.447785411  1068.9996   2   7   0.0199   0.0643   0.1291   0.0124   0.0172  -0.0371 -11.00    0.0
2024/05/06 13:47:50.000   28.318723393  -16.447785412  1068.9998   2   7   0.0199   0.0643   0.1291   0.0124   0.0172  -0.0371 -10.00    0.0
2024/05/06 13:47:51.000   28.318723393  -16.447785412  1068.9999   2   7   0.0200   0.0642   0.1291   0.0124   0.0172  -0.0371  -9.00    0.0
2024/05/06 13:47:52.000   28.318723394  -16.447785413  1068.9996   2   7   0.0200   0.0642   0.1292   0.0124   0.0173  -0.0371  -8.00    0.0
2024/05/06 13:47:53.000   28.318723395  -16.447785412  1068.9993   2   7   0.0200   0.0642   0.1292   0.0124   0.0173  -0.0371  -7.00    0.0
2024/05/06 13:47:54.000   28.318723396  -16.447785413  1068.9991   2   7   0.0200   0.0642   0.1292   0.0124   0.0173  -0.0371  -6.00    0.0
2024/05/06 13:47:55.000   28.318723397  -16.447785413  1068.9985   2   7   0.0200   0.0642   0.1293   0.0124   0.0174  -0.0371  -5.00    0.0
2024/05/06 13:47:56.000   28.318723398  -16.447785414  1068.9973   2   7   0.0200   0.0642   0.1294   0.0124   0.0174  -0.0371  -4.00    0.0
2024/05/06 13:47:57.000   28.318723399  -16.447785414  1068.9963   2   7   0.0200   0.0642   0.1295   0.0124   0.0174  -0.0372  -3.00    0.0
2024/05/06 13:47:58.000   28.318723401  -16.447785418  1068.9943   2   7   0.0200   0.0642   0.1296   0.0124   0.0175  -0.0372  -2.00    0.0
2024/05/06 13:47:59.000   28.318723402  -16.447785420  1068.9923   2   7   0.0201   0.0642   0.1298   0.0124   0.0175  -0.0373  -1.00    0.0
2024/05/06 13:48:00.000   28.318723401  -16.447785419  1068.9926   2   7   0.0201   0.0642   0.1299   0.0124   0.0176  -0.0373   0.00    0.0
2024/05/06 13:48:01.000   28.318723402  -16.447785422  1068.9920   2   7   0.0201   0.0642   0.1301   0.0123   0.0177  -0.0374   1.00    0.0
2024/05/06 13:48:02.000   28.318723404  -16.447785424  1068.9911   2   7   0.0201   0.0642   0.1303   0.0123   0.0178  -0.0374   2.00    0.0
2024/05/06 13:48:03.000   28.318723405  -16.447785429  1068.9907   2   7   0.0202   0.0642   0.1305   0.0123   0.0179  -0.0375   3.00    0.0
2024/05/06 13:48:04.000   28.318723405  -16.447785434  1068.9904   2   7   0.0202   0.0642   0.1306   0.0123   0.0180  -0.0375   4.00    0.0
2024/05/06 13:48:05.000   28.318723404  -16.447785441  1068.9905   2   7   0.0202   0.0642   0.1307   0.0123   0.0180  -0.0376   5.00    0.0
2024/05/06 13:48:06.000   28.318723405  -16.447785445  1068.9899   2   7   0.0202   0.0642   0.1308   0.0123   0.0181  -0.0376   6.00    0.0
2024/05/06 13:48:07.000   28.318723405  -16.447785448  1068.9894   2   7   0.0202   0.0642   0.1309   0.0123   0.0181  -0.0376   7.00    0.0
2024/05/06 13:48:08.000   28.318723405  -16.447785450  1068.9892   2   7   0.0202   0.0642   0.1310   0.0123   0.0182  -0.0376   8.00    0.0
2024/05/06 13:48:09.000   28.318723405  -16.447785453  1068.9888   2   7   0.0203   0.0642   0.1310   0.0122   0.0182  -0.0376   9.00    0.0
2024/05/06 13:48:10.000   28.318723405  -16.447785457  1068.9885   2   7   0.0203   0.0642   0.1310   0.0122   0.0182  -0.0376  10.00    0.0
2024/05/06 13:48:11.000   28.318723405  -16.447785460  1068.9882   2   7   0.0203   0.0642   0.1311   0.0122   0.0183  -0.0376  11.00    0.0
2024/05/06 13:48:12.000   28.318723405  -16.447785462  1068.9878   2   7   0.0203   0.0641   0.1311   0.0122   0.0183  -0.0376  12.00    0.0
2024/05/06 13:48:13.000   28.318723405  -16.447785464  1068.9875   2   7   0.0203   0.0641   0.1311   0.0122   0.0183  -0.0377  13.00    0.0
2024/05/06 13:48:14.000   28.318723405  -16.447785466  1068.9872   2   7   0.0203   0.0641   0.1311   0.0122   0.0183  -0.0377  14.00    0.0
2024/05/06 13:48:15.000   28.318723405  -16.447785466  1068.9871   2   7   0.0203   0.0641   0.1312   0.0122   0.0183  -0.0377 -15.00    0.0
2024/05/06 13:48:16.000   28.318723405  -16.447785467  1068.9870   2   7   0.0203   0.0641   0.1312   0.0122   0.0184  -0.0377 -14.00    0.0
2024/05/06 13:48:17.000   28.318723404  -16.447785467  1068.9870   2   7   0.0203   0.0641   0.1312   0.0122   0.0184  -0.0377 -13.00    0.0
2024/05/06 13:48:18.000   28.318723404  -16.447785468  1068.9871   2   7   0.0203   0.0641   0.1312   0.0122   0.0184  -0.0377 -12.00    0.0
2024/05/06 13:48:19.000   28.318723403  -16.447785472  1068.9872   2   7   0.0203   0.0640   0.1312   0.0122   0.0184  -0.0377 -11.00    0.0
2024/05/06 13:48:20.000   28.318723403  -16.447785476  1068.9871   2   7   0.0203   0.0640   0.1313   0.0122   0.0184  -0.0377 -10.00    0.0
2024/05/06 13:48:21.000   28.318723402  -16.447785480  1068.9871   2   7   0.0203   0.0640   0.1313   0.0122   0.0185  -0.0377  -9.00    0.0
2024/05/06 13:48:22.000   28.318723403  -16.447785482  1068.9868   2   7   0.0203   0.0640   0.1313   0.0122   0.0185  -0.0377  -8.00    0.0
2024/05/06 13:48:23.000   28.318723402  -16.447785486  1068.9867   2   7   0.0203   0.0640   0.1314   0.0122   0.0185  -0.0377  -7.00    0.0
2024/05/06 13:48:24.000   28.318723402  -16.447785490  1068.9862   2   7   0.0203   0.0640   0.1314   0.0121   0.0185  -0.0377  -6.00    0.0
2024/05/06 13:48:25.000   28.318723403  -16.447785496  1068.9847   2   7   0.0203   0.0640   0.1315   0.0121   0.0185  -0.0377  -5.00    0.0
2024/05/06 13:48:26.000   28.318723403  -16.447785503  1068.9834   2   7   0.0203   0.0640   0.1315   0.0121   0.0186  -0.0378  -4.00    0.0
2024/05/06 13:48:27.000   28.318723404  -16.447785510  1068.9820   2   7   0.0204   0.0640   0.1316   0.0121   0.0186  -0.0378  -3.00    0.0
2024/05/06 13:48:28.000   28.318723404  -16.447785518  1068.9799   2   7   0.0204   0.0640   0.1318   0.0121   0.0186  -0.0378  -2.00    0.0
2024/05/06 13:48:29.000   28.318723404  -16.447785529  1068.9780   2   7   0.0204   0.0640   0.1319   0.0121   0.0187  -0.0379  -1.00    0.0
2024/05/06 13:48:30.000   28.318723404  -16.447785542  1068.9751   2   7   0.0204   0.0640   0.1321   0.0121   0.0187  -0.0379   0.00    0.0
2024/05/06 13:48:31.000   28.318723404  -16.447785557  1068.9713   2   7   0.0205   0.0640   0.1323   0.0121   0.0188  -0.0380   1.00    0.0
2024/05/06 13:48:32.000   28.318723405  -16.447785567  1068.9668   2   7   0.0205   0.0640   0.1324   0.0121   0.0189  -0.0380   2.00    0.0
2024/05/06 13:48:33.000   28.318723406  -16.447785575  1068.9640   2   7   0.0205   0.0640   0.1326   0.0121   0.0190  -0.0381   3.00    0.0
2024/05/06 13:48:34.000   28.318723405  -16.447785582  1068.9619   2   7   0.0205   0.0640   0.1327   0.0121   0.0190  -0.0381   4.00    0.0
2024/05/06 13:48:35.000   28.318723404  -16.447785585  1068.9601   2   7   0.0205   0.0640   0.1328   0.0121   0.0191  -0.0382   5.00    0.0
2024/05/06 13:48:36.000   28.318723404  -16.447785586  1068.9588   2   7   0.0206   0.0640   0.1329   0.0121   0.0191  -0.0382   6.00    0.0
2024/05/06 13:48:37.000   28.318723404  -16.447785591  1068.9576   2   7   0.0206   0.0640   0.1330   0.0120   0.0192  -0.0382   7.00    0.0
2024/05/06 13:48:38.000   28.318723404  -16.447785596  1068.9569   2   7   0.0206   0.0640   0.1331   0.0120   0.0192  -0.0382   8.00    0.0
2024/05/06 13:48:39.000   28.318723403  -16.447785598  1068.9569   2   7   0.0206   0.0640   0.1331   0.0120   0.0192  -0.0382   9.00    0.0
2024/05/06 13:48:40.000   28.318723402  -16.447785600  1068.9564   2   7   0.0206   0.0640   0.1331   0.0120   0.0193  -0.0382  10.00    0.0
2024/05/06 13:48:41.000   28.318723402  -16.447785601  1068.9558   2   7   0.0206   0.0640   0.1332   0.0120   0.0193  -0.0382  11.00    0.0
2024/05/06 13:48:42.000   28.318723402  -16.447785605  1068.9555   2   7   0.0206   0.0639   0.1332   0.0120   0.0193  -0.0382  12.00    0.0
2024/05/06 13:48:43.000   28.318723401  -16.447785607  1068.9552   2   7   0.0206   0.0639   0.1332   0.0120   0.0193  -0.0383  13.00    0.0
2024/05/06 13:48:44.000   28.318723401  -16.447785610  1068.9549   2   7   0.0206   0.0639   0.1332   0.0120   0.0193  -0.0383  14.00    0.0
2024/05/06 13:48:45.000   28.318723400  -16.447785613  1068.9545   2   7   0.0206   0.0639   0.1333   0.0120   0.0193  -0.0383 -15.00    0.0
2024/05/06 13:48:46.000   28.318723400  -16.447785616  1068.9544   2   7   0.0206   0.0639   0.1333   0.0120   0.0194  -0.0383 -14.00    0.0
2024/05/06 13:48:47.000   28.318723399  -16.447785620  1068.9543   2   7   0.0206   0.0639   0.1333   0.0120   0.0194  -0.0383 -13.00    0.0
2024/05/06 13:48:48.000   28.318723398  -16.447785623  1068.9542   2   7   0.0206   0.0639   0.1333   0.0120   0.0194  -0.0383 -12.00    0.0
2024/05/06 13:48:49.000   28.318723397  -16.447785624  1068.9542   2   7   0.0206   0.0639   0.1333   0.0120   0.0194  -0.0383 -11.00    0.0
2024/05/06 13:48:50.000   28.318723396  -16.447785626  1068.9543   2   7   0.0206   0.0639   0.1334   0.0120   0.0194  -0.0383 -10.00    0.0
2024/05/06 13:48:51.000   28.318723395  -16.447785631  1068.9542   2   7   0.0206   0.0639   0.1334   0.0120   0.0194  -0.0383  -9.00    0.0
2024/05/06 13:48:52.000   28.318723394  -16.447785635  1068.9543   2   7   0.0206   0.0638   0.1334   0.0120   0.0195  -0.0383  -8.00    0.0
2024/05/06 13:48:53.000   28.318723393  -16.447785638  1068.9545   2   7   0.0206   0.0638   0.1335   0.0120   0.0195  -0.0383  -7.00    0.0
2024/05/06 13:48:54.000   28.318723392  -16.447785641  1068.9544   2   7   0.0206   0.0638   0.1335   0.0120   0.0195  -0.0383  -6.00    0.0
2024/05/06 13:48:55.000   28.318723389  -16.447785645  1068.9548   2   7   0.0207   0.0638   0.1336   0.0120   0.0195  -0.0383  -5.00    0.0
2024/05/06 13:48:56.000   28.318723387  -16.447785645  1068.9554   2   7   0.0207   0.0638   0.1336   0.0120   0.0195  -0.0384  -4.00    0.0
2024/05/06 13:48:57.000   28.318723385  -16.447785645  1068.9558   2   7   0.0207   0.0638   0.1337   0.0120   0.0195  -0.0384  -3.00    0.0
2024/05/06 13:48:58.000   28.318723382  -16.447785646  1068.9564   2   7   0.0207   0.0638   0.1338   0.0120   0.0196  -0.0384  -2.00    0.0
2024/05/06 13:48:59.000   28.318723378  -16.447785650  1068.9574   2   7   0.0207   0.0638   0.1340   0.0120   0.0196  -0.0385  -1.00    0.0
2024/05/06 13:49:00.000   28.318723375  -16.447785651  1068.9578   2   7   0.0208   0.0638   0.1341   0.0120   0.0196  -0.0385   0.00    0.0
2024/05/06 13:49:01.000   28.318723372  -16.447785654  1068.9586   2   7   0.0208   0.0638   0.1343   0.0119   0.0197  -0.0386   1.00    0.0
2024/05/06 13:49:02.000   28.318723369  -16.447785656  1068.9598   2   7   0.0208   0.0638   0.1345   0.0119   0.0198  -0.0386   2.00    0.0
2024/05/06 13:49:03.000   28.318723365  -16.447785660  1068.9618   2   7   0.0208   0.0638   0.1346   0.0119   0.0198  -0.0387   3.00    0.0
2024/05/06 13:49:04.000   28.318723362  -16.447785664  1068.9629   2   7   0.0209   0.0638   0.1348   0.0119   0.0199  -0.0387   4.00    0.0
2024/05/06 13:49:05.000   28.318723359  -16.447785669  1068.9641   2   7   0.0209   0.0638   0.1349   0.0119   0.0200  -0.0387   5.00    0.0
2024/05/06 13:49:06.000   28.318723357  -16.447785672  1068.9654   2   7   0.0209   0.0638   0.1350   0.0119   0.0200  -0.0388   6.00    0.0
2024/05/06 13:49:07.000   28.318723356  -16.447785675  1068.9666   2   7   0.0209   0.0638   0.1350   0.0119   0.0200  -0.0388   7.00    0.0
2024/05/06 13:49:08.000   28.318723355  -16.447785678  1068.9677   2   7   0.0209   0.0638   0.1351   0.0119   0.0201  -0.0388   8.00    0.0
2024/05/06 13:49:09.000   28.318723354  -16.447785679  1068.9686   2   7   0.0209   0.0638   0.1351   0.0119   0.0201  -0.0388   9.00    0.0
2024/05/06 13:49:10.000   28.318723353  -16.447785681  1068.9693   2   7   0.0209   0.0638   0.1352   0.0119   0.0201  -0.0388  10.00    0.0
2024/05/06 13:49:11.000   28.318723352  -16.447785684  1068.9700   2   7   0.0209   0.0638   0.1352   0.0119   0.0201  -0.0388  11.00    0.0
2024/05/06 13:49:12.000   28.318723352  -16.447785685  1068.9706   2   7   0.0209   0.0638   0.1352   0.0119   0.0201  -0.0388  12.00    0.0
2024/05/06 13:49:13.000   28.318723352  -16.447785687  1068.9709   2   7   0.0209   0.0638   0.1352   0.0119   0.0202  -0.0388  13.00    0.0
2024/05/06 13:49:14.000   28.318723352  -16.447785690  1068.9713   2   7   0.0209   0.0638   0.1353   0.0119   0.0202  -0.0388  14.00    0.0
2024/05/06 13:49:15.000   28.318723351  -16.447785692  1068.9716   2   7   0.0209   0.0638   0.1353   0.0119   0.0202  -0.0388 -15.00    0.0
2024/05/06 13:49:16.000   28.318723351  -16.447785693  1068.9721   2   7   0.0209   0.0638   0.1353   0.0119   0.0202  -0.0388 -14.00    0.0
2024/05/06 13:49:17.000   28.318723351  -16.447785694  1068.9724   2   7   0.0209   0.0637   0.1353   0.0119   0.0202  -0.0388 -13.00    0.0
2024/05/06 13:49:18.000   28.318723350  -16.447785696  1068.9728   2   7   0.0209   0.0637   0.1353   0.0119   0.0202  -0.0388 -12.00    0.0
2024/05/06 13:49:19.000   28.318723350  -16.447785697  1068.9730   2   7   0.0209   0.0637   0.1353   0.0119   0.0202  -0.0388 -11.00    0.0
2024/05/06 13:49:20.000   28.318723350  -16.447785700  1068.9734   2   7   0.0209   0.0637   0.1354   0.0119   0.0202  -0.0389 -10.00    0.0
2024/05/06 13:49:21.000   28.318723350  -16.447785701  1068.9739   2   7   0.0209   0.0637   0.1354   0.0119   0.0203  -0.0389  -9.00    0.0
2024/05/06 13:49:22.000   28.318723350  -16.447785705  1068.9744   2   7   0.0210   0.0637   0.1354   0.0118   0.0203  -0.0389  -8.00    0.0
2024/05/06 13:49:23.000   28.318723349  -16.447785708  1068.9750   2   7   0.0210   0.0637   0.1354   0.0118   0.0203  -0.0389  -7.00    0.0
2024/05/06 13:49:24.000   28.318723348  -16.447785709  1068.9758   2   7   0.0210   0.0637   0.1355   0.0118   0.0203  -0.0389  -6.00    0.0
2024/05/06 13:49:25.000   28.318723347  -16.447785713  1068.9769   2   7   0.0210   0.0637   0.1355   0.0118   0.0203  -0.0389  -5.00    0.0
2024/05/06 13:49:26.000   28.318723345  -16.447785717  1068.9788   2   7   0.0210   0.0637   0.1356   0.0118   0.0203  -0.0389  -4.00    0.0
2024/05/06 13:49:27.000   28.318723343  -16.447785723  1068.9810   2   7   0.0210   0.0637   0.1357   0.0118   0.0203  -0.0389  -3.00    0.0
2024/05/06 13:49:28.000   28.318723340  -16.447785733  1068.9844   2   7   0.0210   0.0637   0.1358   0.0118   0.0204  -0.0390  -2.00    0.0
2024/05/06 13:49:29.000   28.318723336  -16.447785742  1068.9890   2   7   0.0210   0.0637   0.1359   0.0118   0.0204  -0.0390  -1.00    0.0
2024/05/06 13:49:30.000   28.318723331  -16.447785748  1068.9942   2   7   0.0211   0.0637   0.1361   0.0118   0.0204  -0.0391   0.00    0.0
2024/05/06 13:49:31.000   28.318723327  -16.447785756  1068.9982   2   7   0.0211   0.0637   0.1362   0.0118   0.0205  -0.0391   1.00    0.0
2024/05/06 13:49:32.000   28.318723324  -16.447785766  1069.0022   2   7   0.0211   0.0637   0.1364   0.0118   0.0205  -0.0392   2.00    0.0
2024/05/06 13:49:33.000   28.318723322  -16.447785774  1069.0049   2   7   0.0211   0.0637   0.1365   0.0118   0.0206  -0.0392   3.00    0.0
2024/05/06 13:49:34.000   28.318723320  -16.447785783  1069.0080   2   7   0.0212   0.0637   0.1367   0.0118   0.0207  -0.0392   4.00    0.0
2024/05/06 13:49:35.000   28.318723318  -16.447785793  1069.0108   2   7   0.0212   0.0637   0.1368   0.0118   0.0207  -0.0393   5.00    0.0
2024/05/06 13:49:36.000   28.318723317  -16.447785799  1069.0127   2   7   0.0212   0.0637   0.1368   0.0118   0.0207  -0.0393   6.00    0.0
2024/05/06 13:49:37.000   28.318723315  -16.447785804  1069.0147   2   7   0.0212   0.0637   0.1369   0.0118   0.0208  -0.0393   7.00    0.0
2024/05/06 13:49:38.000   28.318723314  -16.447785809  1069.0164   2   7   0.0212   0.0637   0.1370   0.0118   0.0208  -0.0393   8.00    0.0
2024/05/06 13:49:39.000   28.318723313  -16.447785813  1069.0176   2   7   0.0212   0.0637   0.1370   0.0118   0.0208  -0.0393   9.00    0.0
2024/05/06 13:49:40.000   28.318723312  -16.447785818  1069.0187   2   7   0.0212   0.0637   0.1370   0.0118   0.0208  -0.0393  10.00    0.0
2024/05/06 13:49:41.000   28.318723311  -16.447785821  1069.0192   2   7   0.0212   0.0637   0.1371   0.0118   0.0209  -0.0394  11.00    0.0
2024/05/06 13:49:42.000   28.318723311  -16.447785825  1069.0196   2   7   0.0212   0.0637   0.1371   0.0118   0.0209  -0.0394  12.00    0.0
2024/05/06 13:49:43.000   28.318723310  -16.447785828  1069.0200   2   7   0.0212   0.0636   0.1371   0.0118   0.0209  -0.0394  13.00    0.0
2024/05/06 13:49:44.000   28.318723310  -16.447785830  1069.0203   2   7   0.0212   0.0636   0.1371   0.0118   0.0209  -0.0394  14.00    0.0
2024/05/06 13:49:45.000   28.318723310  -16.447785835  1069.0206   2   7   0.0212   0.0636   0.1371   0.0118   0.0209  -0.0394 -15.00    0.0
2024/05/06 13:49:46.000   28.318723310  -16.447785838  1069.0209   2   7   0.0212   0.0636   0.1372   0.0118   0.0209  -0.0394 -14.00    0.0
2024/05/06 13:49:47.000   28.318723310  -16.447785840  1069.0212   2   7   0.0212   0.0636   0.1372   0.0118   0.0209  -0.0394 -13.00    0.0
2024/05/06 13:49:48.000   28.318723310  -16.447785844  1069.0216   2   7   0.0212   0.0636   0.1372   0.0118   0.0209  -0.0394 -12.00    0.0
2024/05/06 13:49:49.000   28.318723310  -16.447785846  1069.0220   2   7   0.0212   0.0636   0.1372   0.0118   0.0210  -0.0394 -11.00    0.0
2024/05/06 13:49:50.000   28.318723310  -16.447785849  1069.0224   2   7   0.0212   0.0636   0.1372   0.0118   0.0210  -0.0394 -10.00    0.0
2024/05/06 13:49:51.000   28.318723310  -16.447785852  1069.0227   2   7   0.0212   0.0636   0.1372   0.0118   0.0210  -0.0394  -9.00    0.0
2024/05/06 13:49:52.000   28.318723310  -16.447785856  1069.0232   2   7   0.0212   0.0636   0.1373   0.0118   0.0210  -0.0394  -8.00    0.0
2024/05/06 13:49:53.000   28.318723310  -16.447785860  1069.0239   2   7   0.0213   0.0636   0.1373   0.0118   0.0210  -0.0394  -7.00    0.0
2024/05/06 13:49:54.000   28.318723310  -16.447785867  1069.0249   2   7   0.0213   0.0636   0.1373   0.0118   0.0210  -0.0394  -6.00    0.0
2024/05/06 13:49:55.000   28.318723310  -16.447785874  1069.0260   2   7   0.0213   0.0636   0.1374   0.0118   0.0210  -0.0394  -5.00    0.0
2024/05/06 13:49:56.000   28.318723311  -16.447785882  1069.0268   2   7   0.0213   0.0635   0.1375   0.0118   0.0210  -0.0395  -4.00    0.0
2024/05/06 13:49:57.000   28.318723311  -16.447785891  1069.0282   2   7   0.0213   0.0635   0.1375   0.0118   0.0210  -0.0395  -3.00    0.0
2024/05/06 13:49:58.000   28.318723311  -16.447785901  1069.0299   2   7   0.0213   0.0635   0.1376   0.0118   0.0211  -0.0395  -2.00    0.0
2024/05/06 13:49:59.000   28.318723312  -16.447785913  1069.0313   2   7   0.0213   0.0635   0.1377   0.0118   0.0211  -0.0395  -1.00    0.0
2024/05/06 13:50:00.000   28.318723314  -16.447785922  1069.0334   2   7   0.0213   0.0635   0.1379   0.0118   0.0211  -0.0396   0.00    0.0
2024/05/06 13:50:01.000   28.318723315  -16.447785933  1069.0353   2   7   0.0214   0.0635   0.1380   0.0118   0.0212  -0.0396   1.00    0.0
2024/05/06 13:50:02.000   28.318723317  -16.447785943  1069.0356   2   7   0.0214   0.0635   0.1382   0.0118   0.0212  -0.0397   2.00    0.0
2024/05/06 13:50:03.000   28.318723320  -16.447785950  1069.0349   2   7   0.0214   0.0636   0.1383   0.0118   0.0213  -0.0397   3.00    0.0
2024/05/06 13:50:04.000   28.318723324  -16.447785956  1069.0344   2   7   0.0214   0.0636   0.1384   0.0118   0.0213  -0.0397   4.00    0.0
2024/05/06 13:50:05.000   28.318723327  -16.447785961  1069.0341   2   7   0.0214   0.0636   0.1385   0.0118   0.0214  -0.0398   5.00    0.0
2024/05/06 13:50:06.000   28.318723329  -16.447785967  1069.0340   2   7   0.0215   0.0636   0.1386   0.0118   0.0214  -0.0398   6.00    0.0
2024/05/06 13:50:07.000   28.318723332  -16.447785973  1069.0336   2   7   0.0215   0.0636   0.1386   0.0118   0.0214  -0.0398   7.00    0.0
2024/05/06 13:50:08.000   28.318723334  -16.447785980  1069.0334   2   7   0.0215   0.0636   0.1387   0.0118   0.0214  -0.0398   8.00    0.0
2024/05/06 13:50:09.000   28.318723337  -16.447785984  1069.0334   2   7   0.0215   0.0635   0.1387   0.0118   0.0215  -0.0398   9.00    0.0
2024/05/06 13:50:10.000   28.318723338  -16.447785987  1069.0332   2   7   0.0215   0.0635   0.1387   0.0118   0.0215  -0.0398  10.00    0.0
2024/05/06 13:50:11.000   28.318723340  -16.447785990  1069.0331   2   7   0.0215   0.0635   0.1388   0.0118   0.0215  -0.0398  11.00    0.0
2024/05/06 13:50:12.000   28.318723341  -16.447785993  1069.0330   2   7   0.0215   0.0635   0.1388   0.0118   0.0215  -0.0398  12.00    0.0
2024/05/06 13:50:13.000   28.318723342  -16.447785995  1069.0329   2   7   0.0215   0.0635   0.1388   0.0118   0.0215  -0.0399  13.00    0.0
2024/05/06 13:50:14.000   28.318723343  -16.447785997  1069.0327   2   7   0.0215   0.0635   0.1388   0.0118   0.0215  -0.0399  14.00    0.0
2024/05/06 13:50:15.000   28.318723344  -16.447786001  1069.0325   2   7   0.0215   0.0635   0.1388   0.0117   0.0215  -0.0399 -15.00    0.0
2024/05/06 13:50:16.000   28.318723345  -16.447786005  1069.0324   2   7   0.0215   0.0635   0.1389   0.0117   0.0216  -0.0399 -14.00    0.0
2024/05/06 13:50:17.000   28.318723346  -16.447786007  1069.0323   2   7   0.0215   0.0635   0.1389   0.0117   0.0216  -0.0399 -13.00    0.0
2024/05/06 13:50:18.000   28.318723347  -16.447786011  1069.0322   2   7   0.0215   0.0635   0.1389   0.0117   0.0216  -0.0399 -12.00    0.0
2024/05/06 13:50:19.000   28.318723349  -16.447786015  1069.0319   2   7   0.0215   0.0635   0.1389   0.0117   0.0216  -0.0399 -11.00    0.0
2024/05/06 13:50:20.000   28.318723350  -16.447786020  1069.0316   2   7   0.0215   0.0635   0.1389   0.0117   0.0216  -0.0399 -10.00    0.0
2024/05/06 13:50:21.000   28.318723352  -16.447786026  1069.0312   2   7   0.0215   0.0635   0.1389   0.0117   0.0216  -0.0399  -9.00    0.0
2024/05/06 13:50:22.000   28.318723353  -16.447786031  1069.0307   2   7   0.0215   0.0635   0.1390   0.0117   0.0216  -0.0399  -8.00    0.0
2024/05/06 13:50:23.000   28.318723354  -16.447786039  1069.0307   2   7   0.0215   0.0635   0.1390   0.0117   0.0216  -0.0399  -7.00    0.0
2024/05/06 13:50:24.000   28.318723356  -16.447786046  1069.0305   2   7   0.0215   0.0635   0.1390   0.0117   0.0216  -0.0399  -6.00    0.0
2024/05/06 13:50:25.000   28.318723360  -16.447786055  1069.0299   2   7   0.0215   0.0634   0.1391   0.0117   0.0216  -0.0399  -5.00    0.0
2024/05/06 13:50:26.000   28.318723364  -16.447786066  1069.0289   2   7   0.0215   0.0634   0.1391   0.0117   0.0216  -0.0399  -4.00    0.0
2024/05/06 13:50:27.000   28.318723367  -16.447786077  1069.0283   2   7   0.0216   0.0634   0.1392   0.0117   0.0217  -0.0399  -3.00    0.0
2024/05/06 13:50:28.000   28.318723371  -16.447786090  1069.0279   2   7   0.0216   0.0634   0.1393   0.0118   0.0217  -0.0400  -2.00    0.0
2024/05/06 13:50:29.000   28.318723376  -16.447786101  1069.0271   2   7   0.0216   0.0634   0.1394   0.0118   0.0217  -0.0400  -1.00    0.0
2024/05/06 13:50:30.000   28.318723383  -16.447786107  1069.0255   2   7   0.0216   0.0634   0.1395   0.0118   0.0217  -0.0400   0.00    0.0
2024/05/06 13:50:31.000   28.318723390  -16.447786117  1069.0229   2   7   0.0216   0.0634   0.1396   0.0118   0.0218  -0.0401   1.00    0.0
2024/05/06 13:50:32.000   28.318723398  -16.447786130  1069.0198   2   7   0.0216   0.0634   0.1397   0.0118   0.0218  -0.0401   2.00    0.0
2024/05/06 13:50:33.000   28.318723407  -16.447786137  1069.0158   2   7   0.0217   0.0634   0.1399   0.0118   0.0219  -0.0402   3.00    0.0
2024/05/06 13:50:34.000   28.318723414  -16.447786143  1069.0128   2   7   0.0217   0.0634   0.1400   0.0118   0.0219  -0.0402   4.00    0.0
2024/05/06 13:50:35.000   28.318723420  -16.447786147  1069.0108   2   7   0.0217   0.0634   0.1400   0.0118   0.0219  -0.0402   5.00    0.0
2024/05/06 13:50:36.000   28.318723425  -16.447786150  1069.0083   2   7   0.0217   0.0634   0.1401   0.0118   0.0220  -0.0402   6.00    0.0
2024/05/06 13:50:37.000   28.318723430  -16.447786154  1069.0061   2   7   0.0217   0.0634   0.1402   0.0118   0.0220  -0.0402   7.00    0.0
2024/05/06 13:50:38.000   28.318723434  -16.447786157  1069.0045   2   7   0.0217   0.0634   0.1402   0.0118   0.0220  -0.0403   8.00    0.0
2024/05/06 13:50:39.000   28.318723437  -16.447786162  1069.0034   2   7   0.0217   0.0634   0.1402   0.0118   0.0220  -0.0403   9.00    0.0
2024/05/06 13:50:40.000   28.318723440  -16.447786166  1069.0021   2   7   0.0217   0.0634   0.1403   0.0118   0.0220  -0.0403  10.00    0.0
2024/05/06 13:50:41.000   28.318723442  -16.447786170  1069.0013   2   7   0.0217   0.0634   0.1403   0.0118   0.0221  -0.0403  11.00    0.0
2024/05/06 13:50:42.000   28.318723444  -16.447786172  1069.0007   2   7   0.0217   0.0634   0.1403   0.0117   0.0221  -0.0403  12.00    0.0
2024/05/06 13:50:43.000   28.318723446  -16.447786174  1069.0000   2   7   0.0217   0.0634   0.1403   0.0117   0.0221  -0.0403  13.00    0.0
2024/05/06 13:50:44.000   28.318723448  -16.447786176  1068.9995   2   7   0.0217   0.0634   0.1403   0.0117   0.0221  -0.0403  14.00    0.0
2024/05/06 13:50:45.000   28.318723449  -16.447786177  1068.9990   2   7   0.0217   0.0634   0.1403   0.0117   0.0221  -0.0403 -15.00    0.0
2024/05/06 13:50:46.000   28.318723450  -16.447786181  1068.9984   2   7   0.0217   0.0634   0.1403   0.0117   0.0221  -0.0403 -14.00    0.0
2024/05/06 13:50:47.000   28.318723451  -16.447786184  1068.9977   2   7   0.0217   0.0634   0.1404   0.0117   0.0221  -0.0403 -13.00    0.0
2024/05/06 13:50:48.000   28.318723452  -16.447786188  1068.9971   2   7   0.0217   0.0634   0.1404   0.0117   0.0221  -0.0403 -12.00    0.0
2024/05/06 13:50:49.000   28.318723454  -16.447786192  1068.9966   2   7   0.0217   0.0634   0.1404   0.0117   0.0221  -0.0403 -11.00    0.0
2024/05/06 13:50:50.000   28.318723455  -16.447786196  1068.9960   2   7   0.0217   0.0634   0.1404   0.0117   0.0221  -0.0403 -10.00    0.0
2024/05/06 13:50:51.000   28.318723457  -16.447786200  1068.9952   2   7   0.0217   0.0634   0.1404   0.0117   0.0221  -0.0403  -9.00    0.0
2024/05/06 13:50:52.000   28.318723458  -16.447786205  1068.9945   2   7   0.0217   0.0634   0.1404   0.0117   0.0222  -0.0403  -8.00    0.0
2024/05/06 13:50:53.000   28.318723459  -16.447786209  1068.9941   2   7   0.0218   0.0634   0.1405   0.0117   0.0222  -0.0403  -7.00    0.0
2024/05/06 13:50:54.000   28.318723461  -16.447786214  1068.9931   2   7   0.0218   0.0634   0.1405   0.0117   0.0222  -0.0403  -6.00    0.0
2024/05/06 13:50:55.000   28.318723464  -16.447786221  1068.9917   2   7   0.0218   0.0633   0.1405   0.0117   0.0222  -0.0403  -5.00    0.0
2024/05/06 13:50:56.000   28.318723467  -16.447786228  1068.9903   2   7   0.0218   0.0633   0.1406   0.0118   0.0222  -0.0403  -4.00    0.0
2024/05/06 13:50:57.000   28.318723471  -16.447786236  1068.9886   2   7   0.0218   0.0633   0.1406   0.0118   0.0222  -0.0404  -3.00    0.0
2024/05/06 13:50:58.000   28.318723476  -16.447786243  1068.9862   2   7   0.0218   0.0633   0.1407   0.0118   0.0222  -0.0404  -2.00    0.0
2024/05/06 13:50:59.000   28.318723482  -16.447786251  1068.9837   2   7   0.0218   0.0633   0.1408   0.0118   0.0222  -0.0404  -1.00    0.0
2024/05/06 13:51:00.000   28.318723487  -16.447786257  1068.9817   2   7   0.0218   0.0633   0.1409   0.0118   0.0222  -0.0404   0.00    0.0
2024/05/06 13:51:01.000   28.318723492  -16.447786267  1068.9801   2   7   0.0218   0.0633   0.1410   0.0118   0.0223  -0.0405   1.00    0.0
2024/05/06 13:51:02.000   28.318723498  -16.447786275  1068.9770   2   7   0.0218   0.0633   0.1411   0.0118   0.0223  -0.0405   2.00    0.0
2024/05/06 13:51:03.000   28.318723502  -16.447786279  1068.9751   2   7   0.0219   0.0633   0.1412   0.0118   0.0224  -0.0405   3.00    0.0
2024/05/06 13:51:04.000   28.318723505  -16.447786284  1068.9733   2   7   0.0219   0.0633   0.1413   0.0118   0.0224  -0.0406   4.00    0.0
2024/05/06 13:51:05.000   28.318723507  -16.447786290  1068.9721   2   7   0.0219   0.0633   0.1413   0.0118   0.0224  -0.0406   5.00    0.0
2024/05/06 13:51:06.000   28.318723508  -16.447786295  1068.9715   2   7   0.0219   0.0633   0.1414   0.0118   0.0225  -0.0406   6.00    0.0
2024/05/06 13:51:07.000   28.318723509  -16.447786297  1068.9714   2   7   0.0219   0.0633   0.1414   0.0118   0.0225  -0.0406   7.00    0.0
2024/05/06 13:51:08.000   28.318723510  -16.447786300  1068.9712   2   7   0.0219   0.0633   0.1415   0.0118   0.0225  -0.0406   8.00    0.0
2024/05/06 13:51:09.000   28.318723511  -16.447786300  1068.9711   2   7   0.0219   0.0633   0.1415   0.0118   0.0225  -0.0406   9.00    0.0
2024/05/06 13:51:10.000   28.318723511  -16.447786301  1068.9712   2   7   0.0219   0.0633   0.1415   0.0118   0.0225  -0.0406  10.00    0.0
2024/05/06 13:51:11.000   28.318723512  -16.447786301  1068.9710   2   7   0.0219   0.0633   0.1415   0.0118   0.0225  -0.0406  11.00    0.0
2024/05/06 13:51:12.000   28.318723512  -16.447786301  1068.9707   2   7   0.0219   0.0633   0.1416   0.0118   0.0225  -0.0406  12.00    0.0
2024/05/06 13:51:13.000   28.318723513  -16.447786302  1068.9703   2   7   0.0219   0.0633   0.1416   0.0118   0.0226  -0.0406  13.00    0.0
2024/05/06 13:51:14.000   28.318723514  -16.447786301  1068.9700   2   7   0.0219   0.0633   0.1416   0.0118   0.0226  -0.0406  14.00    0.0
2024/05/06 13:51:15.000   28.318723514  -16.447786301  1068.9697   2   7   0.0219   0.0633   0.1416   0.0118   0.0226  -0.0406 -15.00    0.0
2024/05/06 13:51:16.000   28.318723515  -16.447786302  1068.9695   2   7   0.0219   0.0633   0.1416   0.0118   0.0226  -0.0406 -14.00    0.0
2024/05/06 13:51:17.000   28.318723515  -16.447786303  1068.9694   2   7   0.0219   0.0633   0.1416   0.0118   0.0226  -0.0407 -13.00    0.0
2024/05/06 13:51:18.000   28.318723515  -16.447786303  1068.9693   2   7   0.0219   0.0633   0.1416   0.0118   0.0226  -0.0407 -12.00    0.0
2024/05/06 13:51:19.000   28.318723515  -16.447786304  1068.9693   2   7   0.0219   0.0633   0.1416   0.0118   0.0226  -0.0407 -11.00    0.0
2024/05/06 13:51:20.000   28.318723515  -16.447786305  1068.9694   2   7   0.0219   0.0633   0.1416   0.0118   0.0226  -0.0407 -10.00    0.0
2024/05/06 13:51:21.000   28.318723515  -16.447786306  1068.9694   2   7   0.0219   0.0633   0.1416   0.0118   0.0226  -0.0407  -9.00    0.0
2024/05/06 13:51:22.000   28.318723515  -16.447786306  1068.9695   2   7   0.0219   0.0633   0.1417   0.0118   0.0226  -0.0407  -8.00    0.0
2024/05/06 13:51:23.000   28.318723514  -16.447786307  1068.9698   2   7   0.0219   0.0633   0.1417   0.0118   0.0226  -0.0407  -7.00    0.0
2024/05/06 13:51:24.000   28.318723513  -16.447786308  1068.9702   2   7   0.0219   0.0633   0.1417   0.0118   0.0226  -0.0407  -6.00    0.0
2024/05/06 13:51:25.000   28.318723513  -16.447786307  1068.9708   2   7   0.0219   0.0632   0.1417   0.0118   0.0226  -0.0407  -5.00    0.0
2024/05/06 13:51:26.000   28.318723513  -16.447786307  1068.9715   2   7   0.0219   0.0632   0.1418   0.0118   0.0226  -0.0407  -4.00    0.0
2024/05/06 13:51:27.000   28.318723513  -16.447786306  1068.9718   2   7   0.0220   0.0632   0.1418   0.0118   0.0226  -0.0407  -3.00    0.0
2024/05/06 13:51:28.000   28.318723513  -16.447786306  1068.9722   2   7   0.0220   0.0632   0.1418   0.0118   0.0226  -0.0407  -2.00    0.0
2024/05/06 13:51:29.000   28.318723511  -16.447786304  1068.9734   2   7   0.0220   0.0632   0.1419   0.0118   0.0227  -0.0407  -1.00    0.0
2024/05/06 13:51:30.000   28.318723510  -16.447786300  1068.9741   2   7   0.0220   0.0632   0.1420   0.0118   0.0227  -0.0408   0.00    0.0
2024/05/06 13:51:31.000   28.318723509  -16.447786301  1068.9733   2   7   0.0220   0.0632   0.1421   0.0118   0.0227  -0.0408   1.00    0.0
2024/05/06 13:51:32.000   28.318723510  -16.447786297  1068.9718   2   7   0.0220   0.0632   0.1422   0.0118   0.0227  -0.0408   2.00    0.0
2024/05/06 13:51:33.000   28.318723511  -16.447786291  1068.9707   2   7   0.0220   0.0632   0.1422   0.0118   0.0228  -0.0408   3.00    0.0
2024/05/06 13:51:34.000   28.318723511  -16.447786285  1068.9701   2   7   0.0220   0.0632   0.1423   0.0118   0.0228  -0.0409   4.00    0.0
2024/05/06 13:51:35.000   28.318723512  -16.447786280  1068.9695   2   7   0.0220   0.0632   0.1424   0.0118   0.0228  -0.0409   5.00    0.0
2024/05/06 13:51:36.000   28.318723514  -16.447786274  1068.9688   2   7   0.0220   0.0632   0.1424   0.0118   0.0229  -0.0409   6.00    0.0
2024/05/06 13:51:37.000   28.318723514  -16.447786268  1068.9684   2   7   0.0221   0.0632   0.1424   0.0118   0.0229  -0.0409   7.00    0.0
2024/05/06 13:51:38.000   28.318723515  -16.447786264  1068.9684   2   7   0.0221   0.0632   0.1425   0.0118   0.0229  -0.0409   8.00    0.0
2024/05/06 13:51:39.000   28.318723515  -16.447786261  1068.9685   2   7   0.0221   0.0632   0.1425   0.0118   0.0229  -0.0409   9.00    0.0
2024/05/06 13:51:40.000   28.318723516  -16.447786257  1068.9682   2   7   0.0221   0.0632   0.1425   0.0118   0.0229  -0.0409  10.00    0.0
2024/05/06 13:51:41.000   28.318723516  -16.447786255  1068.9679   2   7   0.0221   0.0632   0.1425   0.0118   0.0229  -0.0409  11.00    0.0
2024/05/06 13:51:42.000   28.318723517  -16.447786252  1068.9677   2   7   0.0221   0.0632   0.1425   0.0118   0.0229  -0.0409  12.00    0.0
2024/05/06 13:51:43.000   28.318723517  -16.447786249  1068.9676   2   7   0.0221   0.0632   0.1425   0.0118   0.0229  -0.0409  13.00    0.0
2024/05/06 13:51:44.000   28.318723517  -16.447786247  1068.9675   2   7   0.0221   0.0632   0.1426   0.0118   0.0229  -0.0409  14.00    0.0
2024/05/06 13:51:45.000   28.318723517  -16.447786244  1068.9675   2   7   0.0221   0.0632   0.1426   0.0118   0.0230  -0.0409 -15.00    0.0
2024/05/06 13:51:46.000   28.318723517  -16.447786242  1068.9676   2   7   0.0221   0.0632   0.1426   0.0118   0.0230  -0.0409 -14.00    0.0
2024/05/06 13:51:47.000   28.318723517  -16.447786239  1068.9677   2   7   0.0221   0.0632   0.1426   0.0118   0.0230  -0.0409 -13.00    0.0
2024/05/06 13:51:48.000   28.318723518  -16.447786237  1068.9676   2   7   0.0221   0.0632   0.1426   0.0118   0.0230  -0.0409 -12.00    0.0
2024/05/06 13:51:49.000   28.318723518  -16.447786235  1068.9675   2   7   0.0221   0.0632   0.1426   0.0118   0.0230  -0.0409 -11.00    0.0
2024/05/06 13:51:50.000   28.318723518  -16.447786233  1068.9676   2   7   0.0221   0.0632   0.1426   0.0118   0.0230  -0.0409 -10.00    0.0
2024/05/06 13:51:51.000   28.318723519  -16.447786229  1068.9675   2   7   0.0221   0.0632   0.1426   0.0118   0.0230  -0.0409  -9.00    0.0
2024/05/06 13:51:52.000   28.318723519  -16.447786225  1068.9677   2   7   0.0221   0.0632   0.1426   0.0118   0.0230  -0.0409  -8.00    0.0
2024/05/06 13:51:53.000   28.318723520  -16.447786218  1068.9679   2   7   0.0221   0.0632   0.1426   0.0118   0.0230  -0.0409  -7.00    0.0
2024/05/06 13:51:54.000   28.318723521  -16.447786212  1068.9679   2   7   0.0221   0.0632   0.1426   0.0118   0.0230  -0.0409  -6.00    0.0
2024/05/06 13:51:55.000   28.318723521  -16.447786205  1068.9681   2   7   0.0221   0.0631   0.1426   0.0118   0.0230  -0.0409  -5.00    0.0
2024/05/06 13:51:56.000   28.318723521  -16.447786195  1068.9682   2   7   0.0221   0.0631   0.1427   0.0118   0.0230  -0.0410  -4.00    0.0
2024/05/06 13:51:57.000   28.318723522  -16.447786189  1068.9678   2   7   0.0221   0.0631   0.1427   0.0118   0.0230  -0.0410  -3.00    0.0
2024/05/06 13:51:58.000   28.318723523  -16.447786181  1068.9672   2   7   0.0221   0.0631   0.1427   0.0119   0.0230  -0.0410  -2.00    0.0
2024/05/06 13:51:59.000   28.318723526  -16.447786173  1068.9663   2   7   0.0221   0.0631   0.1428   0.0119   0.0230  -0.0410  -1.00    0.0
2024/05/06 13:52:00.000   28.318723529  -16.447786165  1068.9661   2   7   0.0221   0.0631   0.1428   0.0119   0.0230  -0.0410   0.00    0.0
2024/05/06 13:52:01.000   28.318723530  -16.447786160  1068.9658   2   7   0.0221   0.0631   0.1429   0.0119   0.0230  -0.0410   1.00    0.0
2024/05/06 13:52:02.000   28.318723530  -16.447786151  1068.9664   2   7   0.0221   0.0631   0.1429   0.0119   0.0231  -0.0410   2.00    0.0
2024/05/06 13:52:03.000   28.318723530  -16.447786139  1068.9667   2   7   0.0221   0.0631   0.1430   0.0119   0.0231  -0.0410   3.00    0.0
2024/05/06 13:52:04.000   28.318723531  -16.447786129  1068.9671   2   7   0.0221   0.0631   0.1430   0.0119   0.0231  -0.0411   4.00    0.0
2024/05/06 13:52:05.000   28.318723532  -16.447786125  1068.9674   2   7   0.0221   0.0631   0.1431   0.0119   0.0231  -0.0411   5.00    0.0
2024/05/06 13:52:06.000   28.318723533  -16.447786122  1068.9680   2   7   0.0221   0.0631   0.1431   0.0119   0.0232  -0.0411   6.00    0.0
2024/05/06 13:52:07.000   28.318723534  -16.447786118  1068.9681   2   7   0.0222   0.0631   0.1431   0.0119   0.0232  -0.0411   7.00    0.0
2024/05/06 13:52:08.000   28.318723535  -16.447786114  1068.9684   2   7   0.0222   0.0631   0.1432   0.0119   0.0232  -0.0411   8.00    0.0
2024/05/06 13:52:09.000   28.318723536  -16.447786112  1068.9685   2   7   0.0222   0.0631   0.1432   0.0119   0.0232  -0.0411   9.00    0.0
2024/05/06 13:52:10.000   28.318723537  -16.447786109  1068.9687   2   7   0.0222   0.0631   0.1432   0.0119   0.0232  -0.0411  10.00    0.0
2024/05/06 13:52:11.000   28.318723538  -16.447786106  1068.9690   2   7   0.0222   0.0631   0.1432   0.0119   0.0232  -0.0411  11.00    0.0
2024/05/06 13:52:12.000   28.318723538  -16.447786104  1068.9694   2   7   0.0222   0.0631   0.1432   0.0119   0.0232  -0.0411  12.00    0.0
2024/05/06 13:52:13.000   28.318723538  -16.447786102  1068.9695   2   7   0.0222   0.0631   0.1432   0.0119   0.0232  -0.0411  13.00    0.0
2024/05/06 13:52:14.000   28.318723539  -16.447786099  1068.9697   2   7   0.0222   0.0631   0.1432   0.0119   0.0232  -0.0411  14.00    0.0
2024/05/06 13:52:15.000   28.318723539  -16.447786094  1068.9699   2   7   0.0222   0.0631   0.1432   0.0119   0.0232  -0.0411 -15.00    0.0
2024/05/06 13:52:16.000   28.318723539  -16.447786091  1068.9704   2   7   0.0222   0.0631   0.1432   0.0119   0.0233  -0.0411 -14.00    0.0
2024/05/06 13:52:17.000   28.318723540  -16.447786087  1068.9708   2   7   0.0222   0.0631   0.1432   0.0119   0.0233  -0.0411 -13.00    0.0
2024/05/06 13:52:18.000   28.318723540  -16.447786082  1068.9713   2   7   0.0222   0.0631   0.1432   0.0119   0.0233  -0.0411 -12.00    0.0
2024/05/06 13:52:19.000   28.318723540  -16.447786078  1068.9719   2   7   0.0222   0.0631   0.1432   0.0119   0.0233  -0.0411 -11.00    0.0
2024/05/06 13:52:20.000   28.318723540  -16.447786072  1068.9725   2   7   0.0222   0.0631   0.1432   0.0119   0.0233  -0.0411 -10.00    0.0
2024/05/06 13:52:21.000   28.318723540  -16.447786067  1068.9733   2   7   0.0222   0.0631   0.1432   0.0119   0.0233  -0.0411  -9.00    0.0
2024/05/06 13:52:22.000   28.318723540  -16.447786061  1068.9744   2   7   0.0222   0.0631   0.1432   0.0119   0.0233  -0.0411  -8.00    0.0
2024/05/06 13:52:23.000   28.318723540  -16.447786054  1068.9755   2   7   0.0222   0.0630   0.1432   0.0119   0.0233  -0.0411  -7.00    0.0
2024/05/06 13:52:24.000   28.318723540  -16.447786047  1068.9772   2   7   0.0222   0.0630   0.1433   0.0119   0.0233  -0.0411  -6.00    0.0
2024/05/06 13:52:25.000   28.318723540  -16.447786038  1068.9793   2   7   0.0222   0.0630   0.1433   0.0119   0.0233  -0.0411  -5.00    1.1
2024/05/06 13:52:26.000   28.318723539  -16.447786029  1068.9816   2   7   0.0222   0.0630   0.1433   0.0119   0.0233  -0.0411  -4.00    1.0
2024/05/06 13:52:27.000   28.318723538  -16.447786019  1068.9844   2   7   0.0222   0.0630   0.1433   0.0119   0.0233  -0.0411  -3.00    1.1
2024/05/06 13:52:28.000   28.318723537  -16.447786010  1068.9883   2   7   0.0222   0.0630   0.1433   0.0119   0.0233  -0.0411  -2.00    1.0
2024/05/06 13:52:29.000   28.318723536  -16.447785998  1068.9923   2   7   0.0222   0.0630   0.1433   0.0119   0.0233  -0.0411  -1.00    1.0
2024/05/06 13:52:30.000   28.318723533  -16.447785989  1068.9954   2   7   0.0222   0.0630   0.1433   0.0119   0.0233  -0.0411   0.00    1.0
2024/05/06 13:52:31.000   28.318723529  -16.447785981  1068.9996   2   7   0.0222   0.0630   0.1433   0.0120   0.0233  -0.0411   1.00    1.0
2024/05/06 13:52:32.000   28.318723525  -16.447785972  1069.0045   2   7   0.0222   0.0630   0.1434   0.0120   0.0233  -0.0412   2.00    1.0
2024/05/06 13:52:33.000   28.318723521  -16.447785962  1069.0090   2   7   0.0222   0.0630   0.1434   0.0120   0.0233  -0.0412   3.00    1.0
2024/05/06 13:52:34.000   28.318723520  -16.447785953  1069.0116   2   7   0.0222   0.0630   0.1434   0.0120   0.0234  -0.0412   4.00    1.1
2024/05/06 13:52:35.000   28.318723518  -16.447785945  1069.0132   2   7   0.0222   0.0630   0.1435   0.0120   0.0234  -0.0412   5.00    1.0
2024/05/06 13:52:36.000   28.318723517  -16.447785937  1069.0148   2   7   0.0222   0.0630   0.1435   0.0120   0.0234  -0.0412   6.00    1.0
2024/05/06 13:52:37.000   28.318723517  -16.447785929  1069.0157   2   7   0.0222   0.0630   0.1435   0.0120   0.0234  -0.0412   7.00    1.0
2024/05/06 13:52:38.000   28.318723516  -16.447785922  1069.0161   2   7   0.0222   0.0630   0.1435   0.0120   0.0234  -0.0412   8.00    1.1
2024/05/06 13:52:39.000   28.318723517  -16.447785917  1069.0162   2   7   0.0222   0.0630   0.1435   0.0120   0.0234  -0.0412   9.00    1.0
2024/05/06 13:52:40.000   28.318723517  -16.447785912  1069.0162   2   7   0.0222   0.0630   0.1435   0.0120   0.0234  -0.0412  10.00    1.0
2024/05/06 13:52:41.000   28.318723517  -16.447785907  1069.0161   2   7   0.0222   0.0630   0.1435   0.0120   0.0234  -0.0412  11.00    1.1
2024/05/06 13:52:42.000   28.318723518  -16.447785904  1069.0159   2   7   0.0222   0.0630   0.1435   0.0120   0.0234  -0.0412  12.00    1.1
2024/05/06 13:52:43.000   28.318723519  -16.447785901  1069.0159   2   7   0.0222   0.0630   0.1435   0.0120   0.0234  -0.0412  13.00    1.0
2024/05/06 13:52:44.000   28.318723519  -16.447785898  1069.0158   2   7   0.0222   0.0630   0.1436   0.0120   0.0234  -0.0412  14.00    1.0
2024/05/06 13:52:45.000   28.318723520  -16.447785895  1069.0157   2   7   0.0222   0.0630   0.1436   0.0120   0.0234  -0.0412 -15.00    1.0
2024/05/06 13:52:46.000   28.318723520  -16.447785892  1069.0156   2   7   0.0222   0.0630   0.1436   0.0120   0.0235  -0.0412 -14.00    1.0
2024/05/06 13:52:47.000   28.318723520  -16.447785889  1069.0155   2   7   0.0222   0.0630   0.1436   0.0120   0.0235  -0.0412 -13.00    1.0
2024/05/06 13:52:48.000   28.318723521  -16.447785886  1069.0153   2   7   0.0222   0.0629   0.1436   0.0120   0.0235  -0.0412 -12.00    1.1
2024/05/06 13:52:49.000   28.318723521  -16.447785883  1069.0151   2   7   0.0222   0.0629   0.1436   0.0120   0.0235  -0.0412 -11.00    1.1
2024/05/06 13:52:50.000   28.318723521  -16.447785879  1069.0151   2   7   0.0222   0.0629   0.1436   0.0120   0.0235  -0.0412 -10.00    1.0
2024/05/06 13:52:51.000   28.318723522  -16.447785875  1069.0151   2   7   0.0222   0.0629   0.1436   0.0120   0.0235  -0.0412  -9.00    1.0
2024/05/06 13:52:52.000   28.318723522  -16.447785871  1069.0151   2   7   0.0222   0.0629   0.1435   0.0120   0.0235  -0.0412  -8.00    1.0
2024/05/06 13:52:53.000   28.318723522  -16.447785866  1069.0148   2   7   0.0222   0.0629   0.1435   0.0120   0.0235  -0.0412  -7.00    1.0
2024/05/06 13:52:54.000   28.318723522  -16.447785861  1069.0143   2   7   0.0222   0.0629   0.1435   0.0120   0.0235  -0.0412  -6.00    1.0
2024/05/06 13:52:55.000   28.318723523  -16.447785855  1069.0137   2   7   0.0222   0.0629   0.1435   0.0120   0.0235  -0.0412  -5.00    1.1
2024/05/06 13:52:56.000   28.318723523  -16.447785848  1069.0131   2   7   0.0222   0.0629   0.1435   0.0120   0.0235  -0.0412  -4.00    1.1
2024/05/06 13:52:57.000   28.318723523  -16.447785842  1069.0124   2   7   0.0222   0.0629   0.1435   0.0120   0.0235  -0.0412  -3.00    1.0
2024/05/06 13:52:58.000   28.318723522  -16.447785835  1069.0118   2   7   0.0222   0.0629   0.1435   0.0120   0.0234  -0.0412  -2.00    1.0
2024/05/06 13:52:59.000   28.318723520  -16.447785827  1069.0114   2   7   0.0222   0.0629   0.1435   0.0120   0.0234  -0.0412  -1.00    1.0
2024/05/06 13:53:00.000   28.318723516  -16.447785815  1069.0120   2   7   0.0222   0.0629   0.1435   0.0120   0.0234  -0.0412   0.00    1.0
2024/05/06 13:53:01.000   28.318723513  -16.447785803  1069.0129   2   7   0.0222   0.0629   0.1435   0.0120   0.0234  -0.0412   1.00    1.0
2024/05/06 13:53:02.000   28.318723510  -16.447785792  1069.0131   2   7   0.0222   0.0629   0.1435   0.0120   0.0234  -0.0412   2.00    1.1
2024/05/06 13:53:03.000   28.318723507  -16.447785784  1069.0131   2   7   0.0222   0.0629   0.1435   0.0120   0.0235  -0.0412   3.00    1.0
2024/05/06 13:53:04.000   28.318723506  -16.447785778  1069.0126   2   7   0.0222   0.0629   0.1435   0.0121   0.0235  -0.0412   4.00    1.0
2024/05/06 13:53:05.000   28.318723504  -16.447785774  1069.0124   2   7   0.0222   0.0629   0.1435   0.0121   0.0235  -0.0412   5.00    1.0
2024/05/06 13:53:06.000   28.318723503  -16.447785770  1069.0123   2   7   0.0222   0.0628   0.1435   0.0121   0.0235  -0.0412   6.00    1.0
2024/05/06 13:53:07.000   28.318723502  -16.447785768  1069.0121   2   7   0.0222   0.0628   0.1435   0.0121   0.0235  -0.0412   7.00    1.0
