% program   : RTKPOST-EX 2.5.0
% inp file  : C:\Users\SallyHenry\Desktop\Sally Internship\GNSS gravi\DATA\Survey Rover Obs\GUI04.24o
% inp file  : C:\Users\SallyHenry\Desktop\Sally Internship\GNSS gravi\DATA\BaseStations\TN01\TN0100ESP_R_20241270000_01D_30S_MO.rnx
% inp file  : C:\Users\SallyHenry\Desktop\Sally Internship\GNSS gravi\DATA\BaseStations\TN01\TN0100ESP_R_20241270000_01D_MN.rnx
% inp file  : C:\Users\SallyHenry\Desktop\Sally Internship\GNSS gravi\DATA\aux_files\Survey\IGS0OPSFIN_20241270000_01D_15M_ORB.SP3
% inp file  : C:\Users\SallyHenry\Desktop\Sally Internship\GNSS gravi\DATA\aux_files\Survey\IGS0OPSFIN_20241270000_01D_30S_CLK.CLK
% obs start : 2024/05/06 15:34:02.0 GPST (week2313 142442.0s)
% obs end   : 2024/05/06 15:49:03.0 GPST (week2313 143343.0s)
% pos mode  : Static
% freqs     : L1+L2/E5b
% solution  : Combined-No Phase Reset
% elev mask : 15.0 deg
% dynamics  : on
% tidecorr  : solid
% ionos opt : Estimate TEC
% tropo opt : Estimate ZTD+Grad
% ephemeris : Precise
% navi sys  : GPS GLONASS Galileo QZSS BDS
% amb res   : Fix and Hold
% amb glo   : Fix and Hold
% amb bds   : on
% val thres : 3.0
% antenna1  :                       ( 0.0000  0.0000  1.8000)
% antenna2  :                       ( 0.0000  0.0000  0.0771)
% ref pos   :  28.477186930  -16.241151700    51.7531
%
% (lat/lon/height=WGS84/ellipsoidal,Q=1:fix,2:float,3:sbas,4:dgps,5:single,6:ppp,ns=# of satellites)
%  GPST                  latitude(deg) longitude(deg)  height(m)   Q  ns   sdn(m)   sde(m)   sdu(m)  sdne(m)  sdeu(m)  sdun(m) age(s)  ratio
2024/05/06 15:34:02.000   28.342091851  -16.459005025  1496.6045   2   6   0.0234   0.0297   0.0820  -0.0163   0.0292  -0.0360 -28.00    0.0
2024/05/06 15:34:03.000   28.342091849  -16.459005014  1496.6053   2   6   0.0234   0.0297   0.0821  -0.0163   0.0292  -0.0360 -27.00    0.0
2024/05/06 15:34:04.000   28.342091846  -16.459005005  1496.6059   2   6   0.0234   0.0297   0.0821  -0.0163   0.0292  -0.0361 -26.00    0.0
2024/05/06 15:34:05.000   28.342091845  -16.459004999  1496.6062   2   6   0.0234   0.0297   0.0822  -0.0163   0.0292  -0.0361 -25.00    0.0
2024/05/06 15:34:06.000   28.342091844  -16.459004994  1496.6065   2   6   0.0235   0.0297   0.0822  -0.0163   0.0292  -0.0361 -24.00    0.0
2024/05/06 15:34:07.000   28.342091844  -16.459004992  1496.6065   2   6   0.0235   0.0298   0.0822  -0.0163   0.0292  -0.0361 -23.00    0.0
2024/05/06 15:34:08.000   28.342091844  -16.459004990  1496.6066   2   6   0.0235   0.0298   0.0823  -0.0163   0.0292  -0.0361 -22.00    0.0
2024/05/06 15:34:09.000   28.342091843  -16.459004988  1496.6068   2   6   0.0235   0.0298   0.0823  -0.0163   0.0292  -0.0361 -21.00    0.0
2024/05/06 15:34:10.000   28.342091843  -16.459004987  1496.6067   2   6   0.0235   0.0298   0.0823  -0.0163   0.0292  -0.0361 -20.00    0.0
2024/05/06 15:34:11.000   28.342091842  -16.459004986  1496.6068   2   6   0.0235   0.0298   0.0823  -0.0163   0.0292  -0.0361 -19.00    0.0
2024/05/06 15:34:12.000   28.342091841  -16.459004985  1496.6070   2   6   0.0235   0.0298   0.0823  -0.0163   0.0292  -0.0361 -18.00    0.0
2024/05/06 15:34:13.000   28.342091841  -16.459004985  1496.6071   2   6   0.0235   0.0298   0.0823  -0.0163   0.0292  -0.0361 -17.00    0.0
2024/05/06 15:34:14.000   28.342091841  -16.459004985  1496.6071   2   6   0.0235   0.0298   0.0823  -0.0163   0.0292  -0.0361 -16.00    0.0
2024/05/06 15:34:15.000   28.342091840  -16.459004986  1496.6070   2   6   0.0235   0.0298   0.0823  -0.0163   0.0292  -0.0361 -15.00    0.0
2024/05/06 15:34:16.000   28.342091841  -16.459004986  1496.6068   2   6   0.0235   0.0298   0.0823  -0.0163   0.0292  -0.0361 -14.00    0.0
2024/05/06 15:34:17.000   28.342091840  -16.459004987  1496.6068   2   6   0.0235   0.0298   0.0823  -0.0163   0.0292  -0.0361 -13.00    0.0
2024/05/06 15:34:18.000   28.342091840  -16.459004988  1496.6067   2   6   0.0235   0.0298   0.0823  -0.0163   0.0292  -0.0361 -12.00    0.0
2024/05/06 15:34:19.000   28.342091840  -16.459004989  1496.6065   2   6   0.0235   0.0298   0.0823  -0.0163   0.0292  -0.0361 -11.00    0.0
2024/05/06 15:34:20.000   28.342091840  -16.459004989  1496.6064   2   6   0.0235   0.0298   0.0823  -0.0163   0.0292  -0.0361 -10.00    0.0
2024/05/06 15:34:21.000   28.342091840  -16.459004989  1496.6064   2   6   0.0235   0.0298   0.0823  -0.0163   0.0291  -0.0361  -9.00    0.0
2024/05/06 15:34:22.000   28.342091840  -16.459004989  1496.6062   2   6   0.0235   0.0298   0.0824  -0.0163   0.0291  -0.0361  -8.00    0.0
2024/05/06 15:34:23.000   28.342091839  -16.459004987  1496.6063   2   6   0.0235   0.0298   0.0824  -0.0163   0.0291  -0.0361  -7.00    0.0
2024/05/06 15:34:24.000   28.342091838  -16.459004986  1496.6064   2   6   0.0235   0.0298   0.0824  -0.0163   0.0291  -0.0361  -6.00    0.0
2024/05/06 15:34:25.000   28.342091837  -16.459004985  1496.6061   2   6   0.0235   0.0298   0.0824  -0.0163   0.0291  -0.0361  -5.00    0.0
2024/05/06 15:34:26.000   28.342091835  -16.459004982  1496.6062   2   6   0.0235   0.0298   0.0825  -0.0163   0.0291  -0.0362  -4.00    0.0
2024/05/06 15:34:27.000   28.342091834  -16.459004978  1496.6064   2   6   0.0235   0.0298   0.0825  -0.0163   0.0292  -0.0362  -3.00    0.0
2024/05/06 15:34:28.000   28.342091832  -16.459004974  1496.6065   2   6   0.0236   0.0299   0.0826  -0.0163   0.0292  -0.0362  -2.00    0.0
2024/05/06 15:34:29.000   28.342091829  -16.459004968  1496.6068   2   6   0.0236   0.0299   0.0827  -0.0163   0.0292  -0.0362  -1.00    0.0
2024/05/06 15:34:30.000   28.342091827  -16.459004962  1496.6066   2   6   0.0236   0.0299   0.0827  -0.0163   0.0292  -0.0363   0.00    0.0
2024/05/06 15:34:31.000   28.342091823  -16.459004954  1496.6069   2   6   0.0236   0.0300   0.0828  -0.0163   0.0292  -0.0363   1.00    0.0
2024/05/06 15:34:32.000   28.342091819  -16.459004946  1496.6075   2   6   0.0236   0.0300   0.0829  -0.0163   0.0292  -0.0363   2.00    0.0
2024/05/06 15:34:33.000   28.342091816  -16.459004941  1496.6077   2   6   0.0237   0.0300   0.0830  -0.0163   0.0292  -0.0364   3.00    0.0
2024/05/06 15:34:34.000   28.342091813  -16.459004936  1496.6080   2   6   0.0237   0.0301   0.0830  -0.0164   0.0293  -0.0364   4.00    0.0
2024/05/06 15:34:35.000   28.342091811  -16.459004933  1496.6086   2   6   0.0237   0.0301   0.0831  -0.0164   0.0293  -0.0364   5.00    0.0
2024/05/06 15:34:36.000   28.342091809  -16.459004932  1496.6090   2   6   0.0237   0.0301   0.0831  -0.0164   0.0293  -0.0364   6.00    0.0
2024/05/06 15:34:37.000   28.342091809  -16.459004931  1496.6089   2   6   0.0237   0.0301   0.0832  -0.0164   0.0293  -0.0364   7.00    0.0
2024/05/06 15:34:38.000   28.342091808  -16.459004930  1496.6091   2   6   0.0237   0.0301   0.0832  -0.0164   0.0293  -0.0364   8.00    0.0
2024/05/06 15:34:39.000   28.342091806  -16.459004929  1496.6095   2   6   0.0237   0.0301   0.0832  -0.0164   0.0293  -0.0365   9.00    0.0
2024/05/06 15:34:40.000   28.342091805  -16.459004929  1496.6098   2   6   0.0237   0.0301   0.0833  -0.0164   0.0293  -0.0365  10.00    0.0
2024/05/06 15:34:41.000   28.342091804  -16.459004928  1496.6099   2   6   0.0238   0.0301   0.0833  -0.0164   0.0293  -0.0365  11.00    0.0
2024/05/06 15:34:42.000   28.342091804  -16.459004928  1496.6101   2   6   0.0238   0.0301   0.0833  -0.0164   0.0293  -0.0365  12.00    0.0
2024/05/06 15:34:43.000   28.342091803  -16.459004928  1496.6102   2   6   0.0238   0.0301   0.0833  -0.0164   0.0293  -0.0365  13.00    0.0
2024/05/06 15:34:44.000   28.342091803  -16.459004928  1496.6103   2   6   0.0238   0.0301   0.0833  -0.0164   0.0293  -0.0365  14.00    0.0
2024/05/06 15:34:45.000   28.342091803  -16.459004928  1496.6104   2   6   0.0238   0.0301   0.0833  -0.0164   0.0293  -0.0365 -15.00    0.0
2024/05/06 15:34:46.000   28.342091802  -16.459004928  1496.6106   2   6   0.0238   0.0301   0.0833  -0.0164   0.0293  -0.0365 -14.00    0.0
2024/05/06 15:34:47.000   28.342091801  -16.459004927  1496.6109   2   6   0.0238   0.0301   0.0833  -0.0163   0.0292  -0.0365 -13.00    0.0
2024/05/06 15:34:48.000   28.342091801  -16.459004926  1496.6110   2   6   0.0238   0.0301   0.0833  -0.0163   0.0292  -0.0365 -12.00    0.0
2024/05/06 15:34:49.000   28.342091800  -16.459004925  1496.6113   2   6   0.0238   0.0301   0.0833  -0.0163   0.0292  -0.0365 -11.00    0.0
2024/05/06 15:34:50.000   28.342091799  -16.459004924  1496.6114   2   6   0.0238   0.0301   0.0833  -0.0163   0.0292  -0.0365 -10.00    0.0
2024/05/06 15:34:51.000   28.342091798  -16.459004923  1496.6116   2   6   0.0238   0.0301   0.0833  -0.0163   0.0292  -0.0365  -9.00    0.0
2024/05/06 15:34:52.000   28.342091797  -16.459004921  1496.6118   2   6   0.0238   0.0302   0.0834  -0.0163   0.0292  -0.0365  -8.00    0.0
2024/05/06 15:34:53.000   28.342091796  -16.459004919  1496.6121   2   6   0.0238   0.0302   0.0834  -0.0163   0.0292  -0.0365  -7.00    0.0
2024/05/06 15:34:54.000   28.342091794  -16.459004917  1496.6127   2   6   0.0238   0.0302   0.0834  -0.0163   0.0292  -0.0365  -6.00    0.0
2024/05/06 15:34:55.000   28.342091792  -16.459004914  1496.6131   2   6   0.0238   0.0302   0.0834  -0.0163   0.0292  -0.0365  -5.00    0.0
2024/05/06 15:34:56.000   28.342091790  -16.459004910  1496.6136   2   6   0.0238   0.0302   0.0835  -0.0163   0.0292  -0.0365  -4.00    0.0
2024/05/06 15:34:57.000   28.342091788  -16.459004906  1496.6139   2   6   0.0238   0.0302   0.0835  -0.0164   0.0293  -0.0366  -3.00    0.0
2024/05/06 15:34:58.000   28.342091785  -16.459004902  1496.6143   2   6   0.0238   0.0302   0.0836  -0.0164   0.0293  -0.0366  -2.00    0.0
2024/05/06 15:34:59.000   28.342091783  -16.459004899  1496.6143   2   6   0.0239   0.0303   0.0837  -0.0164   0.0293  -0.0366  -1.00    0.0
2024/05/06 15:35:00.000   28.342091781  -16.459004895  1496.6145   2   6   0.0239   0.0303   0.0838  -0.0164   0.0293  -0.0367   0.00    0.0
2024/05/06 15:35:01.000   28.342091780  -16.459004890  1496.6149   2   6   0.0239   0.0303   0.0839  -0.0164   0.0293  -0.0367   1.00    0.0
2024/05/06 15:35:02.000   28.342091776  -16.459004882  1496.6154   2   6   0.0239   0.0304   0.0839  -0.0164   0.0293  -0.0367   2.00    0.0
2024/05/06 15:35:03.000   28.342091774  -16.459004874  1496.6153   2   6   0.0240   0.0304   0.0840  -0.0164   0.0294  -0.0368   3.00    0.0
2024/05/06 15:35:04.000   28.342091772  -16.459004866  1496.6151   2   6   0.0240   0.0304   0.0841  -0.0164   0.0294  -0.0368   4.00    0.0
2024/05/06 15:35:05.000   28.342091771  -16.459004859  1496.6150   2   6   0.0240   0.0305   0.0842  -0.0164   0.0294  -0.0368   5.00    0.0
2024/05/06 15:35:06.000   28.342091770  -16.459004852  1496.6148   2   6   0.0240   0.0305   0.0842  -0.0164   0.0294  -0.0368   6.00    0.0
2024/05/06 15:35:07.000   28.342091769  -16.459004848  1496.6146   2   6   0.0240   0.0305   0.0842  -0.0164   0.0294  -0.0368   7.00    0.0
2024/05/06 15:35:08.000   28.342091769  -16.459004844  1496.6144   2   6   0.0240   0.0305   0.0843  -0.0165   0.0294  -0.0369   8.00    0.0
2024/05/06 15:35:09.000   28.342091769  -16.459004841  1496.6142   2   6   0.0240   0.0305   0.0843  -0.0165   0.0294  -0.0369   9.00    0.0
2024/05/06 15:35:10.000   28.342091769  -16.459004839  1496.6139   2   6   0.0241   0.0305   0.0843  -0.0165   0.0294  -0.0369  10.00    0.0
2024/05/06 15:35:11.000   28.342091769  -16.459004838  1496.6136   2   6   0.0241   0.0305   0.0843  -0.0165   0.0294  -0.0369  11.00    0.0
2024/05/06 15:35:12.000   28.342091770  -16.459004838  1496.6133   2   7   0.0241   0.0305   0.0843  -0.0164   0.0294  -0.0369  12.00    0.0
2024/05/06 15:35:13.000   28.342091773  -16.459004839  1496.6099   2   7   0.0241   0.0305   0.0844  -0.0164   0.0294  -0.0369  13.00    0.0
2024/05/06 15:35:14.000   28.342091774  -16.459004841  1496.6097   2   7   0.0241   0.0305   0.0844  -0.0164   0.0294  -0.0369  14.00    0.0
2024/05/06 15:35:15.000   28.342091774  -16.459004840  1496.6098   2   7   0.0241   0.0305   0.0844  -0.0164   0.0294  -0.0369 -15.00    0.0
2024/05/06 15:35:16.000   28.342091774  -16.459004840  1496.6100   2   7   0.0241   0.0305   0.0844  -0.0164   0.0294  -0.0369 -14.00    0.0
2024/05/06 15:35:17.000   28.342091773  -16.459004839  1496.6102   2   7   0.0241   0.0305   0.0844  -0.0164   0.0294  -0.0369 -13.00    0.0
2024/05/06 15:35:18.000   28.342091773  -16.459004839  1496.6103   2   7   0.0241   0.0305   0.0844  -0.0164   0.0294  -0.0369 -12.00    0.0
2024/05/06 15:35:19.000   28.342091772  -16.459004837  1496.6106   2   7   0.0241   0.0305   0.0844  -0.0164   0.0294  -0.0369 -11.00    0.0
2024/05/06 15:35:20.000   28.342091773  -16.459004837  1496.6106   2   7   0.0241   0.0305   0.0844  -0.0164   0.0294  -0.0369 -10.00    0.0
2024/05/06 15:35:21.000   28.342091772  -16.459004835  1496.6108   2   7   0.0241   0.0305   0.0845  -0.0164   0.0294  -0.0369  -9.00    0.0
2024/05/06 15:35:22.000   28.342091772  -16.459004834  1496.6110   2   7   0.0241   0.0305   0.0845  -0.0164   0.0294  -0.0369  -8.00    0.0
2024/05/06 15:35:23.000   28.342091773  -16.459004833  1496.6107   2   7   0.0241   0.0305   0.0845  -0.0164   0.0294  -0.0369  -7.00    0.0
2024/05/06 15:35:24.000   28.342091773  -16.459004831  1496.6103   2   7   0.0241   0.0306   0.0846  -0.0164   0.0294  -0.0369  -6.00    0.0
2024/05/06 15:35:25.000   28.342091772  -16.459004828  1496.6104   2   7   0.0241   0.0306   0.0846  -0.0164   0.0294  -0.0370  -5.00    0.0
2024/05/06 15:35:26.000   28.342091772  -16.459004825  1496.6102   2   7   0.0241   0.0306   0.0847  -0.0164   0.0294  -0.0370  -4.00    0.0
2024/05/06 15:35:27.000   28.342091773  -16.459004821  1496.6093   2   7   0.0241   0.0306   0.0848  -0.0164   0.0294  -0.0370  -3.00    0.0
2024/05/06 15:35:28.000   28.342091772  -16.459004818  1496.6085   2   7   0.0241   0.0306   0.0848  -0.0164   0.0294  -0.0370  -2.00    0.0
2024/05/06 15:35:29.000   28.342091772  -16.459004814  1496.6077   2   7   0.0242   0.0306   0.0849  -0.0164   0.0294  -0.0371  -1.00    0.0
2024/05/06 15:35:30.000   28.342091773  -16.459004810  1496.6072   2   7   0.0242   0.0307   0.0850  -0.0165   0.0294  -0.0371   0.00    0.0
2024/05/06 15:35:31.000   28.342091772  -16.459004807  1496.6070   2   7   0.0242   0.0307   0.0851  -0.0165   0.0295  -0.0371   1.00    0.0
2024/05/06 15:35:32.000   28.342091774  -16.459004805  1496.6059   2   7   0.0243   0.0308   0.0852  -0.0165   0.0295  -0.0372   2.00    0.0
2024/05/06 15:35:33.000   28.342091775  -16.459004803  1496.6047   2   7   0.0243   0.0308   0.0853  -0.0165   0.0295  -0.0372   3.00    0.0
2024/05/06 15:35:34.000   28.342091775  -16.459004800  1496.6042   2   7   0.0243   0.0308   0.0854  -0.0165   0.0295  -0.0372   4.00    0.0
2024/05/06 15:35:35.000   28.342091775  -16.459004799  1496.6043   2   7   0.0243   0.0308   0.0855  -0.0165   0.0295  -0.0373   5.00    0.0
2024/05/06 15:35:36.000   28.342091774  -16.459004797  1496.6046   2   7   0.0243   0.0309   0.0856  -0.0165   0.0295  -0.0373   6.00    0.0
2024/05/06 15:35:37.000   28.342091774  -16.459004796  1496.6046   2   7   0.0243   0.0309   0.0856  -0.0165   0.0295  -0.0373   7.00    0.0
2024/05/06 15:35:38.000   28.342091775  -16.459004796  1496.6047   2   7   0.0243   0.0309   0.0857  -0.0165   0.0295  -0.0373   8.00    0.0
2024/05/06 15:35:39.000   28.342091774  -16.459004794  1496.6050   2   7   0.0243   0.0309   0.0857  -0.0165   0.0295  -0.0373   9.00    0.0
2024/05/06 15:35:40.000   28.342091774  -16.459004794  1496.6052   2   7   0.0244   0.0309   0.0857  -0.0165   0.0295  -0.0373  10.00    0.0
2024/05/06 15:35:41.000   28.342091774  -16.459004793  1496.6055   2   7   0.0244   0.0309   0.0858  -0.0165   0.0295  -0.0374  11.00    0.0
2024/05/06 15:35:42.000   28.342091773  -16.459004792  1496.6059   2   7   0.0244   0.0309   0.0858  -0.0165   0.0295  -0.0374  12.00    0.0
2024/05/06 15:35:43.000   28.342091773  -16.459004793  1496.6062   2   7   0.0244   0.0309   0.0858  -0.0165   0.0295  -0.0374  13.00    0.0
2024/05/06 15:35:44.000   28.342091772  -16.459004793  1496.6064   2   7   0.0244   0.0309   0.0858  -0.0165   0.0295  -0.0374  14.00    0.0
2024/05/06 15:35:45.000   28.342091772  -16.459004793  1496.6065   2   7   0.0244   0.0309   0.0858  -0.0165   0.0295  -0.0374 -15.00    0.0
2024/05/06 15:35:46.000   28.342091772  -16.459004793  1496.6065   2   7   0.0244   0.0309   0.0858  -0.0165   0.0295  -0.0374 -14.00    0.0
2024/05/06 15:35:47.000   28.342091772  -16.459004794  1496.6065   2   7   0.0244   0.0309   0.0858  -0.0165   0.0295  -0.0374 -13.00    0.0
2024/05/06 15:35:48.000   28.342091772  -16.459004794  1496.6065   2   7   0.0244   0.0309   0.0859  -0.0165   0.0295  -0.0374 -12.00    0.0
2024/05/06 15:35:49.000   28.342091772  -16.459004795  1496.6065   2   7   0.0244   0.0309   0.0859  -0.0165   0.0295  -0.0374 -11.00    0.0
2024/05/06 15:35:50.000   28.342091771  -16.459004795  1496.6066   2   7   0.0244   0.0309   0.0859  -0.0165   0.0295  -0.0374 -10.00    0.0
2024/05/06 15:35:51.000   28.342091771  -16.459004796  1496.6064   2   7   0.0244   0.0309   0.0859  -0.0165   0.0295  -0.0374  -9.00    0.0
2024/05/06 15:35:52.000   28.342091771  -16.459004797  1496.6062   2   7   0.0244   0.0309   0.0860  -0.0165   0.0295  -0.0374  -8.00    0.0
2024/05/06 15:35:53.000   28.342091771  -16.459004798  1496.6059   2   7   0.0244   0.0309   0.0860  -0.0165   0.0295  -0.0374  -7.00    0.0
2024/05/06 15:35:54.000   28.342091770  -16.459004800  1496.6056   2   7   0.0244   0.0309   0.0860  -0.0165   0.0295  -0.0374  -6.00    0.0
2024/05/06 15:35:55.000   28.342091770  -16.459004801  1496.6054   2   7   0.0244   0.0309   0.0861  -0.0165   0.0295  -0.0375  -5.00    0.0
2024/05/06 15:35:56.000   28.342091770  -16.459004803  1496.6052   2   7   0.0244   0.0310   0.0861  -0.0165   0.0295  -0.0375  -4.00    0.0
2024/05/06 15:35:57.000   28.342091770  -16.459004805  1496.6048   2   7   0.0244   0.0310   0.0862  -0.0165   0.0296  -0.0375  -3.00    0.0
2024/05/06 15:35:58.000   28.342091769  -16.459004807  1496.6047   2   7   0.0245   0.0310   0.0863  -0.0165   0.0296  -0.0375  -2.00    0.0
2024/05/06 15:35:59.000   28.342091768  -16.459004808  1496.6046   2   7   0.0245   0.0310   0.0864  -0.0165   0.0296  -0.0376  -1.00    0.0
2024/05/06 15:36:00.000   28.342091767  -16.459004812  1496.6038   2   7   0.0245   0.0311   0.0865  -0.0165   0.0296  -0.0376   0.00    0.0
2024/05/06 15:36:01.000   28.342091765  -16.459004813  1496.6038   2   7   0.0245   0.0311   0.0866  -0.0166   0.0296  -0.0376   1.00    0.0
2024/05/06 15:36:02.000   28.342091763  -16.459004815  1496.6033   2   7   0.0246   0.0311   0.0867  -0.0166   0.0297  -0.0377   2.00    0.0
2024/05/06 15:36:03.000   28.342091761  -16.459004815  1496.6033   2   7   0.0246   0.0312   0.0868  -0.0166   0.0297  -0.0377   3.00    0.0
2024/05/06 15:36:04.000   28.342091759  -16.459004814  1496.6035   2   7   0.0246   0.0312   0.0869  -0.0166   0.0297  -0.0377   4.00    0.0
2024/05/06 15:36:05.000   28.342091759  -16.459004813  1496.6031   2   7   0.0246   0.0312   0.0869  -0.0166   0.0297  -0.0378   5.00    0.0
2024/05/06 15:36:06.000   28.342091759  -16.459004812  1496.6026   2   7   0.0246   0.0312   0.0870  -0.0166   0.0297  -0.0378   6.00    0.0
2024/05/06 15:36:07.000   28.342091758  -16.459004812  1496.6025   2   7   0.0246   0.0312   0.0870  -0.0166   0.0297  -0.0378   7.00    0.0
2024/05/06 15:36:08.000   28.342091757  -16.459004811  1496.6024   2   7   0.0247   0.0313   0.0871  -0.0166   0.0297  -0.0378   8.00    0.0
2024/05/06 15:36:09.000   28.342091757  -16.459004810  1496.6021   2   7   0.0247   0.0313   0.0871  -0.0166   0.0297  -0.0378   9.00    0.0
2024/05/06 15:36:10.000   28.342091756  -16.459004808  1496.6021   2   7   0.0247   0.0313   0.0872  -0.0166   0.0297  -0.0378  10.00    0.0
2024/05/06 15:36:11.000   28.342091757  -16.459004807  1496.6017   2   7   0.0247   0.0313   0.0872  -0.0166   0.0297  -0.0378  11.00    0.0
2024/05/06 15:36:12.000   28.342091756  -16.459004806  1496.6014   2   7   0.0247   0.0313   0.0872  -0.0166   0.0297  -0.0378  12.00    0.0
2024/05/06 15:36:13.000   28.342091756  -16.459004804  1496.6011   2   7   0.0247   0.0313   0.0872  -0.0166   0.0297  -0.0379  13.00    0.0
2024/05/06 15:36:14.000   28.342091757  -16.459004803  1496.6009   2   7   0.0247   0.0313   0.0872  -0.0166   0.0297  -0.0379  14.00    0.0
2024/05/06 15:36:15.000   28.342091756  -16.459004802  1496.6007   2   7   0.0247   0.0313   0.0873  -0.0166   0.0297  -0.0379 -15.00    0.0
2024/05/06 15:36:16.000   28.342091756  -16.459004802  1496.6005   2   7   0.0247   0.0313   0.0873  -0.0166   0.0297  -0.0379 -14.00    0.0
2024/05/06 15:36:17.000   28.342091756  -16.459004801  1496.6004   2   7   0.0247   0.0313   0.0873  -0.0166   0.0297  -0.0379 -13.00    0.0
2024/05/06 15:36:18.000   28.342091756  -16.459004801  1496.6001   2   7   0.0247   0.0313   0.0873  -0.0166   0.0297  -0.0379 -12.00    0.0
2024/05/06 15:36:19.000   28.342091756  -16.459004801  1496.5998   2   7   0.0247   0.0313   0.0873  -0.0166   0.0297  -0.0379 -11.00    0.0
2024/05/06 15:36:20.000   28.342091756  -16.459004800  1496.5996   2   7   0.0247   0.0313   0.0873  -0.0166   0.0297  -0.0379 -10.00    0.0
2024/05/06 15:36:21.000   28.342091756  -16.459004801  1496.5993   2   7   0.0247   0.0313   0.0874  -0.0166   0.0297  -0.0379  -9.00    0.0
2024/05/06 15:36:22.000   28.342091756  -16.459004802  1496.5990   2   7   0.0247   0.0313   0.0874  -0.0166   0.0297  -0.0379  -8.00    0.0
2024/05/06 15:36:23.000   28.342091756  -16.459004802  1496.5987   2   7   0.0247   0.0313   0.0874  -0.0166   0.0297  -0.0379  -7.00    0.0
2024/05/06 15:36:24.000   28.342091757  -16.459004803  1496.5983   2   7   0.0247   0.0313   0.0875  -0.0166   0.0297  -0.0379  -6.00    0.0
2024/05/06 15:36:25.000   28.342091757  -16.459004805  1496.5981   2   7   0.0247   0.0313   0.0875  -0.0166   0.0297  -0.0379  -5.00    0.0
2024/05/06 15:36:26.000   28.342091757  -16.459004807  1496.5978   2   7   0.0247   0.0313   0.0876  -0.0166   0.0298  -0.0380  -4.00    0.0
2024/05/06 15:36:27.000   28.342091757  -16.459004810  1496.5972   2   7   0.0248   0.0314   0.0876  -0.0166   0.0298  -0.0380  -3.00    0.0
2024/05/06 15:36:28.000   28.342091758  -16.459004815  1496.5963   2   7   0.0248   0.0314   0.0877  -0.0166   0.0298  -0.0380  -2.00    0.0
2024/05/06 15:36:29.000   28.342091758  -16.459004821  1496.5956   2   7   0.0248   0.0314   0.0878  -0.0166   0.0298  -0.0380  -1.00    0.0
2024/05/06 15:36:30.000   28.342091757  -16.459004823  1496.5949   2   7   0.0248   0.0315   0.0879  -0.0166   0.0298  -0.0381   0.00    0.0
2024/05/06 15:36:31.000   28.342091757  -16.459004828  1496.5940   2   7   0.0248   0.0315   0.0880  -0.0167   0.0298  -0.0381   1.00    0.0
2024/05/06 15:36:32.000   28.342091757  -16.459004834  1496.5928   2   7   0.0249   0.0315   0.0881  -0.0167   0.0299  -0.0381   2.00    0.0
2024/05/06 15:36:33.000   28.342091756  -16.459004838  1496.5917   2   7   0.0249   0.0316   0.0882  -0.0167   0.0299  -0.0382   3.00    0.0
2024/05/06 15:36:34.000   28.342091758  -16.459004844  1496.5901   2   7   0.0249   0.0316   0.0882  -0.0167   0.0299  -0.0382   4.00    0.0
2024/05/06 15:36:35.000   28.342091759  -16.459004848  1496.5887   2   7   0.0249   0.0316   0.0883  -0.0167   0.0299  -0.0382   5.00    0.0
2024/05/06 15:36:36.000   28.342091760  -16.459004851  1496.5875   2   7   0.0249   0.0316   0.0884  -0.0167   0.0299  -0.0383   6.00    0.0
2024/05/06 15:36:37.000   28.342091762  -16.459004855  1496.5863   2   7   0.0250   0.0316   0.0884  -0.0167   0.0299  -0.0383   7.00    0.0
2024/05/06 15:36:38.000   28.342091762  -16.459004857  1496.5856   2   7   0.0250   0.0316   0.0885  -0.0167   0.0299  -0.0383   8.00    0.0
2024/05/06 15:36:39.000   28.342091763  -16.459004859  1496.5848   2   7   0.0250   0.0316   0.0885  -0.0167   0.0299  -0.0383   9.00    0.0
2024/05/06 15:36:40.000   28.342091764  -16.459004861  1496.5841   2   7   0.0250   0.0316   0.0885  -0.0167   0.0299  -0.0383  10.00    0.0
2024/05/06 15:36:41.000   28.342091765  -16.459004863  1496.5836   2   7   0.0250   0.0317   0.0886  -0.0167   0.0299  -0.0383  11.00    0.0
2024/05/06 15:36:42.000   28.342091766  -16.459004865  1496.5828   2   7   0.0250   0.0317   0.0886  -0.0167   0.0299  -0.0383  12.00    0.0
2024/05/06 15:36:43.000   28.342091767  -16.459004866  1496.5822   2   7   0.0250   0.0317   0.0886  -0.0167   0.0299  -0.0383  13.00    0.0
2024/05/06 15:36:44.000   28.342091768  -16.459004867  1496.5817   2   7   0.0250   0.0317   0.0886  -0.0167   0.0299  -0.0383  14.00    0.0
2024/05/06 15:36:45.000   28.342091768  -16.459004869  1496.5812   2   7   0.0250   0.0317   0.0886  -0.0167   0.0299  -0.0383 -15.00    0.0
2024/05/06 15:36:46.000   28.342091769  -16.459004870  1496.5808   2   7   0.0250   0.0317   0.0886  -0.0167   0.0299  -0.0383 -14.00    0.0
2024/05/06 15:36:47.000   28.342091770  -16.459004871  1496.5803   2   7   0.0250   0.0317   0.0886  -0.0167   0.0299  -0.0383 -13.00    0.0
2024/05/06 15:36:48.000   28.342091771  -16.459004873  1496.5797   2   7   0.0250   0.0317   0.0887  -0.0167   0.0299  -0.0383 -12.00    0.0
2024/05/06 15:36:49.000   28.342091772  -16.459004875  1496.5792   2   7   0.0250   0.0317   0.0887  -0.0167   0.0300  -0.0383 -11.00    0.0
2024/05/06 15:36:50.000   28.342091773  -16.459004876  1496.5787   2   7   0.0250   0.0317   0.0887  -0.0167   0.0300  -0.0384 -10.00    0.0
2024/05/06 15:36:51.000   28.342091773  -16.459004877  1496.5782   2   7   0.0250   0.0317   0.0887  -0.0167   0.0300  -0.0384  -9.00    0.0
2024/05/06 15:36:52.000   28.342091774  -16.459004879  1496.5777   2   7   0.0250   0.0317   0.0887  -0.0167   0.0300  -0.0384  -8.00    0.0
2024/05/06 15:36:53.000   28.342091775  -16.459004880  1496.5771   2   7   0.0250   0.0317   0.0888  -0.0167   0.0300  -0.0384  -7.00    0.0
2024/05/06 15:36:54.000   28.342091776  -16.459004880  1496.5765   2   7   0.0250   0.0317   0.0888  -0.0167   0.0300  -0.0384  -6.00    0.0
2024/05/06 15:36:55.000   28.342091777  -16.459004881  1496.5758   2   7   0.0250   0.0317   0.0889  -0.0167   0.0300  -0.0384  -5.00    0.0
2024/05/06 15:36:56.000   28.342091777  -16.459004880  1496.5754   2   7   0.0250   0.0317   0.0889  -0.0167   0.0300  -0.0384  -4.00    0.0
2024/05/06 15:36:57.000   28.342091778  -16.459004880  1496.5745   2   7   0.0251   0.0317   0.0890  -0.0167   0.0300  -0.0385  -3.00    0.0
2024/05/06 15:36:58.000   28.342091779  -16.459004879  1496.5737   2   7   0.0251   0.0318   0.0890  -0.0167   0.0300  -0.0385  -2.00    0.0
2024/05/06 15:36:59.000   28.342091780  -16.459004877  1496.5734   2   7   0.0251   0.0318   0.0891  -0.0167   0.0300  -0.0385  -1.00    0.0
2024/05/06 15:37:00.000   28.342091780  -16.459004874  1496.5726   2   7   0.0251   0.0318   0.0892  -0.0168   0.0301  -0.0385   0.00    0.0
2024/05/06 15:37:01.000   28.342091778  -16.459004870  1496.5728   2   6   0.0251   0.0319   0.0893  -0.0168   0.0301  -0.0386   1.00    0.0
2024/05/06 15:37:02.000   28.342091779  -16.459004866  1496.5723   2   6   0.0252   0.0319   0.0894  -0.0168   0.0301  -0.0386   2.00    0.0
2024/05/06 15:37:03.000   28.342091779  -16.459004862  1496.5722   2   6   0.0252   0.0319   0.0895  -0.0168   0.0301  -0.0386   3.00    0.0
2024/05/06 15:37:04.000   28.342091779  -16.459004860  1496.5721   2   6   0.0252   0.0319   0.0895  -0.0168   0.0301  -0.0387   4.00    0.0
2024/05/06 15:37:05.000   28.342091778  -16.459004858  1496.5724   2   6   0.0252   0.0320   0.0896  -0.0168   0.0301  -0.0387   5.00    0.0
2024/05/06 15:37:06.000   28.342091778  -16.459004855  1496.5727   2   6   0.0252   0.0320   0.0897  -0.0168   0.0302  -0.0387   6.00    0.0
2024/05/06 15:37:07.000   28.342091778  -16.459004852  1496.5731   2   6   0.0252   0.0320   0.0897  -0.0168   0.0302  -0.0387   7.00    0.0
2024/05/06 15:37:08.000   28.342091777  -16.459004850  1496.5732   2   6   0.0253   0.0320   0.0897  -0.0168   0.0302  -0.0387   8.00    0.0
2024/05/06 15:37:09.000   28.342091777  -16.459004847  1496.5733   2   6   0.0253   0.0320   0.0898  -0.0168   0.0302  -0.0387   9.00    0.0
2024/05/06 15:37:10.000   28.342091776  -16.459004846  1496.5738   2   6   0.0253   0.0320   0.0898  -0.0168   0.0302  -0.0387  10.00    0.0
2024/05/06 15:37:11.000   28.342091776  -16.459004844  1496.5741   2   6   0.0253   0.0320   0.0898  -0.0168   0.0302  -0.0388  11.00    0.0
2024/05/06 15:37:12.000   28.342091775  -16.459004842  1496.5745   2   6   0.0253   0.0320   0.0898  -0.0168   0.0302  -0.0388  12.00    0.0
2024/05/06 15:37:13.000   28.342091775  -16.459004840  1496.5748   2   6   0.0253   0.0320   0.0899  -0.0168   0.0302  -0.0388  13.00    0.0
2024/05/06 15:37:14.000   28.342091775  -16.459004839  1496.5751   2   6   0.0253   0.0320   0.0899  -0.0168   0.0302  -0.0388  14.00    0.0
2024/05/06 15:37:15.000   28.342091775  -16.459004839  1496.5754   2   6   0.0253   0.0320   0.0899  -0.0168   0.0302  -0.0388 -15.00    0.0
2024/05/06 15:37:16.000   28.342091775  -16.459004838  1496.5757   2   6   0.0253   0.0320   0.0899  -0.0168   0.0302  -0.0388 -14.00    0.0
2024/05/06 15:37:17.000   28.342091775  -16.459004837  1496.5761   2   6   0.0253   0.0320   0.0899  -0.0168   0.0302  -0.0388 -13.00    0.0
2024/05/06 15:37:18.000   28.342091775  -16.459004835  1496.5766   2   6   0.0253   0.0320   0.0899  -0.0168   0.0302  -0.0388 -12.00    0.0
2024/05/06 15:37:19.000   28.342091774  -16.459004834  1496.5771   2   6   0.0253   0.0320   0.0899  -0.0168   0.0302  -0.0388 -11.00    0.0
2024/05/06 15:37:20.000   28.342091774  -16.459004832  1496.5776   2   6   0.0253   0.0320   0.0900  -0.0168   0.0302  -0.0388 -10.00    0.0
2024/05/06 15:37:21.000   28.342091774  -16.459004830  1496.5783   2   6   0.0253   0.0320   0.0900  -0.0168   0.0302  -0.0388  -9.00    0.0
2024/05/06 15:37:22.000   28.342091774  -16.459004827  1496.5789   2   6   0.0253   0.0320   0.0900  -0.0168   0.0302  -0.0388  -8.00    0.0
2024/05/06 15:37:23.000   28.342091774  -16.459004825  1496.5796   2   6   0.0253   0.0321   0.0900  -0.0168   0.0302  -0.0388  -7.00    0.0
2024/05/06 15:37:24.000   28.342091773  -16.459004821  1496.5805   2   6   0.0253   0.0321   0.0901  -0.0168   0.0302  -0.0388  -6.00    0.0
2024/05/06 15:37:25.000   28.342091773  -16.459004817  1496.5813   2   6   0.0253   0.0321   0.0901  -0.0168   0.0302  -0.0388  -5.00    0.0
2024/05/06 15:37:26.000   28.342091774  -16.459004811  1496.5817   2   6   0.0253   0.0321   0.0901  -0.0168   0.0302  -0.0389  -4.00    0.0
2024/05/06 15:37:27.000   28.342091775  -16.459004806  1496.5820   2   6   0.0253   0.0321   0.0902  -0.0168   0.0302  -0.0389  -3.00    0.0
2024/05/06 15:37:28.000   28.342091776  -16.459004800  1496.5825   2   6   0.0254   0.0321   0.0903  -0.0168   0.0302  -0.0389  -2.00    0.0
2024/05/06 15:37:29.000   28.342091778  -16.459004793  1496.5830   2   6   0.0254   0.0321   0.0903  -0.0168   0.0303  -0.0389  -1.00    0.0
2024/05/06 15:37:30.000   28.342091780  -16.459004785  1496.5823   2   6   0.0254   0.0322   0.0904  -0.0169   0.0303  -0.0390   0.00    0.0
2024/05/06 15:37:31.000   28.342091782  -16.459004776  1496.5815   2   6   0.0254   0.0322   0.0905  -0.0169   0.0303  -0.0390   1.00    0.0
2024/05/06 15:37:32.000   28.342091783  -16.459004765  1496.5814   2   6   0.0254   0.0322   0.0906  -0.0169   0.0303  -0.0390   2.00    1.0
2024/05/06 15:37:33.000   28.342091785  -16.459004754  1496.5810   2   6   0.0255   0.0323   0.0906  -0.0169   0.0303  -0.0390   3.00    1.1
2024/05/06 15:37:34.000   28.342091786  -16.459004744  1496.5812   2   6   0.0255   0.0323   0.0907  -0.0169   0.0303  -0.0391   4.00    1.0
2024/05/06 15:37:35.000   28.342091788  -16.459004737  1496.5809   2   6   0.0255   0.0323   0.0908  -0.0169   0.0304  -0.0391   5.00    1.0
2024/05/06 15:37:36.000   28.342091790  -16.459004731  1496.5809   2   6   0.0255   0.0323   0.0908  -0.0169   0.0304  -0.0391   6.00    1.0
2024/05/06 15:37:37.000   28.342091790  -16.459004726  1496.5812   2   6   0.0255   0.0323   0.0908  -0.0169   0.0304  -0.0391   7.00    1.0
2024/05/06 15:37:38.000   28.342091791  -16.459004721  1496.5814   2   6   0.0255   0.0323   0.0909  -0.0169   0.0304  -0.0391   8.00    1.0
2024/05/06 15:37:39.000   28.342091792  -16.459004716  1496.5818   2   6   0.0255   0.0323   0.0909  -0.0169   0.0304  -0.0391   9.00    1.1
2024/05/06 15:37:40.000   28.342091792  -16.459004712  1496.5820   2   6   0.0255   0.0323   0.0909  -0.0169   0.0304  -0.0391  10.00    1.0
2024/05/06 15:37:41.000   28.342091793  -16.459004708  1496.5822   2   6   0.0255   0.0324   0.0910  -0.0169   0.0304  -0.0391  11.00    1.0
2024/05/06 15:37:42.000   28.342091793  -16.459004705  1496.5825   2   6   0.0255   0.0324   0.0910  -0.0169   0.0304  -0.0391  12.00    1.0
2024/05/06 15:37:43.000   28.342091793  -16.459004702  1496.5828   2   6   0.0255   0.0324   0.0910  -0.0169   0.0304  -0.0392  13.00    1.1
2024/05/06 15:37:44.000   28.342091793  -16.459004700  1496.5831   2   6   0.0255   0.0324   0.0910  -0.0169   0.0304  -0.0392  14.00    1.0
2024/05/06 15:37:45.000   28.342091793  -16.459004697  1496.5834   2   6   0.0255   0.0324   0.0910  -0.0169   0.0304  -0.0392 -15.00    1.0
2024/05/06 15:37:46.000   28.342091794  -16.459004696  1496.5836   2   6   0.0256   0.0324   0.0910  -0.0169   0.0304  -0.0392 -14.00    1.0
2024/05/06 15:37:47.000   28.342091794  -16.459004694  1496.5839   2   6   0.0256   0.0324   0.0910  -0.0169   0.0304  -0.0392 -13.00    1.0
2024/05/06 15:37:48.000   28.342091794  -16.459004692  1496.5842   2   6   0.0256   0.0324   0.0910  -0.0169   0.0304  -0.0392 -12.00    1.0
2024/05/06 15:37:49.000   28.342091794  -16.459004689  1496.5844   2   6   0.0256   0.0324   0.0910  -0.0169   0.0304  -0.0392 -11.00    1.0
2024/05/06 15:37:50.000   28.342091794  -16.459004687  1496.5847   2   6   0.0256   0.0324   0.0911  -0.0169   0.0304  -0.0392 -10.00    1.0
2024/05/06 15:37:51.000   28.342091795  -16.459004684  1496.5850   2   6   0.0256   0.0324   0.0911  -0.0169   0.0304  -0.0392  -9.00    1.0
2024/05/06 15:37:52.000   28.342091796  -16.459004681  1496.5852   2   6   0.0256   0.0324   0.0911  -0.0169   0.0304  -0.0392  -8.00    1.0
2024/05/06 15:37:53.000   28.342091797  -16.459004679  1496.5853   2   6   0.0256   0.0324   0.0911  -0.0169   0.0304  -0.0392  -7.00    1.0
2024/05/06 15:37:54.000   28.342091799  -16.459004675  1496.5853   2   6   0.0256   0.0324   0.0911  -0.0169   0.0304  -0.0392  -6.00    1.0
2024/05/06 15:37:55.000   28.342091801  -16.459004671  1496.5854   2   6   0.0256   0.0324   0.0912  -0.0169   0.0304  -0.0392  -5.00    1.0
2024/05/06 15:37:56.000   28.342091803  -16.459004666  1496.5854   2   6   0.0256   0.0324   0.0912  -0.0169   0.0304  -0.0392  -4.00    1.0
2024/05/06 15:37:57.000   28.342091805  -16.459004661  1496.5853   2   6   0.0256   0.0324   0.0913  -0.0169   0.0304  -0.0392  -3.00    1.0
2024/05/06 15:37:58.000   28.342091807  -16.459004657  1496.5852   2   6   0.0256   0.0324   0.0913  -0.0169   0.0304  -0.0393  -2.00    1.0
2024/05/06 15:37:59.000   28.342091810  -16.459004651  1496.5850   2   6   0.0256   0.0325   0.0914  -0.0169   0.0305  -0.0393  -1.00    1.0
2024/05/06 15:38:00.000   28.342091813  -16.459004643  1496.5850   2   6   0.0257   0.0325   0.0915  -0.0170   0.0305  -0.0393   0.00    1.0
2024/05/06 15:38:01.000   28.342091816  -16.459004635  1496.5845   2   6   0.0257   0.0325   0.0915  -0.0170   0.0305  -0.0393   1.00    1.1
2024/05/06 15:38:02.000   28.342091819  -16.459004625  1496.5842   2   6   0.0257   0.0325   0.0916  -0.0170   0.0305  -0.0394   2.00    1.0
2024/05/06 15:38:03.000   28.342091824  -16.459004617  1496.5838   2   6   0.0257   0.0326   0.0917  -0.0170   0.0305  -0.0394   3.00    1.0
2024/05/06 15:38:04.000   28.342091826  -16.459004610  1496.5837   2   6   0.0257   0.0326   0.0917  -0.0170   0.0305  -0.0394   4.00    1.0
2024/05/06 15:38:05.000   28.342091828  -16.459004606  1496.5835   2   6   0.0257   0.0326   0.0918  -0.0170   0.0305  -0.0394   5.00    1.0
2024/05/06 15:38:06.000   28.342091830  -16.459004604  1496.5834   2   6   0.0258   0.0326   0.0918  -0.0170   0.0306  -0.0394   6.00    1.0
2024/05/06 15:38:07.000   28.342091833  -16.459004603  1496.5832   2   6   0.0258   0.0326   0.0918  -0.0170   0.0306  -0.0394   7.00    1.0
2024/05/06 15:38:08.000   28.342091835  -16.459004601  1496.5833   2   6   0.0258   0.0326   0.0919  -0.0170   0.0306  -0.0395   8.00    1.0
2024/05/06 15:38:09.000   28.342091836  -16.459004600  1496.5832   2   6   0.0258   0.0326   0.0919  -0.0170   0.0306  -0.0395   9.00    1.1
2024/05/06 15:38:10.000   28.342091837  -16.459004599  1496.5832   2   6   0.0258   0.0326   0.0919  -0.0170   0.0306  -0.0395  10.00    1.0
2024/05/06 15:38:11.000   28.342091837  -16.459004599  1496.5832   2   6   0.0258   0.0327   0.0919  -0.0170   0.0306  -0.0395  11.00    1.1
2024/05/06 15:38:12.000   28.342091838  -16.459004598  1496.5831   2   6   0.0258   0.0327   0.0919  -0.0170   0.0306  -0.0395  12.00    1.0
2024/05/06 15:38:13.000   28.342091839  -16.459004598  1496.5829   2   6   0.0258   0.0327   0.0919  -0.0170   0.0306  -0.0395  13.00    1.1
2024/05/06 15:38:14.000   28.342091839  -16.459004598  1496.5830   2   6   0.0258   0.0327   0.0920  -0.0170   0.0306  -0.0395  14.00    1.0
2024/05/06 15:38:15.000   28.342091840  -16.459004598  1496.5829   2   6   0.0258   0.0327   0.0920  -0.0170   0.0306  -0.0395 -15.00    1.0
2024/05/06 15:38:16.000   28.342091840  -16.459004598  1496.5828   2   6   0.0258   0.0327   0.0920  -0.0170   0.0306  -0.0395 -14.00    1.0
2024/05/06 15:38:17.000   28.342091840  -16.459004598  1496.5829   2   6   0.0258   0.0327   0.0920  -0.0170   0.0306  -0.0395 -13.00    1.0
2024/05/06 15:38:18.000   28.342091841  -16.459004597  1496.5830   2   6   0.0258   0.0327   0.0920  -0.0170   0.0306  -0.0395 -12.00    1.0
2024/05/06 15:38:19.001   28.342091841  -16.459004597  1496.5830   2   6   0.0258   0.0327   0.0920  -0.0170   0.0306  -0.0395 -11.00    1.0
2024/05/06 15:38:20.000   28.342091842  -16.459004597  1496.5832   2   6   0.0258   0.0327   0.0920  -0.0170   0.0306  -0.0395 -10.00    1.0
2024/05/06 15:38:21.000   28.342091842  -16.459004596  1496.5834   2   6   0.0258   0.0327   0.0920  -0.0170   0.0306  -0.0395  -9.00    1.1
2024/05/06 15:38:22.000   28.342091843  -16.459004596  1496.5835   2   6   0.0258   0.0327   0.0920  -0.0170   0.0306  -0.0395  -8.00    1.0
2024/05/06 15:38:23.000   28.342091844  -16.459004596  1496.5836   2   6   0.0258   0.0327   0.0921  -0.0170   0.0306  -0.0395  -7.00    1.1
2024/05/06 15:38:24.000   28.342091845  -16.459004595  1496.5839   2   6   0.0258   0.0327   0.0921  -0.0170   0.0306  -0.0395  -6.00    1.0
2024/05/06 15:38:25.000   28.342091846  -16.459004595  1496.5844   2   6   0.0258   0.0327   0.0921  -0.0170   0.0306  -0.0395  -5.00    1.1
2024/05/06 15:38:26.000   28.342091847  -16.459004595  1496.5852   2   6   0.0258   0.0327   0.0921  -0.0170   0.0306  -0.0395  -4.00    1.0
2024/05/06 15:38:27.000   28.342091849  -16.459004594  1496.5860   2   6   0.0258   0.0327   0.0922  -0.0170   0.0306  -0.0396  -3.00    1.0
2024/05/06 15:38:28.000   28.342091851  -16.459004593  1496.5870   2   6   0.0258   0.0327   0.0922  -0.0170   0.0306  -0.0396  -2.00    1.1
2024/05/06 15:38:29.000   28.342091852  -16.459004593  1496.5880   2   6   0.0259   0.0327   0.0923  -0.0170   0.0306  -0.0396  -1.00    1.0
2024/05/06 15:38:30.000   28.342091854  -16.459004592  1496.5891   2   6   0.0259   0.0328   0.0923  -0.0170   0.0307  -0.0396   0.00    1.1
2024/05/06 15:38:31.000   28.342091855  -16.459004589  1496.5901   2   6   0.0259   0.0328   0.0924  -0.0171   0.0307  -0.0396   1.00    1.1
2024/05/06 15:38:32.000   28.342091856  -16.459004586  1496.5905   2   6   0.0259   0.0328   0.0924  -0.0171   0.0307  -0.0397   2.00    1.1
2024/05/06 15:38:33.000   28.342091858  -16.459004585  1496.5910   2   6   0.0259   0.0328   0.0925  -0.0171   0.0307  -0.0397   3.00    1.0
2024/05/06 15:38:34.000   28.342091859  -16.459004584  1496.5917   2   6   0.0259   0.0329   0.0925  -0.0171   0.0307  -0.0397   4.00    1.1
2024/05/06 15:38:35.000   28.342091860  -16.459004584  1496.5920   2   6   0.0260   0.0329   0.0926  -0.0171   0.0307  -0.0397   5.00    1.0
2024/05/06 15:38:36.000   28.342091861  -16.459004584  1496.5919   2   6   0.0260   0.0329   0.0926  -0.0171   0.0307  -0.0397   6.00    1.1
2024/05/06 15:38:37.000   28.342091862  -16.459004582  1496.5918   2   6   0.0260   0.0329   0.0926  -0.0171   0.0307  -0.0397   7.00    1.1
2024/05/06 15:38:38.000   28.342091862  -16.459004581  1496.5920   2   6   0.0260   0.0329   0.0926  -0.0171   0.0307  -0.0397   8.00    1.0
2024/05/06 15:38:39.000   28.342091862  -16.459004580  1496.5921   2   6   0.0260   0.0329   0.0927  -0.0171   0.0307  -0.0397   9.00    1.0
2024/05/06 15:38:40.000   28.342091862  -16.459004579  1496.5922   2   6   0.0260   0.0329   0.0927  -0.0171   0.0307  -0.0397  10.00    1.0
2024/05/06 15:38:41.000   28.342091862  -16.459004578  1496.5923   2   6   0.0260   0.0329   0.0927  -0.0171   0.0307  -0.0398  11.00    1.0
2024/05/06 15:38:42.000   28.342091862  -16.459004577  1496.5923   2   6   0.0260   0.0329   0.0927  -0.0171   0.0307  -0.0398  12.00    1.0
2024/05/06 15:38:43.000   28.342091863  -16.459004576  1496.5925   2   6   0.0260   0.0329   0.0927  -0.0171   0.0307  -0.0398  13.00    1.1
2024/05/06 15:38:44.000   28.342091863  -16.459004575  1496.5927   2   6   0.0260   0.0329   0.0927  -0.0171   0.0307  -0.0398  14.00    1.0
2024/05/06 15:38:45.000   28.342091862  -16.459004574  1496.5929   2   6   0.0260   0.0329   0.0927  -0.0171   0.0307  -0.0398 -15.00    1.0
2024/05/06 15:38:46.000   28.342091862  -16.459004573  1496.5932   2   6   0.0260   0.0329   0.0927  -0.0171   0.0307  -0.0398 -14.00    1.0
2024/05/06 15:38:47.000   28.342091862  -16.459004572  1496.5935   2   6   0.0260   0.0329   0.0927  -0.0171   0.0307  -0.0398 -13.00    1.0
2024/05/06 15:38:48.000   28.342091862  -16.459004571  1496.5938   2   6   0.0260   0.0329   0.0927  -0.0171   0.0307  -0.0398 -12.00    1.0
2024/05/06 15:38:49.000   28.342091862  -16.459004570  1496.5942   2   6   0.0260   0.0329   0.0928  -0.0171   0.0307  -0.0398 -11.00    1.1
2024/05/06 15:38:50.000   28.342091861  -16.459004569  1496.5947   2   6   0.0260   0.0329   0.0928  -0.0171   0.0307  -0.0398 -10.00    1.0
2024/05/06 15:38:51.000   28.342091861  -16.459004568  1496.5951   2   6   0.0260   0.0329   0.0928  -0.0171   0.0307  -0.0398  -9.00    1.0
2024/05/06 15:38:52.000   28.342091861  -16.459004567  1496.5954   2   6   0.0260   0.0329   0.0928  -0.0171   0.0308  -0.0398  -8.00    1.0
2024/05/06 15:38:53.000   28.342091861  -16.459004566  1496.5957   2   6   0.0260   0.0329   0.0928  -0.0171   0.0308  -0.0398  -7.00    1.0
2024/05/06 15:38:54.000   28.342091861  -16.459004565  1496.5963   2   6   0.0260   0.0329   0.0928  -0.0171   0.0308  -0.0398  -6.00    1.0
2024/05/06 15:38:55.000   28.342091861  -16.459004564  1496.5969   2   6   0.0260   0.0329   0.0928  -0.0171   0.0308  -0.0398  -5.00    1.1
2024/05/06 15:38:56.000   28.342091862  -16.459004563  1496.5975   2   6   0.0260   0.0329   0.0929  -0.0171   0.0308  -0.0398  -4.00    1.0
2024/05/06 15:38:57.000   28.342091863  -16.459004562  1496.5982   2   6   0.0260   0.0330   0.0929  -0.0171   0.0308  -0.0398  -3.00    1.0
2024/05/06 15:38:58.000   28.342091864  -16.459004562  1496.5989   2   6   0.0260   0.0330   0.0929  -0.0171   0.0308  -0.0398  -2.00    1.0
2024/05/06 15:38:59.000   28.342091865  -16.459004559  1496.6005   2   6   0.0261   0.0330   0.0929  -0.0171   0.0308  -0.0398  -1.00    1.0
2024/05/06 15:39:00.000   28.342091866  -16.459004557  1496.6024   2   6   0.0261   0.0330   0.0930  -0.0171   0.0308  -0.0399   0.00    1.0
2024/05/06 15:39:01.000   28.342091866  -16.459004556  1496.6049   2   6   0.0261   0.0330   0.0930  -0.0171   0.0308  -0.0399   1.00    1.1
2024/05/06 15:39:02.000   28.342091865  -16.459004556  1496.6075   2   6   0.0261   0.0330   0.0931  -0.0171   0.0308  -0.0399   2.00    1.1
2024/05/06 15:39:03.000   28.342091865  -16.459004555  1496.6094   2   6   0.0261   0.0331   0.0931  -0.0171   0.0309  -0.0399   3.00    1.0
2024/05/06 15:39:04.000   28.342091865  -16.459004556  1496.6113   2   6   0.0261   0.0331   0.0932  -0.0171   0.0309  -0.0399   4.00    1.1
2024/05/06 15:39:05.000   28.342091865  -16.459004557  1496.6135   2   6   0.0261   0.0331   0.0932  -0.0171   0.0309  -0.0399   5.00    1.0
2024/05/06 15:39:06.000   28.342091866  -16.459004558  1496.6150   2   6   0.0261   0.0331   0.0932  -0.0171   0.0309  -0.0399   6.00    1.1
2024/05/06 15:39:07.000   28.342091866  -16.459004559  1496.6164   2   6   0.0261   0.0331   0.0932  -0.0172   0.0309  -0.0399   7.00    1.1
2024/05/06 15:39:08.000   28.342091865  -16.459004560  1496.6177   2   6   0.0261   0.0331   0.0932  -0.0172   0.0309  -0.0399   8.00    1.1
2024/05/06 15:39:09.000   28.342091864  -16.459004559  1496.6192   2   6   0.0262   0.0331   0.0933  -0.0172   0.0309  -0.0400   9.00    1.0
2024/05/06 15:39:10.000   28.342091864  -16.459004560  1496.6204   2   6   0.0262   0.0331   0.0933  -0.0172   0.0309  -0.0400  10.00    1.1
2024/05/06 15:39:11.000   28.342091863  -16.459004559  1496.6215   2   6   0.0262   0.0331   0.0933  -0.0172   0.0309  -0.0400  11.00    1.0
2024/05/06 15:39:12.000   28.342091863  -16.459004559  1496.6225   2   6   0.0262   0.0331   0.0933  -0.0172   0.0309  -0.0400  12.00    1.1
2024/05/06 15:39:13.000   28.342091862  -16.459004559  1496.6236   2   6   0.0262   0.0331   0.0933  -0.0172   0.0309  -0.0400  13.00    1.1
2024/05/06 15:39:14.000   28.342091862  -16.459004558  1496.6245   2   6   0.0262   0.0331   0.0933  -0.0172   0.0309  -0.0400  14.00    1.1
2024/05/06 15:39:15.000   28.342091862  -16.459004558  1496.6252   2   6   0.0262   0.0331   0.0933  -0.0172   0.0309  -0.0400 -15.00    1.0
2024/05/06 15:39:16.000   28.342091861  -16.459004557  1496.6260   2   6   0.0262   0.0331   0.0933  -0.0172   0.0309  -0.0400 -14.00    1.1
2024/05/06 15:39:17.000   28.342091861  -16.459004557  1496.6268   2   6   0.0262   0.0331   0.0933  -0.0172   0.0309  -0.0400 -13.00    1.0
2024/05/06 15:39:18.000   28.342091861  -16.459004557  1496.6278   2   6   0.0262   0.0331   0.0933  -0.0172   0.0309  -0.0400 -12.00    1.1
2024/05/06 15:39:19.000   28.342091861  -16.459004558  1496.6289   2   6   0.0262   0.0331   0.0933  -0.0172   0.0309  -0.0400 -11.00    1.1
2024/05/06 15:39:20.000   28.342091861  -16.459004559  1496.6300   2   6   0.0262   0.0331   0.0933  -0.0172   0.0309  -0.0400 -10.00    1.1
2024/05/06 15:39:21.000   28.342091861  -16.459004560  1496.6314   2   6   0.0262   0.0331   0.0933  -0.0172   0.0309  -0.0400  -9.00    1.0
2024/05/06 15:39:22.000   28.342091860  -16.459004561  1496.6330   2   6   0.0262   0.0331   0.0933  -0.0172   0.0309  -0.0400  -8.00    1.1
2024/05/06 15:39:23.000   28.342091860  -16.459004563  1496.6347   2   6   0.0262   0.0331   0.0933  -0.0172   0.0309  -0.0400  -7.00    1.0
2024/05/06 15:39:24.000   28.342091860  -16.459004565  1496.6366   2   6   0.0262   0.0331   0.0933  -0.0172   0.0309  -0.0400  -6.00    1.1
2024/05/06 15:39:25.000   28.342091860  -16.459004568  1496.6388   2   6   0.0262   0.0331   0.0934  -0.0172   0.0309  -0.0400  -5.00    1.1
2024/05/06 15:39:26.000   28.342091861  -16.459004570  1496.6416   2   6   0.0262   0.0331   0.0934  -0.0172   0.0309  -0.0400  -4.00    1.1
2024/05/06 15:39:27.000   28.342091861  -16.459004575  1496.6443   2   6   0.0262   0.0331   0.0934  -0.0172   0.0309  -0.0400  -3.00    1.0
2024/05/06 15:39:28.000   28.342091862  -16.459004581  1496.6469   2   6   0.0262   0.0332   0.0934  -0.0172   0.0309  -0.0400  -2.00    1.1
2024/05/06 15:39:29.000   28.342091863  -16.459004586  1496.6504   2   6   0.0262   0.0332   0.0934  -0.0172   0.0309  -0.0400  -1.00    1.0
2024/05/06 15:39:30.000   28.342091863  -16.459004590  1496.6546   2   6   0.0262   0.0332   0.0935  -0.0172   0.0309  -0.0400   0.00    1.1
2024/05/06 15:39:31.000   28.342091865  -16.459004595  1496.6581   2   6   0.0262   0.0332   0.0935  -0.0172   0.0310  -0.0400   1.00    1.0
2024/05/06 15:39:32.000   28.342091867  -16.459004601  1496.6609   2   6   0.0262   0.0332   0.0935  -0.0172   0.0310  -0.0401   2.00    1.1
2024/05/06 15:39:33.000   28.342091867  -16.459004606  1496.6637   2   6   0.0263   0.0332   0.0935  -0.0172   0.0310  -0.0401   3.00    1.0
2024/05/06 15:39:34.000   28.342091869  -16.459004611  1496.6658   2   6   0.0263   0.0332   0.0936  -0.0172   0.0310  -0.0401   4.00    1.1
2024/05/06 15:39:35.000   28.342091870  -16.459004615  1496.6678   2   6   0.0263   0.0332   0.0936  -0.0172   0.0310  -0.0401   5.00    1.0
2024/05/06 15:39:36.000   28.342091870  -16.459004617  1496.6698   2   6   0.0263   0.0332   0.0936  -0.0172   0.0310  -0.0401   6.00    1.1
2024/05/06 15:39:37.000   28.342091870  -16.459004619  1496.6715   2   6   0.0263   0.0333   0.0936  -0.0172   0.0310  -0.0401   7.00    1.1
2024/05/06 15:39:38.000   28.342091869  -16.459004621  1496.6732   2   6   0.0263   0.0333   0.0936  -0.0172   0.0310  -0.0401   8.00    1.1
2024/05/06 15:39:39.000   28.342091868  -16.459004621  1496.6747   2   6   0.0263   0.0333   0.0936  -0.0172   0.0310  -0.0401   9.00    1.0
2024/05/06 15:39:40.000   28.342091868  -16.459004622  1496.6759   2   6   0.0263   0.0333   0.0936  -0.0172   0.0310  -0.0401  10.00    1.1
2024/05/06 15:39:41.000   28.342091867  -16.459004622  1496.6768   2   6   0.0263   0.0333   0.0937  -0.0172   0.0310  -0.0401  11.00    1.0
2024/05/06 15:39:42.000   28.342091867  -16.459004622  1496.6776   2   6   0.0263   0.0333   0.0937  -0.0172   0.0310  -0.0401  12.00    1.1
2024/05/06 15:39:43.000   28.342091866  -16.459004622  1496.6782   2   6   0.0263   0.0333   0.0937  -0.0172   0.0310  -0.0401  13.00    1.0
2024/05/06 15:39:44.000   28.342091866  -16.459004623  1496.6788   2   6   0.0263   0.0333   0.0937  -0.0172   0.0310  -0.0401  14.00    1.1
2024/05/06 15:39:45.000   28.342091865  -16.459004623  1496.6793   2   6   0.0263   0.0333   0.0937  -0.0172   0.0310  -0.0401 -15.00    1.0
2024/05/06 15:39:46.000   28.342091865  -16.459004624  1496.6797   2   6   0.0263   0.0333   0.0937  -0.0172   0.0310  -0.0401 -14.00    1.1
2024/05/06 15:39:47.000   28.342091865  -16.459004624  1496.6802   2   6   0.0263   0.0333   0.0937  -0.0172   0.0310  -0.0401 -13.00    1.0
2024/05/06 15:39:48.000   28.342091864  -16.459004625  1496.6808   2   6   0.0263   0.0333   0.0937  -0.0172   0.0310  -0.0401 -12.00    1.1
2024/05/06 15:39:49.000   28.342091864  -16.459004625  1496.6815   2   6   0.0263   0.0333   0.0937  -0.0172   0.0310  -0.0401 -11.00    1.1
2024/05/06 15:39:50.000   28.342091863  -16.459004626  1496.6824   2   6   0.0263   0.0333   0.0937  -0.0172   0.0310  -0.0401 -10.00    1.1
2024/05/06 15:39:51.000   28.342091863  -16.459004627  1496.6831   2   6   0.0263   0.0333   0.0937  -0.0172   0.0310  -0.0401  -9.00    1.0
2024/05/06 15:39:52.000   28.342091863  -16.459004628  1496.6838   2   6   0.0263   0.0333   0.0937  -0.0172   0.0310  -0.0401  -8.00    1.1
2024/05/06 15:39:53.000   28.342091862  -16.459004629  1496.6846   2   6   0.0263   0.0333   0.0937  -0.0172   0.0310  -0.0401  -7.00    1.0
2024/05/06 15:39:54.000   28.342091861  -16.459004631  1496.6852   2   6   0.0263   0.0333   0.0937  -0.0172   0.0310  -0.0401  -6.00    1.1
2024/05/06 15:39:55.000   28.342091860  -16.459004634  1496.6863   2   6   0.0263   0.0333   0.0937  -0.0172   0.0310  -0.0401  -5.00    1.0
2024/05/06 15:39:56.000   28.342091858  -16.459004638  1496.6878   2   6   0.0263   0.0333   0.0937  -0.0172   0.0310  -0.0401  -4.00    1.1
2024/05/06 15:39:57.000   28.342091856  -16.459004642  1496.6894   2   6   0.0263   0.0333   0.0937  -0.0172   0.0310  -0.0401  -3.00    1.0
2024/05/06 15:39:58.000   28.342091855  -16.459004647  1496.6911   2   6   0.0263   0.0333   0.0937  -0.0172   0.0310  -0.0401  -2.00    1.0
2024/05/06 15:39:59.000   28.342091854  -16.459004650  1496.6931   2   6   0.0263   0.0333   0.0937  -0.0172   0.0310  -0.0401  -1.00    1.0
2024/05/06 15:40:00.000   28.342091852  -16.459004654  1496.6952   2   6   0.0263   0.0333   0.0937  -0.0172   0.0311  -0.0401   0.00    1.0
2024/05/06 15:40:01.000   28.342091852  -16.459004659  1496.6966   2   6   0.0263   0.0333   0.0937  -0.0172   0.0311  -0.0401   1.00    1.0
2024/05/06 15:40:02.000   28.342091852  -16.459004662  1496.6980   2   6   0.0263   0.0333   0.0937  -0.0172   0.0311  -0.0401   2.00    1.0
2024/05/06 15:40:03.000   28.342091852  -16.459004664  1496.6994   2   6   0.0263   0.0333   0.0938  -0.0172   0.0311  -0.0401   3.00    1.0
2024/05/06 15:40:04.000   28.342091852  -16.459004667  1496.7009   2   6   0.0264   0.0333   0.0938  -0.0172   0.0311  -0.0402   4.00    1.0
2024/05/06 15:40:05.000   28.342091851  -16.459004669  1496.7021   2   6   0.0264   0.0333   0.0938  -0.0172   0.0311  -0.0402   5.00    1.0
2024/05/06 15:40:06.000   28.342091850  -16.459004670  1496.7034   2   6   0.0264   0.0333   0.0938  -0.0172   0.0311  -0.0402   6.00    1.0
2024/05/06 15:40:07.000   28.342091849  -16.459004670  1496.7046   2   6   0.0264   0.0333   0.0938  -0.0172   0.0311  -0.0402   7.00    1.0
2024/05/06 15:40:08.000   28.342091849  -16.459004670  1496.7055   2   6   0.0264   0.0334   0.0938  -0.0172   0.0311  -0.0402   8.00    1.0
2024/05/06 15:40:09.000   28.342091848  -16.459004670  1496.7065   2   6   0.0264   0.0334   0.0938  -0.0172   0.0311  -0.0402   9.00    1.0
2024/05/06 15:40:10.000   28.342091847  -16.459004670  1496.7074   2   6   0.0264   0.0334   0.0938  -0.0172   0.0311  -0.0402  10.00    1.0
2024/05/06 15:40:11.000   28.342091846  -16.459004670  1496.7082   2   6   0.0264   0.0334   0.0938  -0.0172   0.0311  -0.0402  11.00    1.1
2024/05/06 15:40:12.000   28.342091846  -16.459004670  1496.7087   2   6   0.0264   0.0334   0.0938  -0.0172   0.0311  -0.0402  12.00    1.0
2024/05/06 15:40:13.000   28.342091845  -16.459004669  1496.7092   2   6   0.0264   0.0334   0.0938  -0.0172   0.0311  -0.0402  13.00    1.0
2024/05/06 15:40:14.000   28.342091845  -16.459004669  1496.7096   2   6   0.0264   0.0334   0.0938  -0.0172   0.0311  -0.0402  14.00    1.0
2024/05/06 15:40:15.000   28.342091845  -16.459004670  1496.7099   2   6   0.0264   0.0334   0.0938  -0.0172   0.0311  -0.0402 -15.00    1.0
2024/05/06 15:40:16.000   28.342091844  -16.459004670  1496.7102   2   6   0.0264   0.0334   0.0938  -0.0172   0.0311  -0.0402 -14.00    1.0
2024/05/06 15:40:17.000   28.342091844  -16.459004671  1496.7106   2   6   0.0264   0.0334   0.0938  -0.0172   0.0311  -0.0402 -13.00    1.0
2024/05/06 15:40:18.000   28.342091844  -16.459004672  1496.7110   2   6   0.0264   0.0334   0.0938  -0.0172   0.0311  -0.0402 -12.00    1.0
2024/05/06 15:40:19.000   28.342091843  -16.459004672  1496.7115   2   6   0.0264   0.0334   0.0938  -0.0172   0.0311  -0.0402 -11.00    1.0
2024/05/06 15:40:20.000   28.342091843  -16.459004674  1496.7121   2   6   0.0264   0.0334   0.0938  -0.0172   0.0311  -0.0402 -10.00    1.0
2024/05/06 15:40:21.000   28.342091842  -16.459004676  1496.7129   2   6   0.0264   0.0334   0.0938  -0.0172   0.0311  -0.0402  -9.00    1.0
2024/05/06 15:40:22.000   28.342091840  -16.459004677  1496.7139   2   6   0.0264   0.0334   0.0938  -0.0172   0.0311  -0.0402  -8.00    1.0
2024/05/06 15:40:23.000   28.342091839  -16.459004680  1496.7149   2   6   0.0264   0.0334   0.0938  -0.0172   0.0311  -0.0402  -7.00    1.1
2024/05/06 15:40:24.000   28.342091838  -16.459004683  1496.7162   2   6   0.0264   0.0334   0.0938  -0.0172   0.0311  -0.0402  -6.00    1.0
2024/05/06 15:40:25.000   28.342091836  -16.459004686  1496.7180   2   6   0.0264   0.0334   0.0938  -0.0172   0.0311  -0.0402  -5.00    1.1
2024/05/06 15:40:26.000   28.342091834  -16.459004692  1496.7197   2   6   0.0264   0.0334   0.0938  -0.0172   0.0311  -0.0402  -4.00    1.0
2024/05/06 15:40:27.000   28.342091832  -16.459004697  1496.7214   2   6   0.0264   0.0334   0.0938  -0.0172   0.0311  -0.0402  -3.00    1.0
2024/05/06 15:40:28.000   28.342091830  -16.459004704  1496.7233   2   6   0.0264   0.0334   0.0938  -0.0172   0.0311  -0.0402  -2.00    1.0
2024/05/06 15:40:29.000   28.342091827  -16.459004711  1496.7257   2   6   0.0264   0.0334   0.0938  -0.0172   0.0311  -0.0402  -1.00    1.0
2024/05/06 15:40:30.000   28.342091824  -16.459004719  1496.7278   2   6   0.0264   0.0334   0.0938  -0.0172   0.0311  -0.0402   0.00    1.0
2024/05/06 15:40:31.000   28.342091821  -16.459004725  1496.7295   2   6   0.0264   0.0334   0.0938  -0.0172   0.0311  -0.0402   1.00    1.0
2024/05/06 15:40:32.000   28.342091816  -16.459004729  1496.7318   2   6   0.0264   0.0334   0.0938  -0.0172   0.0311  -0.0402   2.00    1.0
2024/05/06 15:40:33.000   28.342091812  -16.459004734  1496.7339   2   6   0.0264   0.0334   0.0938  -0.0172   0.0311  -0.0402   3.00    1.0
2024/05/06 15:40:34.000   28.342091809  -16.459004738  1496.7356   2   6   0.0264   0.0334   0.0938  -0.0172   0.0311  -0.0402   4.00    1.0
2024/05/06 15:40:35.000   28.342091806  -16.459004742  1496.7367   2   6   0.0264   0.0334   0.0938  -0.0172   0.0311  -0.0402   5.00    1.0
2024/05/06 15:40:36.000   28.342091804  -16.459004744  1496.7377   2   6   0.0264   0.0334   0.0938  -0.0172   0.0312  -0.0402   6.00    1.0
2024/05/06 15:40:37.000   28.342091802  -16.459004746  1496.7384   2   6   0.0264   0.0334   0.0938  -0.0173   0.0312  -0.0402   7.00    1.1
2024/05/06 15:40:38.000   28.342091800  -16.459004747  1496.7389   2   6   0.0264   0.0334   0.0938  -0.0173   0.0312  -0.0402   8.00    1.0
2024/05/06 15:40:39.000   28.342091799  -16.459004748  1496.7394   2   6   0.0264   0.0334   0.0938  -0.0173   0.0312  -0.0402   9.00    1.1
2024/05/06 15:40:40.000   28.342091797  -16.459004749  1496.7400   2   6   0.0264   0.0334   0.0938  -0.0172   0.0312  -0.0402  10.00    1.0
2024/05/06 15:40:41.000   28.342091796  -16.459004750  1496.7405   2   6   0.0264   0.0334   0.0938  -0.0172   0.0312  -0.0402  11.00    1.0
2024/05/06 15:40:42.000   28.342091795  -16.459004750  1496.7408   2   6   0.0264   0.0334   0.0938  -0.0172   0.0312  -0.0402  12.00    1.0
2024/05/06 15:40:43.000   28.342091794  -16.459004751  1496.7411   2   6   0.0264   0.0334   0.0938  -0.0172   0.0312  -0.0402  13.00    1.0
2024/05/06 15:40:44.000   28.342091794  -16.459004751  1496.7413   2   6   0.0264   0.0334   0.0937  -0.0172   0.0312  -0.0402  14.00    1.0
2024/05/06 15:40:45.000   28.342091793  -16.459004751  1496.7415   2   6   0.0264   0.0334   0.0937  -0.0172   0.0312  -0.0402 -15.00    1.0
2024/05/06 15:40:46.000   28.342091793  -16.459004752  1496.7417   2   6   0.0264   0.0334   0.0937  -0.0172   0.0312  -0.0402 -14.00    1.0
2024/05/06 15:40:47.000   28.342091792  -16.459004752  1496.7419   2   6   0.0264   0.0334   0.0937  -0.0172   0.0312  -0.0402 -13.00    1.0
2024/05/06 15:40:48.000   28.342091791  -16.459004753  1496.7421   2   6   0.0264   0.0334   0.0937  -0.0172   0.0312  -0.0402 -12.00    1.0
2024/05/06 15:40:49.000   28.342091791  -16.459004753  1496.7421   2   6   0.0264   0.0334   0.0937  -0.0172   0.0312  -0.0402 -11.00    1.1
2024/05/06 15:40:50.000   28.342091790  -16.459004754  1496.7421   2   6   0.0264   0.0334   0.0937  -0.0172   0.0312  -0.0402 -10.00    1.1
2024/05/06 15:40:51.000   28.342091790  -16.459004754  1496.7421   2   6   0.0264   0.0334   0.0937  -0.0172   0.0311  -0.0401  -9.00    1.0
2024/05/06 15:40:52.000   28.342091788  -16.459004754  1496.7424   2   6   0.0264   0.0334   0.0937  -0.0172   0.0311  -0.0401  -8.00    1.1
