% program   : RTKPOST-EX 2.5.0
% inp file  : C:\Users\SallyHenry\Desktop\Sally Internship\GNSS gravi\DATA\Survey Rover Obs\GUI05.24o
% inp file  : C:\Users\SallyHenry\Desktop\Sally Internship\GNSS gravi\DATA\BaseStations\IZAN\IZAN00ESP_R_20241270000_01D_30S_MO.rnx
% inp file  : C:\Users\SallyHenry\Desktop\Sally Internship\GNSS gravi\DATA\BaseStations\IZAN\IZAN00ESP_R_20241270000_01D_MN.rnx
% inp file  : C:\Users\SallyHenry\Desktop\Sally Internship\GNSS gravi\DATA\aux_files\Survey\IGS0OPSFIN_20241270000_01D_15M_ORB.SP3
% inp file  : C:\Users\SallyHenry\Desktop\Sally Internship\GNSS gravi\DATA\aux_files\Survey\IGS0OPSFIN_20241270000_01D_30S_CLK.CLK
% obs start : 2024/05/06 16:06:46.0 GPST (week2313 144406.0s)
% obs end   : 2024/05/06 16:22:37.0 GPST (week2313 145357.0s)
% pos mode  : Static
% freqs     : L1+L2/E5b
% solution  : Combined-No Phase Reset
% elev mask : 15.0 deg
% dynamics  : on
% tidecorr  : solid
% ionos opt : Estimate TEC
% tropo opt : Estimate ZTD+Grad
% ephemeris : Precise
% navi sys  : GPS GLONASS Galileo QZSS BDS
% amb res   : Fix and Hold
% amb glo   : Fix and Hold
% amb bds   : on
% val thres : 3.0
% antenna1  :                       ( 0.0000  0.0000  1.8000)
% antenna2  :                       ( 0.0000  0.0000  0.0000)
% ref pos   :  28.308069410  -16.499677180  2417.4044
%
% (lat/lon/height=WGS84/ellipsoidal,Q=1:fix,2:float,3:sbas,4:dgps,5:single,6:ppp,ns=# of satellites)
%  GPST                  latitude(deg) longitude(deg)  height(m)   Q  ns   sdn(m)   sde(m)   sdu(m)  sdne(m)  sdeu(m)  sdun(m) age(s)  ratio
2024/05/06 16:06:46.000   28.339910293  -16.451888994  1331.5482   1   8   0.0021   0.0015   0.0151  -0.0008   0.0031   0.0015 -14.00   33.8
2024/05/06 16:06:47.000   28.339910293  -16.451888994  1331.5483   1   8   0.0021   0.0015   0.0151  -0.0008   0.0031   0.0015 -13.00   33.1
2024/05/06 16:06:48.000   28.339910293  -16.451888994  1331.5485   1   8   0.0021   0.0015   0.0151  -0.0009   0.0031   0.0015 -12.00   32.3
2024/05/06 16:06:49.000   28.339910293  -16.451888994  1331.5486   1   8   0.0021   0.0015   0.0151  -0.0009   0.0031   0.0015 -11.00   31.5
2024/05/06 16:06:50.000   28.339910293  -16.451888994  1331.5488   1   8   0.0021   0.0015   0.0151  -0.0009   0.0031   0.0015 -10.00   30.7
2024/05/06 16:06:51.000   28.339910293  -16.451888994  1331.5490   1   8   0.0021   0.0015   0.0151  -0.0009   0.0031   0.0015  -9.00   29.8
2024/05/06 16:06:52.000   28.339910293  -16.451888994  1331.5492   1   8   0.0021   0.0015   0.0151  -0.0009   0.0031   0.0015  -8.00   28.9
2024/05/06 16:06:53.000   28.339910293  -16.451888994  1331.5495   1   8   0.0021   0.0015   0.0151  -0.0009   0.0031   0.0015  -7.00   28.0
2024/05/06 16:06:54.000   28.339910293  -16.451888994  1331.5499   1   8   0.0021   0.0015   0.0151  -0.0009   0.0032   0.0014  -6.00   26.9
2024/05/06 16:06:55.000   28.339910293  -16.451888994  1331.5503   1   8   0.0021   0.0015   0.0151  -0.0009   0.0032   0.0014  -5.00   25.7
2024/05/06 16:06:56.000   28.339910294  -16.451888995  1331.5508   1   8   0.0021   0.0015   0.0151  -0.0009   0.0032   0.0014  -4.00   24.3
2024/05/06 16:06:57.000   28.339910294  -16.451888995  1331.5513   1   8   0.0022   0.0015   0.0151  -0.0009   0.0032   0.0014  -3.00   20.5
2024/05/06 16:06:58.000   28.339910294  -16.451888995  1331.5520   1   8   0.0022   0.0015   0.0152  -0.0009   0.0032   0.0014  -2.00   15.1
2024/05/06 16:06:59.000   28.339910295  -16.451888995  1331.5528   1   8   0.0022   0.0015   0.0152  -0.0009   0.0032   0.0013  -1.00    8.6
2024/05/06 16:07:00.000   28.339910289  -16.451888992  1331.5529   1   8   0.0020   0.0015   0.0150  -0.0007   0.0031   0.0016   0.00   44.8
2024/05/06 16:07:01.000   28.339910289  -16.451888992  1331.5535   1   8   0.0020   0.0015   0.0151  -0.0008   0.0031   0.0016   1.00   44.0
2024/05/06 16:07:02.000   28.339910290  -16.451888993  1331.5542   1   8   0.0020   0.0015   0.0151  -0.0008   0.0031   0.0016   2.00   43.4
2024/05/06 16:07:03.000   28.339910291  -16.451888993  1331.5546   1   8   0.0021   0.0015   0.0151  -0.0008   0.0031   0.0016   3.00   42.6
2024/05/06 16:07:04.000   28.339910291  -16.451888993  1331.5550   1   8   0.0021   0.0015   0.0152  -0.0008   0.0031   0.0016   4.00   41.7
2024/05/06 16:07:05.000   28.339910292  -16.451888993  1331.5554   1   8   0.0021   0.0015   0.0152  -0.0008   0.0031   0.0016   5.00   40.9
2024/05/06 16:07:06.000   28.339910292  -16.451888994  1331.5556   1   8   0.0021   0.0015   0.0152  -0.0008   0.0032   0.0016   6.00   40.0
2024/05/06 16:07:07.000   28.339910293  -16.451888994  1331.5560   1   8   0.0021   0.0015   0.0152  -0.0008   0.0032   0.0015   7.00   39.2
2024/05/06 16:07:08.000   28.339910293  -16.451888994  1331.5563   1   8   0.0021   0.0015   0.0152  -0.0008   0.0032   0.0015   8.00   38.4
2024/05/06 16:07:09.000   28.339910293  -16.451888994  1331.5565   1   8   0.0021   0.0015   0.0152  -0.0008   0.0032   0.0015   9.00   37.6
2024/05/06 16:07:10.000   28.339910294  -16.451888994  1331.5567   1   8   0.0021   0.0015   0.0152  -0.0008   0.0032   0.0015  10.00   36.7
2024/05/06 16:07:11.000   28.339910294  -16.451888994  1331.5569   1   8   0.0021   0.0015   0.0152  -0.0008   0.0032   0.0015  11.00   35.9
2024/05/06 16:07:12.000   28.339910294  -16.451888994  1331.5570   1   8   0.0021   0.0015   0.0152  -0.0008   0.0032   0.0015  12.00   35.1
2024/05/06 16:07:13.000   28.339910294  -16.451888994  1331.5571   1   8   0.0021   0.0015   0.0152  -0.0008   0.0032   0.0015  13.00   34.4
2024/05/06 16:07:14.000   28.339910294  -16.451888994  1331.5572   1   8   0.0021   0.0015   0.0152  -0.0008   0.0032   0.0015  14.00   33.6
2024/05/06 16:07:15.000   28.339910294  -16.451888994  1331.5573   1   8   0.0021   0.0015   0.0152  -0.0008   0.0032   0.0015  15.00   32.9
2024/05/06 16:07:16.000   28.339910295  -16.451888994  1331.5573   1   8   0.0021   0.0015   0.0152  -0.0009   0.0032   0.0015 -14.00   32.1
2024/05/06 16:07:17.000   28.339910295  -16.451888994  1331.5574   1   8   0.0021   0.0015   0.0152  -0.0009   0.0032   0.0015 -13.00   31.4
2024/05/06 16:07:18.000   28.339910295  -16.451888994  1331.5575   1   8   0.0021   0.0015   0.0152  -0.0009   0.0032   0.0015 -12.00   30.7
2024/05/06 16:07:19.000   28.339910295  -16.451888994  1331.5576   1   8   0.0021   0.0015   0.0152  -0.0009   0.0032   0.0015 -11.00   29.9
2024/05/06 16:07:20.000   28.339910295  -16.451888994  1331.5577   1   8   0.0021   0.0015   0.0152  -0.0009   0.0032   0.0014 -10.00   29.1
2024/05/06 16:07:21.000   28.339910295  -16.451888994  1331.5578   1   8   0.0021   0.0015   0.0152  -0.0009   0.0032   0.0014  -9.00   28.3
2024/05/06 16:07:22.000   28.339910295  -16.451888994  1331.5579   1   8   0.0021   0.0015   0.0152  -0.0009   0.0032   0.0014  -8.00   27.4
2024/05/06 16:07:23.000   28.339910296  -16.451888994  1331.5580   1   8   0.0021   0.0015   0.0152  -0.0009   0.0032   0.0014  -7.00   26.5
2024/05/06 16:07:24.000   28.339910296  -16.451888994  1331.5581   1   8   0.0021   0.0015   0.0152  -0.0009   0.0032   0.0014  -6.00   25.4
2024/05/06 16:07:25.000   28.339910296  -16.451888994  1331.5583   1   8   0.0021   0.0015   0.0152  -0.0009   0.0032   0.0014  -5.00   24.2
2024/05/06 16:07:26.000   28.339910296  -16.451888994  1331.5585   1   8   0.0022   0.0015   0.0152  -0.0009   0.0032   0.0014  -4.00   22.7
2024/05/06 16:07:27.000   28.339910296  -16.451888994  1331.5586   1   8   0.0022   0.0015   0.0153  -0.0009   0.0032   0.0013  -3.00   18.9
2024/05/06 16:07:28.000   28.339910296  -16.451888995  1331.5589   1   8   0.0022   0.0015   0.0153  -0.0009   0.0032   0.0013  -2.00   13.9
2024/05/06 16:07:29.000   28.339910297  -16.451888995  1331.5592   1   8   0.0022   0.0015   0.0153  -0.0009   0.0032   0.0013  -1.00    7.9
2024/05/06 16:07:30.000   28.339910298  -16.451888996  1331.5583   1   8   0.0020   0.0015   0.0152  -0.0007   0.0031   0.0016   0.00   42.3
2024/05/06 16:07:31.000   28.339910298  -16.451888996  1331.5587   1   8   0.0020   0.0015   0.0152  -0.0008   0.0032   0.0016   1.00   41.5
2024/05/06 16:07:32.000   28.339910298  -16.451888996  1331.5589   1   8   0.0021   0.0015   0.0152  -0.0008   0.0032   0.0016   2.00   40.7
2024/05/06 16:07:33.000   28.339910298  -16.451888996  1331.5591   1   8   0.0021   0.0015   0.0153  -0.0008   0.0032   0.0016   3.00   39.9
2024/05/06 16:07:34.000   28.339910298  -16.451888996  1331.5593   1   8   0.0021   0.0015   0.0153  -0.0008   0.0032   0.0015   4.00   39.2
2024/05/06 16:07:35.000   28.339910299  -16.451888996  1331.5595   1   8   0.0021   0.0015   0.0153  -0.0008   0.0032   0.0015   5.00   38.4
2024/05/06 16:07:36.000   28.339910299  -16.451888996  1331.5596   1   8   0.0021   0.0015   0.0153  -0.0008   0.0032   0.0015   6.00   37.7
2024/05/06 16:07:37.000   28.339910299  -16.451888996  1331.5597   1   8   0.0021   0.0015   0.0153  -0.0008   0.0032   0.0015   7.00   36.9
2024/05/06 16:07:38.000   28.339910299  -16.451888996  1331.5597   1   8   0.0021   0.0015   0.0154  -0.0008   0.0032   0.0015   8.00   36.2
2024/05/06 16:07:39.000   28.339910299  -16.451888996  1331.5598   1   8   0.0021   0.0015   0.0154  -0.0008   0.0032   0.0015   9.00   35.5
2024/05/06 16:07:40.000   28.339910299  -16.451888996  1331.5598   1   8   0.0021   0.0015   0.0154  -0.0008   0.0032   0.0015  10.00   34.8
2024/05/06 16:07:41.000   28.339910299  -16.451888996  1331.5599   1   8   0.0021   0.0015   0.0154  -0.0008   0.0032   0.0015  11.00   34.1
2024/05/06 16:07:42.000   28.339910299  -16.451888996  1331.5599   1   8   0.0021   0.0015   0.0154  -0.0008   0.0032   0.0015  12.00   33.4
2024/05/06 16:07:43.000   28.339910299  -16.451888996  1331.5599   1   8   0.0021   0.0015   0.0154  -0.0009   0.0032   0.0015  13.00   32.8
2024/05/06 16:07:44.000   28.339910299  -16.451888996  1331.5600   1   8   0.0021   0.0015   0.0154  -0.0009   0.0032   0.0014  14.00   32.1
2024/05/06 16:07:45.000   28.339910299  -16.451888996  1331.5600   1   8   0.0021   0.0015   0.0154  -0.0009   0.0032   0.0014  15.00   31.4
2024/05/06 16:07:46.000   28.339910299  -16.451888996  1331.5600   1   8   0.0021   0.0015   0.0153  -0.0009   0.0032   0.0014 -14.00   30.7
2024/05/06 16:07:47.000   28.339910299  -16.451888996  1331.5600   1   8   0.0021   0.0015   0.0153  -0.0009   0.0032   0.0014 -13.00   30.1
2024/05/06 16:07:48.000   28.339910298  -16.451888996  1331.5601   1   8   0.0021   0.0015   0.0153  -0.0009   0.0032   0.0014 -12.00   29.4
2024/05/06 16:07:49.000   28.339910298  -16.451888996  1331.5600   1   8   0.0021   0.0015   0.0153  -0.0009   0.0032   0.0014 -11.00   28.6
2024/05/06 16:07:50.000   28.339910298  -16.451888995  1331.5600   1   8   0.0021   0.0015   0.0153  -0.0009   0.0032   0.0014 -10.00   27.9
2024/05/06 16:07:51.000   28.339910298  -16.451888995  1331.5600   1   8   0.0021   0.0015   0.0153  -0.0009   0.0032   0.0014  -9.00   27.1
2024/05/06 16:07:52.000   28.339910298  -16.451888995  1331.5600   1   8   0.0021   0.0015   0.0153  -0.0009   0.0032   0.0014  -8.00   26.2
2024/05/06 16:07:53.000   28.339910298  -16.451888995  1331.5600   1   8   0.0021   0.0015   0.0154  -0.0009   0.0032   0.0014  -7.00   25.3
2024/05/06 16:07:54.000   28.339910298  -16.451888995  1331.5599   1   8   0.0022   0.0015   0.0154  -0.0009   0.0032   0.0014  -6.00   24.3
2024/05/06 16:07:55.000   28.339910298  -16.451888995  1331.5599   1   8   0.0022   0.0015   0.0154  -0.0009   0.0032   0.0013  -5.00   23.1
2024/05/06 16:07:56.000   28.339910297  -16.451888995  1331.5599   1   8   0.0022   0.0015   0.0154  -0.0009   0.0032   0.0013  -4.00   21.2
2024/05/06 16:07:57.000   28.339910297  -16.451888995  1331.5599   1   8   0.0022   0.0015   0.0154  -0.0009   0.0033   0.0013  -3.00   18.0
2024/05/06 16:07:58.000   28.339910297  -16.451888995  1331.5600   1   8   0.0022   0.0015   0.0154  -0.0009   0.0033   0.0013  -2.00   13.0
2024/05/06 16:07:59.000   28.339910296  -16.451888995  1331.5601   1   8   0.0022   0.0015   0.0155  -0.0010   0.0033   0.0012  -1.00    7.5
2024/05/06 16:08:00.000   28.339910305  -16.451889000  1331.5576   1   8   0.0020   0.0015   0.0153  -0.0008   0.0032   0.0016   0.00   37.6
2024/05/06 16:08:01.000   28.339910304  -16.451889000  1331.5576   1   8   0.0021   0.0015   0.0153  -0.0008   0.0032   0.0016   1.00   36.8
2024/05/06 16:08:02.000   28.339910304  -16.451889000  1331.5576   1   8   0.0021   0.0015   0.0154  -0.0008   0.0032   0.0015   2.00   36.0
2024/05/06 16:08:03.000   28.339910304  -16.451889000  1331.5577   1   8   0.0021   0.0015   0.0154  -0.0008   0.0032   0.0015   3.00   35.0
2024/05/06 16:08:04.000   28.339910304  -16.451889000  1331.5578   1   8   0.0021   0.0015   0.0154  -0.0008   0.0032   0.0015   4.00   34.2
2024/05/06 16:08:05.000   28.339910304  -16.451889000  1331.5577   1   8   0.0021   0.0015   0.0155  -0.0008   0.0032   0.0015   5.00   33.4
2024/05/06 16:08:06.000   28.339910303  -16.451889000  1331.5577   1   8   0.0021   0.0015   0.0155  -0.0008   0.0032   0.0015   6.00   32.6
2024/05/06 16:08:07.000   28.339910303  -16.451889000  1331.5577   1   8   0.0021   0.0015   0.0155  -0.0008   0.0032   0.0015   7.00   31.9
2024/05/06 16:08:08.000   28.339910303  -16.451889000  1331.5577   1   8   0.0021   0.0015   0.0155  -0.0008   0.0032   0.0015   8.00   31.1
2024/05/06 16:08:09.000   28.339910302  -16.451889000  1331.5577   1   8   0.0021   0.0015   0.0155  -0.0008   0.0032   0.0015   9.00   30.5
2024/05/06 16:08:10.000   28.339910302  -16.451889000  1331.5577   1   8   0.0021   0.0015   0.0155  -0.0008   0.0033   0.0014  10.00   29.8
2024/05/06 16:08:11.000   28.339910302  -16.451889000  1331.5577   1   8   0.0021   0.0015   0.0155  -0.0009   0.0033   0.0014  11.00   29.1
2024/05/06 16:08:12.000   28.339910301  -16.451889000  1331.5577   1   8   0.0021   0.0015   0.0155  -0.0009   0.0033   0.0014  12.00   28.5
2024/05/06 16:08:13.000   28.339910301  -16.451888999  1331.5578   1   8   0.0021   0.0015   0.0155  -0.0009   0.0033   0.0014  13.00   27.9
2024/05/06 16:08:14.000   28.339910301  -16.451888999  1331.5578   1   8   0.0021   0.0015   0.0155  -0.0009   0.0033   0.0014  14.00   27.3
2024/05/06 16:08:15.000   28.339910301  -16.451888999  1331.5579   1   8   0.0021   0.0015   0.0155  -0.0009   0.0033   0.0014  15.00   26.7
2024/05/06 16:08:16.000   28.339910301  -16.451888999  1331.5579   1   8   0.0021   0.0015   0.0155  -0.0009   0.0033   0.0014 -14.00   26.2
2024/05/06 16:08:17.000   28.339910301  -16.451888999  1331.5580   1   8   0.0021   0.0015   0.0155  -0.0009   0.0033   0.0014 -13.00   25.6
2024/05/06 16:08:18.000   28.339910300  -16.451888999  1331.5580   1   8   0.0021   0.0015   0.0155  -0.0009   0.0033   0.0014 -12.00   25.1
2024/05/06 16:08:19.000   28.339910300  -16.451888999  1331.5581   1   8   0.0021   0.0015   0.0155  -0.0009   0.0033   0.0014 -11.00   24.5
2024/05/06 16:08:20.000   28.339910300  -16.451888999  1331.5581   1   8   0.0021   0.0015   0.0155  -0.0009   0.0033   0.0014 -10.00   23.9
2024/05/06 16:08:21.000   28.339910300  -16.451888999  1331.5582   1   8   0.0021   0.0015   0.0155  -0.0009   0.0033   0.0013  -9.00   23.3
2024/05/06 16:08:22.000   28.339910299  -16.451888999  1331.5584   1   8   0.0022   0.0015   0.0155  -0.0009   0.0033   0.0013  -8.00   22.7
2024/05/06 16:08:23.000   28.339910299  -16.451888998  1331.5585   1   8   0.0022   0.0015   0.0155  -0.0009   0.0033   0.0013  -7.00   22.1
2024/05/06 16:08:24.000   28.339910298  -16.451888998  1331.5587   1   8   0.0022   0.0015   0.0155  -0.0009   0.0033   0.0013  -6.00   21.4
2024/05/06 16:08:25.000   28.339910298  -16.451888998  1331.5589   1   8   0.0022   0.0015   0.0155  -0.0009   0.0033   0.0013  -5.00   20.5
2024/05/06 16:08:26.000   28.339910297  -16.451888998  1331.5591   1   8   0.0022   0.0015   0.0155  -0.0009   0.0033   0.0013  -4.00   18.9
2024/05/06 16:08:27.000   28.339910296  -16.451888997  1331.5593   1   8   0.0022   0.0015   0.0155  -0.0009   0.0033   0.0012  -3.00   16.0
2024/05/06 16:08:28.000   28.339910296  -16.451888997  1331.5595   1   8   0.0022   0.0015   0.0156  -0.0009   0.0033   0.0012  -2.00   11.7
2024/05/06 16:08:29.000   28.339910295  -16.451888996  1331.5597   1   8   0.0022   0.0015   0.0156  -0.0010   0.0033   0.0012  -1.00    6.9
2024/05/06 16:08:30.000   28.339910306  -16.451889004  1331.5558   1   8   0.0021   0.0015   0.0154  -0.0008   0.0032   0.0015   0.00   33.4
2024/05/06 16:08:31.000   28.339910306  -16.451889003  1331.5559   1   8   0.0021   0.0015   0.0155  -0.0008   0.0032   0.0015   1.00   33.1
2024/05/06 16:08:32.000   28.339910305  -16.451889003  1331.5561   1   8   0.0021   0.0015   0.0155  -0.0008   0.0032   0.0015   2.00   32.8
2024/05/06 16:08:33.000   28.339910304  -16.451889003  1331.5562   1   8   0.0021   0.0015   0.0155  -0.0008   0.0033   0.0015   3.00   32.4
2024/05/06 16:08:34.000   28.339910303  -16.451889002  1331.5562   1   8   0.0021   0.0015   0.0156  -0.0008   0.0033   0.0015   4.00   32.1
2024/05/06 16:08:35.000   28.339910303  -16.451889002  1331.5562   1   8   0.0021   0.0015   0.0156  -0.0008   0.0033   0.0015   5.00   31.7
2024/05/06 16:08:36.000   28.339910302  -16.451889002  1331.5562   1   8   0.0021   0.0015   0.0156  -0.0008   0.0033   0.0014   6.00   31.3
2024/05/06 16:08:37.000   28.339910302  -16.451889001  1331.5562   1   8   0.0021   0.0015   0.0156  -0.0008   0.0033   0.0014   7.00   31.0
2024/05/06 16:08:38.000   28.339910302  -16.451889001  1331.5563   1   8   0.0021   0.0015   0.0156  -0.0008   0.0033   0.0014   8.00   30.6
2024/05/06 16:08:39.000   28.339910301  -16.451889001  1331.5563   1   8   0.0021   0.0015   0.0156  -0.0008   0.0033   0.0014   9.00   30.2
2024/05/06 16:08:40.000   28.339910301  -16.451889001  1331.5563   1   8   0.0021   0.0015   0.0156  -0.0009   0.0033   0.0014  10.00   29.7
2024/05/06 16:08:41.000   28.339910301  -16.451889001  1331.5564   1   8   0.0021   0.0015   0.0156  -0.0009   0.0033   0.0014  11.00   29.3
2024/05/06 16:08:42.000   28.339910300  -16.451889001  1331.5564   1   8   0.0021   0.0015   0.0156  -0.0009   0.0033   0.0014  12.00   28.8
2024/05/06 16:08:43.000   28.339910300  -16.451889000  1331.5564   1   8   0.0021   0.0015   0.0156  -0.0009   0.0033   0.0014  13.00   28.3
2024/05/06 16:08:44.000   28.339910300  -16.451889000  1331.5565   1   8   0.0021   0.0015   0.0156  -0.0009   0.0033   0.0014  14.00   27.8
2024/05/06 16:08:45.000   28.339910300  -16.451889000  1331.5565   1   8   0.0021   0.0015   0.0156  -0.0009   0.0033   0.0014  15.00   27.3
2024/05/06 16:08:46.000   28.339910299  -16.451889000  1331.5566   1   8   0.0021   0.0015   0.0156  -0.0009   0.0033   0.0013 -14.00   26.8
2024/05/06 16:08:47.000   28.339910299  -16.451889000  1331.5566   1   8   0.0021   0.0015   0.0156  -0.0009   0.0033   0.0013 -13.00   26.4
2024/05/06 16:08:48.000   28.339910299  -16.451889000  1331.5567   1   8   0.0022   0.0015   0.0156  -0.0009   0.0033   0.0013 -12.00   25.9
2024/05/06 16:08:49.000   28.339910299  -16.451889000  1331.5568   1   8   0.0022   0.0015   0.0156  -0.0009   0.0033   0.0013 -11.00   25.4
2024/05/06 16:08:50.000   28.339910298  -16.451889000  1331.5568   1   8   0.0022   0.0015   0.0156  -0.0009   0.0033   0.0013 -10.00   24.9
2024/05/06 16:08:51.000   28.339910298  -16.451888999  1331.5569   1   8   0.0022   0.0015   0.0156  -0.0009   0.0033   0.0013  -9.00   24.4
2024/05/06 16:08:52.000   28.339910298  -16.451888999  1331.5570   1   8   0.0022   0.0015   0.0156  -0.0009   0.0033   0.0013  -8.00   23.8
2024/05/06 16:08:53.000   28.339910297  -16.451888999  1331.5571   1   8   0.0022   0.0015   0.0156  -0.0009   0.0033   0.0013  -7.00   23.2
2024/05/06 16:08:54.000   28.339910297  -16.451888999  1331.5572   1   8   0.0022   0.0015   0.0156  -0.0009   0.0033   0.0013  -6.00   22.5
2024/05/06 16:08:55.000   28.339910296  -16.451888999  1331.5573   1   8   0.0022   0.0015   0.0156  -0.0009   0.0033   0.0012  -5.00   21.7
2024/05/06 16:08:56.000   28.339910296  -16.451888999  1331.5574   1   8   0.0022   0.0015   0.0157  -0.0009   0.0033   0.0012  -4.00   20.3
2024/05/06 16:08:57.000   28.339910295  -16.451888998  1331.5575   1   8   0.0022   0.0015   0.0157  -0.0009   0.0033   0.0012  -3.00   17.0
2024/05/06 16:08:58.000   28.339910294  -16.451888998  1331.5576   1   8   0.0022   0.0015   0.0157  -0.0010   0.0033   0.0012  -2.00   12.6
2024/05/06 16:08:59.000   28.339910294  -16.451888998  1331.5576   1   8   0.0022   0.0016   0.0157  -0.0010   0.0034   0.0011  -1.00    7.3
2024/05/06 16:09:00.000   28.339910300  -16.451889002  1331.5545   1   8   0.0021   0.0015   0.0156  -0.0008   0.0033   0.0015   0.00   37.0
2024/05/06 16:09:01.000   28.339910300  -16.451889002  1331.5547   1   8   0.0021   0.0015   0.0156  -0.0008   0.0033   0.0015   1.00   36.6
2024/05/06 16:09:02.000   28.339910299  -16.451889002  1331.5550   1   8   0.0021   0.0015   0.0157  -0.0008   0.0033   0.0015   2.00   36.2
2024/05/06 16:09:03.000   28.339910299  -16.451889001  1331.5551   1   8   0.0021   0.0015   0.0157  -0.0008   0.0033   0.0015   3.00   35.9
2024/05/06 16:09:04.000   28.339910298  -16.451889001  1331.5551   1   8   0.0021   0.0015   0.0157  -0.0008   0.0033   0.0014   4.00   35.6
2024/05/06 16:09:05.000   28.339910298  -16.451889001  1331.5553   1   8   0.0021   0.0015   0.0157  -0.0008   0.0033   0.0014   5.00   35.2
2024/05/06 16:09:06.000   28.339910297  -16.451889001  1331.5554   1   8   0.0021   0.0015   0.0158  -0.0008   0.0033   0.0014   6.00   34.9
2024/05/06 16:09:07.000   28.339910297  -16.451889001  1331.5557   1   8   0.0021   0.0015   0.0158  -0.0008   0.0033   0.0014   7.00   34.4
2024/05/06 16:09:08.000   28.339910297  -16.451889001  1331.5558   1   8   0.0021   0.0015   0.0158  -0.0008   0.0033   0.0014   8.00   33.9
2024/05/06 16:09:09.000   28.339910297  -16.451889000  1331.5560   1   8   0.0021   0.0015   0.0158  -0.0009   0.0033   0.0014   9.00   33.4
2024/05/06 16:09:10.000   28.339910296  -16.451889000  1331.5562   1   8   0.0021   0.0015   0.0158  -0.0009   0.0033   0.0014  10.00   32.9
2024/05/06 16:09:11.000   28.339910296  -16.451889000  1331.5563   1   8   0.0021   0.0015   0.0158  -0.0009   0.0033   0.0013  11.00   32.4
2024/05/06 16:09:12.000   28.339910296  -16.451889000  1331.5565   1   8   0.0021   0.0015   0.0158  -0.0009   0.0033   0.0013  12.00   31.8
2024/05/06 16:09:13.000   28.339910296  -16.451889000  1331.5566   1   8   0.0022   0.0015   0.0158  -0.0009   0.0033   0.0013  13.00   31.3
2024/05/06 16:09:14.000   28.339910296  -16.451889000  1331.5567   1   8   0.0022   0.0015   0.0158  -0.0009   0.0033   0.0013  14.00   30.8
2024/05/06 16:09:15.000   28.339910296  -16.451889000  1331.5568   1   8   0.0022   0.0015   0.0158  -0.0009   0.0033   0.0013  15.00   30.2
2024/05/06 16:09:16.000   28.339910296  -16.451889000  1331.5569   1   8   0.0022   0.0015   0.0158  -0.0009   0.0033   0.0013 -14.00   29.6
2024/05/06 16:09:17.000   28.339910295  -16.451888999  1331.5570   1   8   0.0022   0.0015   0.0158  -0.0009   0.0033   0.0013 -13.00   29.0
2024/05/06 16:09:18.000   28.339910295  -16.451888999  1331.5571   1   8   0.0022   0.0015   0.0158  -0.0009   0.0033   0.0013 -12.00   28.5
2024/05/06 16:09:19.000   28.339910295  -16.451888999  1331.5572   1   8   0.0022   0.0015   0.0158  -0.0009   0.0033   0.0013 -11.00   27.9
2024/05/06 16:09:20.000   28.339910295  -16.451888999  1331.5574   1   8   0.0022   0.0015   0.0158  -0.0009   0.0033   0.0013 -10.00   27.3
2024/05/06 16:09:21.000   28.339910295  -16.451888999  1331.5575   1   8   0.0022   0.0015   0.0158  -0.0009   0.0033   0.0013  -9.00   26.7
2024/05/06 16:09:22.000   28.339910295  -16.451888999  1331.5576   1   8   0.0022   0.0015   0.0158  -0.0009   0.0033   0.0012  -8.00   25.9
2024/05/06 16:09:23.000   28.339910295  -16.451888999  1331.5578   1   8   0.0022   0.0015   0.0158  -0.0009   0.0033   0.0012  -7.00   25.1
2024/05/06 16:09:24.000   28.339910295  -16.451888999  1331.5580   1   8   0.0022   0.0015   0.0158  -0.0009   0.0034   0.0012  -6.00   24.4
2024/05/06 16:09:25.000   28.339910295  -16.451888998  1331.5582   1   8   0.0022   0.0015   0.0158  -0.0009   0.0034   0.0012  -5.00   23.5
2024/05/06 16:09:26.000   28.339910295  -16.451888998  1331.5584   1   8   0.0022   0.0015   0.0158  -0.0009   0.0034   0.0012  -4.00   22.3
2024/05/06 16:09:27.000   28.339910294  -16.451888998  1331.5587   1   8   0.0022   0.0015   0.0158  -0.0010   0.0034   0.0011  -3.00   18.8
2024/05/06 16:09:28.000   28.339910294  -16.451888998  1331.5590   1   8   0.0022   0.0016   0.0159  -0.0010   0.0034   0.0011  -2.00   13.7
2024/05/06 16:09:29.000   28.339910294  -16.451888997  1331.5595   1   8   0.0022   0.0016   0.0159  -0.0010   0.0034   0.0010  -1.00    7.8
2024/05/06 16:09:30.000   28.339910293  -16.451888997  1331.5583   1   8   0.0021   0.0015   0.0157  -0.0008   0.0033   0.0015   0.00   42.6
2024/05/06 16:09:31.000   28.339910293  -16.451888996  1331.5588   1   8   0.0021   0.0015   0.0158  -0.0008   0.0033   0.0015   1.00   42.3
2024/05/06 16:09:32.000   28.339910293  -16.451888996  1331.5592   1   8   0.0021   0.0015   0.0158  -0.0008   0.0033   0.0015   2.00   42.0
2024/05/06 16:09:33.000   28.339910293  -16.451888996  1331.5597   1   8   0.0021   0.0015   0.0158  -0.0008   0.0033   0.0014   3.00   41.6
2024/05/06 16:09:34.000   28.339910293  -16.451888995  1331.5600   1   8   0.0021   0.0015   0.0159  -0.0008   0.0033   0.0014   4.00   41.1
2024/05/06 16:09:35.000   28.339910293  -16.451888995  1331.5602   1   8   0.0021   0.0015   0.0159  -0.0008   0.0033   0.0014   5.00   40.5
2024/05/06 16:09:36.000   28.339910294  -16.451888995  1331.5604   1   8   0.0021   0.0015   0.0159  -0.0008   0.0034   0.0014   6.00   39.9
2024/05/06 16:09:37.000   28.339910294  -16.451888994  1331.5606   1   8   0.0021   0.0015   0.0159  -0.0008   0.0034   0.0014   7.00   39.3
2024/05/06 16:09:38.000   28.339910294  -16.451888994  1331.5607   1   8   0.0021   0.0015   0.0159  -0.0009   0.0034   0.0013   8.00   38.6
2024/05/06 16:09:39.000   28.339910294  -16.451888994  1331.5607   1   8   0.0021   0.0015   0.0159  -0.0009   0.0034   0.0013   9.00   37.9
2024/05/06 16:09:40.000   28.339910295  -16.451888994  1331.5608   1   8   0.0022   0.0015   0.0159  -0.0009   0.0034   0.0013  10.00   37.2
2024/05/06 16:09:41.000   28.339910295  -16.451888994  1331.5609   1   8   0.0022   0.0015   0.0159  -0.0009   0.0034   0.0013  11.00   36.6
2024/05/06 16:09:42.000   28.339910295  -16.451888993  1331.5610   1   8   0.0022   0.0015   0.0159  -0.0009   0.0034   0.0013  12.00   35.9
2024/05/06 16:09:43.000   28.339910295  -16.451888993  1331.5610   1   8   0.0022   0.0015   0.0159  -0.0009   0.0034   0.0013  13.00   35.2
2024/05/06 16:09:44.000   28.339910295  -16.451888993  1331.5610   1   8   0.0022   0.0015   0.0159  -0.0009   0.0034   0.0013  14.00   34.4
2024/05/06 16:09:45.000   28.339910295  -16.451888993  1331.5610   1   8   0.0022   0.0015   0.0159  -0.0009   0.0034   0.0013  15.00   33.8
2024/05/06 16:09:46.000   28.339910295  -16.451888993  1331.5611   1   8   0.0022   0.0015   0.0159  -0.0009   0.0034   0.0013 -14.00   33.1
2024/05/06 16:09:47.000   28.339910296  -16.451888993  1331.5611   1   8   0.0022   0.0015   0.0159  -0.0009   0.0034   0.0013 -13.00   32.4
2024/05/06 16:09:48.000   28.339910296  -16.451888993  1331.5611   1   8   0.0022   0.0015   0.0159  -0.0009   0.0034   0.0012 -12.00   31.7
2024/05/06 16:09:49.000   28.339910296  -16.451888993  1331.5612   1   8   0.0022   0.0015   0.0159  -0.0009   0.0034   0.0012 -11.00   31.0
2024/05/06 16:09:50.000   28.339910296  -16.451888993  1331.5612   1   8   0.0022   0.0015   0.0159  -0.0009   0.0034   0.0012 -10.00   30.3
2024/05/06 16:09:51.000   28.339910296  -16.451888993  1331.5612   1   8   0.0022   0.0015   0.0159  -0.0009   0.0034   0.0012  -9.00   29.4
2024/05/06 16:09:52.000   28.339910296  -16.451888993  1331.5613   1   8   0.0022   0.0015   0.0159  -0.0009   0.0034   0.0012  -8.00   28.5
2024/05/06 16:09:53.000   28.339910296  -16.451888992  1331.5613   1   8   0.0022   0.0015   0.0159  -0.0009   0.0034   0.0012  -7.00   27.6
2024/05/06 16:09:54.000   28.339910297  -16.451888992  1331.5613   1   8   0.0022   0.0015   0.0159  -0.0009   0.0034   0.0012  -6.00   26.5
2024/05/06 16:09:55.000   28.339910297  -16.451888992  1331.5614   1   8   0.0022   0.0015   0.0159  -0.0009   0.0034   0.0011  -5.00   25.4
2024/05/06 16:09:56.000   28.339910297  -16.451888992  1331.5615   1   8   0.0022   0.0015   0.0159  -0.0009   0.0034   0.0011  -4.00   23.9
2024/05/06 16:09:57.000   28.339910297  -16.451888992  1331.5616   1   8   0.0022   0.0016   0.0160  -0.0010   0.0034   0.0011  -3.00   20.3
2024/05/06 16:09:58.000   28.339910297  -16.451888991  1331.5617   1   8   0.0022   0.0016   0.0160  -0.0010   0.0034   0.0010  -2.00   14.7
2024/05/06 16:09:59.000   28.339910297  -16.451888991  1331.5621   1   8   0.0023   0.0016   0.0160  -0.0010   0.0034   0.0010  -1.00    8.5
2024/05/06 16:10:00.000   28.339910296  -16.451888990  1331.5624   1   8   0.0021   0.0015   0.0159  -0.0008   0.0033   0.0015   0.00   44.4
2024/05/06 16:10:01.000   28.339910296  -16.451888990  1331.5630   1   8   0.0021   0.0015   0.0159  -0.0008   0.0033   0.0014   1.00   44.0
2024/05/06 16:10:02.000   28.339910296  -16.451888990  1331.5637   1   8   0.0021   0.0015   0.0159  -0.0008   0.0034   0.0014   2.00   43.5
2024/05/06 16:10:03.000   28.339910296  -16.451888990  1331.5644   1   8   0.0021   0.0015   0.0160  -0.0008   0.0034   0.0014   3.00   43.1
2024/05/06 16:10:04.000   28.339910296  -16.451888989  1331.5650   1   8   0.0021   0.0015   0.0160  -0.0008   0.0034   0.0014   4.00   42.8
2024/05/06 16:10:05.000   28.339910297  -16.451888989  1331.5655   1   8   0.0021   0.0015   0.0160  -0.0008   0.0034   0.0014   5.00   42.4
2024/05/06 16:10:06.000   28.339910297  -16.451888989  1331.5660   1   8   0.0021   0.0015   0.0160  -0.0008   0.0034   0.0013   6.00   42.0
2024/05/06 16:10:07.000   28.339910298  -16.451888989  1331.5664   1   8   0.0021   0.0015   0.0160  -0.0009   0.0034   0.0013   7.00   41.6
2024/05/06 16:10:08.000   28.339910298  -16.451888989  1331.5668   1   8   0.0022   0.0015   0.0160  -0.0009   0.0034   0.0013   8.00   41.1
2024/05/06 16:10:09.000   28.339910298  -16.451888989  1331.5670   1   8   0.0022   0.0015   0.0160  -0.0009   0.0034   0.0013   9.00   40.7
2024/05/06 16:10:10.000   28.339910298  -16.451888989  1331.5673   1   8   0.0022   0.0015   0.0160  -0.0009   0.0034   0.0013  10.00   40.1
2024/05/06 16:10:11.000   28.339910299  -16.451888989  1331.5675   1   8   0.0022   0.0015   0.0161  -0.0009   0.0034   0.0013  11.00   39.5
2024/05/06 16:10:12.000   28.339910299  -16.451888989  1331.5677   1   8   0.0022   0.0015   0.0160  -0.0009   0.0034   0.0013  12.00   38.9
2024/05/06 16:10:13.000   28.339910299  -16.451888989  1331.5679   1   8   0.0022   0.0015   0.0160  -0.0009   0.0034   0.0013  13.00   38.3
2024/05/06 16:10:14.000   28.339910299  -16.451888989  1331.5680   1   8   0.0022   0.0015   0.0160  -0.0009   0.0034   0.0012  14.00   37.7
2024/05/06 16:10:15.000   28.339910299  -16.451888989  1331.5682   1   8   0.0022   0.0015   0.0160  -0.0009   0.0034   0.0012  15.00   37.1
2024/05/06 16:10:16.000   28.339910299  -16.451888989  1331.5683   1   8   0.0022   0.0015   0.0160  -0.0009   0.0034   0.0012 -14.00   36.4
2024/05/06 16:10:17.000   28.339910299  -16.451888989  1331.5685   1   8   0.0022   0.0015   0.0160  -0.0009   0.0034   0.0012 -13.00   35.8
2024/05/06 16:10:18.000   28.339910299  -16.451888989  1331.5687   1   8   0.0022   0.0015   0.0160  -0.0009   0.0034   0.0012 -12.00   35.1
2024/05/06 16:10:19.000   28.339910300  -16.451888989  1331.5688   1   8   0.0022   0.0015   0.0160  -0.0009   0.0034   0.0012 -11.00   34.4
2024/05/06 16:10:20.000   28.339910300  -16.451888989  1331.5690   1   8   0.0022   0.0015   0.0160  -0.0009   0.0034   0.0012 -10.00   33.7
2024/05/06 16:10:21.000   28.339910300  -16.451888989  1331.5691   1   8   0.0022   0.0015   0.0160  -0.0009   0.0034   0.0012  -9.00   32.9
2024/05/06 16:10:22.000   28.339910300  -16.451888989  1331.5693   1   8   0.0022   0.0015   0.0160  -0.0009   0.0034   0.0011  -8.00   32.1
2024/05/06 16:10:23.000   28.339910301  -16.451888989  1331.5695   1   8   0.0022   0.0015   0.0160  -0.0009   0.0034   0.0011  -7.00   31.3
2024/05/06 16:10:24.000   28.339910301  -16.451888989  1331.5698   1   8   0.0022   0.0015   0.0160  -0.0009   0.0034   0.0011  -6.00   30.3
2024/05/06 16:10:25.000   28.339910302  -16.451888989  1331.5702   1   8   0.0022   0.0015   0.0161  -0.0009   0.0034   0.0011  -5.00   29.1
2024/05/06 16:10:26.000   28.339910302  -16.451888988  1331.5705   1   8   0.0022   0.0015   0.0161  -0.0010   0.0034   0.0011  -4.00   27.6
2024/05/06 16:10:27.000   28.339910302  -16.451888988  1331.5710   1   8   0.0022   0.0016   0.0161  -0.0010   0.0034   0.0010  -3.00   23.6
2024/05/06 16:10:28.000   28.339910303  -16.451888988  1331.5714   1   8   0.0023   0.0016   0.0161  -0.0010   0.0035   0.0010  -2.00   17.4
2024/05/06 16:10:29.000   28.339910304  -16.451888988  1331.5719   1   8   0.0023   0.0016   0.0161  -0.0010   0.0035   0.0009  -1.00    9.9
2024/05/06 16:10:30.000   28.339910297  -16.451888984  1331.5745   1   8   0.0021   0.0015   0.0160  -0.0008   0.0034   0.0014   0.00   49.9
2024/05/06 16:10:31.000   28.339910297  -16.451888984  1331.5751   1   8   0.0021   0.0015   0.0160  -0.0008   0.0034   0.0014   1.00   49.1
2024/05/06 16:10:32.000   28.339910298  -16.451888983  1331.5756   1   8   0.0021   0.0015   0.0161  -0.0008   0.0034   0.0014   2.00   48.6
2024/05/06 16:10:33.000   28.339910299  -16.451888983  1331.5761   1   8   0.0021   0.0015   0.0161  -0.0008   0.0034   0.0014   3.00   48.0
2024/05/06 16:10:34.000   28.339910299  -16.451888983  1331.5765   1   8   0.0021   0.0015   0.0161  -0.0008   0.0034   0.0014   4.00   47.3
2024/05/06 16:10:35.000   28.339910300  -16.451888983  1331.5769   1   8   0.0021   0.0015   0.0161  -0.0008   0.0034   0.0013   5.00   46.6
2024/05/06 16:10:36.000   28.339910301  -16.451888983  1331.5771   1   8   0.0022   0.0015   0.0162  -0.0009   0.0034   0.0013   6.00   46.0
2024/05/06 16:10:37.000   28.339910301  -16.451888983  1331.5773   1   8   0.0022   0.0015   0.0162  -0.0009   0.0034   0.0013   7.00   45.3
2024/05/06 16:10:38.000   28.339910301  -16.451888983  1331.5774   1   8   0.0022   0.0015   0.0162  -0.0009   0.0034   0.0013   8.00   44.5
2024/05/06 16:10:39.000   28.339910302  -16.451888983  1331.5775   1   8   0.0022   0.0015   0.0162  -0.0009   0.0034   0.0013   9.00   43.9
2024/05/06 16:10:40.000   28.339910302  -16.451888983  1331.5776   1   8   0.0022   0.0015   0.0162  -0.0009   0.0034   0.0013  10.00   43.2
2024/05/06 16:10:41.000   28.339910302  -16.451888983  1331.5777   1   8   0.0022   0.0015   0.0162  -0.0009   0.0034   0.0012  11.00   42.5
2024/05/06 16:10:42.000   28.339910302  -16.451888983  1331.5778   1   8   0.0022   0.0015   0.0162  -0.0009   0.0034   0.0012  12.00   41.7
2024/05/06 16:10:43.000   28.339910303  -16.451888983  1331.5779   1   8   0.0022   0.0015   0.0162  -0.0009   0.0034   0.0012  13.00   41.0
2024/05/06 16:10:44.000   28.339910303  -16.451888983  1331.5780   1   8   0.0022   0.0015   0.0162  -0.0009   0.0034   0.0012  14.00   40.3
2024/05/06 16:10:45.000   28.339910303  -16.451888983  1331.5781   1   8   0.0022   0.0015   0.0162  -0.0009   0.0034   0.0012  15.00   39.6
2024/05/06 16:10:46.000   28.339910303  -16.451888983  1331.5781   1   8   0.0022   0.0015   0.0162  -0.0009   0.0034   0.0012 -14.00   38.8
2024/05/06 16:10:47.000   28.339910303  -16.451888983  1331.5782   1   8   0.0022   0.0015   0.0162  -0.0009   0.0034   0.0012 -13.00   38.1
2024/05/06 16:10:48.000   28.339910304  -16.451888983  1331.5783   1   8   0.0022   0.0015   0.0162  -0.0009   0.0034   0.0012 -12.00   37.3
2024/05/06 16:10:49.000   28.339910304  -16.451888983  1331.5784   1   8   0.0022   0.0015   0.0162  -0.0009   0.0034   0.0011 -11.00   36.5
2024/05/06 16:10:50.000   28.339910304  -16.451888983  1331.5785   1   8   0.0022   0.0015   0.0162  -0.0009   0.0034   0.0011 -10.00   35.7
2024/05/06 16:10:51.000   28.339910305  -16.451888983  1331.5786   1   8   0.0022   0.0015   0.0162  -0.0009   0.0035   0.0011  -9.00   34.9
2024/05/06 16:10:52.000   28.339910305  -16.451888983  1331.5786   1   8   0.0022   0.0015   0.0162  -0.0009   0.0035   0.0011  -8.00   34.1
2024/05/06 16:10:53.000   28.339910306  -16.451888983  1331.5787   1   8   0.0022   0.0015   0.0162  -0.0009   0.0035   0.0011  -7.00   33.1
2024/05/06 16:10:54.000   28.339910306  -16.451888983  1331.5788   1   8   0.0022   0.0015   0.0162  -0.0009   0.0035   0.0011  -6.00   32.0
2024/05/06 16:10:55.000   28.339910307  -16.451888983  1331.5789   1   8   0.0022   0.0015   0.0162  -0.0010   0.0035   0.0010  -5.00   30.9
2024/05/06 16:10:56.000   28.339910308  -16.451888983  1331.5789   1   8   0.0022   0.0016   0.0162  -0.0010   0.0035   0.0010  -4.00   29.4
2024/05/06 16:10:57.000   28.339910309  -16.451888983  1331.5791   1   8   0.0023   0.0016   0.0162  -0.0010   0.0035   0.0010  -3.00   24.7
2024/05/06 16:10:58.000   28.339910310  -16.451888984  1331.5791   1   8   0.0023   0.0016   0.0162  -0.0010   0.0035   0.0009  -2.00   18.3
2024/05/06 16:10:59.000   28.339910311  -16.451888984  1331.5792   1   8   0.0023   0.0016   0.0163  -0.0010   0.0035   0.0008  -1.00   10.4
2024/05/06 16:11:00.000   28.339910299  -16.451888977  1331.5827   1   8   0.0021   0.0015   0.0161  -0.0008   0.0034   0.0014   0.00   50.9
2024/05/06 16:11:01.000   28.339910300  -16.451888977  1331.5830   1   8   0.0021   0.0015   0.0162  -0.0008   0.0034   0.0014   1.00   50.7
2024/05/06 16:11:02.000   28.339910301  -16.451888977  1331.5834   1   8   0.0021   0.0015   0.0162  -0.0008   0.0034   0.0014   2.00   50.1
2024/05/06 16:11:03.000   28.339910302  -16.451888977  1331.5836   1   8   0.0021   0.0015   0.0162  -0.0008   0.0034   0.0014   3.00   49.7
2024/05/06 16:11:04.000   28.339910303  -16.451888977  1331.5839   1   8   0.0021   0.0015   0.0162  -0.0008   0.0034   0.0013   4.00   48.9
2024/05/06 16:11:05.000   28.339910303  -16.451888977  1331.5841   1   8   0.0022   0.0015   0.0163  -0.0008   0.0034   0.0013   5.00   48.1
2024/05/06 16:11:06.000   28.339910304  -16.451888977  1331.5843   1   8   0.0022   0.0015   0.0163  -0.0009   0.0035   0.0013   6.00   47.4
2024/05/06 16:11:07.000   28.339910305  -16.451888977  1331.5845   1   8   0.0022   0.0015   0.0163  -0.0009   0.0035   0.0013   7.00   46.7
2024/05/06 16:11:08.000   28.339910305  -16.451888977  1331.5846   1   8   0.0022   0.0015   0.0163  -0.0009   0.0035   0.0012   8.00   45.9
2024/05/06 16:11:09.000   28.339910306  -16.451888977  1331.5847   1   8   0.0022   0.0015   0.0163  -0.0009   0.0035   0.0012   9.00   45.1
2024/05/06 16:11:10.000   28.339910306  -16.451888977  1331.5848   1   8   0.0022   0.0015   0.0163  -0.0009   0.0035   0.0012  10.00   44.4
2024/05/06 16:11:11.000   28.339910306  -16.451888977  1331.5850   1   8   0.0022   0.0015   0.0163  -0.0009   0.0035   0.0012  11.00   43.7
2024/05/06 16:11:12.000   28.339910307  -16.451888977  1331.5851   1   8   0.0022   0.0015   0.0163  -0.0009   0.0035   0.0012  12.00   42.8
2024/05/06 16:11:13.000   28.339910307  -16.451888977  1331.5852   1   8   0.0022   0.0015   0.0163  -0.0009   0.0035   0.0012  13.00   42.0
2024/05/06 16:11:14.000   28.339910307  -16.451888977  1331.5853   1   8   0.0022   0.0015   0.0163  -0.0009   0.0035   0.0012  14.00   41.2
2024/05/06 16:11:15.000   28.339910308  -16.451888977  1331.5854   1   8   0.0022   0.0015   0.0163  -0.0009   0.0035   0.0012  15.00   40.5
2024/05/06 16:11:16.000   28.339910308  -16.451888977  1331.5854   1   8   0.0022   0.0015   0.0163  -0.0009   0.0035   0.0011 -14.00   39.7
2024/05/06 16:11:17.000   28.339910308  -16.451888977  1331.5855   1   8   0.0022   0.0015   0.0163  -0.0009   0.0035   0.0011 -13.00   38.9
2024/05/06 16:11:18.000   28.339910308  -16.451888977  1331.5856   1   8   0.0022   0.0015   0.0163  -0.0009   0.0035   0.0011 -12.00   38.1
2024/05/06 16:11:19.000   28.339910309  -16.451888977  1331.5857   1   8   0.0022   0.0015   0.0163  -0.0009   0.0035   0.0011 -11.00   37.3
2024/05/06 16:11:20.000   28.339910309  -16.451888977  1331.5859   1   8   0.0022   0.0015   0.0163  -0.0009   0.0035   0.0011 -10.00   36.5
2024/05/06 16:11:21.000   28.339910309  -16.451888977  1331.5860   1   8   0.0022   0.0015   0.0163  -0.0009   0.0035   0.0011  -9.00   35.6
2024/05/06 16:11:22.000   28.339910310  -16.451888977  1331.5862   1   8   0.0022   0.0015   0.0163  -0.0009   0.0035   0.0011  -8.00   34.6
2024/05/06 16:11:23.000   28.339910310  -16.451888977  1331.5864   1   8   0.0022   0.0015   0.0163  -0.0009   0.0035   0.0010  -7.00   33.6
2024/05/06 16:11:24.000   28.339910311  -16.451888977  1331.5866   1   8   0.0022   0.0016   0.0163  -0.0010   0.0035   0.0010  -6.00   32.4
2024/05/06 16:11:25.000   28.339910312  -16.451888978  1331.5869   1   8   0.0022   0.0016   0.0163  -0.0010   0.0035   0.0010  -5.00   31.2
2024/05/06 16:11:26.000   28.339910313  -16.451888978  1331.5873   1   8   0.0023   0.0016   0.0163  -0.0010   0.0035   0.0009  -4.00   29.6
2024/05/06 16:11:27.000   28.339910314  -16.451888978  1331.5877   1   8   0.0023   0.0016   0.0163  -0.0010   0.0035   0.0009  -3.00   24.9
2024/05/06 16:11:28.000   28.339910315  -16.451888978  1331.5881   1   8   0.0023   0.0016   0.0164  -0.0010   0.0035   0.0008  -2.00   18.1
2024/05/06 16:11:29.000   28.339910317  -16.451888978  1331.5884   1   8   0.0023   0.0016   0.0164  -0.0010   0.0035   0.0008  -1.00   10.3
2024/05/06 16:11:30.000   28.339910305  -16.451888971  1331.5911   1   8   0.0021   0.0015   0.0163  -0.0008   0.0034   0.0014   0.00   53.1
2024/05/06 16:11:31.000   28.339910306  -16.451888971  1331.5917   1   8   0.0021   0.0015   0.0163  -0.0008   0.0034   0.0014   1.00   52.7
2024/05/06 16:11:32.000   28.339910308  -16.451888972  1331.5922   1   8   0.0021   0.0015   0.0163  -0.0008   0.0035   0.0014   2.00   52.4
2024/05/06 16:11:33.000   28.339910309  -16.451888972  1331.5928   1   8   0.0021   0.0015   0.0163  -0.0008   0.0035   0.0013   3.00   52.0
2024/05/06 16:11:34.000   28.339910310  -16.451888972  1331.5932   1   8   0.0022   0.0015   0.0164  -0.0008   0.0035   0.0013   4.00   51.4
2024/05/06 16:11:35.000   28.339910311  -16.451888972  1331.5936   1   8   0.0022   0.0015   0.0164  -0.0009   0.0035   0.0013   5.00   50.7
2024/05/06 16:11:36.000   28.339910312  -16.451888972  1331.5939   1   8   0.0022   0.0015   0.0164  -0.0009   0.0035   0.0013   6.00   50.0
2024/05/06 16:11:37.000   28.339910312  -16.451888972  1331.5943   1   8   0.0022   0.0015   0.0164  -0.0009   0.0035   0.0012   7.00   49.1
2024/05/06 16:11:38.000   28.339910313  -16.451888972  1331.5945   1   8   0.0022   0.0015   0.0164  -0.0009   0.0035   0.0012   8.00   48.3
2024/05/06 16:11:39.000   28.339910313  -16.451888972  1331.5947   1   8   0.0022   0.0015   0.0164  -0.0009   0.0035   0.0012   9.00   47.6
2024/05/06 16:11:40.000   28.339910314  -16.451888972  1331.5950   1   8   0.0022   0.0015   0.0164  -0.0009   0.0035   0.0012  10.00   46.8
2024/05/06 16:11:41.000   28.339910314  -16.451888973  1331.5951   1   8   0.0022   0.0015   0.0164  -0.0009   0.0035   0.0012  11.00   46.0
2024/05/06 16:11:42.000   28.339910314  -16.451888973  1331.5953   1   8   0.0022   0.0015   0.0164  -0.0009   0.0035   0.0012  12.00   45.3
2024/05/06 16:11:43.000   28.339910315  -16.451888973  1331.5955   1   8   0.0022   0.0015   0.0164  -0.0009   0.0035   0.0011  13.00   44.4
2024/05/06 16:11:44.000   28.339910315  -16.451888973  1331.5956   1   8   0.0022   0.0015   0.0164  -0.0009   0.0035   0.0011  14.00   43.6
2024/05/06 16:11:45.000   28.339910315  -16.451888973  1331.5958   1   8   0.0022   0.0015   0.0164  -0.0009   0.0035   0.0011  15.00   42.7
2024/05/06 16:11:46.000   28.339910315  -16.451888973  1331.5959   1   8   0.0022   0.0015   0.0164  -0.0009   0.0035   0.0011 -14.00   41.9
2024/05/06 16:11:47.000   28.339910315  -16.451888973  1331.5960   1   8   0.0022   0.0015   0.0164  -0.0009   0.0035   0.0011 -13.00   41.0
2024/05/06 16:11:48.000   28.339910315  -16.451888973  1331.5962   1   8   0.0022   0.0015   0.0164  -0.0009   0.0035   0.0011 -12.00   40.1
2024/05/06 16:11:49.000   28.339910316  -16.451888973  1331.5963   1   8   0.0022   0.0015   0.0164  -0.0009   0.0035   0.0011 -11.00   39.3
2024/05/06 16:11:50.000   28.339910316  -16.451888973  1331.5965   1   8   0.0022   0.0015   0.0164  -0.0009   0.0035   0.0010 -10.00   38.5
2024/05/06 16:11:51.000   28.339910316  -16.451888973  1331.5966   1   8   0.0022   0.0015   0.0164  -0.0009   0.0035   0.0010  -9.00   37.6
2024/05/06 16:11:52.000   28.339910317  -16.451888973  1331.5968   1   8   0.0022   0.0016   0.0164  -0.0009   0.0035   0.0010  -8.00   36.6
2024/05/06 16:11:53.000   28.339910317  -16.451888973  1331.5970   1   8   0.0022   0.0016   0.0164  -0.0010   0.0035   0.0010  -7.00   35.6
2024/05/06 16:11:54.000   28.339910318  -16.451888973  1331.5972   1   8   0.0023   0.0016   0.0164  -0.0010   0.0035   0.0010  -6.00   34.5
2024/05/06 16:11:55.000   28.339910318  -16.451888974  1331.5975   1   8   0.0023   0.0016   0.0164  -0.0010   0.0035   0.0009  -5.00   33.1
2024/05/06 16:11:56.000   28.339910319  -16.451888974  1331.5978   1   8   0.0023   0.0016   0.0164  -0.0010   0.0035   0.0009  -4.00   31.5
2024/05/06 16:11:57.000   28.339910320  -16.451888974  1331.5981   1   8   0.0023   0.0016   0.0165  -0.0010   0.0035   0.0008  -3.00   26.7
2024/05/06 16:11:58.000   28.339910322  -16.451888974  1331.5985   1   8   0.0023   0.0016   0.0165  -0.0010   0.0036   0.0008  -2.00   19.6
2024/05/06 16:11:59.000   28.339910323  -16.451888975  1331.5989   1   8   0.0023   0.0016   0.0165  -0.0010   0.0036   0.0007  -1.00   11.0
2024/05/06 16:12:00.000   28.339910311  -16.451888968  1331.6015   1   8   0.0021   0.0015   0.0164  -0.0008   0.0035   0.0014   0.00   54.0
2024/05/06 16:12:01.000   28.339910312  -16.451888968  1331.6019   1   8   0.0021   0.0015   0.0164  -0.0008   0.0035   0.0014   1.00   53.4
2024/05/06 16:12:02.000   28.339910313  -16.451888968  1331.6024   1   8   0.0021   0.0015   0.0164  -0.0008   0.0035   0.0013   2.00   52.7
2024/05/06 16:12:03.000   28.339910314  -16.451888968  1331.6028   1   8   0.0022   0.0015   0.0165  -0.0008   0.0035   0.0013   3.00   51.8
2024/05/06 16:12:04.000   28.339910314  -16.451888968  1331.6031   1   8   0.0022   0.0015   0.0165  -0.0008   0.0035   0.0013   4.00   51.0
2024/05/06 16:12:05.000   28.339910315  -16.451888969  1331.6033   1   8   0.0022   0.0015   0.0165  -0.0009   0.0035   0.0012   5.00   50.4
2024/05/06 16:12:06.000   28.339910316  -16.451888969  1331.6034   1   8   0.0022   0.0015   0.0165  -0.0009   0.0035   0.0012   6.00   49.7
2024/05/06 16:12:07.000   28.339910316  -16.451888969  1331.6035   1   8   0.0022   0.0015   0.0165  -0.0009   0.0035   0.0012   7.00   48.6
2024/05/06 16:12:08.000   28.339910317  -16.451888969  1331.6036   1   8   0.0022   0.0015   0.0165  -0.0009   0.0035   0.0012   8.00   47.8
2024/05/06 16:12:09.000   28.339910317  -16.451888969  1331.6036   1   8   0.0022   0.0015   0.0165  -0.0009   0.0035   0.0012   9.00   46.9
2024/05/06 16:12:10.000   28.339910317  -16.451888969  1331.6037   1   8   0.0022   0.0015   0.0165  -0.0009   0.0035   0.0011  10.00   46.0
2024/05/06 16:12:11.000   28.339910318  -16.451888969  1331.6037   1   8   0.0022   0.0015   0.0166  -0.0009   0.0035   0.0011  11.00   45.1
2024/05/06 16:12:12.000   28.339910318  -16.451888969  1331.6037   1   8   0.0022   0.0015   0.0165  -0.0009   0.0035   0.0011  12.00   44.3
2024/05/06 16:12:13.000   28.339910318  -16.451888969  1331.6037   1   8   0.0022   0.0015   0.0165  -0.0009   0.0035   0.0011  13.00   43.5
2024/05/06 16:12:14.000   28.339910319  -16.451888969  1331.6037   1   8   0.0022   0.0015   0.0165  -0.0009   0.0035   0.0011  14.00   42.6
2024/05/06 16:12:15.000   28.339910319  -16.451888969  1331.6037   1   8   0.0022   0.0015   0.0165  -0.0009   0.0035   0.0011  15.00   41.7
2024/05/06 16:12:16.000   28.339910319  -16.451888969  1331.6037   1   8   0.0022   0.0015   0.0165  -0.0009   0.0035   0.0011 -14.00   40.9
2024/05/06 16:12:17.000   28.339910319  -16.451888969  1331.6037   1   8   0.0022   0.0015   0.0165  -0.0009   0.0035   0.0010 -13.00   40.1
2024/05/06 16:12:18.000   28.339910320  -16.451888969  1331.6037   1   8   0.0022   0.0016   0.0165  -0.0009   0.0035   0.0010 -12.00   39.2
2024/05/06 16:12:19.000   28.339910320  -16.451888969  1331.6037   1   8   0.0022   0.0016   0.0165  -0.0009   0.0035   0.0010 -11.00   38.3
2024/05/06 16:12:20.000   28.339910320  -16.451888969  1331.6037   1   8   0.0022   0.0016   0.0165  -0.0009   0.0035   0.0010 -10.00   37.4
2024/05/06 16:12:21.000   28.339910321  -16.451888970  1331.6037   1   8   0.0022   0.0016   0.0165  -0.0009   0.0035   0.0010  -9.00   36.5
2024/05/06 16:12:22.000   28.339910321  -16.451888970  1331.6037   1   8   0.0023   0.0016   0.0165  -0.0010   0.0035   0.0010  -8.00   35.5
2024/05/06 16:12:23.000   28.339910321  -16.451888970  1331.6038   1   8   0.0023   0.0016   0.0165  -0.0010   0.0035   0.0009  -7.00   34.4
2024/05/06 16:12:24.000   28.339910322  -16.451888970  1331.6038   1   8   0.0023   0.0016   0.0165  -0.0010   0.0036   0.0009  -6.00   33.1
2024/05/06 16:12:25.000   28.339910323  -16.451888970  1331.6038   1   8   0.0023   0.0016   0.0165  -0.0010   0.0036   0.0009  -5.00   31.6
2024/05/06 16:12:26.000   28.339910324  -16.451888970  1331.6038   1   8   0.0023   0.0016   0.0166  -0.0010   0.0036   0.0008  -4.00   30.0
2024/05/06 16:12:27.000   28.339910325  -16.451888970  1331.6039   1   8   0.0023   0.0016   0.0166  -0.0010   0.0036   0.0007  -3.00   25.4
2024/05/06 16:12:28.000   28.339910326  -16.451888970  1331.6040   1   8   0.0023   0.0016   0.0166  -0.0010   0.0036   0.0007  -2.00   18.4
2024/05/06 16:12:29.000   28.339910327  -16.451888971  1331.6040   1   8   0.0023   0.0016   0.0166  -0.0010   0.0036   0.0006  -1.00   10.5
2024/05/06 16:12:30.000   28.339910318  -16.451888965  1331.6064   1   8   0.0021   0.0015   0.0165  -0.0008   0.0035   0.0014   0.00   52.8
2024/05/06 16:12:31.000   28.339910319  -16.451888965  1331.6067   1   8   0.0021   0.0015   0.0165  -0.0008   0.0035   0.0013   1.00   51.9
2024/05/06 16:12:32.000   28.339910320  -16.451888966  1331.6071   1   8   0.0022   0.0015   0.0166  -0.0008   0.0035   0.0013   2.00   51.1
2024/05/06 16:12:33.000   28.339910321  -16.451888966  1331.6073   1   8   0.0022   0.0015   0.0166  -0.0008   0.0035   0.0013   3.00   50.2
2024/05/06 16:12:34.000   28.339910321  -16.451888966  1331.6075   1   8   0.0022   0.0015   0.0166  -0.0009   0.0035   0.0012   4.00   49.3
2024/05/06 16:12:35.000   28.339910322  -16.451888966  1331.6077   1   8   0.0022   0.0015   0.0166  -0.0009   0.0035   0.0012   5.00   48.4
2024/05/06 16:12:36.000   28.339910322  -16.451888966  1331.6079   1   8   0.0022   0.0015   0.0166  -0.0009   0.0035   0.0012   6.00   47.5
2024/05/06 16:12:37.000   28.339910323  -16.451888966  1331.6080   1   8   0.0022   0.0015   0.0167  -0.0009   0.0035   0.0012   7.00   46.7
2024/05/06 16:12:38.000   28.339910323  -16.451888967  1331.6081   1   8   0.0022   0.0015   0.0167  -0.0009   0.0036   0.0011   8.00   45.9
2024/05/06 16:12:39.000   28.339910323  -16.451888967  1331.6082   1   8   0.0022   0.0015   0.0167  -0.0009   0.0036   0.0011   9.00   45.0
2024/05/06 16:12:40.000   28.339910323  -16.451888967  1331.6083   1   8   0.0022   0.0015   0.0167  -0.0009   0.0036   0.0011  10.00   44.2
2024/05/06 16:12:41.000   28.339910323  -16.451888967  1331.6084   1   8   0.0022   0.0016   0.0167  -0.0009   0.0036   0.0011  11.00   43.3
2024/05/06 16:12:42.000   28.339910324  -16.451888967  1331.6084   1   8   0.0022   0.0016   0.0167  -0.0009   0.0036   0.0011  12.00   42.5
2024/05/06 16:12:43.000   28.339910324  -16.451888967  1331.6085   1   8   0.0022   0.0016   0.0167  -0.0009   0.0036   0.0011  13.00   41.7
2024/05/06 16:12:44.000   28.339910324  -16.451888967  1331.6085   1   8   0.0022   0.0016   0.0167  -0.0009   0.0036   0.0010  14.00   40.8
2024/05/06 16:12:45.000   28.339910324  -16.451888967  1331.6085   1   8   0.0022   0.0016   0.0167  -0.0009   0.0036   0.0010  15.00   40.0
2024/05/06 16:12:46.000   28.339910324  -16.451888967  1331.6086   1   8   0.0022   0.0016   0.0166  -0.0009   0.0036   0.0010 -14.00   39.2
2024/05/06 16:12:47.000   28.339910324  -16.451888967  1331.6086   1   8   0.0022   0.0016   0.0166  -0.0009   0.0036   0.0010 -13.00   38.3
2024/05/06 16:12:48.000   28.339910324  -16.451888967  1331.6087   1   8   0.0023   0.0016   0.0166  -0.0009   0.0036   0.0010 -12.00   37.5
2024/05/06 16:12:49.000   28.339910325  -16.451888967  1331.6087   1   8   0.0023   0.0016   0.0166  -0.0009   0.0036   0.0010 -11.00   36.7
2024/05/06 16:12:50.000   28.339910325  -16.451888967  1331.6088   1   8   0.0023   0.0016   0.0166  -0.0009   0.0036   0.0009 -10.00   35.8
2024/05/06 16:12:51.000   28.339910325  -16.451888967  1331.6089   1   8   0.0023   0.0016   0.0166  -0.0010   0.0036   0.0009  -9.00   34.7
2024/05/06 16:12:52.000   28.339910325  -16.451888967  1331.6090   1   8   0.0023   0.0016   0.0166  -0.0010   0.0036   0.0009  -8.00   33.7
2024/05/06 16:12:53.000   28.339910326  -16.451888967  1331.6090   1   8   0.0023   0.0016   0.0166  -0.0010   0.0036   0.0009  -7.00   32.7
2024/05/06 16:12:54.000   28.339910326  -16.451888968  1331.6091   1   8   0.0023   0.0016   0.0166  -0.0010   0.0036   0.0008  -6.00   31.5
2024/05/06 16:12:55.000   28.339910326  -16.451888968  1331.6092   1   8   0.0023   0.0016   0.0167  -0.0010   0.0036   0.0008  -5.00   30.0
2024/05/06 16:12:56.000   28.339910327  -16.451888968  1331.6093   1   8   0.0023   0.0016   0.0167  -0.0010   0.0036   0.0007  -4.00   28.3
2024/05/06 16:12:57.000   28.339910328  -16.451888968  1331.6093   1   8   0.0023   0.0016   0.0167  -0.0010   0.0036   0.0007  -3.00   24.2
2024/05/06 16:12:58.000   28.339910329  -16.451888969  1331.6094   1   8   0.0023   0.0016   0.0167  -0.0010   0.0036   0.0006  -2.00   17.7
2024/05/06 16:12:59.000   28.339910330  -16.451888969  1331.6095   1   8   0.0024   0.0016   0.0167  -0.0011   0.0036   0.0004  -1.00   10.0
2024/05/06 16:13:00.000   28.339910323  -16.451888965  1331.6121   1   8   0.0021   0.0015   0.0166  -0.0008   0.0035   0.0013   0.00   49.5
2024/05/06 16:13:01.000   28.339910323  -16.451888965  1331.6123   1   8   0.0022   0.0015   0.0166  -0.0008   0.0035   0.0013   1.00   48.5
2024/05/06 16:13:02.000   28.339910324  -16.451888965  1331.6124   1   8   0.0022   0.0015   0.0167  -0.0008   0.0035   0.0013   2.00   47.9
2024/05/06 16:13:03.000   28.339910325  -16.451888966  1331.6124   1   8   0.0022   0.0015   0.0167  -0.0008   0.0035   0.0012   3.00   46.9
2024/05/06 16:13:04.000   28.339910325  -16.451888966  1331.6124   1   8   0.0022   0.0015   0.0167  -0.0009   0.0036   0.0012   4.00   46.0
2024/05/06 16:13:05.000   28.339910326  -16.451888966  1331.6124   1   8   0.0022   0.0015   0.0167  -0.0009   0.0036   0.0012   5.00   45.1
2024/05/06 16:13:06.000   28.339910326  -16.451888966  1331.6124   1   8   0.0022   0.0015   0.0168  -0.0009   0.0036   0.0012   6.00   44.1
2024/05/06 16:13:07.000   28.339910327  -16.451888966  1331.6123   1   8   0.0022   0.0015   0.0168  -0.0009   0.0036   0.0011   7.00   43.2
2024/05/06 16:13:08.000   28.339910327  -16.451888966  1331.6122   1   8   0.0022   0.0016   0.0168  -0.0009   0.0036   0.0011   8.00   42.2
2024/05/06 16:13:09.000   28.339910327  -16.451888966  1331.6121   1   8   0.0022   0.0016   0.0168  -0.0009   0.0036   0.0011   9.00   41.3
2024/05/06 16:13:10.000   28.339910327  -16.451888966  1331.6121   1   8   0.0022   0.0016   0.0168  -0.0009   0.0036   0.0011  10.00   40.4
2024/05/06 16:13:11.000   28.339910328  -16.451888966  1331.6121   1   8   0.0022   0.0016   0.0168  -0.0009   0.0036   0.0010  11.00   39.6
2024/05/06 16:13:12.000   28.339910328  -16.451888966  1331.6121   1   8   0.0023   0.0016   0.0168  -0.0009   0.0036   0.0010  12.00   38.8
2024/05/06 16:13:13.000   28.339910328  -16.451888966  1331.6121   1   8   0.0023   0.0016   0.0168  -0.0009   0.0036   0.0010  13.00   38.0
2024/05/06 16:13:14.000   28.339910329  -16.451888966  1331.6121   1   8   0.0023   0.0016   0.0168  -0.0009   0.0036   0.0010  14.00   37.3
2024/05/06 16:13:15.000   28.339910329  -16.451888967  1331.6122   1   8   0.0023   0.0016   0.0168  -0.0009   0.0036   0.0010  15.00   36.5
2024/05/06 16:13:16.000   28.339910329  -16.451888967  1331.6122   1   8   0.0023   0.0016   0.0168  -0.0009   0.0036   0.0010 -14.00   35.7
2024/05/06 16:13:17.000   28.339910329  -16.451888967  1331.6123   1   8   0.0023   0.0016   0.0167  -0.0009   0.0036   0.0009 -13.00   35.0
2024/05/06 16:13:18.000   28.339910329  -16.451888967  1331.6123   1   8   0.0023   0.0016   0.0167  -0.0010   0.0036   0.0009 -12.00   34.2
2024/05/06 16:13:19.000   28.339910330  -16.451888967  1331.6123   1   8   0.0023   0.0016   0.0167  -0.0010   0.0036   0.0009 -11.00   33.5
2024/05/06 16:13:20.000   28.339910330  -16.451888967  1331.6124   1   8   0.0023   0.0016   0.0167  -0.0010   0.0036   0.0009 -10.00   32.8
2024/05/06 16:13:21.000   28.339910330  -16.451888967  1331.6124   1   8   0.0023   0.0016   0.0167  -0.0010   0.0036   0.0009  -9.00   32.0
2024/05/06 16:13:22.000   28.339910331  -16.451888967  1331.6125   1   8   0.0023   0.0016   0.0167  -0.0010   0.0036   0.0008  -8.00   31.1
2024/05/06 16:13:23.000   28.339910331  -16.451888967  1331.6126   1   8   0.0023   0.0016   0.0167  -0.0010   0.0036   0.0008  -7.00   30.2
2024/05/06 16:13:24.000   28.339910332  -16.451888967  1331.6126   1   8   0.0023   0.0016   0.0168  -0.0010   0.0036   0.0008  -6.00   29.1
2024/05/06 16:13:25.000   28.339910332  -16.451888967  1331.6126   1   8   0.0023   0.0016   0.0168  -0.0010   0.0036   0.0007  -5.00   27.9
2024/05/06 16:13:26.000   28.339910333  -16.451888967  1331.6126   1   8   0.0023   0.0016   0.0168  -0.0010   0.0036   0.0007  -4.00   26.4
2024/05/06 16:13:27.000   28.339910333  -16.451888968  1331.6125   1   8   0.0023   0.0016   0.0168  -0.0010   0.0036   0.0006  -3.00   23.1
2024/05/06 16:13:28.000   28.339910334  -16.451888968  1331.6124   1   8   0.0024   0.0016   0.0168  -0.0010   0.0036   0.0004  -2.00   16.9
2024/05/06 16:13:29.000   28.339910334  -16.451888968  1331.6122   1   8   0.0024   0.0016   0.0169  -0.0011   0.0037   0.0002  -1.00    9.8
2024/05/06 16:13:30.000   28.339910340  -16.451888971  1331.6119   1   8   0.0022   0.0015   0.0167  -0.0008   0.0035   0.0013   0.00   50.8
2024/05/06 16:13:31.000   28.339910341  -16.451888971  1331.6119   1   8   0.0022   0.0015   0.0167  -0.0008   0.0035   0.0013   1.00   49.7
2024/05/06 16:13:32.000   28.339910341  -16.451888972  1331.6119   1   8   0.0022   0.0015   0.0168  -0.0008   0.0036   0.0012   2.00   48.8
2024/05/06 16:13:33.000   28.339910315  -16.451888989  1331.5665   1   8   0.0021   0.0013   0.0137  -0.0010   0.0030  -0.0010   3.00    3.3
2024/05/06 16:13:34.000   28.339910315  -16.451888988  1331.5666   1   8   0.0021   0.0013   0.0137  -0.0010   0.0030  -0.0011   4.00    3.3
2024/05/06 16:13:35.000   28.339910314  -16.451888988  1331.5667   1   8   0.0021   0.0013   0.0137  -0.0010   0.0030  -0.0011   5.00    3.4
2024/05/06 16:13:36.000   28.339910314  -16.451888988  1331.5667   1   8   0.0021   0.0014   0.0137  -0.0010   0.0030  -0.0011   6.00    3.4
