% program   : RTKPOST-EX 2.5.0
% inp file  : C:\Users\SallyHenry\Desktop\Sally Internship\GNSS gravi\DATA\Survey Rover Obs\GUI03.24o
% inp file  : C:\Users\SallyHenry\Desktop\Sally Internship\GNSS gravi\DATA\BaseStations\IZAN\IZAN00ESP_R_20241270000_01D_30S_MO.rnx
% inp file  : C:\Users\SallyHenry\Desktop\Sally Internship\GNSS gravi\DATA\BaseStations\IZAN\IZAN00ESP_R_20241270000_01D_MN.rnx
% inp file  : C:\Users\SallyHenry\Desktop\Sally Internship\GNSS gravi\DATA\aux_files\Survey\IGS0OPSFIN_20241270000_01D_15M_ORB.SP3
% inp file  : C:\Users\SallyHenry\Desktop\Sally Internship\GNSS gravi\DATA\aux_files\Survey\IGS0OPSFIN_20241270000_01D_30S_CLK.CLK
% obs start : 2024/05/06 13:46:16.0 GPST (week2313 135976.0s)
% obs end   : 2024/05/06 14:01:17.0 GPST (week2313 136877.0s)
% pos mode  : Static
% freqs     : L1+L2/E5b
% solution  : Combined-No Phase Reset
% elev mask : 15.0 deg
% dynamics  : on
% tidecorr  : solid
% ionos opt : Estimate TEC
% tropo opt : Estimate ZTD+Grad
% ephemeris : Precise
% navi sys  : GPS GLONASS Galileo QZSS BDS
% amb res   : Fix and Hold
% amb glo   : Fix and Hold
% amb bds   : on
% val thres : 3.0
% antenna1  :                       ( 0.0000  0.0000  1.8000)
% antenna2  :                       ( 0.0000  0.0000  0.0000)
% ref pos   :  28.308069410  -16.499677180  2417.4044
%
% (lat/lon/height=WGS84/ellipsoidal,Q=1:fix,2:float,3:sbas,4:dgps,5:single,6:ppp,ns=# of satellites)
%  GPST                  latitude(deg) longitude(deg)  height(m)   Q  ns   sdn(m)   sde(m)   sdu(m)  sdne(m)  sdeu(m)  sdun(m) age(s)  ratio
2024/05/06 13:46:16.000   28.318723421  -16.447786285  1068.6782   1   7   0.0026   0.0016   0.0187  -0.0009   0.0034  -0.0037 -14.00   35.8
2024/05/06 13:46:17.000   28.318723421  -16.447786286  1068.6786   1   7   0.0026   0.0016   0.0187  -0.0009   0.0034  -0.0037 -13.00   35.2
2024/05/06 13:46:19.000   28.318723421  -16.447786286  1068.6790   1   7   0.0026   0.0016   0.0187  -0.0009   0.0034  -0.0037 -11.00   34.5
2024/05/06 13:46:20.000   28.318723421  -16.447786286  1068.6796   1   7   0.0026   0.0016   0.0187  -0.0009   0.0034  -0.0037 -10.00   33.8
2024/05/06 13:46:21.000   28.318723421  -16.447786286  1068.6801   1   7   0.0026   0.0016   0.0188  -0.0009   0.0034  -0.0037  -9.00   33.0
2024/05/06 13:46:22.000   28.318723421  -16.447786287  1068.6807   1   7   0.0026   0.0016   0.0188  -0.0009   0.0034  -0.0038  -8.00   32.0
2024/05/06 13:46:23.000   28.318723421  -16.447786287  1068.6814   1   7   0.0026   0.0016   0.0189  -0.0009   0.0034  -0.0038  -7.00   30.9
2024/05/06 13:46:24.000   28.318723421  -16.447786288  1068.6823   1   7   0.0026   0.0016   0.0189  -0.0009   0.0034  -0.0038  -6.00   29.9
2024/05/06 13:46:25.000   28.318723421  -16.447786288  1068.6834   1   7   0.0026   0.0016   0.0190  -0.0009   0.0034  -0.0039  -5.00   28.5
2024/05/06 13:46:26.000   28.318723422  -16.447786289  1068.6846   1   7   0.0026   0.0016   0.0191  -0.0009   0.0034  -0.0039  -4.00   26.2
2024/05/06 13:46:27.000   28.318723422  -16.447786289  1068.6859   1   7   0.0026   0.0016   0.0192  -0.0009   0.0034  -0.0039  -3.00   22.8
2024/05/06 13:46:28.000   28.318723423  -16.447786291  1068.6874   1   7   0.0026   0.0016   0.0193  -0.0009   0.0034  -0.0040  -2.00   18.5
2024/05/06 13:46:29.000   28.318723424  -16.447786292  1068.6893   1   7   0.0027   0.0016   0.0194  -0.0009   0.0034  -0.0040  -1.00   12.2
2024/05/06 13:46:30.000   28.318723424  -16.447786291  1068.6680   1   7   0.0025   0.0016   0.0181  -0.0009   0.0034  -0.0034   0.00   46.3
2024/05/06 13:46:31.000   28.318723425  -16.447786292  1068.6695   1   7   0.0025   0.0016   0.0181  -0.0009   0.0034  -0.0034   1.00   48.0
2024/05/06 13:46:32.000   28.318723426  -16.447786293  1068.6709   1   7   0.0025   0.0016   0.0182  -0.0009   0.0034  -0.0035   2.00   49.3
2024/05/06 13:46:33.000   28.318723426  -16.447786293  1068.6722   1   7   0.0025   0.0016   0.0183  -0.0009   0.0034  -0.0035   3.00   50.2
2024/05/06 13:46:34.000   28.318723426  -16.447786293  1068.6731   1   7   0.0025   0.0016   0.0184  -0.0009   0.0034  -0.0035   4.00   50.6
2024/05/06 13:46:35.000   28.318723427  -16.447786293  1068.6737   1   7   0.0025   0.0016   0.0184  -0.0009   0.0034  -0.0036   5.00   50.2
2024/05/06 13:46:36.000   28.318723427  -16.447786293  1068.6745   1   7   0.0025   0.0016   0.0185  -0.0009   0.0034  -0.0036   6.00   50.1
2024/05/06 13:46:37.000   28.318723427  -16.447786293  1068.6753   1   7   0.0025   0.0016   0.0186  -0.0009   0.0034  -0.0036   7.00   49.7
2024/05/06 13:46:38.000   28.318723426  -16.447786293  1068.6760   1   7   0.0025   0.0016   0.0186  -0.0009   0.0034  -0.0036   8.00   49.3
2024/05/06 13:46:39.000   28.318723426  -16.447786293  1068.6766   1   7   0.0025   0.0016   0.0187  -0.0009   0.0034  -0.0037   9.00   48.6
2024/05/06 13:46:40.000   28.318723426  -16.447786293  1068.6771   1   7   0.0026   0.0016   0.0187  -0.0009   0.0034  -0.0037  10.00   47.9
2024/05/06 13:46:41.000   28.318723426  -16.447786293  1068.6777   1   7   0.0026   0.0016   0.0187  -0.0009   0.0034  -0.0037  11.00   47.1
2024/05/06 13:46:42.000   28.318723426  -16.447786293  1068.6782   1   7   0.0026   0.0016   0.0188  -0.0009   0.0034  -0.0037  12.00   46.4
2024/05/06 13:46:43.000   28.318723425  -16.447786293  1068.6788   1   7   0.0026   0.0016   0.0188  -0.0009   0.0034  -0.0037  13.00   45.8
2024/05/06 13:46:44.000   28.318723425  -16.447786293  1068.6793   1   7   0.0026   0.0016   0.0188  -0.0009   0.0034  -0.0037  14.00   45.2
2024/05/06 13:46:45.000   28.318723425  -16.447786293  1068.6798   1   7   0.0026   0.0016   0.0188  -0.0009   0.0034  -0.0038  15.00   44.6
2024/05/06 13:46:46.000   28.318723425  -16.447786293  1068.6802   1   7   0.0026   0.0016   0.0189  -0.0009   0.0034  -0.0038 -14.00   44.1
2024/05/06 13:46:47.000   28.318723424  -16.447786294  1068.6807   1   7   0.0026   0.0016   0.0189  -0.0009   0.0034  -0.0038 -13.00   43.5
2024/05/06 13:46:48.000   28.318723424  -16.447786294  1068.6813   1   7   0.0026   0.0016   0.0189  -0.0009   0.0034  -0.0038 -12.00   42.8
2024/05/06 13:46:49.000   28.318723424  -16.447786294  1068.6819   1   7   0.0026   0.0016   0.0189  -0.0009   0.0034  -0.0038 -11.00   42.1
2024/05/06 13:46:50.000   28.318723423  -16.447786294  1068.6824   1   7   0.0026   0.0016   0.0190  -0.0009   0.0034  -0.0038 -10.00   41.1
2024/05/06 13:46:51.000   28.318723423  -16.447786294  1068.6831   1   7   0.0026   0.0016   0.0190  -0.0009   0.0034  -0.0039  -9.00   40.2
2024/05/06 13:46:52.000   28.318723423  -16.447786294  1068.6838   1   7   0.0026   0.0016   0.0191  -0.0009   0.0034  -0.0039  -8.00   39.1
2024/05/06 13:46:53.000   28.318723422  -16.447786294  1068.6846   1   7   0.0026   0.0016   0.0191  -0.0009   0.0034  -0.0039  -7.00   37.8
2024/05/06 13:46:54.000   28.318723422  -16.447786294  1068.6854   1   7   0.0026   0.0016   0.0192  -0.0009   0.0034  -0.0039  -6.00   35.5
2024/05/06 13:46:55.000   28.318723422  -16.447786294  1068.6864   1   7   0.0026   0.0016   0.0192  -0.0009   0.0034  -0.0040  -5.00   32.6
2024/05/06 13:46:56.000   28.318723421  -16.447786294  1068.6876   1   7   0.0026   0.0016   0.0193  -0.0009   0.0034  -0.0040  -4.00   29.2
2024/05/06 13:46:57.000   28.318723421  -16.447786294  1068.6890   1   7   0.0027   0.0016   0.0194  -0.0009   0.0034  -0.0041  -3.00   25.0
2024/05/06 13:46:58.000   28.318723421  -16.447786295  1068.6906   1   7   0.0027   0.0016   0.0195  -0.0009   0.0034  -0.0041  -2.00   19.5
2024/05/06 13:46:59.000   28.318723421  -16.447786295  1068.6923   1   7   0.0027   0.0016   0.0197  -0.0009   0.0034  -0.0042  -1.00   12.3
2024/05/06 13:47:00.000   28.318723418  -16.447786293  1068.6687   1   7   0.0025   0.0016   0.0183  -0.0009   0.0034  -0.0035   0.00   40.5
2024/05/06 13:47:01.000   28.318723419  -16.447786293  1068.6699   1   7   0.0025   0.0016   0.0184  -0.0009   0.0034  -0.0036   1.00   40.9
2024/05/06 13:47:02.000   28.318723420  -16.447786293  1068.6709   1   7   0.0025   0.0016   0.0184  -0.0009   0.0034  -0.0036   2.00   42.0
2024/05/06 13:47:03.000   28.318723421  -16.447786294  1068.6719   1   7   0.0025   0.0016   0.0185  -0.0009   0.0034  -0.0036   3.00   43.1
2024/05/06 13:47:04.000   28.318723421  -16.447786294  1068.6729   1   7   0.0025   0.0016   0.0186  -0.0009   0.0034  -0.0036   4.00   43.9
2024/05/06 13:47:05.000   28.318723422  -16.447786294  1068.6738   1   7   0.0025   0.0016   0.0187  -0.0009   0.0034  -0.0037   5.00   44.1
2024/05/06 13:47:06.000   28.318723423  -16.447786295  1068.6747   1   7   0.0025   0.0016   0.0187  -0.0009   0.0034  -0.0037   6.00   44.6
2024/05/06 13:47:07.000   28.318723423  -16.447786295  1068.6753   1   7   0.0026   0.0016   0.0188  -0.0009   0.0034  -0.0037   7.00   44.8
2024/05/06 13:47:08.000   28.318723423  -16.447786295  1068.6760   1   7   0.0026   0.0016   0.0188  -0.0009   0.0034  -0.0038   8.00   45.1
2024/05/06 13:47:09.000   28.318723424  -16.447786295  1068.6766   1   7   0.0026   0.0016   0.0189  -0.0009   0.0034  -0.0038   9.00   45.0
2024/05/06 13:47:10.000   28.318723424  -16.447786296  1068.6771   1   7   0.0026   0.0016   0.0189  -0.0009   0.0034  -0.0038  10.00   44.9
2024/05/06 13:47:11.000   28.318723424  -16.447786296  1068.6777   1   7   0.0026   0.0016   0.0190  -0.0009   0.0034  -0.0038  11.00   44.8
2024/05/06 13:47:12.000   28.318723424  -16.447786296  1068.6781   1   7   0.0026   0.0016   0.0190  -0.0009   0.0034  -0.0038  12.00   44.5
2024/05/06 13:47:13.000   28.318723424  -16.447786296  1068.6786   1   7   0.0026   0.0016   0.0190  -0.0009   0.0034  -0.0038  13.00   44.3
2024/05/06 13:47:14.000   28.318723424  -16.447786296  1068.6790   1   7   0.0026   0.0016   0.0190  -0.0009   0.0034  -0.0039  14.00   43.9
2024/05/06 13:47:15.000   28.318723424  -16.447786296  1068.6794   1   7   0.0026   0.0016   0.0191  -0.0009   0.0034  -0.0039  15.00   43.5
2024/05/06 13:47:16.000   28.318723424  -16.447786296  1068.6798   1   7   0.0026   0.0016   0.0191  -0.0009   0.0034  -0.0039 -14.00   43.1
2024/05/06 13:47:17.000   28.318723424  -16.447786296  1068.6803   1   7   0.0026   0.0016   0.0191  -0.0009   0.0034  -0.0039 -13.00   42.7
2024/05/06 13:47:18.000   28.318723423  -16.447786297  1068.6808   1   7   0.0026   0.0016   0.0191  -0.0009   0.0034  -0.0039 -12.00   42.3
2024/05/06 13:47:19.000   28.318723423  -16.447786297  1068.6814   1   7   0.0026   0.0016   0.0192  -0.0009   0.0034  -0.0039 -11.00   41.9
2024/05/06 13:47:20.000   28.318723423  -16.447786297  1068.6822   1   7   0.0026   0.0016   0.0192  -0.0009   0.0034  -0.0040 -10.00   41.5
2024/05/06 13:47:21.000   28.318723423  -16.447786297  1068.6831   1   7   0.0026   0.0016   0.0192  -0.0009   0.0034  -0.0040  -9.00   41.3
2024/05/06 13:47:22.000   28.318723423  -16.447786297  1068.6840   1   7   0.0026   0.0016   0.0193  -0.0009   0.0034  -0.0040  -8.00   40.9
2024/05/06 13:47:23.000   28.318723422  -16.447786297  1068.6851   1   7   0.0026   0.0016   0.0193  -0.0009   0.0034  -0.0040  -7.00   40.4
2024/05/06 13:47:24.000   28.318723422  -16.447786297  1068.6861   1   7   0.0026   0.0016   0.0194  -0.0009   0.0034  -0.0041  -6.00   38.9
2024/05/06 13:47:25.000   28.318723422  -16.447786297  1068.6873   1   7   0.0026   0.0016   0.0195  -0.0009   0.0034  -0.0041  -5.00   36.1
2024/05/06 13:47:26.000   28.318723422  -16.447786297  1068.6885   1   7   0.0027   0.0016   0.0196  -0.0009   0.0034  -0.0041  -4.00   32.6
2024/05/06 13:47:27.000   28.318723422  -16.447786298  1068.6901   1   7   0.0027   0.0016   0.0197  -0.0009   0.0034  -0.0042  -3.00   28.9
2024/05/06 13:47:28.000   28.318723422  -16.447786298  1068.6918   1   7   0.0027   0.0016   0.0198  -0.0009   0.0034  -0.0042  -2.00   22.7
2024/05/06 13:47:29.000   28.318723421  -16.447786298  1068.6938   1   7   0.0027   0.0016   0.0199  -0.0009   0.0034  -0.0043  -1.00   13.7
2024/05/06 13:47:30.000   28.318723430  -16.447786296  1068.6677   1   7   0.0025   0.0016   0.0185  -0.0009   0.0034  -0.0037   0.00   46.7
2024/05/06 13:47:31.000   28.318723431  -16.447786297  1068.6693   1   7   0.0025   0.0016   0.0186  -0.0009   0.0034  -0.0037   1.00   47.5
2024/05/06 13:47:32.000   28.318723431  -16.447786297  1068.6708   1   7   0.0025   0.0016   0.0187  -0.0009   0.0034  -0.0037   2.00   48.1
2024/05/06 13:47:33.000   28.318723431  -16.447786297  1068.6724   1   7   0.0025   0.0016   0.0188  -0.0009   0.0034  -0.0037   3.00   48.7
2024/05/06 13:47:34.000   28.318723431  -16.447786297  1068.6738   1   7   0.0025   0.0016   0.0188  -0.0009   0.0034  -0.0038   4.00   49.0
2024/05/06 13:47:35.000   28.318723431  -16.447786297  1068.6752   1   7   0.0026   0.0016   0.0189  -0.0009   0.0034  -0.0038   5.00   48.9
2024/05/06 13:47:36.000   28.318723431  -16.447786297  1068.6764   1   7   0.0026   0.0016   0.0190  -0.0009   0.0034  -0.0038   6.00   48.7
2024/05/06 13:47:37.000   28.318723431  -16.447786297  1068.6777   1   7   0.0026   0.0016   0.0190  -0.0009   0.0034  -0.0038   7.00   48.6
2024/05/06 13:47:38.000   28.318723430  -16.447786297  1068.6788   1   7   0.0026   0.0016   0.0191  -0.0009   0.0034  -0.0039   8.00   48.5
2024/05/06 13:47:39.000   28.318723430  -16.447786297  1068.6798   1   7   0.0026   0.0016   0.0191  -0.0009   0.0034  -0.0039   9.00   48.3
2024/05/06 13:47:40.000   28.318723430  -16.447786297  1068.6806   1   7   0.0026   0.0016   0.0192  -0.0009   0.0034  -0.0039  10.00   47.7
2024/05/06 13:47:41.000   28.318723429  -16.447786297  1068.6813   1   7   0.0026   0.0016   0.0192  -0.0009   0.0034  -0.0039  11.00   46.9
2024/05/06 13:47:42.000   28.318723429  -16.447786297  1068.6819   1   7   0.0026   0.0016   0.0192  -0.0009   0.0034  -0.0040  12.00   46.1
2024/05/06 13:47:43.000   28.318723428  -16.447786297  1068.6826   1   7   0.0026   0.0016   0.0193  -0.0009   0.0034  -0.0040  13.00   45.5
2024/05/06 13:47:44.000   28.318723428  -16.447786297  1068.6832   1   7   0.0026   0.0016   0.0193  -0.0009   0.0034  -0.0040  14.00   44.8
2024/05/06 13:47:45.000   28.318723428  -16.447786297  1068.6838   1   7   0.0026   0.0016   0.0193  -0.0009   0.0034  -0.0040  15.00   44.1
2024/05/06 13:47:46.000   28.318723428  -16.447786297  1068.6842   1   7   0.0026   0.0016   0.0193  -0.0009   0.0034  -0.0040 -14.00   43.3
2024/05/06 13:47:47.000   28.318723427  -16.447786297  1068.6848   1   7   0.0026   0.0016   0.0193  -0.0009   0.0034  -0.0040 -13.00   42.5
2024/05/06 13:47:48.000   28.318723427  -16.447786297  1068.6854   1   7   0.0026   0.0016   0.0194  -0.0009   0.0034  -0.0040 -12.00   41.8
2024/05/06 13:47:49.000   28.318723426  -16.447786296  1068.6861   1   7   0.0026   0.0016   0.0194  -0.0009   0.0034  -0.0041 -11.00   40.9
2024/05/06 13:47:50.000   28.318723426  -16.447786296  1068.6869   1   7   0.0026   0.0016   0.0194  -0.0009   0.0034  -0.0041 -10.00   40.1
2024/05/06 13:47:51.000   28.318723425  -16.447786296  1068.6879   1   7   0.0026   0.0016   0.0195  -0.0009   0.0034  -0.0041  -9.00   39.3
2024/05/06 13:47:52.000   28.318723425  -16.447786296  1068.6889   1   7   0.0026   0.0016   0.0195  -0.0009   0.0034  -0.0041  -8.00   38.3
2024/05/06 13:47:53.000   28.318723424  -16.447786296  1068.6901   1   7   0.0027   0.0016   0.0196  -0.0009   0.0034  -0.0042  -7.00   37.2
2024/05/06 13:47:54.000   28.318723424  -16.447786296  1068.6914   1   7   0.0027   0.0016   0.0196  -0.0009   0.0034  -0.0042  -6.00   35.5
2024/05/06 13:47:55.000   28.318723423  -16.447786296  1068.6928   1   7   0.0027   0.0016   0.0197  -0.0009   0.0034  -0.0042  -5.00   33.8
2024/05/06 13:47:56.000   28.318723423  -16.447786296  1068.6944   1   7   0.0027   0.0016   0.0198  -0.0009   0.0034  -0.0043  -4.00   30.7
2024/05/06 13:47:57.000   28.318723422  -16.447786296  1068.6963   1   7   0.0027   0.0016   0.0199  -0.0009   0.0034  -0.0043  -3.00   26.2
2024/05/06 13:47:58.000   28.318723422  -16.447786296  1068.6985   1   7   0.0027   0.0016   0.0200  -0.0009   0.0034  -0.0044  -2.00   20.3
2024/05/06 13:47:59.000   28.318723421  -16.447786296  1068.7011   1   7   0.0027   0.0016   0.0201  -0.0009   0.0034  -0.0044  -1.00   12.6
2024/05/06 13:48:00.000   28.318723434  -16.447786294  1068.6687   1   7   0.0025   0.0016   0.0187  -0.0009   0.0034  -0.0038   0.00   33.3
2024/05/06 13:48:01.000   28.318723434  -16.447786294  1068.6706   1   7   0.0025   0.0016   0.0188  -0.0009   0.0034  -0.0038   1.00   33.0
2024/05/06 13:48:02.000   28.318723434  -16.447786294  1068.6725   1   7   0.0025   0.0016   0.0189  -0.0009   0.0035  -0.0038   2.00   32.8
2024/05/06 13:48:03.000   28.318723434  -16.447786294  1068.6743   1   7   0.0026   0.0016   0.0190  -0.0009   0.0035  -0.0039   3.00   32.7
2024/05/06 13:48:04.000   28.318723434  -16.447786294  1068.6760   1   7   0.0026   0.0016   0.0191  -0.0009   0.0035  -0.0039   4.00   32.4
2024/05/06 13:48:05.000   28.318723434  -16.447786294  1068.6776   1   7   0.0026   0.0016   0.0191  -0.0009   0.0035  -0.0039   5.00   32.1
2024/05/06 13:48:06.000   28.318723434  -16.447786294  1068.6791   1   7   0.0026   0.0016   0.0192  -0.0009   0.0035  -0.0039   6.00   32.0
2024/05/06 13:48:07.000   28.318723434  -16.447786294  1068.6805   1   7   0.0026   0.0016   0.0193  -0.0009   0.0035  -0.0040   7.00   31.8
2024/05/06 13:48:08.000   28.318723433  -16.447786294  1068.6818   1   7   0.0026   0.0016   0.0193  -0.0009   0.0035  -0.0040   8.00   31.6
2024/05/06 13:48:09.000   28.318723433  -16.447786294  1068.6831   1   7   0.0026   0.0016   0.0193  -0.0009   0.0035  -0.0040   9.00   31.6
2024/05/06 13:48:10.000   28.318723433  -16.447786294  1068.6842   1   7   0.0026   0.0016   0.0194  -0.0009   0.0035  -0.0040  10.00   31.4
2024/05/06 13:48:11.000   28.318723432  -16.447786294  1068.6852   1   7   0.0026   0.0016   0.0194  -0.0009   0.0035  -0.0041  11.00   31.2
2024/05/06 13:48:12.000   28.318723432  -16.447786294  1068.6862   1   7   0.0026   0.0016   0.0195  -0.0009   0.0035  -0.0041  12.00   30.9
2024/05/06 13:48:13.000   28.318723431  -16.447786294  1068.6870   1   7   0.0026   0.0016   0.0195  -0.0009   0.0035  -0.0041  13.00   30.6
2024/05/06 13:48:14.000   28.318723431  -16.447786294  1068.6877   1   7   0.0026   0.0016   0.0195  -0.0009   0.0034  -0.0041  14.00   30.3
2024/05/06 13:48:15.000   28.318723431  -16.447786294  1068.6884   1   7   0.0026   0.0016   0.0195  -0.0009   0.0034  -0.0041  15.00   29.9
2024/05/06 13:48:16.000   28.318723430  -16.447786295  1068.6889   1   7   0.0026   0.0016   0.0195  -0.0009   0.0034  -0.0041 -14.00   29.4
2024/05/06 13:48:17.000   28.318723430  -16.447786295  1068.6896   1   7   0.0026   0.0016   0.0196  -0.0009   0.0034  -0.0042 -13.00   29.0
2024/05/06 13:48:18.000   28.318723430  -16.447786295  1068.6904   1   7   0.0026   0.0016   0.0196  -0.0009   0.0034  -0.0042 -12.00   28.6
2024/05/06 13:48:19.000   28.318723429  -16.447786295  1068.6914   1   7   0.0027   0.0016   0.0196  -0.0009   0.0034  -0.0042 -11.00   28.2
2024/05/06 13:48:20.000   28.318723429  -16.447786295  1068.6924   1   7   0.0027   0.0016   0.0196  -0.0009   0.0034  -0.0042 -10.00   27.9
2024/05/06 13:48:21.000   28.318723428  -16.447786295  1068.6937   1   7   0.0027   0.0016   0.0197  -0.0009   0.0034  -0.0042  -9.00   27.5
2024/05/06 13:48:22.000   28.318723427  -16.447786295  1068.6949   1   7   0.0027   0.0016   0.0197  -0.0009   0.0034  -0.0043  -8.00   27.2
2024/05/06 13:48:23.000   28.318723427  -16.447786295  1068.6965   1   7   0.0027   0.0016   0.0198  -0.0009   0.0034  -0.0043  -7.00   26.9
2024/05/06 13:48:24.000   28.318723426  -16.447786295  1068.6982   1   7   0.0027   0.0016   0.0198  -0.0009   0.0034  -0.0043  -6.00   26.4
2024/05/06 13:48:25.000   28.318723425  -16.447786295  1068.7001   1   7   0.0027   0.0016   0.0199  -0.0009   0.0034  -0.0043  -5.00   25.8
2024/05/06 13:48:26.000   28.318723425  -16.447786296  1068.7023   1   7   0.0027   0.0016   0.0200  -0.0009   0.0034  -0.0044  -4.00   24.8
2024/05/06 13:48:27.000   28.318723424  -16.447786296  1068.7048   1   7   0.0027   0.0016   0.0201  -0.0009   0.0034  -0.0044  -3.00   22.3
2024/05/06 13:48:28.000   28.318723423  -16.447786296  1068.7076   1   7   0.0028   0.0016   0.0202  -0.0009   0.0034  -0.0045  -2.00   18.6
2024/05/06 13:48:29.000   28.318723422  -16.447786297  1068.7108   1   7   0.0028   0.0016   0.0203  -0.0009   0.0034  -0.0045  -1.00   12.6
2024/05/06 13:48:30.000   28.318723430  -16.447786294  1068.6755   1   7   0.0025   0.0016   0.0190  -0.0009   0.0035  -0.0039   0.00   25.2
2024/05/06 13:48:31.000   28.318723430  -16.447786295  1068.6779   1   7   0.0025   0.0016   0.0191  -0.0009   0.0035  -0.0039   1.00   25.5
2024/05/06 13:48:32.000   28.318723430  -16.447786295  1068.6802   1   7   0.0026   0.0016   0.0191  -0.0009   0.0035  -0.0039   2.00   25.9
2024/05/06 13:48:33.000   28.318723431  -16.447786296  1068.6823   1   7   0.0026   0.0016   0.0192  -0.0009   0.0035  -0.0040   3.00   26.2
2024/05/06 13:48:34.000   28.318723431  -16.447786296  1068.6843   1   7   0.0026   0.0016   0.0193  -0.0009   0.0035  -0.0040   4.00   26.3
2024/05/06 13:48:35.000   28.318723430  -16.447786296  1068.6860   1   7   0.0026   0.0016   0.0194  -0.0009   0.0035  -0.0040   5.00   26.3
2024/05/06 13:48:36.000   28.318723430  -16.447786297  1068.6875   1   7   0.0026   0.0016   0.0194  -0.0009   0.0035  -0.0041   6.00   26.3
2024/05/06 13:48:37.000   28.318723430  -16.447786297  1068.6889   1   7   0.0026   0.0016   0.0195  -0.0009   0.0035  -0.0041   7.00   26.3
2024/05/06 13:48:38.000   28.318723430  -16.447786297  1068.6902   1   7   0.0026   0.0016   0.0195  -0.0009   0.0035  -0.0041   8.00   26.4
2024/05/06 13:48:39.000   28.318723430  -16.447786297  1068.6912   1   7   0.0026   0.0016   0.0196  -0.0009   0.0035  -0.0041   9.00   26.2
2024/05/06 13:48:40.000   28.318723430  -16.447786298  1068.6922   1   7   0.0026   0.0016   0.0196  -0.0009   0.0035  -0.0042  10.00   26.1
2024/05/06 13:48:41.000   28.318723430  -16.447786298  1068.6930   1   7   0.0026   0.0016   0.0196  -0.0009   0.0035  -0.0042  11.00   25.9
2024/05/06 13:48:42.000   28.318723430  -16.447786298  1068.6937   1   7   0.0027   0.0016   0.0197  -0.0009   0.0035  -0.0042  12.00   25.6
2024/05/06 13:48:43.000   28.318723429  -16.447786298  1068.6944   1   7   0.0027   0.0016   0.0197  -0.0009   0.0035  -0.0042  13.00   25.4
2024/05/06 13:48:44.000   28.318723429  -16.447786298  1068.6950   1   7   0.0027   0.0016   0.0197  -0.0009   0.0035  -0.0042  14.00   25.1
2024/05/06 13:48:45.000   28.318723429  -16.447786298  1068.6956   1   7   0.0027   0.0016   0.0197  -0.0009   0.0035  -0.0042  15.00   24.8
2024/05/06 13:48:46.000   28.318723429  -16.447786298  1068.6962   1   7   0.0027   0.0016   0.0198  -0.0009   0.0035  -0.0043 -14.00   24.6
2024/05/06 13:48:47.000   28.318723429  -16.447786299  1068.6968   1   7   0.0027   0.0016   0.0198  -0.0009   0.0035  -0.0043 -13.00   24.3
2024/05/06 13:48:48.000   28.318723428  -16.447786299  1068.6975   1   7   0.0027   0.0016   0.0198  -0.0009   0.0035  -0.0043 -12.00   24.1
2024/05/06 13:48:49.000   28.318723428  -16.447786299  1068.6983   1   7   0.0027   0.0016   0.0198  -0.0009   0.0035  -0.0043 -11.00   23.7
2024/05/06 13:48:50.000   28.318723428  -16.447786299  1068.6992   1   7   0.0027   0.0016   0.0199  -0.0009   0.0035  -0.0043 -10.00   23.5
2024/05/06 13:48:51.000   28.318723427  -16.447786299  1068.7002   1   7   0.0027   0.0016   0.0199  -0.0009   0.0034  -0.0043  -9.00   23.1
2024/05/06 13:48:52.000   28.318723427  -16.447786300  1068.7016   1   7   0.0027   0.0016   0.0199  -0.0009   0.0034  -0.0044  -8.00   22.9
2024/05/06 13:48:53.000   28.318723426  -16.447786300  1068.7031   1   7   0.0027   0.0016   0.0200  -0.0009   0.0034  -0.0044  -7.00   22.7
2024/05/06 13:48:54.000   28.318723425  -16.447786300  1068.7047   1   7   0.0027   0.0016   0.0201  -0.0009   0.0034  -0.0044  -6.00   22.4
2024/05/06 13:48:55.000   28.318723425  -16.447786300  1068.7068   1   7   0.0027   0.0016   0.0201  -0.0009   0.0034  -0.0045  -5.00   22.3
2024/05/06 13:48:56.000   28.318723424  -16.447786301  1068.7089   1   7   0.0027   0.0016   0.0202  -0.0009   0.0034  -0.0045  -4.00   21.4
2024/05/06 13:48:57.000   28.318723423  -16.447786301  1068.7114   1   7   0.0028   0.0016   0.0203  -0.0009   0.0034  -0.0046  -3.00   19.5
2024/05/06 13:48:58.000   28.318723422  -16.447786301  1068.7144   1   7   0.0028   0.0016   0.0204  -0.0009   0.0034  -0.0046  -2.00   16.7
2024/05/06 13:48:59.000   28.318723420  -16.447786302  1068.7177   1   7   0.0028   0.0016   0.0205  -0.0009   0.0034  -0.0047  -1.00   11.4
2024/05/06 13:49:00.000   28.318723443  -16.447786300  1068.6784   1   7   0.0026   0.0016   0.0192  -0.0009   0.0035  -0.0040   0.00   26.3
2024/05/06 13:49:01.000   28.318723443  -16.447786300  1068.6808   1   7   0.0026   0.0016   0.0193  -0.0009   0.0035  -0.0040   1.00   27.0
2024/05/06 13:49:02.000   28.318723443  -16.447786300  1068.6832   1   7   0.0026   0.0016   0.0194  -0.0009   0.0035  -0.0041   2.00   27.7
2024/05/06 13:49:03.000   28.318723443  -16.447786301  1068.6856   1   7   0.0026   0.0016   0.0194  -0.0009   0.0035  -0.0041   3.00   28.4
2024/05/06 13:49:04.000   28.318723442  -16.447786301  1068.6878   1   7   0.0026   0.0016   0.0195  -0.0009   0.0035  -0.0041   4.00   28.9
2024/05/06 13:49:05.000   28.318723441  -16.447786301  1068.6898   1   7   0.0026   0.0016   0.0196  -0.0009   0.0035  -0.0042   5.00   29.0
2024/05/06 13:49:06.000   28.318723440  -16.447786301  1068.6914   1   7   0.0026   0.0016   0.0197  -0.0009   0.0035  -0.0042   6.00   29.0
2024/05/06 13:49:07.000   28.318723439  -16.447786301  1068.6931   1   7   0.0026   0.0016   0.0197  -0.0009   0.0035  -0.0042   7.00   29.1
2024/05/06 13:49:08.000   28.318723438  -16.447786301  1068.6945   1   7   0.0027   0.0016   0.0198  -0.0009   0.0035  -0.0042   8.00   29.1
2024/05/06 13:49:09.000   28.318723437  -16.447786302  1068.6959   1   7   0.0027   0.0016   0.0198  -0.0009   0.0035  -0.0043   9.00   29.1
2024/05/06 13:49:10.000   28.318723436  -16.447786302  1068.6971   1   7   0.0027   0.0016   0.0198  -0.0009   0.0035  -0.0043  10.00   29.1
2024/05/06 13:49:11.000   28.318723435  -16.447786302  1068.6983   1   7   0.0027   0.0016   0.0199  -0.0009   0.0035  -0.0043  11.00   29.0
2024/05/06 13:49:12.000   28.318723435  -16.447786302  1068.6993   1   7   0.0027   0.0016   0.0199  -0.0009   0.0035  -0.0043  12.00   28.9
2024/05/06 13:49:13.000   28.318723434  -16.447786302  1068.7002   1   7   0.0027   0.0016   0.0199  -0.0009   0.0035  -0.0043  13.00   28.7
2024/05/06 13:49:14.000   28.318723433  -16.447786302  1068.7009   1   7   0.0027   0.0016   0.0199  -0.0009   0.0035  -0.0044  14.00   28.4
2024/05/06 13:49:15.000   28.318723433  -16.447786302  1068.7017   1   7   0.0027   0.0016   0.0200  -0.0009   0.0035  -0.0044  15.00   28.1
2024/05/06 13:49:16.000   28.318723432  -16.447786302  1068.7024   1   7   0.0027   0.0016   0.0200  -0.0009   0.0035  -0.0044 -14.00   27.8
2024/05/06 13:49:17.000   28.318723432  -16.447786302  1068.7031   1   7   0.0027   0.0016   0.0200  -0.0009   0.0035  -0.0044 -13.00   27.5
2024/05/06 13:49:18.000   28.318723431  -16.447786302  1068.7039   1   7   0.0027   0.0016   0.0200  -0.0009   0.0035  -0.0044 -12.00   27.2
2024/05/06 13:49:19.000   28.318723430  -16.447786302  1068.7048   1   7   0.0027   0.0016   0.0200  -0.0009   0.0035  -0.0044 -11.00   26.9
2024/05/06 13:49:20.000   28.318723430  -16.447786302  1068.7059   1   7   0.0027   0.0016   0.0201  -0.0009   0.0035  -0.0044 -10.00   26.6
2024/05/06 13:49:21.000   28.318723429  -16.447786302  1068.7071   1   7   0.0027   0.0016   0.0201  -0.0009   0.0035  -0.0045  -9.00   26.3
2024/05/06 13:49:22.000   28.318723428  -16.447786302  1068.7084   1   7   0.0027   0.0016   0.0202  -0.0009   0.0035  -0.0045  -8.00   26.0
2024/05/06 13:49:23.000   28.318723427  -16.447786302  1068.7099   1   7   0.0027   0.0016   0.0202  -0.0009   0.0035  -0.0045  -7.00   25.6
2024/05/06 13:49:24.000   28.318723426  -16.447786303  1068.7115   1   7   0.0027   0.0016   0.0203  -0.0009   0.0035  -0.0046  -6.00   24.6
2024/05/06 13:49:25.000   28.318723424  -16.447786303  1068.7135   1   7   0.0028   0.0016   0.0203  -0.0009   0.0035  -0.0046  -5.00   23.1
2024/05/06 13:49:26.000   28.318723423  -16.447786303  1068.7159   1   7   0.0028   0.0016   0.0204  -0.0009   0.0035  -0.0046  -4.00   21.3
2024/05/06 13:49:27.000   28.318723421  -16.447786303  1068.7188   1   7   0.0028   0.0016   0.0205  -0.0009   0.0035  -0.0047  -3.00   19.2
2024/05/06 13:49:28.000   28.318723418  -16.447786303  1068.7222   1   7   0.0028   0.0016   0.0206  -0.0009   0.0035  -0.0047  -2.00   16.2
2024/05/06 13:49:29.000   28.318723416  -16.447786303  1068.7260   1   7   0.0028   0.0016   0.0208  -0.0009   0.0035  -0.0048  -1.00   11.0
2024/05/06 13:49:30.000   28.318723442  -16.447786300  1068.6884   1   7   0.0026   0.0016   0.0194  -0.0009   0.0035  -0.0041   0.00   28.4
2024/05/06 13:49:31.000   28.318723441  -16.447786300  1068.6909   1   7   0.0026   0.0016   0.0195  -0.0009   0.0035  -0.0041   1.00   28.9
2024/05/06 13:49:32.000   28.318723440  -16.447786300  1068.6936   1   7   0.0026   0.0016   0.0196  -0.0009   0.0035  -0.0042   2.00   29.3
2024/05/06 13:49:33.000   28.318723440  -16.447786300  1068.6961   1   7   0.0026   0.0016   0.0197  -0.0009   0.0035  -0.0042   3.00   29.8
2024/05/06 13:49:34.000   28.318723439  -16.447786300  1068.6985   1   7   0.0026   0.0016   0.0197  -0.0009   0.0035  -0.0042   4.00   30.4
2024/05/06 13:49:35.000   28.318723438  -16.447786300  1068.7008   1   7   0.0026   0.0016   0.0198  -0.0009   0.0035  -0.0043   5.00   30.7
2024/05/06 13:49:36.000   28.318723437  -16.447786299  1068.7029   1   7   0.0027   0.0016   0.0199  -0.0009   0.0035  -0.0043   6.00   31.0
2024/05/06 13:49:37.000   28.318723435  -16.447786299  1068.7049   1   7   0.0027   0.0016   0.0199  -0.0009   0.0035  -0.0043   7.00   31.3
2024/05/06 13:49:38.000   28.318723434  -16.447786299  1068.7067   1   7   0.0027   0.0016   0.0200  -0.0009   0.0035  -0.0044   8.00   31.6
2024/05/06 13:49:39.000   28.318723433  -16.447786299  1068.7083   1   7   0.0027   0.0016   0.0200  -0.0009   0.0035  -0.0044   9.00   31.8
2024/05/06 13:49:40.000   28.318723432  -16.447786299  1068.7098   1   7   0.0027   0.0016   0.0201  -0.0009   0.0035  -0.0044  10.00   32.0
2024/05/06 13:49:41.000   28.318723431  -16.447786299  1068.7109   1   7   0.0027   0.0016   0.0201  -0.0009   0.0035  -0.0044  11.00   31.9
2024/05/06 13:49:42.000   28.318723431  -16.447786300  1068.7120   1   7   0.0027   0.0016   0.0201  -0.0009   0.0035  -0.0044  12.00   31.8
2024/05/06 13:49:43.000   28.318723430  -16.447786300  1068.7129   1   7   0.0027   0.0016   0.0201  -0.0009   0.0035  -0.0045  13.00   31.7
2024/05/06 13:49:44.000   28.318723429  -16.447786300  1068.7138   1   7   0.0027   0.0016   0.0202  -0.0009   0.0035  -0.0045  14.00   31.5
2024/05/06 13:49:45.000   28.318723429  -16.447786300  1068.7146   1   7   0.0027   0.0016   0.0202  -0.0009   0.0035  -0.0045  15.00   31.3
2024/05/06 13:49:46.000   28.318723428  -16.447786300  1068.7153   1   7   0.0027   0.0016   0.0202  -0.0009   0.0035  -0.0045 -14.00   31.0
2024/05/06 13:49:47.000   28.318723428  -16.447786300  1068.7162   1   7   0.0027   0.0016   0.0202  -0.0009   0.0035  -0.0045 -13.00   30.9
2024/05/06 13:49:48.000   28.318723427  -16.447786300  1068.7171   1   7   0.0027   0.0016   0.0202  -0.0009   0.0035  -0.0045 -12.00   30.8
2024/05/06 13:49:49.000   28.318723426  -16.447786300  1068.7182   1   7   0.0027   0.0016   0.0203  -0.0009   0.0035  -0.0045 -11.00   30.7
2024/05/06 13:49:50.000   28.318723425  -16.447786300  1068.7195   1   7   0.0027   0.0016   0.0203  -0.0009   0.0035  -0.0046 -10.00   30.6
2024/05/06 13:49:51.000   28.318723424  -16.447786300  1068.7208   1   7   0.0027   0.0016   0.0203  -0.0009   0.0035  -0.0046  -9.00   30.4
2024/05/06 13:49:52.000   28.318723423  -16.447786300  1068.7223   1   7   0.0028   0.0016   0.0204  -0.0009   0.0035  -0.0046  -8.00   30.1
2024/05/06 13:49:53.000   28.318723422  -16.447786300  1068.7240   1   7   0.0028   0.0016   0.0204  -0.0009   0.0035  -0.0046  -7.00   29.9
2024/05/06 13:49:54.000   28.318723421  -16.447786300  1068.7260   1   7   0.0028   0.0016   0.0205  -0.0009   0.0035  -0.0047  -6.00   29.7
2024/05/06 13:49:55.000   28.318723419  -16.447786300  1068.7279   1   7   0.0028   0.0016   0.0206  -0.0009   0.0035  -0.0047  -5.00   28.9
2024/05/06 13:49:56.000   28.318723418  -16.447786300  1068.7302   1   7   0.0028   0.0016   0.0206  -0.0009   0.0035  -0.0048  -4.00   26.7
2024/05/06 13:49:57.000   28.318723416  -16.447786299  1068.7327   1   7   0.0028   0.0016   0.0207  -0.0009   0.0035  -0.0048  -3.00   23.1
2024/05/06 13:49:58.000   28.318723415  -16.447786299  1068.7358   1   7   0.0028   0.0016   0.0208  -0.0009   0.0035  -0.0049  -2.00   18.9
2024/05/06 13:49:59.000   28.318723413  -16.447786299  1068.7389   1   7   0.0029   0.0016   0.0210  -0.0009   0.0035  -0.0049  -1.00   11.8
2024/05/06 13:50:00.000   28.318723434  -16.447786296  1068.7080   1   7   0.0026   0.0016   0.0196  -0.0009   0.0035  -0.0042   0.00   37.8
2024/05/06 13:50:01.000   28.318723434  -16.447786296  1068.7104   1   7   0.0026   0.0016   0.0197  -0.0009   0.0035  -0.0043   1.00   38.0
2024/05/06 13:50:02.000   28.318723433  -16.447786296  1068.7126   1   7   0.0026   0.0016   0.0198  -0.0009   0.0035  -0.0043   2.00   38.1
2024/05/06 13:50:03.000   28.318723432  -16.447786295  1068.7147   1   7   0.0026   0.0016   0.0199  -0.0009   0.0035  -0.0043   3.00   38.2
2024/05/06 13:50:04.000   28.318723432  -16.447786295  1068.7167   1   7   0.0027   0.0016   0.0200  -0.0009   0.0035  -0.0044   4.00   38.3
2024/05/06 13:50:05.000   28.318723431  -16.447786295  1068.7185   1   7   0.0027   0.0016   0.0200  -0.0009   0.0035  -0.0044   5.00   38.4
2024/05/06 13:50:06.000   28.318723430  -16.447786295  1068.7201   1   7   0.0027   0.0016   0.0201  -0.0009   0.0035  -0.0044   6.00   38.3
2024/05/06 13:50:07.000   28.318723430  -16.447786294  1068.7215   1   7   0.0027   0.0016   0.0201  -0.0009   0.0035  -0.0045   7.00   38.1
2024/05/06 13:50:08.000   28.318723429  -16.447786294  1068.7228   1   7   0.0027   0.0016   0.0202  -0.0009   0.0035  -0.0045   8.00   38.0
2024/05/06 13:50:09.000   28.318723428  -16.447786294  1068.7240   1   7   0.0027   0.0016   0.0202  -0.0009   0.0035  -0.0045   9.00   37.9
2024/05/06 13:50:10.000   28.318723427  -16.447786294  1068.7253   1   7   0.0027   0.0016   0.0203  -0.0009   0.0035  -0.0045  10.00   38.0
2024/05/06 13:50:11.000   28.318723427  -16.447786294  1068.7262   1   7   0.0027   0.0016   0.0203  -0.0009   0.0035  -0.0045  11.00   37.6
2024/05/06 13:50:12.000   28.318723426  -16.447786294  1068.7270   1   7   0.0027   0.0016   0.0203  -0.0009   0.0035  -0.0046  12.00   37.2
2024/05/06 13:50:13.000   28.318723425  -16.447786294  1068.7277   1   7   0.0027   0.0016   0.0204  -0.0009   0.0035  -0.0046  13.00   36.7
2024/05/06 13:50:14.000   28.318723425  -16.447786294  1068.7284   1   7   0.0027   0.0016   0.0204  -0.0009   0.0035  -0.0046  14.00   36.3
2024/05/06 13:50:15.000   28.318723424  -16.447786294  1068.7291   1   7   0.0027   0.0016   0.0204  -0.0009   0.0035  -0.0046  15.00   35.9
2024/05/06 13:50:16.000   28.318723424  -16.447786294  1068.7297   1   7   0.0027   0.0016   0.0204  -0.0009   0.0035  -0.0046 -14.00   35.5
2024/05/06 13:50:17.000   28.318723423  -16.447786294  1068.7303   1   7   0.0028   0.0016   0.0204  -0.0009   0.0035  -0.0046 -13.00   34.9
2024/05/06 13:50:18.000   28.318723423  -16.447786294  1068.7311   1   7   0.0028   0.0016   0.0204  -0.0009   0.0035  -0.0047 -12.00   34.6
2024/05/06 13:50:19.000   28.318723422  -16.447786294  1068.7319   1   7   0.0028   0.0016   0.0205  -0.0009   0.0035  -0.0047 -11.00   34.1
2024/05/06 13:50:20.000   28.318723422  -16.447786294  1068.7329   1   7   0.0028   0.0016   0.0205  -0.0009   0.0035  -0.0047 -10.00   33.7
2024/05/06 13:50:21.000   28.318723421  -16.447786294  1068.7340   1   7   0.0028   0.0016   0.0205  -0.0009   0.0035  -0.0047  -9.00   33.2
2024/05/06 13:50:22.000   28.318723421  -16.447786293  1068.7328   1   7   0.0027   0.0014   0.0198  -0.0009   0.0030  -0.0046  -8.00    3.4
2024/05/06 13:50:23.000   28.318723420  -16.447786293  1068.7341   1   7   0.0027   0.0014   0.0198  -0.0009   0.0030  -0.0046  -7.00    3.4
2024/05/06 13:50:24.000   28.318723419  -16.447786294  1068.7357   1   7   0.0027   0.0014   0.0198  -0.0009   0.0030  -0.0046  -6.00    3.4
2024/05/06 13:50:25.000   28.318723418  -16.447786294  1068.7371   1   7   0.0028   0.0014   0.0199  -0.0009   0.0030  -0.0046  -5.00    3.4
2024/05/06 13:50:26.000   28.318723417  -16.447786294  1068.7389   1   7   0.0028   0.0014   0.0199  -0.0009   0.0030  -0.0047  -4.00    3.3
2024/05/06 13:50:27.000   28.318723416  -16.447786294  1068.7406   1   7   0.0028   0.0014   0.0200  -0.0009   0.0030  -0.0047  -3.00    3.3
2024/05/06 13:50:28.000   28.318723414  -16.447786294  1068.7430   1   7   0.0028   0.0014   0.0201  -0.0009   0.0030  -0.0047  -2.00    3.3
2024/05/06 13:50:29.000   28.318723412  -16.447786294  1068.7458   1   7   0.0028   0.0014   0.0202  -0.0009   0.0030  -0.0048  -1.00    3.3
2024/05/06 13:50:30.000   28.318723430  -16.447786293  1068.7205   1   7   0.0026   0.0014   0.0189  -0.0009   0.0030  -0.0041   0.00    3.3
2024/05/06 13:50:31.000   28.318723429  -16.447786293  1068.7228   1   7   0.0026   0.0014   0.0193  -0.0009   0.0030  -0.0044   1.00    5.3
2024/05/06 13:50:32.000   28.318723428  -16.447786293  1068.7249   1   7   0.0027   0.0014   0.0194  -0.0009   0.0030  -0.0044   2.00    5.2
2024/05/06 13:50:33.000   28.318723427  -16.447786293  1068.7267   1   7   0.0027   0.0014   0.0195  -0.0009   0.0030  -0.0044   3.00    5.1
2024/05/06 13:50:34.000   28.318723426  -16.447786293  1068.7284   1   7   0.0027   0.0014   0.0196  -0.0009   0.0030  -0.0045   4.00    5.0
2024/05/06 13:50:35.000   28.318723425  -16.447786293  1068.7298   1   7   0.0027   0.0014   0.0196  -0.0009   0.0030  -0.0045   5.00    4.9
2024/05/06 13:50:36.000   28.318723424  -16.447786293  1068.7312   1   7   0.0027   0.0014   0.0197  -0.0009   0.0030  -0.0045   6.00    4.8
2024/05/06 13:50:37.000   28.318723423  -16.447786293  1068.7323   1   7   0.0027   0.0014   0.0197  -0.0009   0.0030  -0.0046   7.00    4.7
2024/05/06 13:50:38.000   28.318723422  -16.447786293  1068.7334   1   7   0.0027   0.0014   0.0198  -0.0009   0.0030  -0.0046   8.00    4.6
2024/05/06 13:50:39.000   28.318723421  -16.447786293  1068.7344   1   7   0.0027   0.0014   0.0198  -0.0009   0.0030  -0.0046   9.00    4.6
2024/05/06 13:50:40.000   28.318723420  -16.447786293  1068.7353   1   7   0.0027   0.0014   0.0199  -0.0009   0.0029  -0.0046  10.00    4.5
2024/05/06 13:50:41.000   28.318723420  -16.447786293  1068.7361   1   7   0.0027   0.0014   0.0199  -0.0009   0.0029  -0.0047  11.00    4.4
2024/05/06 13:50:42.000   28.318723419  -16.447786293  1068.7368   1   7   0.0028   0.0014   0.0199  -0.0009   0.0029  -0.0047  12.00    8.7
2024/05/06 13:50:43.000   28.318723418  -16.447786293  1068.7375   1   7   0.0028   0.0014   0.0199  -0.0009   0.0029  -0.0047  13.00   12.8
2024/05/06 13:50:44.000   28.318723403  -16.447786290  1068.7211   1   7   0.0027   0.0014   0.0192  -0.0009   0.0030  -0.0050  14.00    3.3
2024/05/06 13:50:45.000   28.318723403  -16.447786290  1068.7216   1   7   0.0027   0.0014   0.0192  -0.0009   0.0030  -0.0050 -15.00    7.1
2024/05/06 13:50:46.000   28.318723402  -16.447786290  1068.7219   1   7   0.0027   0.0014   0.0193  -0.0009   0.0030  -0.0050 -14.00   11.2
2024/05/06 13:50:47.000   28.318723402  -16.447786290  1068.7224   1   7   0.0027   0.0014   0.0193  -0.0009   0.0030  -0.0050 -13.00   15.4
2024/05/06 13:50:48.000   28.318723401  -16.447786290  1068.7229   1   7   0.0027   0.0014   0.0193  -0.0009   0.0030  -0.0050 -12.00   19.8
2024/05/06 13:50:49.000   28.318723401  -16.447786290  1068.7235   1   7   0.0027   0.0014   0.0193  -0.0009   0.0030  -0.0051 -11.00   24.2
2024/05/06 13:50:50.000   28.318723400  -16.447786290  1068.7242   1   7   0.0027   0.0014   0.0194  -0.0009   0.0030  -0.0051 -10.00   28.7
2024/05/06 13:50:51.000   28.318723400  -16.447786290  1068.7248   1   7   0.0028   0.0014   0.0194  -0.0009   0.0030  -0.0051  -9.00   33.2
2024/05/06 13:50:52.000   28.318723399  -16.447786290  1068.7257   1   7   0.0028   0.0014   0.0194  -0.0009   0.0030  -0.0051  -8.00   37.9
2024/05/06 13:50:53.000   28.318723398  -16.447786290  1068.7266   1   7   0.0028   0.0014   0.0195  -0.0009   0.0030  -0.0052  -7.00   42.5
2024/05/06 13:50:54.000   28.318723397  -16.447786290  1068.7276   1   7   0.0028   0.0014   0.0195  -0.0009   0.0030  -0.0052  -6.00   47.4
2024/05/06 13:50:55.000   28.318723396  -16.447786290  1068.7289   1   7   0.0028   0.0014   0.0196  -0.0009   0.0030  -0.0052  -5.00   52.5
2024/05/06 13:50:56.000   28.318723395  -16.447786291  1068.7302   1   7   0.0028   0.0014   0.0197  -0.0009   0.0030  -0.0053  -4.00   56.8
2024/05/06 13:50:57.000   28.318723393  -16.447786291  1068.7316   1   7   0.0028   0.0014   0.0197  -0.0009   0.0030  -0.0053  -3.00   61.6
2024/05/06 13:50:58.000   28.318723392  -16.447786291  1068.7334   1   7   0.0029   0.0014   0.0198  -0.0009   0.0030  -0.0054  -2.00   66.1
2024/05/06 13:50:59.000   28.318723390  -16.447786291  1068.7354   1   7   0.0029   0.0014   0.0200  -0.0009   0.0030  -0.0054  -1.00   71.2
2024/05/06 13:51:00.000   28.318723401  -16.447786290  1068.7175   1   7   0.0026   0.0014   0.0187  -0.0008   0.0030  -0.0047   0.00   76.7
2024/05/06 13:51:01.000   28.318723400  -16.447786290  1068.7189   1   7   0.0026   0.0014   0.0187  -0.0008   0.0030  -0.0048   1.00   81.2
2024/05/06 13:51:02.000   28.318723399  -16.447786290  1068.7205   1   7   0.0026   0.0014   0.0188  -0.0008   0.0030  -0.0048   2.00   86.1
2024/05/06 13:51:03.000   28.318723398  -16.447786290  1068.7220   1   7   0.0026   0.0014   0.0189  -0.0008   0.0030  -0.0049   3.00   91.1
2024/05/06 13:51:04.000   28.318723397  -16.447786290  1068.7234   1   7   0.0027   0.0014   0.0189  -0.0008   0.0030  -0.0049   4.00   95.5
2024/05/06 13:51:05.000   28.318723396  -16.447786290  1068.7248   1   7   0.0027   0.0014   0.0190  -0.0008   0.0030  -0.0049   5.00   98.6
2024/05/06 13:51:06.000   28.318723395  -16.447786290  1068.7262   1   7   0.0027   0.0014   0.0190  -0.0008   0.0030  -0.0050   6.00  101.7
2024/05/06 13:51:07.000   28.318723394  -16.447786290  1068.7274   1   7   0.0027   0.0014   0.0191  -0.0008   0.0030  -0.0050   7.00  104.6
2024/05/06 13:51:08.000   28.318723393  -16.447786290  1068.7285   1   7   0.0027   0.0014   0.0191  -0.0008   0.0030  -0.0050   8.00  107.5
2024/05/06 13:51:09.000   28.318723392  -16.447786290  1068.7294   1   7   0.0027   0.0014   0.0192  -0.0008   0.0030  -0.0050   9.00  110.4
2024/05/06 13:51:10.000   28.318723392  -16.447786290  1068.7301   1   7   0.0027   0.0014   0.0192  -0.0008   0.0030  -0.0051  10.00  113.4
2024/05/06 13:51:11.000   28.318723391  -16.447786290  1068.7308   1   7   0.0027   0.0014   0.0192  -0.0008   0.0030  -0.0051  11.00  116.6
2024/05/06 13:51:12.000   28.318723391  -16.447786290  1068.7314   1   7   0.0027   0.0014   0.0193  -0.0008   0.0030  -0.0051  12.00  120.1
2024/05/06 13:51:13.000   28.318723390  -16.447786290  1068.7319   1   7   0.0027   0.0014   0.0193  -0.0008   0.0030  -0.0051  13.00  123.1
2024/05/06 13:51:14.000   28.318723390  -16.447786290  1068.7323   1   7   0.0027   0.0014   0.0193  -0.0008   0.0030  -0.0051  14.00  126.8
2024/05/06 13:51:15.000   28.318723383  -16.447786290  1068.7346   1   7   0.0026   0.0014   0.0190  -0.0008   0.0030  -0.0049 -15.00    3.8
2024/05/06 13:51:16.000   28.318723383  -16.447786290  1068.7349   1   7   0.0026   0.0014   0.0190  -0.0008   0.0030  -0.0049 -14.00    8.4
2024/05/06 13:51:17.000   28.318723411  -16.447786291  1068.7109   1   7   0.0025   0.0014   0.0180  -0.0008   0.0029  -0.0044 -13.00    4.6
2024/05/06 13:51:18.000   28.318723411  -16.447786291  1068.7107   1   7   0.0025   0.0014   0.0180  -0.0008   0.0029  -0.0044 -12.00    7.1
2024/05/06 13:51:19.000   28.318723411  -16.447786291  1068.7105   1   7   0.0025   0.0014   0.0180  -0.0008   0.0029  -0.0044 -11.00    9.8
2024/05/06 13:51:20.000   28.318723411  -16.447786291  1068.7104   1   7   0.0025   0.0014   0.0180  -0.0008   0.0029  -0.0044 -10.00   12.5
2024/05/06 13:51:21.000   28.318723412  -16.447786291  1068.7101   1   7   0.0025   0.0014   0.0179  -0.0008   0.0029  -0.0044  -9.00   15.2
2024/05/06 13:51:22.000   28.318723412  -16.447786291  1068.7099   1   7   0.0025   0.0014   0.0179  -0.0008   0.0029  -0.0044  -8.00   17.9
2024/05/06 13:51:23.000   28.318723413  -16.447786292  1068.7094   1   7   0.0025   0.0014   0.0179  -0.0008   0.0029  -0.0044  -7.00   20.4
2024/05/06 13:51:24.000   28.318723413  -16.447786292  1068.7094   1   7   0.0025   0.0014   0.0179  -0.0008   0.0029  -0.0044  -6.00   23.1
2024/05/06 13:51:25.000   28.318723413  -16.447786292  1068.7092   1   7   0.0025   0.0014   0.0179  -0.0008   0.0029  -0.0043  -5.00   25.6
2024/05/06 13:51:26.000   28.318723413  -16.447786292  1068.7092   1   7   0.0025   0.0014   0.0178  -0.0008   0.0029  -0.0043  -4.00   28.5
2024/05/06 13:51:27.000   28.318723413  -16.447786292  1068.7088   1   7   0.0025   0.0014   0.0178  -0.0008   0.0029  -0.0043  -3.00   31.2
2024/05/06 13:51:28.000   28.318723413  -16.447786292  1068.7086   1   7   0.0025   0.0014   0.0178  -0.0008   0.0029  -0.0043  -2.00   33.4
2024/05/06 13:51:29.000   28.318723414  -16.447786292  1068.7086   1   7   0.0025   0.0014   0.0178  -0.0008   0.0029  -0.0043  -1.00   36.2
2024/05/06 13:51:30.000   28.318723421  -16.447786291  1068.7003   1   7   0.0023   0.0013   0.0170  -0.0008   0.0029  -0.0039   0.00   39.7
2024/05/06 13:51:31.000   28.318723404  -16.447786291  1068.7251   1   7   0.0026   0.0013   0.0184  -0.0008   0.0030  -0.0047   1.00   34.6
2024/05/06 13:51:32.000   28.318723405  -16.447786291  1068.7243   1   7   0.0026   0.0013   0.0184  -0.0008   0.0030  -0.0046   2.00   55.9
2024/05/06 13:51:33.000   28.318723407  -16.447786291  1068.7230   1   7   0.0025   0.0013   0.0183  -0.0008   0.0030  -0.0046   3.00   65.0
2024/05/06 13:51:34.000   28.318723409  -16.447786291  1068.7220   1   7   0.0025   0.0013   0.0183  -0.0008   0.0030  -0.0046   4.00   71.6
2024/05/06 13:51:35.000   28.318723410  -16.447786291  1068.7213   1   7   0.0025   0.0013   0.0182  -0.0008   0.0030  -0.0046   5.00   76.3
2024/05/06 13:51:36.000   28.318723411  -16.447786291  1068.7204   1   7   0.0025   0.0013   0.0182  -0.0008   0.0030  -0.0045   6.00   80.2
2024/05/06 13:51:37.000   28.318723412  -16.447786291  1068.7198   1   7   0.0025   0.0013   0.0182  -0.0008   0.0029  -0.0045   7.00   84.3
2024/05/06 13:51:38.000   28.318723413  -16.447786292  1068.7193   1   7   0.0025   0.0013   0.0182  -0.0008   0.0029  -0.0045   8.00   88.3
2024/05/06 13:51:39.000   28.318723413  -16.447786292  1068.7191   1   7   0.0025   0.0013   0.0181  -0.0008   0.0029  -0.0045   9.00   93.2
2024/05/06 13:51:40.000   28.318723414  -16.447786292  1068.7188   1   7   0.0025   0.0013   0.0181  -0.0008   0.0029  -0.0045  10.00   98.5
2024/05/06 13:51:41.000   28.318723414  -16.447786292  1068.7184   1   7   0.0025   0.0013   0.0181  -0.0008   0.0029  -0.0045  11.00  102.5
2024/05/06 13:51:42.000   28.318723414  -16.447786292  1068.7182   1   7   0.0025   0.0013   0.0181  -0.0008   0.0029  -0.0045  12.00  107.2
2024/05/06 13:51:43.000   28.318723415  -16.447786292  1068.7180   1   7   0.0025   0.0013   0.0181  -0.0008   0.0029  -0.0045  13.00  111.8
2024/05/06 13:51:44.000   28.318723415  -16.447786292  1068.7179   1   7   0.0025   0.0013   0.0181  -0.0008   0.0029  -0.0045  14.00  116.3
2024/05/06 13:51:45.000   28.318723415  -16.447786292  1068.7177   1   7   0.0025   0.0013   0.0181  -0.0008   0.0029  -0.0045 -15.00  120.3
2024/05/06 13:51:46.000   28.318723416  -16.447786292  1068.7176   1   7   0.0025   0.0013   0.0180  -0.0008   0.0029  -0.0045 -14.00  124.5
2024/05/06 13:51:47.000   28.318723416  -16.447786292  1068.7174   1   7   0.0025   0.0013   0.0180  -0.0008   0.0029  -0.0045 -13.00  129.3
2024/05/06 13:51:48.000   28.318723416  -16.447786292  1068.7172   1   7   0.0025   0.0013   0.0180  -0.0008   0.0029  -0.0045 -12.00  134.0
2024/05/06 13:51:49.000   28.318723417  -16.447786292  1068.7169   1   7   0.0025   0.0013   0.0180  -0.0008   0.0029  -0.0045 -11.00  138.1
2024/05/06 13:51:50.000   28.318723417  -16.447786292  1068.7167   1   7   0.0025   0.0013   0.0180  -0.0008   0.0029  -0.0045 -10.00  142.2
2024/05/06 13:51:51.000   28.318723418  -16.447786292  1068.7164   1   7   0.0025   0.0013   0.0180  -0.0008   0.0029  -0.0045  -9.00  146.6
2024/05/06 13:51:52.000   28.318723418  -16.447786292  1068.7161   1   7   0.0025   0.0013   0.0179  -0.0008   0.0029  -0.0044  -8.00  150.4
2024/05/06 13:51:53.000   28.318723418  -16.447786293  1068.7158   1   7   0.0025   0.0013   0.0179  -0.0008   0.0029  -0.0044  -7.00  154.7
2024/05/06 13:51:54.000   28.318723419  -16.447786293  1068.7154   1   7   0.0025   0.0013   0.0179  -0.0008   0.0029  -0.0044  -6.00  158.7
2024/05/06 13:51:55.000   28.318723419  -16.447786293  1068.7150   1   7   0.0025   0.0013   0.0179  -0.0008   0.0029  -0.0044  -5.00  162.8
2024/05/06 13:51:56.000   28.318723420  -16.447786293  1068.7148   1   7   0.0025   0.0013   0.0179  -0.0008   0.0029  -0.0044  -4.00  168.6
2024/05/06 13:51:57.000   28.318723420  -16.447786293  1068.7142   1   7   0.0025   0.0013   0.0178  -0.0008   0.0029  -0.0044  -3.00  172.8
2024/05/06 13:51:58.000   28.318723421  -16.447786293  1068.7138   1   7   0.0025   0.0013   0.0178  -0.0008   0.0029  -0.0044  -2.00  174.5
2024/05/06 13:51:59.000   28.318723421  -16.447786293  1068.7135   1   7   0.0025   0.0013   0.0178  -0.0008   0.0029  -0.0044  -1.00  175.3
2024/05/06 13:52:00.000   28.318723427  -16.447786292  1068.6996   1   7   0.0023   0.0013   0.0170  -0.0008   0.0029  -0.0040   0.00  177.1
2024/05/06 13:52:01.000   28.318723407  -16.447786291  1068.7189   1   7   0.0026   0.0013   0.0183  -0.0008   0.0030  -0.0047   1.00   33.3
2024/05/06 13:52:02.000   28.318723409  -16.447786291  1068.7177   1   7   0.0025   0.0013   0.0183  -0.0008   0.0029  -0.0046   2.00   50.5
2024/05/06 13:52:03.000   28.318723411  -16.447786291  1068.7167   1   7   0.0025   0.0013   0.0182  -0.0008   0.0029  -0.0046   3.00   55.7
2024/05/06 13:52:04.000   28.318723412  -16.447786291  1068.7158   1   7   0.0025   0.0013   0.0182  -0.0008   0.0029  -0.0046   4.00   60.8
2024/05/06 13:52:05.000   28.318723413  -16.447786291  1068.7152   1   7   0.0025   0.0013   0.0182  -0.0008   0.0029  -0.0046   5.00   65.6
2024/05/06 13:52:06.000   28.318723414  -16.447786292  1068.7145   1   7   0.0025   0.0013   0.0181  -0.0008   0.0029  -0.0046   6.00   67.3
2024/05/06 13:52:07.000   28.318723414  -16.447786292  1068.7142   1   7   0.0025   0.0013   0.0181  -0.0008   0.0029  -0.0046   7.00   69.8
2024/05/06 13:52:08.000   28.318723415  -16.447786292  1068.7138   1   7   0.0025   0.0013   0.0181  -0.0008   0.0029  -0.0045   8.00   72.4
2024/05/06 13:52:09.000   28.318723415  -16.447786292  1068.7135   1   7   0.0025   0.0013   0.0181  -0.0008   0.0029  -0.0045   9.00   73.3
2024/05/06 13:52:10.000   28.318723416  -16.447786292  1068.7133   1   7   0.0025   0.0013   0.0181  -0.0008   0.0029  -0.0045  10.00   75.0
2024/05/06 13:52:11.000   28.318723416  -16.447786292  1068.7131   1   7   0.0025   0.0013   0.0180  -0.0008   0.0029  -0.0045  11.00   76.2
2024/05/06 13:52:12.000   28.318723416  -16.447786292  1068.7130   1   7   0.0025   0.0013   0.0180  -0.0008   0.0029  -0.0045  12.00   78.0
2024/05/06 13:52:13.000   28.318723417  -16.447786292  1068.7128   1   7   0.0025   0.0013   0.0180  -0.0008   0.0029  -0.0045  13.00   79.6
2024/05/06 13:52:14.000   28.318723417  -16.447786292  1068.7127   1   7   0.0025   0.0013   0.0180  -0.0008   0.0029  -0.0045  14.00   81.5
2024/05/06 13:52:15.000   28.318723417  -16.447786292  1068.7126   1   7   0.0025   0.0013   0.0180  -0.0008   0.0029  -0.0045 -15.00   83.2
2024/05/06 13:52:16.000   28.318723417  -16.447786292  1068.7125   1   7   0.0025   0.0013   0.0180  -0.0008   0.0029  -0.0045 -14.00   84.8
2024/05/06 13:52:17.000   28.318723418  -16.447786292  1068.7123   1   7   0.0025   0.0013   0.0180  -0.0008   0.0029  -0.0045 -13.00   85.9
2024/05/06 13:52:18.000   28.318723418  -16.447786292  1068.7121   1   7   0.0025   0.0013   0.0180  -0.0008   0.0029  -0.0045 -12.00   87.1
2024/05/06 13:52:19.000   28.318723418  -16.447786292  1068.7119   1   7   0.0025   0.0013   0.0180  -0.0008   0.0029  -0.0045 -11.00   88.2
2024/05/06 13:52:20.000   28.318723418  -16.447786292  1068.7117   1   7   0.0025   0.0013   0.0179  -0.0008   0.0029  -0.0045 -10.00   89.9
2024/05/06 13:52:21.000   28.318723419  -16.447786293  1068.7115   1   7   0.0025   0.0013   0.0179  -0.0008   0.0029  -0.0045  -9.00   91.1
2024/05/06 13:52:22.000   28.318723419  -16.447786293  1068.7111   1   7   0.0025   0.0013   0.0179  -0.0008   0.0029  -0.0045  -8.00   91.8
2024/05/06 13:52:23.000   28.318723419  -16.447786293  1068.7110   1   7   0.0025   0.0013   0.0179  -0.0008   0.0029  -0.0045  -7.00   93.0
2024/05/06 13:52:24.000   28.318723420  -16.447786293  1068.7107   1   7   0.0025   0.0013   0.0179  -0.0008   0.0029  -0.0045  -6.00   93.6
2024/05/06 13:52:25.000   28.318723420  -16.447786293  1068.7105   1   7   0.0025   0.0013   0.0178  -0.0008   0.0029  -0.0045  -5.00   94.0
2024/05/06 13:52:26.000   28.318723420  -16.447786293  1068.7103   1   7   0.0025   0.0013   0.0178  -0.0008   0.0029  -0.0044  -4.00   94.0
2024/05/06 13:52:27.000   28.318723420  -16.447786293  1068.7102   1   7   0.0025   0.0013   0.0178  -0.0008   0.0029  -0.0044  -3.00   95.3
2024/05/06 13:52:28.000   28.318723420  -16.447786293  1068.7100   1   7   0.0025   0.0013   0.0178  -0.0008   0.0029  -0.0044  -2.00   93.9
2024/05/06 13:52:29.000   28.318723420  -16.447786293  1068.7099   1   7   0.0025   0.0013   0.0178  -0.0008   0.0029  -0.0044  -1.00   91.8
2024/05/06 13:52:30.000   28.318723426  -16.447786291  1068.6920   1   7   0.0023   0.0013   0.0170  -0.0008   0.0029  -0.0040   0.00   90.1
2024/05/06 13:52:31.000   28.318723411  -16.447786291  1068.7129   1   7   0.0025   0.0013   0.0182  -0.0008   0.0029  -0.0047   1.00   37.4
2024/05/06 13:52:32.000   28.318723412  -16.447786291  1068.7124   1   7   0.0025   0.0013   0.0182  -0.0008   0.0029  -0.0047   2.00   55.0
2024/05/06 13:52:33.000   28.318723413  -16.447786291  1068.7117   1   7   0.0025   0.0013   0.0182  -0.0008   0.0029  -0.0046   3.00   62.3
2024/05/06 13:52:34.000   28.318723414  -16.447786291  1068.7110   1   7   0.0025   0.0013   0.0181  -0.0008   0.0029  -0.0046   4.00   65.8
2024/05/06 13:52:35.000   28.318723415  -16.447786291  1068.7104   1   7   0.0025   0.0013   0.0181  -0.0008   0.0029  -0.0046   5.00   66.9
2024/05/06 13:52:36.000   28.318723415  -16.447786291  1068.7101   1   7   0.0025   0.0013   0.0181  -0.0008   0.0029  -0.0046   6.00   66.8
2024/05/06 13:52:37.000   28.318723416  -16.447786292  1068.7097   1   7   0.0025   0.0013   0.0181  -0.0008   0.0029  -0.0046   7.00   66.4
2024/05/06 13:52:38.000   28.318723416  -16.447786292  1068.7095   1   7   0.0025   0.0013   0.0180  -0.0008   0.0029  -0.0046   8.00   65.7
2024/05/06 13:52:39.000   28.318723416  -16.447786292  1068.7094   1   7   0.0025   0.0013   0.0180  -0.0008   0.0029  -0.0046   9.00   65.5
2024/05/06 13:52:40.000   28.318723417  -16.447786292  1068.7092   1   7   0.0025   0.0013   0.0180  -0.0008   0.0029  -0.0046  10.00   64.9
2024/05/06 13:52:41.000   28.318723417  -16.447786292  1068.7091   1   7   0.0025   0.0013   0.0180  -0.0008   0.0029  -0.0046  11.00   64.2
2024/05/06 13:52:42.000   28.318723417  -16.447786292  1068.7091   1   7   0.0025   0.0013   0.0180  -0.0008   0.0029  -0.0046  12.00   64.0
2024/05/06 13:52:43.000   28.318723417  -16.447786292  1068.7091   1   7   0.0025   0.0013   0.0180  -0.0008   0.0029  -0.0046  13.00   64.0
2024/05/06 13:52:44.000   28.318723417  -16.447786292  1068.7090   1   7   0.0025   0.0013   0.0180  -0.0008   0.0029  -0.0046  14.00   64.0
2024/05/06 13:52:45.000   28.318723418  -16.447786292  1068.7090   1   7   0.0025   0.0013   0.0180  -0.0008   0.0029  -0.0045 -15.00   64.3
2024/05/06 13:52:46.000   28.318723418  -16.447786292  1068.7089   1   7   0.0025   0.0013   0.0179  -0.0008   0.0029  -0.0045 -14.00   64.3
2024/05/06 13:52:47.000   28.318723418  -16.447786292  1068.7088   1   7   0.0025   0.0013   0.0179  -0.0008   0.0029  -0.0045 -13.00   64.4
2024/05/06 13:52:48.000   28.318723418  -16.447786292  1068.7087   1   7   0.0025   0.0013   0.0179  -0.0008   0.0029  -0.0045 -12.00   64.0
2024/05/06 13:52:49.000   28.318723418  -16.447786292  1068.7086   1   7   0.0025   0.0013   0.0179  -0.0008   0.0029  -0.0045 -11.00   63.6
2024/05/06 13:52:50.000   28.318723418  -16.447786292  1068.7085   1   7   0.0025   0.0013   0.0179  -0.0008   0.0029  -0.0045 -10.00   63.0
2024/05/06 13:52:51.000   28.318723419  -16.447786292  1068.7084   1   7   0.0025   0.0013   0.0179  -0.0008   0.0029  -0.0045  -9.00   62.5
2024/05/06 13:52:52.000   28.318723419  -16.447786292  1068.7083   1   7   0.0025   0.0013   0.0179  -0.0008   0.0029  -0.0045  -8.00   61.9
2024/05/06 13:52:53.000   28.318723419  -16.447786292  1068.7080   1   7   0.0025   0.0013   0.0178  -0.0008   0.0029  -0.0045  -7.00   60.5
2024/05/06 13:52:54.000   28.318723419  -16.447786293  1068.7080   1   7   0.0025   0.0013   0.0178  -0.0008   0.0029  -0.0045  -6.00   59.3
2024/05/06 13:52:55.000   28.318723419  -16.447786293  1068.7078   1   7   0.0025   0.0013   0.0178  -0.0008   0.0029  -0.0045  -5.00   57.2
2024/05/06 13:52:56.000   28.318723419  -16.447786293  1068.7077   1   7   0.0025   0.0013   0.0178  -0.0008   0.0029  -0.0045  -4.00   55.0
2024/05/06 13:52:57.000   28.318723419  -16.447786293  1068.7078   1   7   0.0025   0.0013   0.0178  -0.0008   0.0029  -0.0045  -3.00   52.6
2024/05/06 13:52:58.000   28.318723418  -16.447786293  1068.7078   1   7   0.0025   0.0013   0.0178  -0.0008   0.0029  -0.0045  -2.00   50.7
2024/05/06 13:52:59.000   28.318723418  -16.447786293  1068.7080   1   7   0.0025   0.0013   0.0177  -0.0008   0.0029  -0.0045  -1.00   48.5
2024/05/06 13:53:00.000   28.318723424  -16.447786290  1068.6889   1   7   0.0023   0.0013   0.0171  -0.0008   0.0029  -0.0041   0.00   46.8
2024/05/06 13:53:01.000   28.318723413  -16.447786291  1068.7113   1   7   0.0025   0.0013   0.0182  -0.0008   0.0029  -0.0047   1.00   27.3
2024/05/06 13:53:02.000   28.318723414  -16.447786291  1068.7108   1   7   0.0025   0.0013   0.0181  -0.0008   0.0029  -0.0047   2.00   31.8
2024/05/06 13:53:03.000   28.318723414  -16.447786291  1068.7106   1   7   0.0025   0.0013   0.0181  -0.0008   0.0029  -0.0047   3.00   36.1
2024/05/06 13:53:04.000   28.318723415  -16.447786291  1068.7103   1   7   0.0025   0.0013   0.0181  -0.0008   0.0029  -0.0046   4.00   40.0
2024/05/06 13:53:05.000   28.318723416  -16.447786291  1068.7099   1   7   0.0025   0.0013   0.0180  -0.0008   0.0029  -0.0046   5.00   40.1
2024/05/06 13:53:06.000   28.318723416  -16.447786291  1068.7098   1   7   0.0025   0.0013   0.0180  -0.0008   0.0029  -0.0046   6.00   40.8
2024/05/06 13:53:07.000   28.318723416  -16.447786292  1068.7098   1   7   0.0025   0.0013   0.0180  -0.0008   0.0029  -0.0046   7.00   41.1
