% program   : RTKPOST-EX 2.5.0
% inp file  : C:\Users\SallyHenry\Desktop\Sally Internship\GNSS gravi\DATA\Survey Rover Obs\GUI08.24o
% inp file  : C:\Users\SallyHenry\Desktop\Sally Internship\GNSS gravi\DATA\BaseStations\TN01\TN0100ESP_R_20241290000_01D_30S_MO.rnx
% inp file  : C:\Users\SallyHenry\Desktop\Sally Internship\GNSS gravi\DATA\BaseStations\TN01\TN0100ESP_R_20241290000_01D_MN.rnx
% inp file  : C:\Users\SallyHenry\Desktop\Sally Internship\GNSS gravi\DATA\aux_files\Survey\IGS0OPSFIN_20241290000_01D_15M_ORB.SP3
% inp file  : C:\Users\SallyHenry\Desktop\Sally Internship\GNSS gravi\DATA\aux_files\Survey\IGS0OPSFIN_20241290000_01D_30S_CLK.CLK
% obs start : 2024/05/08 09:12:52.0 GPST (week2313 292372.0s)
% obs end   : 2024/05/08 09:27:52.0 GPST (week2313 293272.0s)
% pos mode  : Static
% freqs     : L1+L2/E5b
% solution  : Combined-No Phase Reset
% elev mask : 15.0 deg
% dynamics  : on
% tidecorr  : solid
% ionos opt : Estimate TEC
% tropo opt : Estimate ZTD+Grad
% ephemeris : Precise
% navi sys  : GPS GLONASS Galileo QZSS BDS
% amb res   : Fix and Hold
% amb glo   : Fix and Hold
% amb bds   : on
% val thres : 3.0
% antenna1  :                       ( 0.0000  0.0000  1.8000)
% antenna2  :                       ( 0.0000  0.0000  0.0771)
% ref pos   :  28.477186930  -16.241151700    51.7531
%
% (lat/lon/height=WGS84/ellipsoidal,Q=1:fix,2:float,3:sbas,4:dgps,5:single,6:ppp,ns=# of satellites)
%  GPST                  latitude(deg) longitude(deg)  height(m)   Q  ns   sdn(m)   sde(m)   sdu(m)  sdne(m)  sdeu(m)  sdun(m) age(s)  ratio
2024/05/08 09:12:52.000   28.435132661  -16.340089069   667.7540   1   7   0.0015   0.0013   0.0101   0.0001  -0.0027  -0.0008  -8.00  290.3
2024/05/08 09:12:53.000   28.435132661  -16.340089069   667.7540   1   7   0.0015   0.0013   0.0101   0.0001  -0.0027  -0.0008  -7.00  290.0
2024/05/08 09:12:54.000   28.435132661  -16.340089069   667.7540   1   7   0.0015   0.0013   0.0101   0.0001  -0.0027  -0.0008  -6.00  289.9
2024/05/08 09:12:55.000   28.435132661  -16.340089069   667.7540   1   7   0.0015   0.0013   0.0101   0.0001  -0.0027  -0.0008  -5.00  289.6
2024/05/08 09:12:56.000   28.435132661  -16.340089069   667.7540   1   7   0.0015   0.0013   0.0101   0.0001  -0.0027  -0.0008  -4.00  289.8
2024/05/08 09:12:57.000   28.435132661  -16.340089069   667.7540   1   7   0.0015   0.0013   0.0101   0.0001  -0.0027  -0.0008  -3.00  290.0
2024/05/08 09:12:58.000   28.435132661  -16.340089069   667.7540   1   7   0.0015   0.0013   0.0101   0.0001  -0.0027  -0.0008  -2.00  289.7
2024/05/08 09:12:59.000   28.435132661  -16.340089069   667.7539   1   7   0.0015   0.0013   0.0101   0.0001  -0.0027  -0.0008  -1.00  290.1
2024/05/08 09:13:00.000   28.435132660  -16.340089069   667.7539   1   7   0.0015   0.0013   0.0101   0.0001  -0.0027  -0.0008   0.00  291.1
2024/05/08 09:13:01.000   28.435132660  -16.340089069   667.7538   1   7   0.0015   0.0013   0.0102   0.0001  -0.0027  -0.0009   1.00  292.0
2024/05/08 09:13:02.000   28.435132660  -16.340089069   667.7537   1   7   0.0015   0.0013   0.0102   0.0001  -0.0027  -0.0009   2.00  292.2
2024/05/08 09:13:03.000   28.435132660  -16.340089069   667.7537   1   7   0.0015   0.0013   0.0102   0.0001  -0.0027  -0.0009   3.00  292.5
2024/05/08 09:13:04.000   28.435132660  -16.340089069   667.7536   1   7   0.0015   0.0013   0.0102   0.0001  -0.0027  -0.0009   4.00  292.8
2024/05/08 09:13:05.000   28.435132660  -16.340089069   667.7536   1   7   0.0015   0.0013   0.0102   0.0001  -0.0027  -0.0009   5.00  292.9
2024/05/08 09:13:06.000   28.435132660  -16.340089069   667.7536   1   7   0.0015   0.0013   0.0102   0.0001  -0.0027  -0.0009   6.00  293.1
2024/05/08 09:13:07.000   28.435132660  -16.340089069   667.7535   1   7   0.0015   0.0013   0.0102   0.0001  -0.0027  -0.0009   7.00  293.2
2024/05/08 09:13:08.000   28.435132660  -16.340089069   667.7535   1   7   0.0015   0.0013   0.0102   0.0001  -0.0027  -0.0009   8.00  293.0
2024/05/08 09:13:09.000   28.435132659  -16.340089069   667.7535   1   7   0.0015   0.0013   0.0102   0.0001  -0.0027  -0.0009   9.00  293.2
2024/05/08 09:13:10.000   28.435132659  -16.340089069   667.7534   1   7   0.0015   0.0013   0.0102   0.0001  -0.0027  -0.0009  10.00  293.1
2024/05/08 09:13:11.000   28.435132659  -16.340089069   667.7534   1   7   0.0015   0.0013   0.0102   0.0001  -0.0027  -0.0009  11.00  292.9
2024/05/08 09:13:12.000   28.435132659  -16.340089069   667.7534   1   7   0.0015   0.0013   0.0102   0.0001  -0.0027  -0.0009  12.00  292.7
2024/05/08 09:13:13.000   28.435132659  -16.340089069   667.7534   1   7   0.0015   0.0013   0.0102   0.0001  -0.0027  -0.0009  13.00  292.4
2024/05/08 09:13:14.000   28.435132659  -16.340089069   667.7535   1   7   0.0015   0.0013   0.0101   0.0001  -0.0027  -0.0009  14.00  292.2
2024/05/08 09:13:15.000   28.435132659  -16.340089069   667.7535   1   7   0.0015   0.0013   0.0101   0.0001  -0.0027  -0.0009  15.00  291.9
2024/05/08 09:13:16.000   28.435132659  -16.340089069   667.7535   1   7   0.0015   0.0013   0.0101   0.0001  -0.0027  -0.0009 -14.00  291.7
2024/05/08 09:13:17.000   28.435132659  -16.340089069   667.7535   1   7   0.0015   0.0013   0.0101   0.0001  -0.0027  -0.0009 -13.00  291.4
2024/05/08 09:13:18.000   28.435132659  -16.340089069   667.7535   1   7   0.0015   0.0013   0.0101   0.0001  -0.0027  -0.0009 -12.00  291.2
2024/05/08 09:13:19.000   28.435132659  -16.340089069   667.7535   1   7   0.0015   0.0013   0.0101   0.0001  -0.0027  -0.0009 -11.00  290.9
2024/05/08 09:13:20.000   28.435132659  -16.340089069   667.7535   1   7   0.0015   0.0013   0.0101   0.0001  -0.0027  -0.0009 -10.00  290.7
2024/05/08 09:13:21.000   28.435132659  -16.340089069   667.7536   1   7   0.0015   0.0013   0.0101   0.0001  -0.0027  -0.0009  -9.00  290.5
2024/05/08 09:13:22.000   28.435132659  -16.340089069   667.7536   1   7   0.0015   0.0013   0.0101   0.0001  -0.0027  -0.0009  -8.00  290.4
2024/05/08 09:13:23.000   28.435132659  -16.340089069   667.7536   1   7   0.0015   0.0013   0.0101   0.0001  -0.0027  -0.0009  -7.00  290.4
2024/05/08 09:13:24.000   28.435132659  -16.340089069   667.7536   1   7   0.0015   0.0013   0.0101   0.0001  -0.0027  -0.0009  -6.00  290.1
2024/05/08 09:13:25.000   28.435132659  -16.340089069   667.7536   1   7   0.0015   0.0013   0.0101   0.0001  -0.0027  -0.0009  -5.00  289.8
2024/05/08 09:13:26.000   28.435132659  -16.340089070   667.7537   1   7   0.0015   0.0013   0.0101   0.0001  -0.0027  -0.0009  -4.00  289.7
2024/05/08 09:13:27.000   28.435132658  -16.340089070   667.7537   1   7   0.0015   0.0013   0.0101   0.0001  -0.0027  -0.0009  -3.00  289.4
2024/05/08 09:13:28.000   28.435132659  -16.340089070   667.7538   1   7   0.0015   0.0013   0.0101   0.0001  -0.0027  -0.0009  -2.00  289.0
2024/05/08 09:13:29.000   28.435132659  -16.340089070   667.7538   1   7   0.0015   0.0013   0.0101   0.0001  -0.0027  -0.0009  -1.00  288.3
2024/05/08 09:13:30.000   28.435132659  -16.340089070   667.7538   1   7   0.0015   0.0013   0.0101   0.0001  -0.0027  -0.0009   0.00  288.2
2024/05/08 09:13:31.000   28.435132659  -16.340089071   667.7539   1   7   0.0015   0.0013   0.0101   0.0001  -0.0027  -0.0009   1.00  288.3
2024/05/08 09:13:32.000   28.435132659  -16.340089071   667.7539   1   7   0.0015   0.0013   0.0101   0.0001  -0.0027  -0.0009   2.00  288.1
2024/05/08 09:13:33.000   28.435132659  -16.340089071   667.7540   1   7   0.0015   0.0013   0.0101   0.0001  -0.0027  -0.0009   3.00  288.1
2024/05/08 09:13:34.000   28.435132659  -16.340089071   667.7540   1   7   0.0015   0.0013   0.0101   0.0001  -0.0027  -0.0009   4.00  288.4
2024/05/08 09:13:35.000   28.435132659  -16.340089072   667.7540   1   7   0.0015   0.0013   0.0102   0.0001  -0.0027  -0.0009   5.00  288.7
2024/05/08 09:13:36.000   28.435132659  -16.340089072   667.7540   1   7   0.0015   0.0013   0.0102   0.0001  -0.0027  -0.0009   6.00  288.7
2024/05/08 09:13:37.000   28.435132659  -16.340089072   667.7541   1   7   0.0015   0.0013   0.0102   0.0001  -0.0027  -0.0009   7.00  288.2
2024/05/08 09:13:38.000   28.435132659  -16.340089072   667.7541   1   7   0.0015   0.0013   0.0101   0.0001  -0.0027  -0.0009   8.00  287.8
2024/05/08 09:13:39.000   28.435132659  -16.340089072   667.7541   1   7   0.0015   0.0013   0.0101   0.0001  -0.0027  -0.0009   9.00  287.4
2024/05/08 09:13:40.000   28.435132659  -16.340089072   667.7541   1   7   0.0015   0.0013   0.0101   0.0001  -0.0027  -0.0009  10.00  287.1
2024/05/08 09:13:41.000   28.435132659  -16.340089072   667.7542   1   7   0.0015   0.0013   0.0101   0.0001  -0.0027  -0.0009  11.00  286.7
2024/05/08 09:13:42.000   28.435132659  -16.340089072   667.7542   1   7   0.0015   0.0013   0.0101   0.0001  -0.0027  -0.0009  12.00  286.4
2024/05/08 09:13:43.000   28.435132659  -16.340089072   667.7542   1   7   0.0015   0.0013   0.0101   0.0001  -0.0027  -0.0009  13.00  285.9
2024/05/08 09:13:44.000   28.435132659  -16.340089072   667.7542   1   7   0.0015   0.0013   0.0101   0.0001  -0.0027  -0.0009  14.00  285.3
2024/05/08 09:13:45.000   28.435132659  -16.340089073   667.7542   1   7   0.0015   0.0013   0.0101   0.0001  -0.0027  -0.0009  15.00  284.8
2024/05/08 09:13:46.000   28.435132659  -16.340089073   667.7543   1   7   0.0015   0.0013   0.0101   0.0001  -0.0027  -0.0009 -14.00  284.2
2024/05/08 09:13:47.000   28.435132659  -16.340089073   667.7543   1   7   0.0015   0.0013   0.0101   0.0001  -0.0027  -0.0009 -13.00  283.7
2024/05/08 09:13:48.000   28.435132659  -16.340089073   667.7543   1   7   0.0015   0.0013   0.0101   0.0001  -0.0027  -0.0009 -12.00  283.2
2024/05/08 09:13:49.000   28.435132659  -16.340089073   667.7544   1   7   0.0015   0.0013   0.0101   0.0001  -0.0027  -0.0009 -11.00  282.8
2024/05/08 09:13:50.000   28.435132659  -16.340089073   667.7544   1   7   0.0015   0.0013   0.0101   0.0001  -0.0027  -0.0009 -10.00  282.4
2024/05/08 09:13:51.000   28.435132659  -16.340089073   667.7545   1   7   0.0015   0.0013   0.0101   0.0001  -0.0027  -0.0009  -9.00  281.8
2024/05/08 09:13:52.000   28.435132658  -16.340089073   667.7545   1   7   0.0015   0.0013   0.0101   0.0001  -0.0027  -0.0009  -8.00  281.6
2024/05/08 09:13:53.000   28.435132658  -16.340089073   667.7545   1   7   0.0015   0.0013   0.0101   0.0001  -0.0027  -0.0009  -7.00  281.1
2024/05/08 09:13:54.000   28.435132658  -16.340089073   667.7546   1   7   0.0015   0.0013   0.0101   0.0001  -0.0027  -0.0009  -6.00  280.5
2024/05/08 09:13:55.000   28.435132659  -16.340089073   667.7547   1   7   0.0015   0.0013   0.0101   0.0001  -0.0027  -0.0009  -5.00  280.2
2024/05/08 09:13:56.000   28.435132659  -16.340089074   667.7547   1   7   0.0015   0.0013   0.0101   0.0001  -0.0027  -0.0009  -4.00  280.0
2024/05/08 09:13:57.000   28.435132659  -16.340089074   667.7548   1   7   0.0015   0.0013   0.0101   0.0001  -0.0027  -0.0009  -3.00  279.7
2024/05/08 09:13:58.000   28.435132659  -16.340089074   667.7549   1   7   0.0015   0.0013   0.0101   0.0001  -0.0027  -0.0009  -2.00  279.3
2024/05/08 09:13:59.000   28.435132659  -16.340089074   667.7550   1   7   0.0015   0.0013   0.0101   0.0001  -0.0027  -0.0009  -1.00  278.9
2024/05/08 09:14:00.000   28.435132659  -16.340089074   667.7551   1   7   0.0015   0.0013   0.0101   0.0001  -0.0027  -0.0009   0.00  278.4
2024/05/08 09:14:01.000   28.435132659  -16.340089075   667.7552   1   7   0.0015   0.0013   0.0101   0.0001  -0.0027  -0.0009   1.00  278.5
2024/05/08 09:14:02.000   28.435132660  -16.340089075   667.7553   1   7   0.0015   0.0013   0.0101   0.0001  -0.0027  -0.0009   2.00  278.3
2024/05/08 09:14:03.000   28.435132660  -16.340089075   667.7552   1   7   0.0015   0.0013   0.0101   0.0001  -0.0027  -0.0009   3.00  278.4
2024/05/08 09:14:04.000   28.435132660  -16.340089075   667.7552   1   7   0.0015   0.0014   0.0101   0.0001  -0.0027  -0.0009   4.00  278.5
2024/05/08 09:14:05.000   28.435132660  -16.340089075   667.7552   1   7   0.0015   0.0014   0.0101   0.0001  -0.0027  -0.0009   5.00  278.4
2024/05/08 09:14:06.000   28.435132660  -16.340089075   667.7552   1   7   0.0015   0.0014   0.0101   0.0001  -0.0027  -0.0009   6.00  278.0
2024/05/08 09:14:07.000   28.435132660  -16.340089075   667.7553   1   7   0.0015   0.0014   0.0101   0.0001  -0.0027  -0.0009   7.00  277.8
2024/05/08 09:14:08.000   28.435132660  -16.340089075   667.7553   1   7   0.0015   0.0014   0.0101   0.0001  -0.0027  -0.0009   8.00  277.6
2024/05/08 09:14:09.000   28.435132660  -16.340089075   667.7553   1   7   0.0015   0.0014   0.0101   0.0001  -0.0027  -0.0009   9.00  277.0
2024/05/08 09:14:10.000   28.435132660  -16.340089075   667.7553   1   7   0.0015   0.0014   0.0101   0.0001  -0.0027  -0.0009  10.00  276.5
2024/05/08 09:14:11.000   28.435132660  -16.340089075   667.7554   1   7   0.0015   0.0014   0.0101   0.0001  -0.0027  -0.0009  11.00  276.0
2024/05/08 09:14:12.000   28.435132660  -16.340089075   667.7554   1   7   0.0015   0.0013   0.0101   0.0001  -0.0027  -0.0009  12.00  275.6
2024/05/08 09:14:13.000   28.435132660  -16.340089075   667.7554   1   7   0.0015   0.0013   0.0101   0.0001  -0.0027  -0.0009  13.00  275.0
2024/05/08 09:14:14.000   28.435132660  -16.340089075   667.7555   1   7   0.0015   0.0013   0.0101   0.0001  -0.0027  -0.0009  14.00  274.4
2024/05/08 09:14:15.000   28.435132659  -16.340089075   667.7555   1   7   0.0015   0.0013   0.0101   0.0001  -0.0027  -0.0009  15.00  274.0
2024/05/08 09:14:16.000   28.435132659  -16.340089076   667.7556   1   7   0.0015   0.0013   0.0101   0.0001  -0.0027  -0.0009 -14.00  273.6
2024/05/08 09:14:17.000   28.435132659  -16.340089076   667.7556   1   7   0.0015   0.0013   0.0101   0.0001  -0.0027  -0.0009 -13.00  273.1
2024/05/08 09:14:18.000   28.435132659  -16.340089076   667.7556   1   7   0.0015   0.0013   0.0101   0.0001  -0.0027  -0.0009 -12.00  272.6
2024/05/08 09:14:19.000   28.435132659  -16.340089076   667.7557   1   7   0.0015   0.0013   0.0101   0.0001  -0.0027  -0.0009 -11.00  272.1
2024/05/08 09:14:20.000   28.435132659  -16.340089076   667.7557   1   7   0.0015   0.0013   0.0101   0.0001  -0.0027  -0.0009 -10.00  271.7
2024/05/08 09:14:21.000   28.435132659  -16.340089076   667.7557   1   7   0.0015   0.0013   0.0101   0.0001  -0.0027  -0.0009  -9.00  271.1
2024/05/08 09:14:22.000   28.435132659  -16.340089076   667.7558   1   7   0.0015   0.0013   0.0100   0.0001  -0.0027  -0.0009  -8.00  270.9
2024/05/08 09:14:23.000   28.435132659  -16.340089076   667.7558   1   7   0.0015   0.0013   0.0100   0.0001  -0.0027  -0.0009  -7.00  270.3
2024/05/08 09:14:24.000   28.435132659  -16.340089076   667.7558   1   7   0.0015   0.0013   0.0100   0.0001  -0.0027  -0.0009  -6.00  270.0
2024/05/08 09:14:25.000   28.435132659  -16.340089076   667.7559   1   7   0.0015   0.0013   0.0100   0.0001  -0.0027  -0.0009  -5.00  270.0
2024/05/08 09:14:26.000   28.435132659  -16.340089076   667.7559   1   7   0.0015   0.0013   0.0100   0.0001  -0.0027  -0.0009  -4.00  270.0
2024/05/08 09:14:27.000   28.435132659  -16.340089076   667.7559   1   7   0.0015   0.0013   0.0100   0.0001  -0.0027  -0.0009  -3.00  270.0
2024/05/08 09:14:28.000   28.435132659  -16.340089076   667.7559   1   7   0.0015   0.0013   0.0100   0.0001  -0.0027  -0.0009  -2.00  269.8
2024/05/08 09:14:29.000   28.435132659  -16.340089077   667.7560   1   7   0.0015   0.0013   0.0101   0.0001  -0.0027  -0.0009  -1.00  269.9
2024/05/08 09:14:30.000   28.435132660  -16.340089077   667.7559   1   7   0.0015   0.0013   0.0101   0.0001  -0.0027  -0.0009   0.00  270.3
2024/05/08 09:14:31.000   28.435132660  -16.340089077   667.7559   1   7   0.0015   0.0014   0.0101   0.0001  -0.0027  -0.0009   1.00  270.8
2024/05/08 09:14:32.000   28.435132660  -16.340089077   667.7559   1   7   0.0015   0.0014   0.0101   0.0001  -0.0027  -0.0009   2.00  270.3
2024/05/08 09:14:33.000   28.435132660  -16.340089077   667.7559   1   7   0.0015   0.0014   0.0101   0.0001  -0.0027  -0.0009   3.00  270.2
2024/05/08 09:14:34.000   28.435132660  -16.340089077   667.7559   1   7   0.0015   0.0014   0.0101   0.0001  -0.0027  -0.0009   4.00  269.8
2024/05/08 09:14:35.000   28.435132660  -16.340089077   667.7559   1   7   0.0015   0.0014   0.0101   0.0001  -0.0027  -0.0009   5.00  269.3
2024/05/08 09:14:36.000   28.435132660  -16.340089077   667.7559   1   7   0.0015   0.0014   0.0101   0.0001  -0.0027  -0.0009   6.00  268.8
2024/05/08 09:14:37.000   28.435132660  -16.340089077   667.7559   1   7   0.0015   0.0014   0.0101   0.0001  -0.0027  -0.0009   7.00  268.3
2024/05/08 09:14:38.000   28.435132660  -16.340089078   667.7559   1   7   0.0015   0.0014   0.0101   0.0001  -0.0027  -0.0009   8.00  268.2
2024/05/08 09:14:39.000   28.435132660  -16.340089078   667.7559   1   7   0.0015   0.0014   0.0101   0.0001  -0.0027  -0.0009   9.00  267.9
2024/05/08 09:14:40.000   28.435132660  -16.340089078   667.7560   1   7   0.0015   0.0014   0.0101   0.0001  -0.0027  -0.0009  10.00  267.7
2024/05/08 09:14:41.000   28.435132660  -16.340089078   667.7560   1   7   0.0015   0.0014   0.0101   0.0001  -0.0027  -0.0009  11.00  267.3
2024/05/08 09:14:42.000   28.435132660  -16.340089078   667.7560   1   7   0.0015   0.0014   0.0101   0.0001  -0.0027  -0.0009  12.00  267.0
2024/05/08 09:14:43.000   28.435132661  -16.340089078   667.7560   1   7   0.0015   0.0014   0.0101   0.0001  -0.0027  -0.0009  13.00  266.6
2024/05/08 09:14:44.000   28.435132661  -16.340089078   667.7560   1   7   0.0015   0.0014   0.0101   0.0001  -0.0027  -0.0009  14.00  266.4
2024/05/08 09:14:45.000   28.435132660  -16.340089078   667.7560   1   7   0.0015   0.0014   0.0101   0.0001  -0.0027  -0.0009  15.00  266.0
2024/05/08 09:14:46.000   28.435132660  -16.340089078   667.7560   1   7   0.0015   0.0014   0.0100   0.0001  -0.0027  -0.0009 -14.00  265.5
2024/05/08 09:14:47.000   28.435132660  -16.340089078   667.7561   1   7   0.0015   0.0014   0.0100   0.0001  -0.0027  -0.0009 -13.00  265.1
2024/05/08 09:14:48.000   28.435132660  -16.340089078   667.7561   1   7   0.0015   0.0014   0.0100   0.0001  -0.0027  -0.0009 -12.00  264.6
2024/05/08 09:14:49.000   28.435132660  -16.340089078   667.7561   1   7   0.0015   0.0013   0.0100   0.0001  -0.0027  -0.0009 -11.00  264.3
2024/05/08 09:14:50.000   28.435132660  -16.340089078   667.7561   1   7   0.0015   0.0013   0.0100   0.0001  -0.0027  -0.0009 -10.00  263.9
2024/05/08 09:14:51.000   28.435132660  -16.340089078   667.7561   1   7   0.0015   0.0013   0.0100   0.0001  -0.0027  -0.0009  -9.00  263.6
2024/05/08 09:14:52.000   28.435132660  -16.340089078   667.7562   1   7   0.0015   0.0013   0.0100   0.0001  -0.0027  -0.0009  -8.00  263.3
2024/05/08 09:14:53.000   28.435132660  -16.340089079   667.7562   1   7   0.0015   0.0013   0.0100   0.0001  -0.0027  -0.0009  -7.00  263.0
2024/05/08 09:14:54.000   28.435132660  -16.340089079   667.7563   1   7   0.0015   0.0013   0.0100   0.0001  -0.0027  -0.0009  -6.00  262.7
2024/05/08 09:14:55.000   28.435132660  -16.340089079   667.7563   1   7   0.0015   0.0013   0.0100   0.0001  -0.0027  -0.0009  -5.00  262.5
2024/05/08 09:14:56.000   28.435132661  -16.340089079   667.7564   1   7   0.0015   0.0013   0.0100   0.0001  -0.0027  -0.0009  -4.00  262.3
2024/05/08 09:14:57.000   28.435132661  -16.340089079   667.7565   1   7   0.0015   0.0013   0.0100   0.0001  -0.0027  -0.0009  -3.00  262.5
2024/05/08 09:14:58.000   28.435132661  -16.340089079   667.7565   1   7   0.0015   0.0013   0.0100   0.0001  -0.0027  -0.0009  -2.00  262.8
2024/05/08 09:14:59.000   28.435132661  -16.340089079   667.7566   1   7   0.0015   0.0014   0.0100   0.0001  -0.0027  -0.0009  -1.00  263.0
2024/05/08 09:15:00.000   28.435132661  -16.340089079   667.7567   1   7   0.0015   0.0014   0.0100   0.0001  -0.0027  -0.0009   0.00  263.7
2024/05/08 09:15:01.000   28.435132661  -16.340089079   667.7568   1   7   0.0015   0.0014   0.0100   0.0001  -0.0027  -0.0009   1.00  264.4
2024/05/08 09:15:02.000   28.435132661  -16.340089079   667.7568   1   7   0.0015   0.0014   0.0101   0.0001  -0.0027  -0.0009   2.00  265.4
2024/05/08 09:15:03.000   28.435132661  -16.340089079   667.7568   1   7   0.0015   0.0014   0.0101   0.0001  -0.0027  -0.0009   3.00  265.8
2024/05/08 09:15:04.000   28.435132661  -16.340089079   667.7568   1   7   0.0015   0.0014   0.0101   0.0001  -0.0027  -0.0009   4.00  266.7
2024/05/08 09:15:05.000   28.435132661  -16.340089079   667.7567   1   7   0.0015   0.0014   0.0101   0.0001  -0.0027  -0.0009   5.00  267.2
2024/05/08 09:15:06.000   28.435132661  -16.340089079   667.7567   1   7   0.0015   0.0014   0.0101   0.0001  -0.0027  -0.0009   6.00  267.4
2024/05/08 09:15:07.000   28.435132661  -16.340089079   667.7567   1   7   0.0015   0.0014   0.0101   0.0001  -0.0027  -0.0009   7.00  267.8
2024/05/08 09:15:08.000   28.435132661  -16.340089079   667.7567   1   7   0.0015   0.0014   0.0101   0.0001  -0.0027  -0.0009   8.00  268.1
2024/05/08 09:15:09.000   28.435132661  -16.340089080   667.7567   1   7   0.0015   0.0014   0.0101   0.0001  -0.0027  -0.0009   9.00  268.0
2024/05/08 09:15:10.000   28.435132661  -16.340089080   667.7567   1   7   0.0015   0.0014   0.0101   0.0001  -0.0027  -0.0009  10.00  267.9
2024/05/08 09:15:11.000   28.435132661  -16.340089080   667.7567   1   7   0.0015   0.0014   0.0100   0.0001  -0.0027  -0.0009  11.00  267.6
2024/05/08 09:15:12.000   28.435132661  -16.340089080   667.7567   1   7   0.0015   0.0014   0.0100   0.0001  -0.0027  -0.0009  12.00  267.4
2024/05/08 09:15:13.000   28.435132661  -16.340089080   667.7567   1   7   0.0015   0.0014   0.0100   0.0001  -0.0027  -0.0009  13.00  267.0
2024/05/08 09:15:14.000   28.435132661  -16.340089080   667.7568   1   7   0.0015   0.0014   0.0100   0.0001  -0.0027  -0.0009  14.00  266.7
2024/05/08 09:15:15.000   28.435132661  -16.340089080   667.7568   1   7   0.0015   0.0014   0.0100   0.0001  -0.0027  -0.0009  15.00  266.5
2024/05/08 09:15:16.000   28.435132661  -16.340089080   667.7568   1   7   0.0015   0.0014   0.0100   0.0001  -0.0027  -0.0009 -14.00  266.3
2024/05/08 09:15:17.000   28.435132661  -16.340089080   667.7568   1   7   0.0015   0.0014   0.0100   0.0001  -0.0027  -0.0009 -13.00  266.0
2024/05/08 09:15:18.000   28.435132661  -16.340089080   667.7569   1   7   0.0015   0.0014   0.0100   0.0001  -0.0027  -0.0009 -12.00  265.8
2024/05/08 09:15:19.000   28.435132661  -16.340089080   667.7569   1   7   0.0015   0.0014   0.0100   0.0001  -0.0027  -0.0009 -11.00  265.7
2024/05/08 09:15:20.000   28.435132661  -16.340089080   667.7569   1   7   0.0015   0.0014   0.0100   0.0001  -0.0027  -0.0009 -10.00  265.5
2024/05/08 09:15:21.000   28.435132661  -16.340089080   667.7570   1   7   0.0015   0.0014   0.0100   0.0001  -0.0027  -0.0009  -9.00  265.3
2024/05/08 09:15:22.000   28.435132661  -16.340089080   667.7570   1   7   0.0015   0.0014   0.0100   0.0001  -0.0027  -0.0009  -8.00  265.3
2024/05/08 09:15:23.000   28.435132661  -16.340089080   667.7571   1   7   0.0015   0.0014   0.0100   0.0001  -0.0027  -0.0009  -7.00  264.9
2024/05/08 09:15:24.000   28.435132661  -16.340089080   667.7571   1   7   0.0015   0.0014   0.0100   0.0001  -0.0027  -0.0009  -6.00  265.0
2024/05/08 09:15:25.000   28.435132661  -16.340089080   667.7572   1   7   0.0015   0.0014   0.0100   0.0001  -0.0027  -0.0009  -5.00  264.8
2024/05/08 09:15:26.000   28.435132661  -16.340089080   667.7572   1   7   0.0015   0.0014   0.0100   0.0001  -0.0027  -0.0009  -4.00  264.8
2024/05/08 09:15:27.000   28.435132661  -16.340089080   667.7572   1   7   0.0015   0.0014   0.0100   0.0001  -0.0027  -0.0009  -3.00  265.1
2024/05/08 09:15:28.000   28.435132661  -16.340089080   667.7572   1   7   0.0015   0.0014   0.0100   0.0001  -0.0027  -0.0009  -2.00  265.5
2024/05/08 09:15:29.000   28.435132661  -16.340089080   667.7573   1   7   0.0015   0.0014   0.0100   0.0001  -0.0027  -0.0009  -1.00  265.6
2024/05/08 09:15:30.000   28.435132661  -16.340089080   667.7573   1   7   0.0015   0.0014   0.0100   0.0001  -0.0027  -0.0009   0.00  265.8
2024/05/08 09:15:31.000   28.435132661  -16.340089080   667.7573   1   7   0.0015   0.0014   0.0100   0.0001  -0.0027  -0.0009   1.00  266.3
2024/05/08 09:15:32.000   28.435132661  -16.340089081   667.7575   1   7   0.0015   0.0014   0.0100   0.0001  -0.0027  -0.0009   2.00  266.2
2024/05/08 09:15:33.000   28.435132661  -16.340089081   667.7575   1   7   0.0015   0.0014   0.0100   0.0001  -0.0027  -0.0009   3.00  265.8
2024/05/08 09:15:34.000   28.435132661  -16.340089081   667.7575   1   7   0.0015   0.0014   0.0100   0.0001  -0.0027  -0.0009   4.00  266.6
2024/05/08 09:15:35.000   28.435132661  -16.340089081   667.7575   1   7   0.0015   0.0014   0.0100   0.0001  -0.0027  -0.0009   5.00  266.6
2024/05/08 09:15:36.000   28.435132661  -16.340089081   667.7576   1   7   0.0015   0.0014   0.0100   0.0001  -0.0027  -0.0009   6.00  266.1
2024/05/08 09:15:37.000   28.435132661  -16.340089081   667.7576   1   7   0.0015   0.0014   0.0100   0.0001  -0.0027  -0.0009   7.00  265.9
2024/05/08 09:15:38.000   28.435132661  -16.340089081   667.7576   1   7   0.0015   0.0014   0.0100   0.0001  -0.0027  -0.0009   8.00  265.8
2024/05/08 09:15:39.000   28.435132661  -16.340089081   667.7576   1   7   0.0015   0.0014   0.0100   0.0001  -0.0027  -0.0009   9.00  265.8
2024/05/08 09:15:40.000   28.435132661  -16.340089081   667.7576   1   7   0.0015   0.0014   0.0100   0.0001  -0.0027  -0.0009  10.00  265.6
2024/05/08 09:15:41.000   28.435132661  -16.340089081   667.7577   1   7   0.0015   0.0014   0.0100   0.0001  -0.0027  -0.0009  11.00  265.4
2024/05/08 09:15:42.000   28.435132661  -16.340089081   667.7577   1   7   0.0015   0.0014   0.0100   0.0001  -0.0027  -0.0009  12.00  265.2
2024/05/08 09:15:43.000   28.435132661  -16.340089081   667.7577   1   7   0.0015   0.0014   0.0100   0.0001  -0.0027  -0.0009  13.00  265.0
2024/05/08 09:15:44.000   28.435132661  -16.340089081   667.7577   1   7   0.0015   0.0014   0.0100   0.0001  -0.0027  -0.0009  14.00  264.7
2024/05/08 09:15:45.000   28.435132661  -16.340089081   667.7577   1   7   0.0015   0.0014   0.0100   0.0001  -0.0027  -0.0009  15.00  264.6
2024/05/08 09:15:46.000   28.435132661  -16.340089081   667.7578   1   7   0.0015   0.0014   0.0100   0.0001  -0.0027  -0.0009 -14.00  264.5
2024/05/08 09:15:47.000   28.435132661  -16.340089081   667.7578   1   7   0.0015   0.0014   0.0100   0.0001  -0.0027  -0.0009 -13.00  264.4
2024/05/08 09:15:48.000   28.435132661  -16.340089081   667.7578   1   7   0.0015   0.0014   0.0100   0.0001  -0.0027  -0.0009 -12.00  264.2
2024/05/08 09:15:49.000   28.435132661  -16.340089081   667.7578   1   7   0.0015   0.0014   0.0100   0.0001  -0.0027  -0.0009 -11.00  264.3
2024/05/08 09:15:50.000   28.435132660  -16.340089081   667.7579   1   7   0.0015   0.0014   0.0100   0.0001  -0.0027  -0.0009 -10.00  264.5
2024/05/08 09:15:51.000   28.435132660  -16.340089081   667.7579   1   7   0.0015   0.0014   0.0100   0.0001  -0.0027  -0.0009  -9.00  264.8
2024/05/08 09:15:52.000   28.435132660  -16.340089081   667.7579   1   7   0.0015   0.0014   0.0100   0.0001  -0.0027  -0.0009  -8.00  265.0
2024/05/08 09:15:53.000   28.435132660  -16.340089081   667.7579   1   7   0.0015   0.0014   0.0100   0.0001  -0.0027  -0.0009  -7.00  265.2
2024/05/08 09:15:54.000   28.435132660  -16.340089081   667.7580   1   7   0.0015   0.0014   0.0100   0.0001  -0.0027  -0.0009  -6.00  265.7
2024/05/08 09:15:55.000   28.435132660  -16.340089081   667.7580   1   7   0.0015   0.0014   0.0100   0.0001  -0.0027  -0.0009  -5.00  266.3
2024/05/08 09:15:56.000   28.435132660  -16.340089081   667.7580   1   7   0.0015   0.0014   0.0100   0.0001  -0.0027  -0.0009  -4.00  267.4
2024/05/08 09:15:57.000   28.435132659  -16.340089081   667.7580   1   7   0.0015   0.0014   0.0100   0.0001  -0.0027  -0.0009  -3.00  268.5
2024/05/08 09:15:58.000   28.435132659  -16.340089082   667.7580   1   7   0.0015   0.0014   0.0100   0.0001  -0.0027  -0.0009  -2.00  269.3
2024/05/08 09:15:59.000   28.435132659  -16.340089081   667.7580   1   7   0.0015   0.0014   0.0100   0.0001  -0.0027  -0.0009  -1.00  271.1
2024/05/08 09:16:00.000   28.435132659  -16.340089081   667.7579   1   7   0.0015   0.0014   0.0100   0.0001  -0.0027  -0.0009   0.00  272.3
2024/05/08 09:16:01.000   28.435132659  -16.340089081   667.7579   1   7   0.0015   0.0014   0.0100   0.0001  -0.0027  -0.0009   1.00  273.6
2024/05/08 09:16:02.000   28.435132658  -16.340089081   667.7579   1   7   0.0015   0.0014   0.0100   0.0001  -0.0027  -0.0009   2.00  275.6
2024/05/08 09:16:03.000   28.435132658  -16.340089081   667.7578   1   7   0.0015   0.0014   0.0100   0.0001  -0.0027  -0.0009   3.00  276.8
2024/05/08 09:16:04.000   28.435132658  -16.340089081   667.7578   1   7   0.0015   0.0014   0.0100   0.0001  -0.0027  -0.0009   4.00  277.7
2024/05/08 09:16:05.000   28.435132658  -16.340089081   667.7578   1   7   0.0015   0.0014   0.0100   0.0001  -0.0027  -0.0009   5.00  278.4
2024/05/08 09:16:06.000   28.435132658  -16.340089081   667.7578   1   7   0.0015   0.0014   0.0100   0.0001  -0.0027  -0.0009   6.00  279.0
2024/05/08 09:16:07.000   28.435132658  -16.340089081   667.7578   1   7   0.0015   0.0014   0.0100   0.0001  -0.0027  -0.0009   7.00  279.4
2024/05/08 09:16:08.000   28.435132658  -16.340089082   667.7578   1   7   0.0015   0.0014   0.0100   0.0001  -0.0027  -0.0009   8.00  279.8
2024/05/08 09:16:09.000   28.435132657  -16.340089082   667.7578   1   7   0.0015   0.0014   0.0100   0.0001  -0.0027  -0.0009   9.00  279.8
2024/05/08 09:16:10.000   28.435132657  -16.340089082   667.7579   1   7   0.0015   0.0014   0.0100   0.0001  -0.0027  -0.0009  10.00  279.7
2024/05/08 09:16:11.000   28.435132657  -16.340089082   667.7579   1   7   0.0015   0.0014   0.0100   0.0001  -0.0027  -0.0009  11.00  279.5
2024/05/08 09:16:12.000   28.435132657  -16.340089082   667.7579   1   7   0.0015   0.0014   0.0100   0.0001  -0.0027  -0.0009  12.00  279.2
2024/05/08 09:16:13.000   28.435132657  -16.340089082   667.7579   1   7   0.0015   0.0014   0.0100   0.0001  -0.0027  -0.0009  13.00  278.8
2024/05/08 09:16:14.000   28.435132657  -16.340089082   667.7580   1   7   0.0015   0.0014   0.0100   0.0001  -0.0027  -0.0009  14.00  278.3
2024/05/08 09:16:15.000   28.435132657  -16.340089082   667.7580   1   7   0.0015   0.0014   0.0100   0.0001  -0.0027  -0.0009  15.00  277.9
2024/05/08 09:16:16.000   28.435132657  -16.340089082   667.7580   1   7   0.0015   0.0014   0.0100   0.0001  -0.0027  -0.0009 -14.00  277.5
2024/05/08 09:16:17.000   28.435132657  -16.340089082   667.7580   1   7   0.0015   0.0014   0.0100   0.0001  -0.0027  -0.0009 -13.00  277.0
2024/05/08 09:16:18.000   28.435132657  -16.340089082   667.7581   1   7   0.0015   0.0014   0.0100   0.0001  -0.0027  -0.0009 -12.00  276.6
2024/05/08 09:16:19.000   28.435132657  -16.340089082   667.7581   1   7   0.0015   0.0014   0.0099   0.0001  -0.0027  -0.0009 -11.00  276.2
2024/05/08 09:16:20.000   28.435132657  -16.340089081   667.7581   1   7   0.0015   0.0014   0.0099   0.0001  -0.0027  -0.0009 -10.00  275.8
2024/05/08 09:16:21.000   28.435132657  -16.340089081   667.7581   1   7   0.0015   0.0014   0.0099   0.0001  -0.0027  -0.0009  -9.00  275.5
2024/05/08 09:16:22.000   28.435132657  -16.340089081   667.7581   1   7   0.0015   0.0014   0.0099   0.0001  -0.0027  -0.0009  -8.00  275.3
2024/05/08 09:16:23.000   28.435132657  -16.340089081   667.7582   1   7   0.0015   0.0014   0.0099   0.0001  -0.0027  -0.0009  -7.00  274.9
2024/05/08 09:16:24.000   28.435132656  -16.340089081   667.7582   1   7   0.0015   0.0014   0.0099   0.0001  -0.0027  -0.0009  -6.00  274.8
2024/05/08 09:16:25.000   28.435132656  -16.340089081   667.7582   1   7   0.0015   0.0014   0.0099   0.0001  -0.0027  -0.0009  -5.00  274.7
2024/05/08 09:16:26.000   28.435132656  -16.340089081   667.7582   1   7   0.0015   0.0014   0.0099   0.0001  -0.0027  -0.0009  -4.00  274.9
2024/05/08 09:16:27.000   28.435132656  -16.340089081   667.7582   1   7   0.0015   0.0014   0.0099   0.0001  -0.0027  -0.0009  -3.00  274.9
2024/05/08 09:16:28.000   28.435132656  -16.340089081   667.7582   1   7   0.0015   0.0014   0.0099   0.0001  -0.0027  -0.0009  -2.00  275.2
2024/05/08 09:16:29.000   28.435132656  -16.340089081   667.7583   1   7   0.0015   0.0014   0.0099   0.0001  -0.0027  -0.0009  -1.00  275.6
2024/05/08 09:16:30.000   28.435132656  -16.340089081   667.7582   1   7   0.0015   0.0014   0.0100   0.0001  -0.0027  -0.0009   0.00  275.7
2024/05/08 09:16:31.000   28.435132656  -16.340089081   667.7583   1   7   0.0015   0.0014   0.0100   0.0001  -0.0027  -0.0009   1.00  275.7
2024/05/08 09:16:32.000   28.435132656  -16.340089081   667.7583   1   7   0.0015   0.0014   0.0100   0.0001  -0.0027  -0.0009   2.00  275.9
2024/05/08 09:16:33.000   28.435132656  -16.340089081   667.7584   1   7   0.0015   0.0014   0.0100   0.0001  -0.0027  -0.0009   3.00  275.7
2024/05/08 09:16:34.000   28.435132656  -16.340089081   667.7585   1   7   0.0015   0.0014   0.0100   0.0001  -0.0027  -0.0009   4.00  275.4
2024/05/08 09:16:35.000   28.435132655  -16.340089081   667.7586   1   7   0.0015   0.0014   0.0100   0.0001  -0.0027  -0.0009   5.00  275.0
2024/05/08 09:16:36.000   28.435132643  -16.340089084   667.7605   1   7   0.0014   0.0012   0.0090   0.0003  -0.0022  -0.0009   6.00    3.9
2024/05/08 09:16:37.000   28.435132643  -16.340089084   667.7605   1   7   0.0014   0.0012   0.0090   0.0003  -0.0022  -0.0009   7.00    3.9
2024/05/08 09:16:38.000   28.435132643  -16.340089084   667.7605   1   7   0.0014   0.0012   0.0090   0.0003  -0.0022  -0.0009   8.00    3.8
2024/05/08 09:16:39.000   28.435132643  -16.340089084   667.7605   1   7   0.0014   0.0012   0.0090   0.0003  -0.0022  -0.0009   9.00    3.9
2024/05/08 09:16:40.000   28.435132643  -16.340089084   667.7605   1   7   0.0014   0.0012   0.0090   0.0003  -0.0022  -0.0009  10.00    3.9
2024/05/08 09:16:41.000   28.435132643  -16.340089084   667.7605   1   7   0.0014   0.0012   0.0090   0.0003  -0.0022  -0.0009  11.00    3.8
2024/05/08 09:16:42.000   28.435132643  -16.340089084   667.7605   1   7   0.0014   0.0012   0.0090   0.0003  -0.0022  -0.0009  12.00    3.8
2024/05/08 09:16:43.000   28.435132643  -16.340089084   667.7605   1   7   0.0014   0.0012   0.0090   0.0003  -0.0022  -0.0009  13.00    3.8
2024/05/08 09:16:44.000   28.435132643  -16.340089084   667.7605   1   7   0.0014   0.0012   0.0090   0.0003  -0.0022  -0.0009  14.00    3.8
2024/05/08 09:16:45.000   28.435132643  -16.340089084   667.7605   1   7   0.0014   0.0012   0.0090   0.0003  -0.0022  -0.0009 -15.00    4.0
2024/05/08 09:16:46.000   28.435132643  -16.340089085   667.7605   1   7   0.0014   0.0012   0.0090   0.0003  -0.0022  -0.0009 -14.00    4.0
2024/05/08 09:16:47.000   28.435132643  -16.340089085   667.7605   1   7   0.0014   0.0012   0.0090   0.0003  -0.0022  -0.0009 -13.00    4.0
2024/05/08 09:16:48.000   28.435132643  -16.340089085   667.7605   1   7   0.0014   0.0012   0.0090   0.0003  -0.0022  -0.0009 -12.00    4.0
2024/05/08 09:16:49.000   28.435132643  -16.340089085   667.7605   1   7   0.0014   0.0012   0.0090   0.0003  -0.0022  -0.0009 -11.00    3.9
2024/05/08 09:16:50.000   28.435132643  -16.340089085   667.7605   1   7   0.0014   0.0012   0.0090   0.0003  -0.0022  -0.0009 -10.00    3.9
2024/05/08 09:16:51.000   28.435132643  -16.340089085   667.7604   1   7   0.0014   0.0012   0.0090   0.0003  -0.0022  -0.0009  -9.00    3.9
2024/05/08 09:16:52.000   28.435132643  -16.340089085   667.7604   1   7   0.0014   0.0012   0.0090   0.0003  -0.0022  -0.0009  -8.00    3.9
2024/05/08 09:16:53.000   28.435132643  -16.340089085   667.7604   1   7   0.0014   0.0012   0.0090   0.0003  -0.0022  -0.0009  -7.00    3.9
2024/05/08 09:16:54.000   28.435132643  -16.340089085   667.7603   1   7   0.0014   0.0012   0.0090   0.0003  -0.0022  -0.0009  -6.00    3.9
2024/05/08 09:16:55.000   28.435132643  -16.340089085   667.7603   1   7   0.0014   0.0012   0.0089   0.0003  -0.0022  -0.0009  -5.00    3.9
2024/05/08 09:16:56.000   28.435132643  -16.340089085   667.7602   1   7   0.0014   0.0012   0.0089   0.0003  -0.0021  -0.0009  -4.00   15.6
2024/05/08 09:16:57.000   28.435132653  -16.340089081   667.7585   1   7   0.0013   0.0012   0.0089   0.0002  -0.0021  -0.0008  -3.00    7.5
2024/05/08 09:16:58.000   28.435132653  -16.340089081   667.7585   1   7   0.0013   0.0012   0.0089   0.0002  -0.0021  -0.0008  -2.00   10.4
2024/05/08 09:16:59.000   28.435132652  -16.340089081   667.7586   1   7   0.0013   0.0012   0.0089   0.0002  -0.0021  -0.0008  -1.00   13.3
2024/05/08 09:17:00.000   28.435132653  -16.340089081   667.7586   1   7   0.0013   0.0012   0.0089   0.0002  -0.0021  -0.0008   0.00   16.1
2024/05/08 09:17:01.000   28.435132652  -16.340089081   667.7586   1   7   0.0013   0.0012   0.0089   0.0002  -0.0021  -0.0008   1.00   18.8
2024/05/08 09:17:02.000   28.435132652  -16.340089081   667.7587   1   7   0.0013   0.0012   0.0089   0.0002  -0.0021  -0.0008   2.00   20.3
2024/05/08 09:17:03.000   28.435132652  -16.340089081   667.7587   1   7   0.0013   0.0012   0.0089   0.0002  -0.0021  -0.0008   3.00   21.8
2024/05/08 09:17:04.000   28.435132652  -16.340089081   667.7587   1   7   0.0013   0.0012   0.0089   0.0002  -0.0021  -0.0008   4.00   23.0
2024/05/08 09:17:05.000   28.435132652  -16.340089081   667.7586   1   7   0.0013   0.0012   0.0089   0.0002  -0.0021  -0.0008   5.00   24.3
2024/05/08 09:17:06.000   28.435132652  -16.340089081   667.7587   1   7   0.0013   0.0012   0.0089   0.0002  -0.0021  -0.0008   6.00   25.5
2024/05/08 09:17:07.000   28.435132652  -16.340089081   667.7587   1   7   0.0013   0.0012   0.0089   0.0002  -0.0021  -0.0008   7.00   26.7
2024/05/08 09:17:08.000   28.435132652  -16.340089081   667.7587   1   7   0.0013   0.0012   0.0089   0.0002  -0.0021  -0.0008   8.00   28.0
2024/05/08 09:17:09.000   28.435132652  -16.340089081   667.7587   1   7   0.0013   0.0012   0.0089   0.0002  -0.0021  -0.0008   9.00   29.3
2024/05/08 09:17:10.000   28.435132652  -16.340089081   667.7588   1   7   0.0013   0.0012   0.0089   0.0002  -0.0021  -0.0008  10.00   30.5
2024/05/08 09:17:11.000   28.435132652  -16.340089081   667.7588   1   7   0.0013   0.0012   0.0089   0.0002  -0.0021  -0.0008  11.00   31.7
2024/05/08 09:17:12.000   28.435132652  -16.340089081   667.7588   1   7   0.0013   0.0012   0.0089   0.0002  -0.0021  -0.0008  12.00   33.0
2024/05/08 09:17:13.000   28.435132652  -16.340089081   667.7589   1   7   0.0013   0.0012   0.0089   0.0002  -0.0021  -0.0008  13.00   34.3
2024/05/08 09:17:14.000   28.435132652  -16.340089081   667.7589   1   7   0.0013   0.0012   0.0089   0.0002  -0.0021  -0.0008  14.00   35.5
2024/05/08 09:17:15.000   28.435132652  -16.340089081   667.7589   1   7   0.0013   0.0012   0.0089   0.0002  -0.0021  -0.0008 -15.00   36.8
2024/05/08 09:17:16.000   28.435132652  -16.340089081   667.7589   1   7   0.0013   0.0012   0.0089   0.0002  -0.0021  -0.0008 -14.00   38.0
2024/05/08 09:17:17.000   28.435132652  -16.340089081   667.7589   1   7   0.0013   0.0012   0.0089   0.0002  -0.0021  -0.0008 -13.00   39.2
2024/05/08 09:17:18.000   28.435132652  -16.340089081   667.7590   1   7   0.0013   0.0012   0.0089   0.0002  -0.0021  -0.0008 -12.00   40.4
2024/05/08 09:17:19.000   28.435132652  -16.340089081   667.7590   1   7   0.0013   0.0012   0.0089   0.0002  -0.0021  -0.0008 -11.00   41.7
2024/05/08 09:17:20.000   28.435132652  -16.340089081   667.7590   1   7   0.0013   0.0012   0.0089   0.0002  -0.0021  -0.0008 -10.00   42.9
2024/05/08 09:17:21.000   28.435132652  -16.340089081   667.7590   1   7   0.0013   0.0012   0.0088   0.0002  -0.0021  -0.0008  -9.00   44.1
2024/05/08 09:17:22.000   28.435132652  -16.340089081   667.7590   1   7   0.0013   0.0012   0.0088   0.0002  -0.0021  -0.0008  -8.00   45.3
2024/05/08 09:17:23.000   28.435132652  -16.340089081   667.7591   1   7   0.0013   0.0012   0.0088   0.0002  -0.0021  -0.0008  -7.00   46.4
2024/05/08 09:17:24.000   28.435132652  -16.340089081   667.7590   1   7   0.0013   0.0012   0.0088   0.0002  -0.0021  -0.0008  -6.00   47.5
2024/05/08 09:17:25.000   28.435132652  -16.340089081   667.7591   1   7   0.0013   0.0012   0.0088   0.0002  -0.0021  -0.0008  -5.00   49.0
2024/05/08 09:17:26.000   28.435132652  -16.340089081   667.7591   1   7   0.0013   0.0012   0.0088   0.0002  -0.0021  -0.0008  -4.00   50.5
2024/05/08 09:17:27.000   28.435132652  -16.340089081   667.7591   1   7   0.0013   0.0012   0.0088   0.0002  -0.0021  -0.0008  -3.00   51.9
2024/05/08 09:17:28.000   28.435132652  -16.340089081   667.7590   1   7   0.0013   0.0012   0.0088   0.0002  -0.0021  -0.0008  -2.00   53.7
2024/05/08 09:17:29.000   28.435132652  -16.340089082   667.7590   1   7   0.0013   0.0012   0.0088   0.0002  -0.0021  -0.0008  -1.00   55.4
2024/05/08 09:17:30.000   28.435132652  -16.340089082   667.7588   1   7   0.0013   0.0012   0.0088   0.0002  -0.0021  -0.0008   0.00   57.3
2024/05/08 09:17:31.000   28.435132652  -16.340089082   667.7588   1   7   0.0013   0.0012   0.0088   0.0002  -0.0021  -0.0008   1.00   59.5
2024/05/08 09:17:32.000   28.435132651  -16.340089082   667.7587   1   7   0.0013   0.0012   0.0088   0.0002  -0.0021  -0.0008   2.00   60.9
2024/05/08 09:17:33.000   28.435132651  -16.340089082   667.7587   1   7   0.0013   0.0012   0.0088   0.0002  -0.0021  -0.0008   3.00   62.6
2024/05/08 09:17:34.000   28.435132651  -16.340089082   667.7586   1   7   0.0013   0.0012   0.0088   0.0002  -0.0021  -0.0008   4.00   64.4
2024/05/08 09:17:35.000   28.435132651  -16.340089082   667.7585   1   7   0.0013   0.0012   0.0088   0.0002  -0.0021  -0.0008   5.00   65.8
2024/05/08 09:17:36.000   28.435132651  -16.340089082   667.7585   1   7   0.0013   0.0012   0.0088   0.0002  -0.0021  -0.0008   6.00   67.6
2024/05/08 09:17:37.000   28.435132651  -16.340089082   667.7585   1   7   0.0013   0.0012   0.0088   0.0002  -0.0021  -0.0008   7.00   69.1
2024/05/08 09:17:38.000   28.435132651  -16.340089082   667.7585   1   7   0.0013   0.0012   0.0088   0.0002  -0.0021  -0.0008   8.00   70.7
2024/05/08 09:17:39.000   28.435132651  -16.340089082   667.7585   1   7   0.0013   0.0012   0.0088   0.0002  -0.0021  -0.0008   9.00   72.3
2024/05/08 09:17:40.000   28.435132651  -16.340089082   667.7584   1   7   0.0013   0.0012   0.0088   0.0002  -0.0021  -0.0008  10.00   74.0
2024/05/08 09:17:41.000   28.435132651  -16.340089082   667.7584   1   7   0.0013   0.0012   0.0088   0.0002  -0.0021  -0.0008  11.00   75.4
2024/05/08 09:17:42.000   28.435132651  -16.340089082   667.7584   1   7   0.0013   0.0012   0.0088   0.0002  -0.0021  -0.0008  12.00   77.0
2024/05/08 09:17:43.000   28.435132651  -16.340089082   667.7584   1   7   0.0013   0.0012   0.0088   0.0002  -0.0021  -0.0008  13.00   78.5
2024/05/08 09:17:44.000   28.435132651  -16.340089082   667.7584   1   7   0.0013   0.0012   0.0088   0.0002  -0.0021  -0.0008  14.00   80.1
2024/05/08 09:17:45.000   28.435132651  -16.340089082   667.7584   1   7   0.0013   0.0012   0.0088   0.0002  -0.0021  -0.0008 -15.00   81.6
2024/05/08 09:17:46.000   28.435132651  -16.340089082   667.7584   1   7   0.0013   0.0012   0.0088   0.0002  -0.0021  -0.0008 -14.00   83.3
2024/05/08 09:17:47.000   28.435132651  -16.340089083   667.7584   1   7   0.0013   0.0012   0.0088   0.0002  -0.0021  -0.0008 -13.00   84.9
2024/05/08 09:17:48.000   28.435132651  -16.340089083   667.7584   1   7   0.0013   0.0012   0.0088   0.0002  -0.0021  -0.0008 -12.00   86.5
2024/05/08 09:17:49.000   28.435132651  -16.340089083   667.7584   1   7   0.0013   0.0012   0.0088   0.0002  -0.0021  -0.0008 -11.00   88.1
2024/05/08 09:17:50.000   28.435132651  -16.340089083   667.7584   1   7   0.0013   0.0012   0.0088   0.0002  -0.0021  -0.0008 -10.00   89.9
2024/05/08 09:17:51.000   28.435132651  -16.340089083   667.7584   1   7   0.0013   0.0012   0.0088   0.0002  -0.0021  -0.0008  -9.00   91.7
2024/05/08 09:17:52.000   28.435132651  -16.340089083   667.7584   1   7   0.0013   0.0012   0.0088   0.0002  -0.0021  -0.0008  -8.00   93.6
2024/05/08 09:17:53.000   28.435132651  -16.340089083   667.7584   1   7   0.0013   0.0012   0.0087   0.0002  -0.0021  -0.0008  -7.00   95.4
2024/05/08 09:17:54.000   28.435132651  -16.340089083   667.7584   1   7   0.0013   0.0012   0.0087   0.0002  -0.0020  -0.0008  -6.00   97.3
2024/05/08 09:17:55.000   28.435132651  -16.340089083   667.7583   1   7   0.0013   0.0012   0.0087   0.0002  -0.0020  -0.0008  -5.00   99.4
2024/05/08 09:17:56.000   28.435132651  -16.340089083   667.7583   1   7   0.0013   0.0012   0.0087   0.0002  -0.0020  -0.0008  -4.00  102.1
2024/05/08 09:17:57.000   28.435132651  -16.340089083   667.7583   1   7   0.0013   0.0012   0.0087   0.0002  -0.0020  -0.0008  -3.00  104.9
2024/05/08 09:17:58.000   28.435132653  -16.340089075   667.7632   1   7   0.0013   0.0011   0.0085   0.0001  -0.0022  -0.0009  -2.00    3.4
2024/05/08 09:17:59.000   28.435132653  -16.340089075   667.7631   1   7   0.0013   0.0011   0.0085   0.0001  -0.0022  -0.0009  -1.00    5.2
2024/05/08 09:18:00.000   28.435132653  -16.340089075   667.7631   1   7   0.0013   0.0011   0.0085   0.0001  -0.0022  -0.0009   0.00    6.8
2024/05/08 09:18:01.000   28.435132653  -16.340089075   667.7631   1   7   0.0013   0.0011   0.0085   0.0001  -0.0022  -0.0009   1.00    8.4
2024/05/08 09:18:02.000   28.435132653  -16.340089075   667.7631   1   7   0.0013   0.0011   0.0085   0.0001  -0.0022  -0.0009   2.00   10.0
2024/05/08 09:18:03.000   28.435132653  -16.340089075   667.7631   1   7   0.0013   0.0011   0.0085   0.0001  -0.0022  -0.0009   3.00   11.6
2024/05/08 09:18:04.000   28.435132653  -16.340089075   667.7631   1   7   0.0013   0.0011   0.0085   0.0001  -0.0022  -0.0009   4.00   13.2
2024/05/08 09:18:05.000   28.435132653  -16.340089075   667.7631   1   7   0.0013   0.0011   0.0085   0.0001  -0.0022  -0.0009   5.00   14.8
2024/05/08 09:18:06.000   28.435132653  -16.340089075   667.7631   1   7   0.0013   0.0011   0.0085   0.0001  -0.0022  -0.0009   6.00   16.4
2024/05/08 09:18:07.000   28.435132653  -16.340089075   667.7631   1   7   0.0013   0.0011   0.0085   0.0001  -0.0022  -0.0009   7.00   18.1
2024/05/08 09:18:08.000   28.435132653  -16.340089075   667.7631   1   7   0.0013   0.0011   0.0085   0.0001  -0.0022  -0.0009   8.00   19.7
2024/05/08 09:18:09.000   28.435132653  -16.340089075   667.7631   1   7   0.0013   0.0011   0.0085   0.0001  -0.0022  -0.0009   9.00   21.3
2024/05/08 09:18:10.000   28.435132653  -16.340089075   667.7631   1   7   0.0013   0.0011   0.0085   0.0001  -0.0022  -0.0009  10.00   23.0
2024/05/08 09:18:11.000   28.435132653  -16.340089075   667.7632   1   7   0.0013   0.0011   0.0085   0.0001  -0.0022  -0.0009  11.00   24.6
2024/05/08 09:18:12.000   28.435132653  -16.340089075   667.7632   1   7   0.0013   0.0011   0.0085   0.0001  -0.0022  -0.0009  12.00   26.3
2024/05/08 09:18:13.000   28.435132653  -16.340089075   667.7632   1   7   0.0013   0.0011   0.0085   0.0001  -0.0022  -0.0009  13.00   28.0
2024/05/08 09:18:14.000   28.435132653  -16.340089075   667.7632   1   7   0.0013   0.0011   0.0085   0.0001  -0.0022  -0.0009  14.00   29.7
2024/05/08 09:18:15.000   28.435132653  -16.340089075   667.7632   1   7   0.0013   0.0011   0.0085   0.0001  -0.0022  -0.0009 -15.00   31.3
2024/05/08 09:18:16.000   28.435132653  -16.340089075   667.7632   1   7   0.0013   0.0011   0.0085   0.0001  -0.0022  -0.0009 -14.00   33.0
2024/05/08 09:18:17.000   28.435132653  -16.340089075   667.7632   1   7   0.0013   0.0011   0.0085   0.0001  -0.0022  -0.0009 -13.00   34.8
2024/05/08 09:18:18.000   28.435132653  -16.340089075   667.7632   1   7   0.0013   0.0011   0.0085   0.0001  -0.0022  -0.0009 -12.00   36.5
2024/05/08 09:18:19.000   28.435132653  -16.340089075   667.7633   1   7   0.0013   0.0011   0.0085   0.0001  -0.0022  -0.0009 -11.00   38.2
2024/05/08 09:18:20.000   28.435132653  -16.340089075   667.7633   1   7   0.0013   0.0011   0.0084   0.0001  -0.0022  -0.0009 -10.00   39.9
2024/05/08 09:18:21.000   28.435132653  -16.340089075   667.7633   1   7   0.0013   0.0011   0.0084   0.0001  -0.0022  -0.0009  -9.00   41.5
2024/05/08 09:18:22.000   28.435132652  -16.340089075   667.7633   1   7   0.0013   0.0011   0.0084   0.0001  -0.0022  -0.0009  -8.00   43.3
2024/05/08 09:18:23.000   28.435132652  -16.340089075   667.7633   1   7   0.0012   0.0011   0.0084   0.0001  -0.0022  -0.0009  -7.00   44.9
2024/05/08 09:18:24.000   28.435132652  -16.340089075   667.7633   1   7   0.0012   0.0011   0.0084   0.0001  -0.0022  -0.0009  -6.00   46.6
2024/05/08 09:18:25.000   28.435132652  -16.340089075   667.7634   1   7   0.0012   0.0011   0.0084   0.0001  -0.0022  -0.0009  -5.00   48.1
2024/05/08 09:18:26.000   28.435132652  -16.340089075   667.7634   1   7   0.0012   0.0011   0.0084   0.0001  -0.0022  -0.0009  -4.00   49.8
2024/05/08 09:18:27.000   28.435132652  -16.340089075   667.7635   1   7   0.0012   0.0011   0.0084   0.0001  -0.0022  -0.0009  -3.00   51.8
2024/05/08 09:18:28.000   28.435132652  -16.340089075   667.7635   1   7   0.0012   0.0011   0.0084   0.0001  -0.0022  -0.0009  -2.00   53.4
2024/05/08 09:18:29.000   28.435132652  -16.340089075   667.7635   1   7   0.0012   0.0011   0.0084   0.0001  -0.0022  -0.0009  -1.00   54.9
2024/05/08 09:18:30.000   28.435132652  -16.340089075   667.7635   1   7   0.0012   0.0011   0.0084   0.0001  -0.0022  -0.0009   0.00   56.4
2024/05/08 09:18:31.000   28.435132652  -16.340089075   667.7635   1   7   0.0012   0.0011   0.0084   0.0001  -0.0022  -0.0009   1.00   57.9
2024/05/08 09:18:32.000   28.435132652  -16.340089075   667.7636   1   7   0.0012   0.0011   0.0084   0.0001  -0.0022  -0.0009   2.00   59.5
2024/05/08 09:18:33.000   28.435132652  -16.340089075   667.7637   1   7   0.0012   0.0011   0.0084   0.0001  -0.0022  -0.0009   3.00   61.0
2024/05/08 09:18:34.000   28.435132652  -16.340089075   667.7637   1   7   0.0012   0.0011   0.0084   0.0001  -0.0022  -0.0009   4.00   62.5
2024/05/08 09:18:35.000   28.435132652  -16.340089075   667.7637   1   7   0.0012   0.0011   0.0084   0.0001  -0.0022  -0.0009   5.00   63.9
2024/05/08 09:18:36.000   28.435132652  -16.340089075   667.7636   1   7   0.0012   0.0011   0.0084   0.0001  -0.0022  -0.0009   6.00   65.4
2024/05/08 09:18:37.000   28.435132652  -16.340089075   667.7636   1   7   0.0012   0.0011   0.0084   0.0001  -0.0022  -0.0009   7.00   67.0
2024/05/08 09:18:38.000   28.435132652  -16.340089076   667.7636   1   7   0.0012   0.0011   0.0084   0.0001  -0.0022  -0.0009   8.00   68.5
2024/05/08 09:18:39.000   28.435132652  -16.340089076   667.7636   1   7   0.0012   0.0011   0.0084   0.0001  -0.0022  -0.0009   9.00   69.9
2024/05/08 09:18:40.000   28.435132652  -16.340089076   667.7636   1   7   0.0012   0.0011   0.0084   0.0001  -0.0022  -0.0009  10.00   71.5
2024/05/08 09:18:41.000   28.435132652  -16.340089076   667.7636   1   7   0.0012   0.0011   0.0084   0.0001  -0.0022  -0.0009  11.00   73.0
2024/05/08 09:18:42.000   28.435132652  -16.340089076   667.7636   1   7   0.0012   0.0011   0.0084   0.0001  -0.0022  -0.0009  12.00   74.5
2024/05/08 09:18:43.000   28.435132652  -16.340089076   667.7636   1   7   0.0012   0.0011   0.0084   0.0001  -0.0022  -0.0009  13.00   75.9
2024/05/08 09:18:44.000   28.435132652  -16.340089076   667.7636   1   7   0.0012   0.0011   0.0084   0.0001  -0.0022  -0.0009  14.00   77.4
2024/05/08 09:18:45.000   28.435132652  -16.340089076   667.7637   1   7   0.0012   0.0011   0.0084   0.0001  -0.0022  -0.0009 -15.00   78.9
2024/05/08 09:18:46.000   28.435132652  -16.340089076   667.7637   1   7   0.0012   0.0011   0.0084   0.0001  -0.0022  -0.0009 -14.00   80.4
2024/05/08 09:18:47.000   28.435132652  -16.340089076   667.7637   1   7   0.0012   0.0011   0.0084   0.0001  -0.0022  -0.0009 -13.00   81.7
2024/05/08 09:18:48.000   28.435132652  -16.340089076   667.7637   1   7   0.0012   0.0011   0.0084   0.0001  -0.0021  -0.0009 -12.00   83.1
2024/05/08 09:18:49.000   28.435132652  -16.340089076   667.7637   1   7   0.0012   0.0011   0.0083   0.0001  -0.0021  -0.0009 -11.00   84.4
2024/05/08 09:18:50.000   28.435132652  -16.340089076   667.7637   1   7   0.0012   0.0011   0.0083   0.0001  -0.0021  -0.0009 -10.00   85.5
2024/05/08 09:18:51.000   28.435132652  -16.340089076   667.7637   1   7   0.0012   0.0011   0.0083   0.0001  -0.0021  -0.0009  -9.00   86.6
2024/05/08 09:18:52.000   28.435132652  -16.340089076   667.7637   1   7   0.0012   0.0011   0.0083   0.0001  -0.0021  -0.0009  -8.00   87.4
2024/05/08 09:18:53.000   28.435132652  -16.340089076   667.7637   1   7   0.0012   0.0011   0.0083   0.0001  -0.0021  -0.0009  -7.00   88.4
2024/05/08 09:18:54.000   28.435132652  -16.340089076   667.7637   1   7   0.0012   0.0011   0.0083   0.0001  -0.0021  -0.0009  -6.00   89.1
2024/05/08 09:18:55.000   28.435132652  -16.340089076   667.7637   1   7   0.0012   0.0011   0.0083   0.0001  -0.0021  -0.0009  -5.00   89.8
2024/05/08 09:18:56.000   28.435132652  -16.340089076   667.7637   1   7   0.0012   0.0011   0.0083   0.0001  -0.0021  -0.0009  -4.00   90.2
2024/05/08 09:18:57.000   28.435132652  -16.340089076   667.7637   1   7   0.0012   0.0011   0.0083   0.0001  -0.0021  -0.0009  -3.00   90.5
2024/05/08 09:18:58.000   28.435132652  -16.340089076   667.7638   1   7   0.0012   0.0011   0.0083   0.0001  -0.0021  -0.0009  -2.00   90.6
2024/05/08 09:18:59.000   28.435132652  -16.340089076   667.7637   1   7   0.0012   0.0011   0.0083   0.0001  -0.0021  -0.0009  -1.00   90.5
2024/05/08 09:19:00.000   28.435132651  -16.340089076   667.7638   1   7   0.0012   0.0011   0.0083   0.0001  -0.0021  -0.0009   0.00   90.2
2024/05/08 09:19:01.000   28.435132651  -16.340089076   667.7638   1   7   0.0012   0.0011   0.0083   0.0001  -0.0021  -0.0009   1.00   90.2
2024/05/08 09:19:02.000   28.435132651  -16.340089076   667.7638   1   7   0.0012   0.0011   0.0083   0.0001  -0.0021  -0.0009   2.00   89.5
2024/05/08 09:19:03.000   28.435132651  -16.340089076   667.7638   1   7   0.0012   0.0011   0.0083   0.0001  -0.0021  -0.0009   3.00   89.6
2024/05/08 09:19:04.000   28.435132651  -16.340089076   667.7637   1   7   0.0012   0.0011   0.0083   0.0001  -0.0021  -0.0009   4.00   89.4
2024/05/08 09:19:05.000   28.435132651  -16.340089076   667.7637   1   7   0.0012   0.0011   0.0083   0.0001  -0.0021  -0.0009   5.00   89.5
2024/05/08 09:19:06.000   28.435132651  -16.340089076   667.7636   1   7   0.0012   0.0011   0.0083   0.0001  -0.0021  -0.0009   6.00   89.7
2024/05/08 09:19:07.000   28.435132651  -16.340089076   667.7636   1   7   0.0012   0.0011   0.0083   0.0001  -0.0021  -0.0009   7.00   90.0
2024/05/08 09:19:08.000   28.435132651  -16.340089076   667.7636   1   7   0.0012   0.0011   0.0083   0.0001  -0.0021  -0.0009   8.00   90.4
2024/05/08 09:19:09.000   28.435132651  -16.340089076   667.7635   1   7   0.0012   0.0011   0.0083   0.0001  -0.0021  -0.0009   9.00   90.9
2024/05/08 09:19:10.000   28.435132651  -16.340089076   667.7635   1   7   0.0012   0.0011   0.0083   0.0001  -0.0021  -0.0009  10.00   91.5
2024/05/08 09:19:11.000   28.435132651  -16.340089076   667.7635   1   7   0.0012   0.0011   0.0083   0.0001  -0.0021  -0.0009  11.00   92.1
2024/05/08 09:19:12.000   28.435132651  -16.340089076   667.7635   1   7   0.0012   0.0011   0.0083   0.0001  -0.0021  -0.0009  12.00   92.9
2024/05/08 09:19:13.000   28.435132651  -16.340089076   667.7635   1   7   0.0012   0.0011   0.0083   0.0001  -0.0021  -0.0009  13.00   93.6
2024/05/08 09:19:14.000   28.435132651  -16.340089076   667.7634   1   7   0.0012   0.0011   0.0083   0.0001  -0.0021  -0.0009  14.00   94.3
2024/05/08 09:19:15.000   28.435132651  -16.340089076   667.7634   1   7   0.0012   0.0011   0.0083   0.0001  -0.0021  -0.0009 -15.00   95.0
2024/05/08 09:19:16.000   28.435132651  -16.340089076   667.7634   1   7   0.0012   0.0011   0.0083   0.0001  -0.0021  -0.0009 -14.00   95.6
2024/05/08 09:19:17.000   28.435132651  -16.340089076   667.7634   1   7   0.0012   0.0011   0.0083   0.0001  -0.0021  -0.0009 -13.00   96.1
2024/05/08 09:19:18.000   28.435132651  -16.340089076   667.7634   1   7   0.0012   0.0011   0.0083   0.0001  -0.0021  -0.0009 -12.00   96.4
2024/05/08 09:19:19.000   28.435132651  -16.340089076   667.7634   1   7   0.0012   0.0011   0.0083   0.0001  -0.0021  -0.0009 -11.00   96.7
2024/05/08 09:19:20.000   28.435132651  -16.340089076   667.7634   1   7   0.0012   0.0011   0.0083   0.0001  -0.0021  -0.0009 -10.00   97.1
2024/05/08 09:19:21.000   28.435132651  -16.340089076   667.7634   1   7   0.0012   0.0011   0.0082   0.0001  -0.0021  -0.0009  -9.00   97.2
2024/05/08 09:19:22.000   28.435132651  -16.340089077   667.7634   1   7   0.0012   0.0011   0.0082   0.0001  -0.0021  -0.0009  -8.00   97.2
2024/05/08 09:19:23.000   28.435132651  -16.340089077   667.7633   1   7   0.0012   0.0011   0.0082   0.0001  -0.0021  -0.0009  -7.00   96.9
2024/05/08 09:19:24.000   28.435132651  -16.340089077   667.7633   1   7   0.0012   0.0011   0.0082   0.0001  -0.0021  -0.0009  -6.00   96.6
2024/05/08 09:19:25.000   28.435132651  -16.340089077   667.7633   1   7   0.0012   0.0011   0.0082   0.0001  -0.0021  -0.0009  -5.00   96.4
2024/05/08 09:19:26.000   28.435132651  -16.340089077   667.7633   1   7   0.0012   0.0011   0.0082   0.0001  -0.0021  -0.0009  -4.00   95.9
2024/05/08 09:19:27.000   28.435132650  -16.340089077   667.7633   1   7   0.0012   0.0011   0.0082   0.0001  -0.0021  -0.0009  -3.00   94.8
2024/05/08 09:19:28.000   28.435132650  -16.340089077   667.7633   1   7   0.0012   0.0011   0.0082   0.0001  -0.0021  -0.0009  -2.00   94.0
2024/05/08 09:19:29.000   28.435132650  -16.340089077   667.7633   1   7   0.0012   0.0011   0.0082   0.0001  -0.0021  -0.0009  -1.00   93.5
2024/05/08 09:19:30.000   28.435132650  -16.340089077   667.7633   1   7   0.0012   0.0011   0.0082   0.0001  -0.0021  -0.0009   0.00   92.7
2024/05/08 09:19:31.000   28.435132650  -16.340089077   667.7633   1   7   0.0012   0.0011   0.0082   0.0001  -0.0021  -0.0009   1.00   92.3
2024/05/08 09:19:32.000   28.435132650  -16.340089077   667.7633   1   7   0.0012   0.0011   0.0082   0.0001  -0.0021  -0.0009   2.00   91.4
2024/05/08 09:19:33.000   28.435132650  -16.340089077   667.7634   1   7   0.0012   0.0011   0.0082   0.0001  -0.0021  -0.0009   3.00   91.1
2024/05/08 09:19:34.000   28.435132650  -16.340089077   667.7634   1   7   0.0012   0.0011   0.0082   0.0001  -0.0021  -0.0009   4.00   90.8
2024/05/08 09:19:35.000   28.435132650  -16.340089077   667.7633   1   7   0.0012   0.0011   0.0082   0.0001  -0.0021  -0.0009   5.00   90.7
2024/05/08 09:19:36.000   28.435132650  -16.340089077   667.7634   1   7   0.0012   0.0011   0.0082   0.0001  -0.0021  -0.0009   6.00   90.6
2024/05/08 09:19:37.000   28.435132650  -16.340089077   667.7634   1   7   0.0012   0.0011   0.0082   0.0001  -0.0021  -0.0009   7.00   90.6
2024/05/08 09:19:38.000   28.435132650  -16.340089077   667.7634   1   7   0.0012   0.0011   0.0082   0.0001  -0.0021  -0.0009   8.00   90.7
2024/05/08 09:19:39.000   28.435132650  -16.340089077   667.7634   1   7   0.0012   0.0011   0.0082   0.0001  -0.0021  -0.0009   9.00   90.9
2024/05/08 09:19:40.000   28.435132650  -16.340089077   667.7634   1   7   0.0012   0.0011   0.0082   0.0001  -0.0021  -0.0009  10.00   91.2
2024/05/08 09:19:41.000   28.435132650  -16.340089077   667.7634   1   7   0.0012   0.0011   0.0082   0.0001  -0.0021  -0.0009  11.00   91.6
2024/05/08 09:19:42.000   28.435132650  -16.340089077   667.7634   1   7   0.0012   0.0011   0.0082   0.0001  -0.0021  -0.0009  12.00   92.0
