% program   : RTKPOST-EX 2.5.0
% inp file  : C:\Users\SallyHenry\Desktop\Sally Internship\GNSS gravi\DATA\Survey Rover Obs\GUI17.24o
% inp file  : C:\Users\SallyHenry\Desktop\Sally Internship\GNSS gravi\DATA\BaseStations\TN01\TN0100ESP_R_20241290000_01D_30S_MO.rnx
% inp file  : C:\Users\SallyHenry\Desktop\Sally Internship\GNSS gravi\DATA\BaseStations\TN01\TN0100ESP_R_20241290000_01D_MN.rnx
% inp file  : C:\Users\SallyHenry\Desktop\Sally Internship\GNSS gravi\DATA\aux_files\Survey\IGS0OPSFIN_20241290000_01D_15M_ORB.SP3
% inp file  : C:\Users\SallyHenry\Desktop\Sally Internship\GNSS gravi\DATA\aux_files\Survey\IGS0OPSFIN_20241290000_01D_30S_CLK.CLK
% obs start : 2024/05/08 14:52:01.0 GPST (week2313 312721.0s)
% obs end   : 2024/05/08 15:07:01.0 GPST (week2313 313621.0s)
% pos mode  : Static
% freqs     : L1+L2/E5b
% solution  : Combined-No Phase Reset
% elev mask : 15.0 deg
% dynamics  : on
% tidecorr  : solid
% ionos opt : Estimate TEC
% tropo opt : Estimate ZTD+Grad
% ephemeris : Precise
% navi sys  : GPS GLONASS Galileo QZSS BDS
% amb res   : Fix and Hold
% amb glo   : Fix and Hold
% amb bds   : on
% val thres : 3.0
% antenna1  :                       ( 0.0000  0.0000  1.8000)
% antenna2  :                       ( 0.0000  0.0000  0.0771)
% ref pos   :  28.477186930  -16.241151700    51.7531
%
% (lat/lon/height=WGS84/ellipsoidal,Q=1:fix,2:float,3:sbas,4:dgps,5:single,6:ppp,ns=# of satellites)
%  GPST                  latitude(deg) longitude(deg)  height(m)   Q  ns   sdn(m)   sde(m)   sdu(m)  sdne(m)  sdeu(m)  sdun(m) age(s)  ratio
2024/05/08 14:52:01.000   28.330463384  -16.448136607  1078.3374   2   5   0.0617   0.0669   0.2703  -0.0559   0.1031  -0.1147 -29.00    0.0
2024/05/08 14:52:02.000   28.330463396  -16.448136604  1078.3305   2   5   0.0616   0.0668   0.2702  -0.0558   0.1030  -0.1146 -28.00    0.0
2024/05/08 14:52:03.000   28.330463403  -16.448136593  1078.3256   2   5   0.0616   0.0668   0.2701  -0.0557   0.1029  -0.1145 -27.00    0.0
2024/05/08 14:52:04.000   28.330463409  -16.448136583  1078.3215   2   5   0.0616   0.0667   0.2700  -0.0557   0.1028  -0.1145 -26.00    0.0
2024/05/08 14:52:05.000   28.330463416  -16.448136577  1078.3181   2   5   0.0616   0.0667   0.2699  -0.0556   0.1026  -0.1144 -25.00    0.0
2024/05/08 14:52:06.000   28.330463421  -16.448136574  1078.3155   2   5   0.0615   0.0667   0.2697  -0.0556   0.1025  -0.1143 -24.00    0.0
2024/05/08 14:52:07.000   28.330463424  -16.448136572  1078.3140   2   5   0.0615   0.0666   0.2696  -0.0555   0.1024  -0.1143 -23.00    0.0
2024/05/08 14:52:08.000   28.330463426  -16.448136571  1078.3131   2   5   0.0614   0.0666   0.2694  -0.0554   0.1023  -0.1142 -22.00    0.0
2024/05/08 14:52:09.000   28.330463429  -16.448136571  1078.3114   2   5   0.0614   0.0665   0.2693  -0.0554   0.1022  -0.1141 -21.00    0.0
2024/05/08 14:52:10.000   28.330463433  -16.448136572  1078.3097   2   5   0.0614   0.0665   0.2692  -0.0553   0.1021  -0.1140 -20.00    0.0
2024/05/08 14:52:11.000   28.330463434  -16.448136572  1078.3089   2   5   0.0613   0.0664   0.2690  -0.0553   0.1020  -0.1139 -19.00    0.0
2024/05/08 14:52:12.000   28.330463435  -16.448136573  1078.3079   2   5   0.0613   0.0664   0.2689  -0.0552   0.1019  -0.1138 -18.00    0.0
2024/05/08 14:52:13.000   28.330463438  -16.448136574  1078.3066   2   5   0.0612   0.0664   0.2687  -0.0552   0.1018  -0.1138 -17.00    0.0
2024/05/08 14:52:14.000   28.330463440  -16.448136575  1078.3050   2   5   0.0612   0.0663   0.2686  -0.0551   0.1017  -0.1137 -16.00    0.0
2024/05/08 14:52:15.000   28.330463438  -16.448136574  1078.3047   2   5   0.0612   0.0663   0.2685  -0.0551   0.1017  -0.1136 -15.00    0.0
2024/05/08 14:52:16.000   28.330463438  -16.448136574  1078.3039   2   5   0.0611   0.0662   0.2683  -0.0550   0.1016  -0.1135 -14.00    0.0
2024/05/08 14:52:17.000   28.330463437  -16.448136573  1078.3030   2   5   0.0611   0.0662   0.2682  -0.0550   0.1015  -0.1134 -13.00    0.0
2024/05/08 14:52:18.000   28.330463437  -16.448136572  1078.3019   2   5   0.0610   0.0662   0.2681  -0.0549   0.1014  -0.1134 -12.00    0.0
2024/05/08 14:52:19.000   28.330463434  -16.448136570  1078.3011   2   5   0.0610   0.0661   0.2679  -0.0549   0.1013  -0.1133 -11.00    0.0
2024/05/08 14:52:20.000   28.330463431  -16.448136568  1078.3005   2   5   0.0610   0.0661   0.2678  -0.0549   0.1012  -0.1132 -10.00    0.0
2024/05/08 14:52:21.000   28.330463428  -16.448136566  1078.2999   2   5   0.0609   0.0660   0.2677  -0.0548   0.1011  -0.1131  -9.00    0.0
2024/05/08 14:52:22.000   28.330463424  -16.448136561  1078.2995   2   5   0.0609   0.0660   0.2676  -0.0548   0.1010  -0.1131  -8.00    0.0
2024/05/08 14:52:23.000   28.330463417  -16.448136556  1078.2998   2   5   0.0609   0.0660   0.2675  -0.0547   0.1010  -0.1130  -7.00    0.0
2024/05/08 14:52:24.000   28.330463412  -16.448136551  1078.2991   2   5   0.0608   0.0659   0.2674  -0.0547   0.1009  -0.1130  -6.00    0.0
2024/05/08 14:52:25.000   28.330463402  -16.448136543  1078.2999   2   5   0.0608   0.0659   0.2673  -0.0546   0.1008  -0.1129  -5.00    0.0
2024/05/08 14:52:26.000   28.330463391  -16.448136533  1078.3015   2   5   0.0608   0.0659   0.2672  -0.0546   0.1007  -0.1129  -4.00    0.0
2024/05/08 14:52:27.000   28.330463384  -16.448136525  1078.3001   2   5   0.0608   0.0658   0.2671  -0.0545   0.1006  -0.1128  -3.00    0.0
2024/05/08 14:52:28.000   28.330463371  -16.448136513  1078.3014   2   5   0.0607   0.0658   0.2671  -0.0545   0.1005  -0.1128  -2.00    0.0
2024/05/08 14:52:29.000   28.330463358  -16.448136501  1078.3006   2   5   0.0607   0.0658   0.2671  -0.0545   0.1004  -0.1128  -1.00    0.0
2024/05/08 14:52:30.000   28.330463339  -16.448136485  1078.3048   2   5   0.0607   0.0658   0.2671  -0.0544   0.1004  -0.1128   0.00    0.0
2024/05/08 14:52:31.000   28.330463318  -16.448136468  1078.3081   2   5   0.0607   0.0658   0.2672  -0.0544   0.1003  -0.1128   1.00    0.0
2024/05/08 14:52:32.000   28.330463300  -16.448136453  1078.3098   2   5   0.0607   0.0657   0.2672  -0.0543   0.1002  -0.1128   2.00    0.0
2024/05/08 14:52:33.000   28.330463283  -16.448136439  1078.3113   2   5   0.0607   0.0657   0.2672  -0.0543   0.1001  -0.1128   3.00    0.0
2024/05/08 14:52:34.000   28.330463265  -16.448136424  1078.3141   2   5   0.0607   0.0657   0.2672  -0.0542   0.1000  -0.1127   4.00    0.0
2024/05/08 14:52:35.000   28.330463250  -16.448136412  1078.3165   2   5   0.0607   0.0657   0.2671  -0.0542   0.0999  -0.1127   5.00    0.0
2024/05/08 14:52:36.000   28.330463234  -16.448136399  1078.3211   2   5   0.0607   0.0656   0.2671  -0.0541   0.0999  -0.1127   6.00    0.0
2024/05/08 14:52:37.000   28.330463220  -16.448136388  1078.3254   2   5   0.0607   0.0656   0.2671  -0.0541   0.0998  -0.1126   7.00    0.0
2024/05/08 14:52:38.000   28.330463208  -16.448136378  1078.3294   2   5   0.0606   0.0656   0.2670  -0.0541   0.0997  -0.1126   8.00    0.0
2024/05/08 14:52:39.000   28.330463197  -16.448136369  1078.3329   2   5   0.0606   0.0656   0.2669  -0.0540   0.0997  -0.1126   9.00    0.0
2024/05/08 14:52:40.000   28.330463184  -16.448136359  1078.3375   2   5   0.0606   0.0655   0.2669  -0.0540   0.0996  -0.1125  10.00    0.0
2024/05/08 14:52:41.000   28.330463171  -16.448136349  1078.3420   2   5   0.0606   0.0655   0.2668  -0.0540   0.0995  -0.1125  11.00    0.0
2024/05/08 14:52:42.000   28.330463158  -16.448136339  1078.3467   2   5   0.0605   0.0655   0.2667  -0.0539   0.0995  -0.1124  12.00    0.0
2024/05/08 14:52:43.000   28.330463146  -16.448136328  1078.3512   2   5   0.0605   0.0655   0.2667  -0.0539   0.0994  -0.1124  13.00    0.0
2024/05/08 14:52:44.000   28.330463136  -16.448136318  1078.3549   2   5   0.0605   0.0654   0.2666  -0.0539   0.0993  -0.1123  14.00    0.0
2024/05/08 14:52:45.000   28.330463128  -16.448136312  1078.3579   2   5   0.0605   0.0654   0.2665  -0.0538   0.0993  -0.1123 -15.00    0.0
2024/05/08 14:52:46.000   28.330463119  -16.448136303  1078.3614   2   5   0.0604   0.0654   0.2664  -0.0538   0.0992  -0.1122 -14.00    0.0
2024/05/08 14:52:47.000   28.330463110  -16.448136295  1078.3649   2   5   0.0604   0.0654   0.2664  -0.0538   0.0991  -0.1122 -13.00    0.0
2024/05/08 14:52:48.000   28.330463101  -16.448136287  1078.3684   2   5   0.0604   0.0653   0.2663  -0.0537   0.0991  -0.1121 -12.00    0.0
2024/05/08 14:52:49.000   28.330463092  -16.448136280  1078.3716   2   5   0.0604   0.0653   0.2662  -0.0537   0.0990  -0.1121 -11.00    0.0
2024/05/08 14:52:50.000   28.330463085  -16.448136273  1078.3743   2   5   0.0603   0.0653   0.2661  -0.0537   0.0990  -0.1120 -10.00    0.0
2024/05/08 14:52:51.000   28.330463078  -16.448136269  1078.3769   2   5   0.0603   0.0653   0.2661  -0.0536   0.0989  -0.1120  -9.00    0.0
2024/05/08 14:52:52.000   28.330463070  -16.448136262  1078.3800   2   5   0.0603   0.0652   0.2660  -0.0536   0.0988  -0.1119  -8.00    0.0
2024/05/08 14:52:53.000   28.330463062  -16.448136258  1078.3826   2   5   0.0603   0.0652   0.2659  -0.0536   0.0988  -0.1119  -7.00    0.0
2024/05/08 14:52:54.000   28.330463054  -16.448136254  1078.3858   2   5   0.0603   0.0652   0.2659  -0.0536   0.0987  -0.1119  -6.00    0.0
2024/05/08 14:52:55.000   28.330463042  -16.448136248  1078.3903   2   5   0.0602   0.0652   0.2658  -0.0535   0.0987  -0.1118  -5.00    0.0
2024/05/08 14:52:56.000   28.330463029  -16.448136243  1078.3958   2   5   0.0602   0.0652   0.2658  -0.0535   0.0986  -0.1118  -4.00    0.0
2024/05/08 14:52:57.000   28.330463014  -16.448136238  1078.4009   2   5   0.0602   0.0651   0.2657  -0.0535   0.0985  -0.1118  -3.00    0.0
2024/05/08 14:52:58.000   28.330462997  -16.448136236  1078.4074   2   5   0.0602   0.0651   0.2657  -0.0534   0.0984  -0.1118  -2.00    0.0
2024/05/08 14:52:59.000   28.330462975  -16.448136229  1078.4162   2   5   0.0602   0.0651   0.2657  -0.0534   0.0984  -0.1117  -1.00    0.0
2024/05/08 14:53:00.000   28.330462950  -16.448136226  1078.4270   2   5   0.0602   0.0651   0.2658  -0.0533   0.0983  -0.1118   0.00    0.0
2024/05/08 14:53:01.000   28.330462926  -16.448136224  1078.4353   2   5   0.0602   0.0651   0.2658  -0.0533   0.0982  -0.1118   1.00    0.0
2024/05/08 14:53:02.000   28.330462902  -16.448136223  1078.4437   2   5   0.0602   0.0651   0.2659  -0.0533   0.0982  -0.1118   2.00    0.0
2024/05/08 14:53:03.000   28.330462879  -16.448136223  1078.4522   2   5   0.0602   0.0651   0.2659  -0.0532   0.0981  -0.1118   3.00    0.0
2024/05/08 14:53:04.000   28.330462863  -16.448136226  1078.4584   2   5   0.0602   0.0650   0.2660  -0.0532   0.0980  -0.1118   4.00    0.0
2024/05/08 14:53:05.000   28.330462851  -16.448136227  1078.4629   2   5   0.0602   0.0650   0.2660  -0.0532   0.0979  -0.1118   5.00    0.0
2024/05/08 14:53:06.000   28.330462842  -16.448136229  1078.4662   2   5   0.0602   0.0650   0.2660  -0.0531   0.0979  -0.1118   6.00    0.0
2024/05/08 14:53:07.000   28.330462835  -16.448136233  1078.4689   2   5   0.0602   0.0650   0.2659  -0.0531   0.0978  -0.1118   7.00    0.0
2024/05/08 14:53:08.000   28.330462829  -16.448136234  1078.4717   2   5   0.0602   0.0650   0.2659  -0.0531   0.0978  -0.1117   8.00    0.0
2024/05/08 14:53:09.000   28.330462826  -16.448136237  1078.4734   2   5   0.0602   0.0650   0.2659  -0.0530   0.0977  -0.1117   9.00    0.0
2024/05/08 14:53:10.000   28.330462824  -16.448136241  1078.4743   2   5   0.0602   0.0650   0.2658  -0.0530   0.0977  -0.1117  10.00    0.0
2024/05/08 14:53:11.000   28.330462824  -16.448136245  1078.4741   2   5   0.0601   0.0649   0.2658  -0.0530   0.0976  -0.1116  11.00    0.0
2024/05/08 14:53:12.000   28.330462822  -16.448136248  1078.4745   2   5   0.0601   0.0649   0.2658  -0.0530   0.0976  -0.1116  12.00    0.0
2024/05/08 14:53:13.000   28.330462822  -16.448136252  1078.4748   2   5   0.0601   0.0649   0.2657  -0.0529   0.0975  -0.1116  13.00    0.0
2024/05/08 14:53:14.000   28.330462824  -16.448136257  1078.4744   2   5   0.0601   0.0649   0.2657  -0.0529   0.0975  -0.1115  14.00    0.0
2024/05/08 14:53:15.000   28.330462825  -16.448136262  1078.4740   2   5   0.0601   0.0649   0.2656  -0.0529   0.0974  -0.1115 -15.00    0.0
2024/05/08 14:53:16.000   28.330462827  -16.448136267  1078.4733   2   5   0.0600   0.0648   0.2656  -0.0529   0.0974  -0.1115 -14.00    0.0
2024/05/08 14:53:17.000   28.330462828  -16.448136272  1078.4729   2   5   0.0600   0.0648   0.2655  -0.0529   0.0974  -0.1114 -13.00    0.0
2024/05/08 14:53:18.000   28.330462829  -16.448136278  1078.4727   2   5   0.0600   0.0648   0.2655  -0.0528   0.0973  -0.1114 -12.00    0.0
2024/05/08 14:53:19.000   28.330462829  -16.448136282  1078.4731   2   5   0.0600   0.0648   0.2654  -0.0528   0.0973  -0.1114 -11.00    0.0
2024/05/08 14:53:20.000   28.330462830  -16.448136289  1078.4727   2   5   0.0600   0.0648   0.2654  -0.0528   0.0972  -0.1113 -10.00    0.0
2024/05/08 14:53:21.000   28.330462829  -16.448136292  1078.4737   2   5   0.0600   0.0648   0.2653  -0.0528   0.0972  -0.1113  -9.00    0.0
2024/05/08 14:53:22.000   28.330462827  -16.448136297  1078.4752   2   5   0.0599   0.0648   0.2653  -0.0527   0.0971  -0.1113  -8.00    0.0
2024/05/08 14:53:23.000   28.330462824  -16.448136303  1078.4767   2   5   0.0599   0.0647   0.2652  -0.0527   0.0971  -0.1112  -7.00    0.0
2024/05/08 14:53:24.000   28.330462820  -16.448136307  1078.4794   2   5   0.0599   0.0647   0.2652  -0.0527   0.0970  -0.1112  -6.00    0.0
2024/05/08 14:53:25.000   28.330462813  -16.448136310  1078.4828   2   5   0.0599   0.0647   0.2651  -0.0527   0.0970  -0.1112  -5.00    0.0
2024/05/08 14:53:26.000   28.330462805  -16.448136315  1078.4876   2   5   0.0599   0.0647   0.2651  -0.0526   0.0969  -0.1112  -4.00    0.0
2024/05/08 14:53:27.000   28.330462795  -16.448136320  1078.4932   2   5   0.0599   0.0647   0.2650  -0.0526   0.0968  -0.1111  -3.00    0.0
2024/05/08 14:53:28.000   28.330462784  -16.448136326  1078.4996   2   5   0.0599   0.0647   0.2650  -0.0526   0.0968  -0.1111  -2.00    0.0
2024/05/08 14:53:29.000   28.330462768  -16.448136332  1078.5078   2   5   0.0599   0.0647   0.2650  -0.0525   0.0967  -0.1111  -1.00    0.0
2024/05/08 14:53:30.000   28.330462751  -16.448136341  1078.5165   2   5   0.0599   0.0647   0.2650  -0.0525   0.0966  -0.1111   0.00    0.0
2024/05/08 14:53:31.000   28.330462729  -16.448136346  1078.5271   2   5   0.0599   0.0647   0.2651  -0.0525   0.0966  -0.1111   1.00    0.0
2024/05/08 14:53:32.000   28.330462711  -16.448136351  1078.5367   2   5   0.0599   0.0647   0.2651  -0.0524   0.0965  -0.1112   2.00    0.0
2024/05/08 14:53:33.000   28.330462694  -16.448136355  1078.5440   2   5   0.0599   0.0647   0.2651  -0.0524   0.0964  -0.1112   3.00    0.0
2024/05/08 14:53:34.000   28.330462682  -16.448136355  1078.5496   2   5   0.0599   0.0646   0.2652  -0.0524   0.0964  -0.1112   4.00    0.0
2024/05/08 14:53:35.000   28.330462670  -16.448136354  1078.5556   2   5   0.0599   0.0646   0.2652  -0.0523   0.0963  -0.1112   5.00    0.0
2024/05/08 14:53:36.000   28.330462660  -16.448136355  1078.5603   2   5   0.0599   0.0646   0.2652  -0.0523   0.0963  -0.1111   6.00    0.0
2024/05/08 14:53:37.000   28.330462651  -16.448136354  1078.5646   2   5   0.0599   0.0646   0.2651  -0.0523   0.0962  -0.1111   7.00    0.0
2024/05/08 14:53:38.000   28.330462644  -16.448136351  1078.5678   2   5   0.0599   0.0646   0.2651  -0.0523   0.0962  -0.1111   8.00    0.0
2024/05/08 14:53:39.000   28.330462637  -16.448136351  1078.5707   2   5   0.0599   0.0646   0.2651  -0.0523   0.0961  -0.1111   9.00    0.0
2024/05/08 14:53:40.000   28.330462632  -16.448136351  1078.5727   2   5   0.0599   0.0646   0.2651  -0.0522   0.0961  -0.1111  10.00    0.0
2024/05/08 14:53:41.000   28.330462627  -16.448136349  1078.5749   2   5   0.0598   0.0646   0.2650  -0.0522   0.0961  -0.1110  11.00    0.0
2024/05/08 14:53:42.000   28.330462622  -16.448136348  1078.5768   2   5   0.0598   0.0646   0.2650  -0.0522   0.0960  -0.1110  12.00    0.0
2024/05/08 14:53:43.000   28.330462617  -16.448136346  1078.5788   2   5   0.0598   0.0646   0.2650  -0.0522   0.0960  -0.1110  13.00    0.0
2024/05/08 14:53:44.000   28.330462612  -16.448136344  1078.5804   2   5   0.0598   0.0645   0.2649  -0.0522   0.0959  -0.1110  14.00    0.0
2024/05/08 14:53:45.000   28.330462608  -16.448136342  1078.5820   2   5   0.0598   0.0645   0.2649  -0.0521   0.0959  -0.1109 -15.00    0.0
2024/05/08 14:53:46.000   28.330462604  -16.448136341  1078.5834   2   5   0.0598   0.0645   0.2649  -0.0521   0.0959  -0.1109 -14.00    0.0
2024/05/08 14:53:47.000   28.330462599  -16.448136340  1078.5852   2   5   0.0598   0.0645   0.2648  -0.0521   0.0958  -0.1109 -13.00    0.0
2024/05/08 14:53:48.000   28.330462595  -16.448136337  1078.5871   2   5   0.0598   0.0645   0.2648  -0.0521   0.0958  -0.1109 -12.00    0.0
2024/05/08 14:53:49.000   28.330462591  -16.448136336  1078.5885   2   5   0.0597   0.0645   0.2648  -0.0521   0.0958  -0.1108 -11.00    0.0
2024/05/08 14:53:50.000   28.330462586  -16.448136333  1078.5908   2   5   0.0597   0.0645   0.2647  -0.0521   0.0957  -0.1108 -10.00    0.0
2024/05/08 14:53:51.000   28.330462581  -16.448136330  1078.5929   2   5   0.0597   0.0645   0.2647  -0.0520   0.0957  -0.1108  -9.00    0.0
2024/05/08 14:53:52.000   28.330462575  -16.448136328  1078.5956   2   5   0.0597   0.0645   0.2646  -0.0520   0.0956  -0.1108  -8.00    0.0
2024/05/08 14:53:53.000   28.330462568  -16.448136325  1078.5989   2   5   0.0597   0.0644   0.2646  -0.0520   0.0956  -0.1107  -7.00    0.0
2024/05/08 14:53:54.000   28.330462563  -16.448136323  1078.6020   2   5   0.0597   0.0644   0.2645  -0.0520   0.0956  -0.1107  -6.00    0.0
2024/05/08 14:53:55.000   28.330462554  -16.448136319  1078.6072   2   5   0.0597   0.0644   0.2645  -0.0520   0.0955  -0.1107  -5.00    0.0
2024/05/08 14:53:56.000   28.330462543  -16.448136315  1078.6137   2   5   0.0597   0.0644   0.2644  -0.0519   0.0955  -0.1107  -4.00    0.0
2024/05/08 14:53:57.000   28.330462532  -16.448136310  1078.6212   2   5   0.0597   0.0644   0.2643  -0.0519   0.0954  -0.1106  -3.00    0.0
2024/05/08 14:53:58.000   28.330462518  -16.448136305  1078.6308   2   5   0.0597   0.0644   0.2643  -0.0519   0.0953  -0.1106  -2.00    0.0
2024/05/08 14:53:59.000   28.330462507  -16.448136302  1078.6381   2   5   0.0597   0.0644   0.2642  -0.0518   0.0953  -0.1106  -1.00    0.0
2024/05/08 14:54:00.000   28.330462487  -16.448136298  1078.6502   2   5   0.0597   0.0644   0.2643  -0.0518   0.0952  -0.1106   0.00    0.0
2024/05/08 14:54:01.000   28.330462469  -16.448136292  1078.6607   2   5   0.0597   0.0644   0.2643  -0.0518   0.0951  -0.1106   1.00    0.0
2024/05/08 14:54:02.000   28.330462454  -16.448136287  1078.6698   2   5   0.0597   0.0644   0.2643  -0.0517   0.0950  -0.1106   2.00    0.0
2024/05/08 14:54:03.000   28.330462440  -16.448136283  1078.6778   2   5   0.0597   0.0644   0.2643  -0.0517   0.0950  -0.1106   3.00    0.0
2024/05/08 14:54:04.000   28.330462432  -16.448136281  1078.6833   2   5   0.0597   0.0644   0.2643  -0.0517   0.0949  -0.1106   4.00    0.0
2024/05/08 14:54:05.000   28.330462424  -16.448136278  1078.6880   2   5   0.0597   0.0644   0.2643  -0.0517   0.0949  -0.1106   5.00    0.0
2024/05/08 14:54:06.000   28.330462417  -16.448136278  1078.6924   2   5   0.0597   0.0644   0.2643  -0.0516   0.0948  -0.1106   6.00    0.0
2024/05/08 14:54:07.000   28.330462412  -16.448136277  1078.6953   2   5   0.0597   0.0644   0.2643  -0.0516   0.0948  -0.1106   7.00    0.0
2024/05/08 14:54:08.000   28.330462410  -16.448136279  1078.6963   2   5   0.0597   0.0644   0.2643  -0.0516   0.0947  -0.1106   8.00    0.0
2024/05/08 14:54:09.000   28.330462405  -16.448136278  1078.6986   2   5   0.0596   0.0644   0.2643  -0.0516   0.0947  -0.1106   9.00    0.0
2024/05/08 14:54:10.000   28.330462402  -16.448136279  1078.7006   2   5   0.0596   0.0644   0.2642  -0.0516   0.0947  -0.1105  10.00    0.0
2024/05/08 14:54:11.000   28.330462400  -16.448136279  1078.7015   2   5   0.0596   0.0644   0.2642  -0.0515   0.0946  -0.1105  11.00    0.0
2024/05/08 14:54:12.000   28.330462398  -16.448136279  1078.7022   2   5   0.0596   0.0643   0.2642  -0.0515   0.0946  -0.1105  12.00    0.0
2024/05/08 14:54:13.000   28.330462398  -16.448136281  1078.7018   2   5   0.0596   0.0643   0.2642  -0.0515   0.0946  -0.1105  13.00    0.0
2024/05/08 14:54:14.000   28.330462399  -16.448136283  1078.7015   2   5   0.0596   0.0643   0.2641  -0.0515   0.0945  -0.1105  14.00    0.0
2024/05/08 14:54:15.000   28.330462399  -16.448136283  1078.7014   2   5   0.0596   0.0643   0.2641  -0.0515   0.0945  -0.1104 -15.00    0.0
2024/05/08 14:54:16.000   28.330462399  -16.448136284  1078.7014   2   5   0.0596   0.0643   0.2641  -0.0515   0.0945  -0.1104 -14.00    0.0
2024/05/08 14:54:17.000   28.330462400  -16.448136285  1078.7010   2   5   0.0596   0.0643   0.2640  -0.0515   0.0945  -0.1104 -13.00    0.0
2024/05/08 14:54:18.000   28.330462400  -16.448136286  1078.7010   2   5   0.0596   0.0643   0.2640  -0.0514   0.0944  -0.1104 -12.00    0.0
2024/05/08 14:54:19.000   28.330462402  -16.448136288  1078.7004   2   5   0.0595   0.0643   0.2640  -0.0514   0.0944  -0.1103 -11.00    0.0
2024/05/08 14:54:20.000   28.330462403  -16.448136288  1078.7004   2   5   0.0595   0.0643   0.2639  -0.0514   0.0944  -0.1103 -10.00    0.0
2024/05/08 14:54:21.000   28.330462404  -16.448136289  1078.7005   2   5   0.0595   0.0643   0.2639  -0.0514   0.0943  -0.1103  -9.00    0.0
2024/05/08 14:54:22.000   28.330462404  -16.448136289  1078.7012   2   5   0.0595   0.0643   0.2638  -0.0514   0.0943  -0.1103  -8.00    0.0
2024/05/08 14:54:23.000   28.330462403  -16.448136289  1078.7022   2   5   0.0595   0.0643   0.2638  -0.0514   0.0943  -0.1103  -7.00    0.0
2024/05/08 14:54:24.000   28.330462404  -16.448136291  1078.7024   2   5   0.0595   0.0643   0.2637  -0.0513   0.0942  -0.1102  -6.00    0.0
2024/05/08 14:54:25.000   28.330462402  -16.448136290  1078.7044   2   5   0.0595   0.0642   0.2637  -0.0513   0.0942  -0.1102  -5.00    0.0
2024/05/08 14:54:26.000   28.330462398  -16.448136289  1078.7077   2   5   0.0595   0.0642   0.2636  -0.0513   0.0941  -0.1102  -4.00    0.0
2024/05/08 14:54:27.000   28.330462396  -16.448136288  1078.7100   2   5   0.0595   0.0642   0.2635  -0.0513   0.0940  -0.1101  -3.00    0.0
2024/05/08 14:54:28.000   28.330462388  -16.448136284  1078.7157   2   5   0.0595   0.0642   0.2634  -0.0513   0.0940  -0.1101  -2.00    0.0
2024/05/08 14:54:29.000   28.330462379  -16.448136281  1078.7213   2   5   0.0595   0.0642   0.2634  -0.0512   0.0939  -0.1101  -1.00    0.0
2024/05/08 14:54:30.000   28.330462373  -16.448136273  1078.7269   2   5   0.0595   0.0642   0.2634  -0.0512   0.0938  -0.1101   0.00    0.0
2024/05/08 14:54:31.000   28.330462369  -16.448136267  1078.7314   2   5   0.0595   0.0642   0.2633  -0.0512   0.0938  -0.1101   1.00    0.0
2024/05/08 14:54:32.000   28.330462366  -16.448136261  1078.7334   2   5   0.0595   0.0643   0.2633  -0.0511   0.0937  -0.1101   2.00    0.0
2024/05/08 14:54:33.000   28.330462364  -16.448136257  1078.7357   2   5   0.0595   0.0643   0.2633  -0.0511   0.0936  -0.1101   3.00    0.0
2024/05/08 14:54:34.000   28.330462361  -16.448136253  1078.7378   2   5   0.0595   0.0643   0.2633  -0.0511   0.0936  -0.1101   4.00    0.0
2024/05/08 14:54:35.000   28.330462360  -16.448136252  1078.7387   2   5   0.0595   0.0643   0.2633  -0.0510   0.0935  -0.1101   5.00    0.0
2024/05/08 14:54:36.000   28.330462359  -16.448136251  1078.7386   2   5   0.0595   0.0643   0.2633  -0.0510   0.0935  -0.1101   6.00    0.0
2024/05/08 14:54:37.000   28.330462357  -16.448136249  1078.7394   2   5   0.0595   0.0642   0.2633  -0.0510   0.0934  -0.1100   7.00    0.0
2024/05/08 14:54:38.000   28.330462358  -16.448136250  1078.7389   2   5   0.0595   0.0642   0.2633  -0.0510   0.0934  -0.1100   8.00    0.0
2024/05/08 14:54:39.000   28.330462357  -16.448136248  1078.7387   2   5   0.0594   0.0642   0.2633  -0.0510   0.0934  -0.1100   9.00    0.0
2024/05/08 14:54:40.000   28.330462358  -16.448136249  1078.7375   2   5   0.0594   0.0642   0.2633  -0.0510   0.0933  -0.1100  10.00    0.0
2024/05/08 14:54:41.000   28.330462359  -16.448136250  1078.7365   2   5   0.0594   0.0642   0.2632  -0.0509   0.0933  -0.1100  11.00    0.0
2024/05/08 14:54:42.000   28.330462358  -16.448136250  1078.7361   2   5   0.0594   0.0642   0.2632  -0.0509   0.0933  -0.1100  12.00    0.0
2024/05/08 14:54:43.000   28.330462358  -16.448136251  1078.7359   2   5   0.0594   0.0642   0.2632  -0.0509   0.0932  -0.1100  13.00    0.0
2024/05/08 14:54:44.000   28.330462359  -16.448136253  1078.7350   2   5   0.0594   0.0642   0.2632  -0.0509   0.0932  -0.1099  14.00    0.0
2024/05/08 14:54:45.000   28.330462359  -16.448136253  1078.7345   2   5   0.0594   0.0642   0.2631  -0.0509   0.0932  -0.1099 -15.00    0.0
2024/05/08 14:54:46.000   28.330462361  -16.448136255  1078.7330   2   5   0.0594   0.0642   0.2631  -0.0509   0.0932  -0.1099 -14.00    0.0
2024/05/08 14:54:47.000   28.330462360  -16.448136255  1078.7326   2   5   0.0594   0.0642   0.2631  -0.0509   0.0931  -0.1099 -13.00    0.0
2024/05/08 14:54:48.000   28.330462360  -16.448136256  1078.7324   2   5   0.0594   0.0642   0.2631  -0.0509   0.0931  -0.1099 -12.00    0.0
2024/05/08 14:54:49.000   28.330462359  -16.448136256  1078.7326   2   5   0.0594   0.0642   0.2630  -0.0509   0.0931  -0.1098 -11.00    0.0
2024/05/08 14:54:50.000   28.330462358  -16.448136256  1078.7329   2   5   0.0594   0.0642   0.2630  -0.0508   0.0931  -0.1098 -10.00    0.0
2024/05/08 14:54:51.000   28.330462356  -16.448136256  1078.7334   2   5   0.0593   0.0642   0.2629  -0.0508   0.0930  -0.1098  -9.00    0.0
2024/05/08 14:54:52.000   28.330462357  -16.448136257  1078.7323   2   5   0.0593   0.0642   0.2629  -0.0508   0.0930  -0.1098  -8.00    0.0
2024/05/08 14:54:53.000   28.330462356  -16.448136256  1078.7323   2   5   0.0593   0.0642   0.2629  -0.0508   0.0930  -0.1098  -7.00    0.0
2024/05/08 14:54:54.000   28.330462352  -16.448136254  1078.7343   2   5   0.0593   0.0642   0.2628  -0.0508   0.0929  -0.1097  -6.00    0.0
2024/05/08 14:54:55.000   28.330462346  -16.448136252  1078.7367   2   5   0.0593   0.0642   0.2627  -0.0508   0.0929  -0.1097  -5.00    0.0
2024/05/08 14:54:56.000   28.330462338  -16.448136250  1078.7404   2   5   0.0593   0.0642   0.2626  -0.0507   0.0928  -0.1097  -4.00    0.0
2024/05/08 14:54:57.000   28.330462328  -16.448136247  1078.7451   2   5   0.0593   0.0641   0.2626  -0.0507   0.0928  -0.1096  -3.00    0.0
2024/05/08 14:54:58.000   28.330462313  -16.448136244  1078.7516   2   5   0.0593   0.0642   0.2625  -0.0507   0.0927  -0.1096  -2.00    0.0
2024/05/08 14:54:59.000   28.330462295  -16.448136239  1078.7612   2   5   0.0593   0.0642   0.2624  -0.0507   0.0926  -0.1096  -1.00    0.0
2024/05/08 14:55:00.000   28.330462277  -16.448136238  1078.7686   2   5   0.0593   0.0642   0.2623  -0.0506   0.0926  -0.1096   0.00    0.0
2024/05/08 14:55:01.000   28.330462258  -16.448136235  1078.7781   2   5   0.0593   0.0642   0.2623  -0.0506   0.0925  -0.1096   1.00    0.0
2024/05/08 14:55:02.000   28.330462242  -16.448136232  1078.7866   2   5   0.0593   0.0642   0.2623  -0.0506   0.0924  -0.1096   2.00    0.0
2024/05/08 14:55:03.000   28.330462226  -16.448136229  1078.7943   2   5   0.0593   0.0642   0.2623  -0.0505   0.0923  -0.1095   3.00    0.0
2024/05/08 14:55:04.000   28.330462212  -16.448136228  1078.8016   2   5   0.0593   0.0642   0.2623  -0.0505   0.0923  -0.1095   4.00    0.0
2024/05/08 14:55:05.000   28.330462197  -16.448136227  1078.8093   2   5   0.0593   0.0642   0.2623  -0.0505   0.0922  -0.1095   5.00    0.0
2024/05/08 14:55:06.000   28.330462185  -16.448136225  1078.8157   2   5   0.0593   0.0642   0.2623  -0.0505   0.0922  -0.1095   6.00    0.0
2024/05/08 14:55:07.000   28.330462175  -16.448136224  1078.8211   2   5   0.0593   0.0642   0.2622  -0.0505   0.0922  -0.1095   7.00    0.0
2024/05/08 14:55:08.000   28.330462167  -16.448136222  1078.8259   2   5   0.0593   0.0642   0.2622  -0.0504   0.0921  -0.1095   8.00    0.0
2024/05/08 14:55:09.000   28.330462160  -16.448136219  1078.8302   2   5   0.0593   0.0642   0.2622  -0.0504   0.0921  -0.1095   9.00    0.0
2024/05/08 14:55:10.000   28.330462152  -16.448136217  1078.8343   2   5   0.0593   0.0642   0.2622  -0.0504   0.0921  -0.1095  10.00    0.0
2024/05/08 14:55:11.000   28.330462145  -16.448136215  1078.8380   2   5   0.0592   0.0642   0.2622  -0.0504   0.0920  -0.1095  11.00    0.0
2024/05/08 14:55:12.000   28.330462137  -16.448136210  1078.8422   2   5   0.0592   0.0642   0.2622  -0.0504   0.0920  -0.1094  12.00    0.0
2024/05/08 14:55:13.000   28.330462130  -16.448136208  1078.8458   2   5   0.0592   0.0642   0.2621  -0.0504   0.0920  -0.1094  13.00    0.0
2024/05/08 14:55:14.000   28.330462124  -16.448136206  1078.8489   2   5   0.0592   0.0642   0.2621  -0.0504   0.0920  -0.1094  14.00    0.0
2024/05/08 14:55:15.000   28.330462118  -16.448136203  1078.8519   2   5   0.0592   0.0642   0.2621  -0.0504   0.0919  -0.1094 -15.00    0.0
2024/05/08 14:55:16.000   28.330462113  -16.448136201  1078.8546   2   5   0.0592   0.0642   0.2621  -0.0504   0.0919  -0.1094 -14.00    0.0
2024/05/08 14:55:17.000   28.330462108  -16.448136199  1078.8575   2   5   0.0592   0.0641   0.2620  -0.0503   0.0919  -0.1094 -13.00    0.0
2024/05/08 14:55:18.000   28.330462101  -16.448136196  1078.8609   2   5   0.0592   0.0641   0.2620  -0.0503   0.0919  -0.1093 -12.00    0.0
2024/05/08 14:55:19.000   28.330462093  -16.448136192  1078.8654   2   5   0.0592   0.0641   0.2620  -0.0503   0.0919  -0.1093 -11.00    0.0
2024/05/08 14:55:20.000   28.330462084  -16.448136188  1078.8702   2   5   0.0592   0.0641   0.2619  -0.0503   0.0918  -0.1093 -10.00    0.0
2024/05/08 14:55:21.000   28.330462076  -16.448136184  1078.8749   2   5   0.0592   0.0641   0.2619  -0.0503   0.0918  -0.1093  -9.00    0.0
2024/05/08 14:55:22.000   28.330462069  -16.448136181  1078.8795   2   5   0.0592   0.0641   0.2619  -0.0503   0.0918  -0.1093  -8.00    0.0
2024/05/08 14:55:23.000   28.330462059  -16.448136177  1078.8853   2   5   0.0592   0.0641   0.2618  -0.0503   0.0917  -0.1092  -7.00    0.0
2024/05/08 14:55:24.000   28.330462049  -16.448136173  1078.8916   2   5   0.0591   0.0641   0.2617  -0.0503   0.0917  -0.1092  -6.00    0.0
2024/05/08 14:55:25.000   28.330462037  -16.448136168  1078.8994   2   5   0.0591   0.0641   0.2617  -0.0502   0.0917  -0.1092  -5.00    0.0
2024/05/08 14:55:26.000   28.330462024  -16.448136164  1078.9086   2   5   0.0591   0.0641   0.2616  -0.0502   0.0916  -0.1092  -4.00    0.0
2024/05/08 14:55:27.000   28.330462007  -16.448136159  1078.9198   2   5   0.0591   0.0641   0.2615  -0.0502   0.0916  -0.1091  -3.00    0.0
2024/05/08 14:55:28.000   28.330461987  -16.448136154  1078.9336   2   5   0.0591   0.0641   0.2614  -0.0502   0.0915  -0.1091  -2.00    0.0
2024/05/08 14:55:29.000   28.330461966  -16.448136150  1078.9477   2   5   0.0591   0.0641   0.2612  -0.0502   0.0914  -0.1090  -1.00    0.0
2024/05/08 14:55:30.000   28.330461942  -16.448136147  1078.9636   2   5   0.0591   0.0641   0.2612  -0.0501   0.0914  -0.1090   0.00    0.0
2024/05/08 14:55:31.000   28.330461916  -16.448136143  1078.9814   2   5   0.0591   0.0641   0.2611  -0.0501   0.0913  -0.1090   1.00    0.0
2024/05/08 14:55:32.000   28.330461893  -16.448136141  1078.9973   2   5   0.0591   0.0642   0.2611  -0.0501   0.0912  -0.1090   2.00    0.0
2024/05/08 14:55:33.000   28.330461872  -16.448136138  1079.0107   2   5   0.0591   0.0642   0.2611  -0.0500   0.0912  -0.1090   3.00    0.0
2024/05/08 14:55:34.000   28.330461854  -16.448136136  1079.0225   2   5   0.0591   0.0642   0.2610  -0.0500   0.0911  -0.1090   4.00    0.0
2024/05/08 14:55:35.000   28.330461838  -16.448136134  1079.0319   2   5   0.0591   0.0642   0.2610  -0.0500   0.0911  -0.1089   5.00    0.0
2024/05/08 14:55:36.000   28.330461823  -16.448136131  1079.0403   2   5   0.0591   0.0642   0.2610  -0.0500   0.0910  -0.1089   6.00    0.0
2024/05/08 14:55:37.000   28.330461811  -16.448136129  1079.0466   2   5   0.0591   0.0642   0.2610  -0.0500   0.0910  -0.1089   7.00    0.0
2024/05/08 14:55:38.000   28.330461800  -16.448136126  1079.0525   2   5   0.0591   0.0642   0.2610  -0.0500   0.0910  -0.1089   8.00    0.0
2024/05/08 14:55:39.000   28.330461793  -16.448136124  1079.0567   2   5   0.0591   0.0642   0.2609  -0.0500   0.0909  -0.1089   9.00    0.0
2024/05/08 14:55:40.000   28.330461786  -16.448136122  1079.0613   2   5   0.0590   0.0642   0.2609  -0.0499   0.0909  -0.1089  10.00    0.0
2024/05/08 14:55:41.000   28.330461778  -16.448136120  1079.0659   2   5   0.0590   0.0642   0.2609  -0.0499   0.0909  -0.1089  11.00    0.0
2024/05/08 14:55:42.000   28.330461770  -16.448136117  1079.0700   2   5   0.0590   0.0642   0.2609  -0.0499   0.0909  -0.1088  12.00    0.0
2024/05/08 14:55:43.000   28.330461763  -16.448136115  1079.0737   2   5   0.0590   0.0642   0.2608  -0.0499   0.0909  -0.1088  13.00    0.0
2024/05/08 14:55:44.000   28.330461757  -16.448136112  1079.0773   2   5   0.0590   0.0642   0.2608  -0.0499   0.0908  -0.1088  14.00    0.0
2024/05/08 14:55:45.000   28.330461751  -16.448136109  1079.0801   2   5   0.0590   0.0642   0.2608  -0.0499   0.0908  -0.1088 -15.00    0.0
2024/05/08 14:55:46.000   28.330461746  -16.448136107  1079.0829   2   5   0.0590   0.0642   0.2608  -0.0499   0.0908  -0.1088 -14.00    0.0
2024/05/08 14:55:47.000   28.330461742  -16.448136105  1079.0851   2   5   0.0590   0.0642   0.2608  -0.0499   0.0908  -0.1088 -13.00    0.0
2024/05/08 14:55:48.000   28.330461736  -16.448136102  1079.0880   2   5   0.0590   0.0642   0.2607  -0.0499   0.0908  -0.1088 -12.00    0.0
2024/05/08 14:55:49.000   28.330461731  -16.448136100  1079.0905   2   5   0.0590   0.0642   0.2607  -0.0499   0.0907  -0.1087 -11.00    0.0
2024/05/08 14:55:50.000   28.330461727  -16.448136098  1079.0930   2   5   0.0590   0.0641   0.2607  -0.0499   0.0907  -0.1087 -10.00    0.0
2024/05/08 14:55:51.000   28.330461722  -16.448136095  1079.0956   2   5   0.0590   0.0641   0.2606  -0.0498   0.0907  -0.1087  -9.00    0.0
2024/05/08 14:55:52.000   28.330461716  -16.448136092  1079.0983   2   5   0.0590   0.0641   0.2606  -0.0498   0.0907  -0.1087  -8.00    0.0
2024/05/08 14:55:53.000   28.330461712  -16.448136089  1079.1006   2   5   0.0590   0.0641   0.2605  -0.0498   0.0906  -0.1087  -7.00    0.0
2024/05/08 14:55:54.000   28.330461707  -16.448136087  1079.1029   2   5   0.0589   0.0641   0.2604  -0.0498   0.0906  -0.1086  -6.00    0.0
2024/05/08 14:55:55.000   28.330461703  -16.448136083  1079.1062   2   5   0.0589   0.0641   0.2604  -0.0498   0.0906  -0.1086  -5.00    0.0
2024/05/08 14:55:56.000   28.330461700  -16.448136081  1079.1084   2   5   0.0589   0.0641   0.2603  -0.0498   0.0905  -0.1086  -4.00    0.0
2024/05/08 14:55:57.000   28.330461695  -16.448136079  1079.1105   2   5   0.0589   0.0641   0.2602  -0.0498   0.0905  -0.1085  -3.00    0.0
2024/05/08 14:55:58.000   28.330461693  -16.448136079  1079.1115   2   5   0.0589   0.0641   0.2600  -0.0497   0.0904  -0.1085  -2.00    0.0
2024/05/08 14:55:59.000   28.330461691  -16.448136079  1079.1117   2   5   0.0589   0.0642   0.2599  -0.0497   0.0904  -0.1084  -1.00    0.0
2024/05/08 14:56:00.000   28.330461686  -16.448136075  1079.1150   2   5   0.0589   0.0642   0.2598  -0.0497   0.0903  -0.1084   0.00    0.0
2024/05/08 14:56:01.000   28.330461682  -16.448136071  1079.1186   2   5   0.0589   0.0642   0.2597  -0.0497   0.0902  -0.1084   1.00    0.0
2024/05/08 14:56:02.000   28.330461681  -16.448136067  1079.1186   2   5   0.0589   0.0642   0.2597  -0.0496   0.0902  -0.1083   2.00    0.0
2024/05/08 14:56:03.000   28.330461680  -16.448136061  1079.1187   2   5   0.0589   0.0642   0.2597  -0.0496   0.0901  -0.1083   3.00    0.0
2024/05/08 14:56:04.000   28.330461678  -16.448136055  1079.1198   2   5   0.0589   0.0642   0.2596  -0.0496   0.0901  -0.1083   4.00    0.0
2024/05/08 14:56:05.000   28.330461676  -16.448136051  1079.1208   2   5   0.0589   0.0642   0.2596  -0.0496   0.0900  -0.1083   5.00    0.0
2024/05/08 14:56:06.000   28.330461672  -16.448136048  1079.1222   2   5   0.0589   0.0642   0.2596  -0.0496   0.0900  -0.1083   6.00    0.0
2024/05/08 14:56:07.000   28.330461670  -16.448136046  1079.1231   2   5   0.0588   0.0642   0.2595  -0.0496   0.0900  -0.1083   7.00    0.0
2024/05/08 14:56:08.000   28.330461666  -16.448136042  1079.1242   2   5   0.0588   0.0642   0.2595  -0.0495   0.0900  -0.1082   8.00    0.0
2024/05/08 14:56:09.000   28.330461663  -16.448136039  1079.1252   2   5   0.0588   0.0642   0.2595  -0.0495   0.0899  -0.1082   9.00    0.0
2024/05/08 14:56:10.000   28.330461662  -16.448136037  1079.1259   2   5   0.0588   0.0642   0.2595  -0.0495   0.0899  -0.1082  10.00    0.0
2024/05/08 14:56:11.000   28.330461660  -16.448136034  1079.1268   2   5   0.0588   0.0642   0.2595  -0.0495   0.0899  -0.1082  11.00    0.0
2024/05/08 14:56:12.000   28.330461659  -16.448136031  1079.1279   2   5   0.0588   0.0642   0.2594  -0.0495   0.0899  -0.1082  12.00    0.0
2024/05/08 14:56:13.000   28.330461656  -16.448136029  1079.1292   2   5   0.0588   0.0642   0.2594  -0.0495   0.0899  -0.1082  13.00    0.0
2024/05/08 14:56:14.000   28.330461653  -16.448136026  1079.1309   2   5   0.0588   0.0642   0.2594  -0.0495   0.0898  -0.1082  14.00    0.0
2024/05/08 14:56:15.000   28.330461652  -16.448136023  1079.1318   2   5   0.0588   0.0642   0.2594  -0.0495   0.0898  -0.1082 -15.00    0.0
2024/05/08 14:56:16.000   28.330461650  -16.448136020  1079.1332   2   5   0.0588   0.0642   0.2594  -0.0495   0.0898  -0.1081 -14.00    0.0
2024/05/08 14:56:17.000   28.330461649  -16.448136018  1079.1338   2   5   0.0588   0.0642   0.2593  -0.0495   0.0898  -0.1081 -13.00    0.0
2024/05/08 14:56:18.000   28.330461647  -16.448136015  1079.1348   2   5   0.0588   0.0642   0.2593  -0.0495   0.0898  -0.1081 -12.00    0.0
2024/05/08 14:56:19.000   28.330461646  -16.448136012  1079.1353   2   5   0.0588   0.0642   0.2593  -0.0495   0.0898  -0.1081 -11.00    0.0
2024/05/08 14:56:20.000   28.330461647  -16.448136010  1079.1348   2   5   0.0588   0.0642   0.2592  -0.0494   0.0897  -0.1081 -10.00    0.0
2024/05/08 14:56:21.000   28.330461647  -16.448136007  1079.1343   2   5   0.0588   0.0642   0.2592  -0.0494   0.0897  -0.1081  -9.00    0.0
2024/05/08 14:56:22.000   28.330461649  -16.448136005  1079.1331   2   5   0.0588   0.0642   0.2591  -0.0494   0.0897  -0.1080  -8.00    0.0
2024/05/08 14:56:23.000   28.330461652  -16.448136002  1079.1315   2   5   0.0587   0.0642   0.2591  -0.0494   0.0897  -0.1080  -7.00    0.0
2024/05/08 14:56:24.000   28.330461657  -16.448136000  1079.1286   2   5   0.0587   0.0642   0.2590  -0.0494   0.0896  -0.1080  -6.00    0.0
2024/05/08 14:56:25.000   28.330461662  -16.448135997  1079.1256   2   5   0.0587   0.0642   0.2590  -0.0494   0.0896  -0.1080  -5.00    0.0
2024/05/08 14:56:26.000   28.330461669  -16.448135994  1079.1219   2   5   0.0587   0.0642   0.2589  -0.0494   0.0896  -0.1079  -4.00    0.0
2024/05/08 14:56:27.000   28.330461680  -16.448135993  1079.1158   2   5   0.0587   0.0642   0.2587  -0.0494   0.0895  -0.1079  -3.00    0.0
2024/05/08 14:56:28.000   28.330461689  -16.448135990  1079.1098   2   5   0.0587   0.0642   0.2586  -0.0494   0.0895  -0.1078  -2.00    0.0
2024/05/08 14:56:29.000   28.330461705  -16.448135988  1079.1015   2   5   0.0587   0.0642   0.2585  -0.0493   0.0894  -0.1078  -1.00    0.0
2024/05/08 14:56:30.000   28.330461719  -16.448135985  1079.0951   2   5   0.0587   0.0642   0.2584  -0.0493   0.0894  -0.1078   0.00    0.0
2024/05/08 14:56:31.000   28.330461730  -16.448135985  1079.0918   2   5   0.0587   0.0642   0.2583  -0.0493   0.0893  -0.1077   1.00    0.0
2024/05/08 14:56:32.000   28.330461740  -16.448135984  1079.0884   2   5   0.0586   0.0643   0.2583  -0.0493   0.0893  -0.1077   2.00    0.0
2024/05/08 14:56:33.000   28.330461750  -16.448135979  1079.0851   2   5   0.0586   0.0643   0.2582  -0.0493   0.0892  -0.1077   3.00    0.0
2024/05/08 14:56:34.000   28.330461759  -16.448135975  1079.0809   2   5   0.0586   0.0643   0.2582  -0.0492   0.0892  -0.1076   4.00    0.0
2024/05/08 14:56:35.000   28.330461766  -16.448135970  1079.0785   2   5   0.0586   0.0643   0.2582  -0.0492   0.0891  -0.1076   5.00    0.0
2024/05/08 14:56:36.000   28.330461771  -16.448135965  1079.0768   2   5   0.0586   0.0643   0.2581  -0.0492   0.0891  -0.1076   6.00    0.0
2024/05/08 14:56:37.000   28.330461775  -16.448135962  1079.0755   2   5   0.0586   0.0643   0.2581  -0.0492   0.0891  -0.1076   7.00    0.0
2024/05/08 14:56:38.000   28.330461778  -16.448135959  1079.0744   2   5   0.0586   0.0643   0.2581  -0.0492   0.0891  -0.1076   8.00    0.0
2024/05/08 14:56:39.000   28.330461780  -16.448135956  1079.0738   2   5   0.0586   0.0643   0.2581  -0.0492   0.0891  -0.1076   9.00    0.0
2024/05/08 14:56:40.000   28.330461780  -16.448135952  1079.0739   2   5   0.0586   0.0643   0.2580  -0.0492   0.0890  -0.1076  10.00    0.0
2024/05/08 14:56:41.000   28.330461780  -16.448135948  1079.0740   2   5   0.0586   0.0643   0.2580  -0.0492   0.0890  -0.1075  11.00    0.0
2024/05/08 14:56:42.000   28.330461779  -16.448135945  1079.0748   2   5   0.0586   0.0643   0.2580  -0.0492   0.0890  -0.1075  12.00    0.0
2024/05/08 14:56:43.000   28.330461778  -16.448135944  1079.0753   2   5   0.0586   0.0643   0.2580  -0.0492   0.0890  -0.1075  13.00    0.0
2024/05/08 14:56:44.000   28.330461777  -16.448135942  1079.0758   2   5   0.0586   0.0643   0.2580  -0.0491   0.0890  -0.1075  14.00    0.0
2024/05/08 14:56:45.000   28.330461776  -16.448135941  1079.0763   2   5   0.0586   0.0643   0.2579  -0.0491   0.0890  -0.1075 -15.00    0.0
2024/05/08 14:56:46.000   28.330461774  -16.448135939  1079.0774   2   5   0.0586   0.0643   0.2579  -0.0491   0.0889  -0.1075 -14.00    0.0
2024/05/08 14:56:47.000   28.330461773  -16.448135937  1079.0780   2   5   0.0586   0.0643   0.2579  -0.0491   0.0889  -0.1075 -13.00    0.0
2024/05/08 14:56:48.000   28.330461772  -16.448135936  1079.0784   2   5   0.0586   0.0643   0.2579  -0.0491   0.0889  -0.1075 -12.00    0.0
2024/05/08 14:56:49.000   28.330461771  -16.448135933  1079.0791   2   5   0.0585   0.0643   0.2578  -0.0491   0.0889  -0.1074 -11.00    0.0
2024/05/08 14:56:50.000   28.330461771  -16.448135932  1079.0799   2   5   0.0585   0.0643   0.2578  -0.0491   0.0889  -0.1074 -10.00    0.0
2024/05/08 14:56:51.000   28.330461772  -16.448135931  1079.0794   2   5   0.0585   0.0643   0.2578  -0.0491   0.0889  -0.1074  -9.00    0.0
2024/05/08 14:56:52.000   28.330461773  -16.448135930  1079.0789   2   5   0.0585   0.0643   0.2577  -0.0491   0.0889  -0.1074  -8.00    0.0
2024/05/08 14:56:53.000   28.330461776  -16.448135930  1079.0770   2   5   0.0585   0.0643   0.2577  -0.0491   0.0888  -0.1074  -7.00    0.0
2024/05/08 14:56:54.000   28.330461781  -16.448135929  1079.0749   2   5   0.0585   0.0643   0.2576  -0.0491   0.0888  -0.1073  -6.00    0.0
2024/05/08 14:56:55.000   28.330461789  -16.448135930  1079.0710   2   5   0.0585   0.0643   0.2575  -0.0491   0.0888  -0.1073  -5.00    0.0
2024/05/08 14:56:56.000   28.330461797  -16.448135931  1079.0672   2   5   0.0585   0.0643   0.2574  -0.0491   0.0887  -0.1073  -4.00    0.0
2024/05/08 14:56:57.000   28.330461807  -16.448135931  1079.0631   2   5   0.0585   0.0643   0.2573  -0.0490   0.0887  -0.1072  -3.00    0.0
2024/05/08 14:56:58.000   28.330461823  -16.448135932  1079.0566   2   5   0.0585   0.0643   0.2572  -0.0490   0.0887  -0.1072  -2.00    0.0
2024/05/08 14:56:59.000   28.330461844  -16.448135932  1079.0478   2   5   0.0584   0.0643   0.2571  -0.0490   0.0886  -0.1071  -1.00    0.0
2024/05/08 14:57:00.000   28.330461869  -16.448135932  1079.0367   2   5   0.0584   0.0643   0.2570  -0.0490   0.0886  -0.1071   0.00    0.0
2024/05/08 14:57:01.000   28.330461887  -16.448135930  1079.0308   2   5   0.0584   0.0643   0.2569  -0.0490   0.0885  -0.1071   1.00    0.0
2024/05/08 14:57:02.000   28.330461905  -16.448135927  1079.0230   2   5   0.0584   0.0643   0.2568  -0.0490   0.0885  -0.1070   2.00    0.0
2024/05/08 14:57:03.000   28.330461920  -16.448135926  1079.0172   2   5   0.0584   0.0643   0.2568  -0.0489   0.0885  -0.1070   3.00    0.0
2024/05/08 14:57:04.000   28.330461930  -16.448135924  1079.0139   2   5   0.0584   0.0644   0.2567  -0.0489   0.0884  -0.1070   4.00    0.0
2024/05/08 14:57:05.000   28.330461939  -16.448135920  1079.0112   2   5   0.0584   0.0644   0.2567  -0.0489   0.0884  -0.1070   5.00    0.0
2024/05/08 14:57:06.000   28.330461946  -16.448135919  1079.0088   2   5   0.0584   0.0644   0.2567  -0.0489   0.0884  -0.1069   6.00    0.0
2024/05/08 14:57:07.000   28.330461951  -16.448135920  1079.0071   2   5   0.0584   0.0644   0.2567  -0.0489   0.0883  -0.1069   7.00    0.0
2024/05/08 14:57:08.000   28.330461955  -16.448135919  1079.0060   2   5   0.0584   0.0644   0.2566  -0.0489   0.0883  -0.1069   8.00    0.0
2024/05/08 14:57:09.000   28.330461959  -16.448135918  1079.0047   2   5   0.0584   0.0644   0.2566  -0.0489   0.0883  -0.1069   9.00    0.0
2024/05/08 14:57:10.000   28.330461963  -16.448135917  1079.0035   2   5   0.0584   0.0644   0.2566  -0.0489   0.0883  -0.1069  10.00    0.0
2024/05/08 14:57:11.000   28.330461965  -16.448135917  1079.0025   2   5   0.0583   0.0644   0.2566  -0.0489   0.0883  -0.1069  11.00    0.0
2024/05/08 14:57:12.000   28.330461968  -16.448135918  1079.0017   2   5   0.0583   0.0644   0.2566  -0.0489   0.0883  -0.1069  12.00    0.0
2024/05/08 14:57:13.000   28.330461969  -16.448135919  1079.0013   2   5   0.0583   0.0644   0.2565  -0.0489   0.0882  -0.1068  13.00    0.0
2024/05/08 14:57:14.000   28.330461971  -16.448135920  1079.0003   2   5   0.0583   0.0644   0.2565  -0.0489   0.0882  -0.1068  14.00    0.0
2024/05/08 14:57:15.000   28.330461973  -16.448135921  1078.9996   2   5   0.0583   0.0644   0.2565  -0.0489   0.0882  -0.1068 -15.00    0.0
2024/05/08 14:57:16.000   28.330461975  -16.448135922  1078.9989   2   5   0.0583   0.0644   0.2565  -0.0489   0.0882  -0.1068 -14.00    0.0
2024/05/08 14:57:17.000   28.330461977  -16.448135924  1078.9979   2   5   0.0583   0.0644   0.2565  -0.0488   0.0882  -0.1068 -13.00    0.0
2024/05/08 14:57:18.000   28.330461979  -16.448135925  1078.9971   2   5   0.0583   0.0644   0.2564  -0.0488   0.0882  -0.1068 -12.00    0.0
2024/05/08 14:57:19.000   28.330461983  -16.448135927  1078.9960   2   5   0.0583   0.0644   0.2564  -0.0488   0.0882  -0.1068 -11.00    0.0
2024/05/08 14:57:20.000   28.330461987  -16.448135929  1078.9949   2   5   0.0583   0.0644   0.2564  -0.0488   0.0882  -0.1068 -10.00    0.0
2024/05/08 14:57:21.000   28.330461993  -16.448135932  1078.9924   2   5   0.0583   0.0644   0.2563  -0.0488   0.0882  -0.1067  -9.00    0.0
2024/05/08 14:57:22.000   28.330462000  -16.448135936  1078.9890   2   5   0.0583   0.0644   0.2563  -0.0488   0.0881  -0.1067  -8.00    0.0
2024/05/08 14:57:23.000   28.330462009  -16.448135938  1078.9850   2   5   0.0583   0.0644   0.2562  -0.0488   0.0881  -0.1067  -7.00    0.0
2024/05/08 14:57:24.000   28.330462018  -16.448135941  1078.9810   2   5   0.0583   0.0644   0.2562  -0.0488   0.0881  -0.1067  -6.00    0.0
2024/05/08 14:57:25.000   28.330462027  -16.448135943  1078.9782   2   5   0.0583   0.0644   0.2561  -0.0488   0.0881  -0.1066  -5.00    0.0
2024/05/08 14:57:26.000   28.330462042  -16.448135947  1078.9724   2   5   0.0582   0.0644   0.2560  -0.0488   0.0881  -0.1066  -4.00    0.0
2024/05/08 14:57:27.000   28.330462059  -16.448135950  1078.9663   2   5   0.0582   0.0644   0.2559  -0.0488   0.0880  -0.1066  -3.00    0.0
2024/05/08 14:57:28.000   28.330462081  -16.448135952  1078.9576   2   5   0.0582   0.0644   0.2558  -0.0488   0.0880  -0.1065  -2.00    0.0
2024/05/08 14:57:29.000   28.330462103  -16.448135956  1078.9505   2   5   0.0582   0.0644   0.2556  -0.0488   0.0880  -0.1065  -1.00    0.0
2024/05/08 14:57:30.000   28.330462122  -16.448135957  1078.9451   2   5   0.0582   0.0644   0.2556  -0.0487   0.0879  -0.1064   0.00    0.0
2024/05/08 14:57:31.000   28.330462140  -16.448135961  1078.9411   2   5   0.0582   0.0644   0.2554  -0.0487   0.0879  -0.1064   1.00    0.0
2024/05/08 14:57:32.000   28.330462160  -16.448135964  1078.9342   2   5   0.0582   0.0644   0.2554  -0.0487   0.0878  -0.1063   2.00    0.0
2024/05/08 14:57:33.000   28.330462176  -16.448135966  1078.9292   2   5   0.0581   0.0644   0.2553  -0.0487   0.0878  -0.1063   3.00    0.0
2024/05/08 14:57:34.000   28.330462190  -16.448135968  1078.9244   2   5   0.0581   0.0644   0.2553  -0.0487   0.0878  -0.1063   4.00    0.0
2024/05/08 14:57:35.000   28.330462199  -16.448135969  1078.9212   2   5   0.0581   0.0644   0.2552  -0.0487   0.0878  -0.1063   5.00    0.0
2024/05/08 14:57:36.000   28.330462206  -16.448135970  1078.9184   2   5   0.0581   0.0644   0.2552  -0.0487   0.0877  -0.1062   6.00    0.0
2024/05/08 14:57:37.000   28.330462213  -16.448135971  1078.9158   2   5   0.0581   0.0645   0.2552  -0.0487   0.0877  -0.1062   7.00    0.0
2024/05/08 14:57:38.000   28.330462218  -16.448135971  1078.9135   2   5   0.0581   0.0645   0.2552  -0.0487   0.0877  -0.1062   8.00    0.0
2024/05/08 14:57:39.000   28.330462222  -16.448135971  1078.9113   2   5   0.0581   0.0645   0.2551  -0.0487   0.0877  -0.1062   9.00    0.0
2024/05/08 14:57:40.000   28.330462227  -16.448135971  1078.9090   2   5   0.0581   0.0645   0.2551  -0.0487   0.0877  -0.1062  10.00    0.0
2024/05/08 14:57:41.000   28.330462230  -16.448135971  1078.9073   2   5   0.0581   0.0645   0.2551  -0.0487   0.0877  -0.1062  11.00    0.0
2024/05/08 14:57:42.000   28.330462232  -16.448135971  1078.9063   2   5   0.0581   0.0645   0.2551  -0.0486   0.0877  -0.1062  12.00    0.0
2024/05/08 14:57:43.000   28.330462233  -16.448135970  1078.9053   2   5   0.0581   0.0645   0.2550  -0.0486   0.0876  -0.1061  13.00    0.0
2024/05/08 14:57:44.000   28.330462234  -16.448135970  1078.9047   2   5   0.0581   0.0645   0.2550  -0.0486   0.0876  -0.1061  14.00    0.0
2024/05/08 14:57:45.000   28.330462235  -16.448135970  1078.9041   2   5   0.0581   0.0645   0.2550  -0.0486   0.0876  -0.1061 -15.00    0.0
2024/05/08 14:57:46.000   28.330462237  -16.448135969  1078.9029   2   5   0.0581   0.0645   0.2550  -0.0486   0.0876  -0.1061 -14.00    0.0
2024/05/08 14:57:47.000   28.330462238  -16.448135968  1078.9018   2   5   0.0581   0.0645   0.2550  -0.0486   0.0876  -0.1061 -13.00    0.0
2024/05/08 14:57:48.000   28.330462240  -16.448135968  1078.9009   2   5   0.0580   0.0644   0.2549  -0.0486   0.0876  -0.1061 -12.00    0.0
2024/05/08 14:57:49.000   28.330462243  -16.448135968  1078.8996   2   5   0.0580   0.0644   0.2549  -0.0486   0.0876  -0.1061 -11.00    0.0
2024/05/08 14:57:50.000   28.330462246  -16.448135968  1078.8978   2   5   0.0580   0.0644   0.2549  -0.0486   0.0876  -0.1061 -10.00    0.0
2024/05/08 14:57:51.000   28.330462250  -16.448135967  1078.8953   2   5   0.0580   0.0644   0.2548  -0.0486   0.0876  -0.1060  -9.00    0.0
2024/05/08 14:57:52.000   28.330462255  -16.448135967  1078.8924   2   5   0.0580   0.0644   0.2548  -0.0486   0.0876  -0.1060  -8.00    0.0
2024/05/08 14:57:53.000   28.330462263  -16.448135967  1078.8884   2   5   0.0580   0.0644   0.2547  -0.0486   0.0875  -0.1060  -7.00    0.0
2024/05/08 14:57:54.000   28.330462270  -16.448135968  1078.8844   2   5   0.0580   0.0644   0.2547  -0.0486   0.0875  -0.1060  -6.00    0.0
2024/05/08 14:57:55.000   28.330462281  -16.448135969  1078.8793   2   5   0.0580   0.0645   0.2546  -0.0486   0.0875  -0.1059  -5.00    0.0
2024/05/08 14:57:56.000   28.330462294  -16.448135970  1078.8736   2   5   0.0580   0.0645   0.2545  -0.0486   0.0875  -0.1059  -4.00    0.0
2024/05/08 14:57:57.000   28.330462309  -16.448135972  1078.8665   2   5   0.0580   0.0645   0.2544  -0.0486   0.0875  -0.1059  -3.00    0.0
2024/05/08 14:57:58.000   28.330462329  -16.448135974  1078.8573   2   5   0.0579   0.0645   0.2543  -0.0486   0.0874  -0.1058  -2.00    0.0
2024/05/08 14:57:59.000   28.330462353  -16.448135979  1078.8453   2   5   0.0579   0.0645   0.2542  -0.0486   0.0874  -0.1058  -1.00    0.0
2024/05/08 14:58:00.000   28.330462377  -16.448135983  1078.8332   2   5   0.0579   0.0645   0.2541  -0.0486   0.0874  -0.1057   0.00    0.0
2024/05/08 14:58:01.000   28.330462399  -16.448135987  1078.8232   2   5   0.0579   0.0645   0.2540  -0.0485   0.0874  -0.1057   1.00    0.0
2024/05/08 14:58:02.000   28.330462422  -16.448135991  1078.8117   2   5   0.0579   0.0645   0.2539  -0.0485   0.0873  -0.1056   2.00    0.0
2024/05/08 14:58:03.000   28.330462443  -16.448135994  1078.8016   2   5   0.0579   0.0645   0.2538  -0.0485   0.0873  -0.1056   3.00    0.0
2024/05/08 14:58:04.000   28.330462460  -16.448135994  1078.7931   2   5   0.0579   0.0645   0.2538  -0.0485   0.0873  -0.1056   4.00    0.0
2024/05/08 14:58:05.000   28.330462473  -16.448135995  1078.7861   2   5   0.0578   0.0645   0.2538  -0.0485   0.0873  -0.1056   5.00    0.0
2024/05/08 14:58:06.000   28.330462481  -16.448135995  1078.7821   2   5   0.0578   0.0645   0.2537  -0.0485   0.0872  -0.1055   6.00    0.0
2024/05/08 14:58:07.000   28.330462486  -16.448135995  1078.7797   2   5   0.0578   0.0645   0.2537  -0.0485   0.0872  -0.1055   7.00    0.0
2024/05/08 14:58:08.000   28.330462491  -16.448135995  1078.7774   2   5   0.0578   0.0645   0.2537  -0.0485   0.0872  -0.1055   8.00    0.0
2024/05/08 14:58:09.000   28.330462494  -16.448135995  1078.7757   2   5   0.0578   0.0645   0.2536  -0.0485   0.0872  -0.1055   9.00    0.0
2024/05/08 14:58:10.000   28.330462497  -16.448135995  1078.7739   2   5   0.0578   0.0645   0.2536  -0.0485   0.0872  -0.1055  10.00    0.0
2024/05/08 14:58:11.000   28.330462500  -16.448135996  1078.7725   2   5   0.0578   0.0645   0.2536  -0.0485   0.0872  -0.1055  11.00    0.0
2024/05/08 14:58:12.000   28.330462499  -16.448135996  1078.7730   2   5   0.0578   0.0645   0.2536  -0.0485   0.0872  -0.1055  12.00    0.0
2024/05/08 14:58:13.000   28.330462498  -16.448135995  1078.7736   2   5   0.0578   0.0645   0.2536  -0.0485   0.0872  -0.1054  13.00    0.0
2024/05/08 14:58:14.000   28.330462499  -16.448135995  1078.7731   2   5   0.0578   0.0645   0.2535  -0.0485   0.0872  -0.1054  14.00    0.0
2024/05/08 14:58:15.000   28.330462499  -16.448135995  1078.7731   2   5   0.0578   0.0645   0.2535  -0.0485   0.0872  -0.1054 -15.00    0.0
2024/05/08 14:58:16.000   28.330462501  -16.448135996  1078.7724   2   5   0.0578   0.0645   0.2535  -0.0485   0.0872  -0.1054 -14.00    0.0
2024/05/08 14:58:17.000   28.330462503  -16.448135997  1078.7715   2   5   0.0578   0.0645   0.2535  -0.0485   0.0871  -0.1054 -13.00    0.0
2024/05/08 14:58:18.000   28.330462505  -16.448135998  1078.7707   2   5   0.0578   0.0645   0.2535  -0.0485   0.0871  -0.1054 -12.00    0.0
2024/05/08 14:58:19.000   28.330462508  -16.448135998  1078.7696   2   5   0.0578   0.0645   0.2534  -0.0485   0.0871  -0.1054 -11.00    0.0
2024/05/08 14:58:20.000   28.330462509  -16.448135999  1078.7689   2   5   0.0578   0.0645   0.2534  -0.0485   0.0871  -0.1054 -10.00    0.0
2024/05/08 14:58:21.000   28.330462513  -16.448135999  1078.7674   2   5   0.0578   0.0645   0.2534  -0.0485   0.0871  -0.1053  -9.00    0.0
2024/05/08 14:58:22.000   28.330462518  -16.448136001  1078.7649   2   5   0.0577   0.0645   0.2533  -0.0485   0.0871  -0.1053  -8.00    0.0
2024/05/08 14:58:23.000   28.330462522  -16.448136002  1078.7634   2   5   0.0577   0.0645   0.2533  -0.0484   0.0871  -0.1053  -7.00    0.0
2024/05/08 14:58:24.000   28.330462529  -16.448136002  1078.7606   2   5   0.0577   0.0645   0.2532  -0.0484   0.0871  -0.1053  -6.00    0.0
2024/05/08 14:58:25.000   28.330462537  -16.448136003  1078.7573   2   5   0.0577   0.0645   0.2531  -0.0484   0.0871  -0.1053  -5.00    0.0
2024/05/08 14:58:26.000   28.330462549  -16.448136006  1078.7531   2   5   0.0577   0.0645   0.2531  -0.0484   0.0871  -0.1052  -4.00    0.0
2024/05/08 14:58:27.000   28.330462560  -16.448136009  1078.7483   2   5   0.0577   0.0645   0.2530  -0.0484   0.0870  -0.1052  -3.00    0.0
2024/05/08 14:58:28.000   28.330462574  -16.448136012  1078.7429   2   5   0.0577   0.0645   0.2528  -0.0484   0.0870  -0.1051  -2.00    0.0
2024/05/08 14:58:29.000   28.330462591  -16.448136016  1078.7356   2   5   0.0577   0.0645   0.2527  -0.0484   0.0870  -0.1051  -1.00    0.0
2024/05/08 14:58:30.000   28.330462609  -16.448136020  1078.7279   2   5   0.0576   0.0646   0.2526  -0.0484   0.0870  -0.1050   0.00    0.0
2024/05/08 14:58:31.000   28.330462626  -16.448136022  1078.7233   2   5   0.0576   0.0646   0.2525  -0.0484   0.0870  -0.1050   1.00    0.0
2024/05/08 14:58:32.000   28.330462640  -16.448136024  1078.7182   2   5   0.0576   0.0646   0.2524  -0.0484   0.0870  -0.1049   2.00    0.0
2024/05/08 14:58:33.000   28.330462653  -16.448136028  1078.7141   2   5   0.0576   0.0646   0.2524  -0.0484   0.0869  -0.1049   3.00    0.0
2024/05/08 14:58:34.000   28.330462664  -16.448136029  1078.7103   2   5   0.0576   0.0646   0.2523  -0.0484   0.0869  -0.1049   4.00    0.0
2024/05/08 14:58:35.000   28.330462672  -16.448136028  1078.7076   2   5   0.0576   0.0646   0.2523  -0.0484   0.0869  -0.1049   5.00    0.0
2024/05/08 14:58:36.000   28.330462678  -16.448136027  1078.7061   2   5   0.0576   0.0646   0.2523  -0.0484   0.0869  -0.1048   6.00    0.0
2024/05/08 14:58:37.000   28.330462682  -16.448136026  1078.7050   2   5   0.0575   0.0646   0.2522  -0.0484   0.0869  -0.1048   7.00    0.0
2024/05/08 14:58:38.000   28.330462681  -16.448136022  1078.7066   2   5   0.0575   0.0646   0.2522  -0.0484   0.0869  -0.1048   8.00    0.0
2024/05/08 14:58:39.000   28.330462682  -16.448136020  1078.7072   2   5   0.0575   0.0646   0.2522  -0.0484   0.0869  -0.1048   9.00    0.0
2024/05/08 14:58:40.000   28.330462688  -16.448136023  1078.7046   2   4   0.0575   0.0646   0.2523  -0.0484   0.0869  -0.1048  10.00    0.0
2024/05/08 14:58:41.000   28.330462688  -16.448136019  1078.7062   2   5   0.0575   0.0646   0.2523  -0.0484   0.0869  -0.1048  11.00    0.0
2024/05/08 14:58:42.000   28.330462690  -16.448136019  1078.7054   2   4   0.0575   0.0646   0.2523  -0.0484   0.0869  -0.1048  12.00    0.0
2024/05/08 14:58:43.000   28.330462692  -16.448136018  1078.7057   2   4   0.0575   0.0646   0.2523  -0.0484   0.0869  -0.1048  13.00    0.0
2024/05/08 14:58:44.000   28.330462694  -16.448136017  1078.7059   2   4   0.0575   0.0646   0.2523  -0.0484   0.0869  -0.1048  14.00    0.0
2024/05/08 14:58:45.000   28.330462695  -16.448136017  1078.7061   2   4   0.0575   0.0646   0.2523  -0.0484   0.0869  -0.1048 -15.00    0.0
2024/05/08 14:58:46.000   28.330462697  -16.448136017  1078.7065   2   4   0.0575   0.0646   0.2523  -0.0484   0.0869  -0.1048 -14.00    0.0
2024/05/08 14:58:47.000   28.330462698  -16.448136017  1078.7071   2   4   0.0575   0.0646   0.2523  -0.0484   0.0869  -0.1048 -13.00    0.0
2024/05/08 14:58:48.000   28.330462698  -16.448136015  1078.7078   2   4   0.0575   0.0646   0.2523  -0.0484   0.0869  -0.1048 -12.00    0.0
2024/05/08 14:58:49.000   28.330462700  -16.448136015  1078.7082   2   4   0.0575   0.0646   0.2523  -0.0484   0.0869  -0.1048 -11.00    0.0
2024/05/08 14:58:50.000   28.330462702  -16.448136014  1078.7091   2   4   0.0575   0.0646   0.2522  -0.0484   0.0869  -0.1048 -10.00    0.0
2024/05/08 14:58:51.000   28.330462702  -16.448136013  1078.7108   2   4   0.0575   0.0646   0.2522  -0.0484   0.0869  -0.1048  -9.00    0.0
