% program   : RTKPOST-EX 2.5.0
% inp file  : C:\Users\SallyHenry\Desktop\Sally Internship\GNSS gravi\DATA\Survey Rover Obs\GUI16.24o
% inp file  : C:\Users\SallyHenry\Desktop\Sally Internship\GNSS gravi\DATA\BaseStations\TN01\TN0100ESP_R_20241290000_01D_30S_MO.rnx
% inp file  : C:\Users\SallyHenry\Desktop\Sally Internship\GNSS gravi\DATA\BaseStations\TN01\TN0100ESP_R_20241290000_01D_MN.rnx
% inp file  : C:\Users\SallyHenry\Desktop\Sally Internship\GNSS gravi\DATA\aux_files\Survey\IGS0OPSFIN_20241290000_01D_15M_ORB.SP3
% inp file  : C:\Users\SallyHenry\Desktop\Sally Internship\GNSS gravi\DATA\aux_files\Survey\IGS0OPSFIN_20241290000_01D_30S_CLK.CLK
% obs start : 2024/05/08 14:17:38.0 GPST (week2313 310658.0s)
% obs end   : 2024/05/08 14:32:38.0 GPST (week2313 311558.0s)
% pos mode  : Static
% freqs     : L1+L2/E5b
% solution  : Combined-No Phase Reset
% elev mask : 15.0 deg
% dynamics  : on
% tidecorr  : solid
% ionos opt : Estimate TEC
% tropo opt : Estimate ZTD+Grad
% ephemeris : Precise
% navi sys  : GPS GLONASS Galileo QZSS BDS
% amb res   : Fix and Hold
% amb glo   : Fix and Hold
% amb bds   : on
% val thres : 3.0
% antenna1  :                       ( 0.0000  0.0000  1.8000)
% antenna2  :                       ( 0.0000  0.0000  0.0771)
% ref pos   :  28.477186930  -16.241151700    51.7531
%
% (lat/lon/height=WGS84/ellipsoidal,Q=1:fix,2:float,3:sbas,4:dgps,5:single,6:ppp,ns=# of satellites)
%  GPST                  latitude(deg) longitude(deg)  height(m)   Q  ns   sdn(m)   sde(m)   sdu(m)  sdne(m)  sdeu(m)  sdun(m) age(s)  ratio
2024/05/08 14:17:38.000   28.328178343  -16.438336880   908.3878   2   5   0.1129   0.1130   0.4749  -0.0307   0.1174  -0.1875 -22.00    0.0
2024/05/08 14:17:39.000   28.328178988  -16.438338612   907.6516   2   5   0.1129   0.1128   0.4741  -0.0307   0.1171  -0.1874 -21.00    0.0
2024/05/08 14:17:40.000   28.328179630  -16.438340304   906.9375   2   5   0.1128   0.1125   0.4732  -0.0306   0.1168  -0.1872 -20.00    0.0
2024/05/08 14:17:41.000   28.328180249  -16.438341948   906.2891   2   5   0.1128   0.1123   0.4726  -0.0305   0.1165  -0.1871 -19.00    0.0
2024/05/08 14:17:42.000   28.328180857  -16.438343545   905.6641   2   5   0.1127   0.1121   0.4719  -0.0305   0.1162  -0.1870 -18.00    0.0
2024/05/08 14:17:43.000   28.328181451  -16.438345107   905.0787   2   5   0.1126   0.1118   0.4713  -0.0304   0.1159  -0.1869 -17.00    0.0
2024/05/08 14:17:44.000   28.328182035  -16.438346628   904.5170   2   5   0.1126   0.1116   0.4707  -0.0304   0.1156  -0.1868 -16.00    0.0
2024/05/08 14:17:45.000   28.328182608  -16.438348113   903.9772   2   5   0.1125   0.1114   0.4703  -0.0303   0.1153  -0.1867 -15.00    0.0
2024/05/08 14:17:46.000   28.328183203  -16.438349609   903.4246   2   5   0.1125   0.1112   0.4697  -0.0302   0.1150  -0.1865 -14.00    0.0
2024/05/08 14:17:47.000   28.328183762  -16.438351032   902.9225   2   5   0.1124   0.1110   0.4693  -0.0302   0.1148  -0.1864 -13.00    0.0
2024/05/08 14:17:48.000   28.328184304  -16.438352420   902.4443   2   5   0.1124   0.1108   0.4688  -0.0301   0.1145  -0.1863 -12.00    0.0
2024/05/08 14:17:49.000   28.328184845  -16.438353778   901.9735   2   5   0.1123   0.1106   0.4684  -0.0301   0.1143  -0.1862 -11.00    0.0
2024/05/08 14:17:50.000   28.328185370  -16.438355110   901.5255   2   5   0.1122   0.1104   0.4680  -0.0300   0.1140  -0.1861 -10.00    0.0
2024/05/08 14:17:51.000   28.328185892  -16.438356409   901.0822   2   5   0.1122   0.1102   0.4676  -0.0300   0.1138  -0.1860  -9.00    0.0
2024/05/08 14:17:52.000   28.328186397  -16.438357681   900.6617   2   5   0.1121   0.1100   0.4672  -0.0299   0.1136  -0.1859  -8.00    0.0
2024/05/08 14:17:53.000   28.328186902  -16.438358929   900.2419   2   5   0.1121   0.1098   0.4669  -0.0298   0.1133  -0.1858  -7.00    0.0
2024/05/08 14:17:54.000   28.328187392  -16.438360156   899.8431   2   5   0.1120   0.1097   0.4665  -0.0298   0.1131  -0.1856  -6.00    0.0
2024/05/08 14:17:55.000   28.328187884  -16.438361356   899.4429   2   5   0.1120   0.1095   0.4662  -0.0297   0.1129  -0.1855  -5.00    0.0
2024/05/08 14:17:56.000   28.328188356  -16.438362527   899.0632   2   5   0.1119   0.1093   0.4658  -0.0297   0.1127  -0.1854  -4.00    0.0
2024/05/08 14:17:57.000   28.328188829  -16.438363680   898.6821   2   5   0.1119   0.1091   0.4655  -0.0296   0.1125  -0.1853  -3.00    0.0
2024/05/08 14:17:58.000   28.328189287  -16.438364807   898.3200   2   5   0.1118   0.1090   0.4652  -0.0296   0.1123  -0.1852  -2.00    0.0
2024/05/08 14:17:59.000   28.328189745  -16.438365912   897.9577   2   5   0.1118   0.1088   0.4650  -0.0295   0.1121  -0.1851  -1.00    0.0
2024/05/08 14:18:00.000   28.328190216  -16.438366949   897.6067   2   5   0.1117   0.1087   0.4647  -0.0294   0.1118  -0.1851   0.00    0.0
2024/05/08 14:18:01.000   28.328190644  -16.438368068   897.0325   2   5   0.1117   0.1085   0.4640  -0.0294   0.1116  -0.1850   1.00    0.0
2024/05/08 14:18:02.000   28.328191061  -16.438369104   896.6813   2   5   0.1116   0.1084   0.4637  -0.0293   0.1114  -0.1849   2.00    0.0
2024/05/08 14:18:03.000   28.328191486  -16.438370123   896.3419   2   5   0.1116   0.1082   0.4635  -0.0293   0.1112  -0.1849   3.00    0.0
2024/05/08 14:18:04.000   28.328191890  -16.438371131   896.0245   2   5   0.1116   0.1081   0.4633  -0.0292   0.1111  -0.1848   4.00    0.0
2024/05/08 14:18:05.000   28.328192293  -16.438372119   895.7073   2   5   0.1115   0.1079   0.4631  -0.0292   0.1109  -0.1847   5.00    0.0
2024/05/08 14:18:06.000   28.328192682  -16.438373090   895.4045   2   5   0.1115   0.1078   0.4628  -0.0291   0.1107  -0.1847   6.00    0.0
2024/05/08 14:18:07.000   28.328193078  -16.438374045   895.0992   2   5   0.1115   0.1076   0.4626  -0.0291   0.1105  -0.1846   7.00    0.0
2024/05/08 14:18:08.000   28.328193456  -16.438374977   894.8089   2   5   0.1114   0.1075   0.4624  -0.0291   0.1104  -0.1845   8.00    0.0
2024/05/08 14:18:09.000   28.328193835  -16.438375895   894.5176   2   5   0.1114   0.1074   0.4622  -0.0290   0.1102  -0.1845   9.00    0.0
2024/05/08 14:18:10.000   28.328194202  -16.438376797   894.2375   2   5   0.1114   0.1072   0.4620  -0.0290   0.1100  -0.1844  10.00    0.0
2024/05/08 14:18:11.000   28.328194579  -16.438377683   893.9528   2   5   0.1113   0.1071   0.4618  -0.0289   0.1098  -0.1843  11.00    0.0
2024/05/08 14:18:12.000   28.328194941  -16.438378553   893.6806   2   5   0.1113   0.1070   0.4616  -0.0289   0.1097  -0.1843  12.00    0.0
2024/05/08 14:18:13.000   28.328195310  -16.438379409   893.4042   2   5   0.1113   0.1068   0.4614  -0.0288   0.1095  -0.1842  13.00    0.0
2024/05/08 14:18:14.000   28.328195672  -16.438380251   893.1370   2   5   0.1112   0.1067   0.4612  -0.0288   0.1094  -0.1841  14.00    0.0
2024/05/08 14:18:15.000   28.328196041  -16.438381082   892.8655   2   5   0.1112   0.1066   0.4611  -0.0287   0.1092  -0.1840 -15.00    0.0
2024/05/08 14:18:16.000   28.328196398  -16.438381898   892.6041   2   5   0.1111   0.1065   0.4609  -0.0287   0.1091  -0.1839 -14.00    0.0
2024/05/08 14:18:17.000   28.328196759  -16.438382701   892.3400   2   5   0.1111   0.1063   0.4607  -0.0287   0.1089  -0.1839 -13.00    0.0
2024/05/08 14:18:18.000   28.328197107  -16.438383489   892.0860   2   5   0.1110   0.1062   0.4605  -0.0286   0.1087  -0.1838 -12.00    0.0
2024/05/08 14:18:19.000   28.328197457  -16.438384267   891.8339   2   5   0.1110   0.1061   0.4603  -0.0286   0.1086  -0.1837 -11.00    0.0
2024/05/08 14:18:20.000   28.328197802  -16.438385028   891.5862   2   5   0.1109   0.1060   0.4601  -0.0285   0.1085  -0.1836 -10.00    0.0
2024/05/08 14:18:21.000   28.328198151  -16.438385784   891.3354   2   5   0.1109   0.1059   0.4599  -0.0285   0.1083  -0.1835  -9.00    0.0
2024/05/08 14:18:22.000   28.328198490  -16.438386523   891.0939   2   5   0.1108   0.1058   0.4597  -0.0284   0.1082  -0.1834  -8.00    0.0
2024/05/08 14:18:23.000   28.328198829  -16.438387256   890.8513   2   5   0.1108   0.1057   0.4595  -0.0284   0.1080  -0.1833  -7.00    0.0
2024/05/08 14:18:24.000   28.328199150  -16.438387971   890.6207   2   5   0.1107   0.1056   0.4593  -0.0284   0.1079  -0.1832  -6.00    0.0
2024/05/08 14:18:25.000   28.328199481  -16.438388680   890.3857   2   5   0.1107   0.1055   0.4591  -0.0283   0.1077  -0.1831  -5.00    0.0
2024/05/08 14:18:26.000   28.328199798  -16.438389380   890.1590   2   5   0.1107   0.1053   0.4589  -0.0283   0.1076  -0.1830  -4.00    0.0
2024/05/08 14:18:27.000   28.328200121  -16.438390067   889.9304   2   5   0.1106   0.1052   0.4587  -0.0282   0.1075  -0.1830  -3.00    0.0
2024/05/08 14:18:28.000   28.328200425  -16.438390744   889.7115   2   5   0.1106   0.1051   0.4586  -0.0282   0.1073  -0.1829  -2.00    0.0
2024/05/08 14:18:29.000   28.328200727  -16.438391412   889.4939   2   5   0.1105   0.1050   0.4584  -0.0282   0.1072  -0.1828  -1.00    0.0
2024/05/08 14:18:30.000   28.328201033  -16.438392033   889.2808   2   5   0.1105   0.1050   0.4583  -0.0281   0.1071  -0.1827   0.00    0.0
2024/05/08 14:18:31.000   28.328201310  -16.438392732   888.8760   2   5   0.1105   0.1049   0.4577  -0.0281   0.1069  -0.1827   1.00    0.0
2024/05/08 14:18:32.000   28.328201589  -16.438393369   888.6528   2   5   0.1104   0.1048   0.4576  -0.0280   0.1068  -0.1827   2.00    0.0
2024/05/08 14:18:33.000   28.328201869  -16.438393998   888.4430   2   5   0.1104   0.1047   0.4575  -0.0280   0.1067  -0.1826   3.00    0.0
2024/05/08 14:18:34.000   28.328202142  -16.438394617   888.2430   2   5   0.1104   0.1046   0.4573  -0.0279   0.1066  -0.1826   4.00    0.0
2024/05/08 14:18:35.000   28.328202422  -16.438395228   888.0412   2   5   0.1104   0.1045   0.4572  -0.0279   0.1064  -0.1825   5.00    0.0
2024/05/08 14:18:36.000   28.328202693  -16.438395835   887.8447   2   5   0.1103   0.1044   0.4571  -0.0279   0.1063  -0.1825   6.00    0.0
2024/05/08 14:18:37.000   28.328202967  -16.438396429   887.6475   2   5   0.1103   0.1043   0.4570  -0.0278   0.1062  -0.1825   7.00    0.0
2024/05/08 14:18:38.000   28.328203236  -16.438397016   887.4555   2   5   0.1103   0.1042   0.4569  -0.0278   0.1061  -0.1824   8.00    0.0
2024/05/08 14:18:39.000   28.328203512  -16.438397596   887.2621   2   5   0.1103   0.1041   0.4568  -0.0278   0.1060  -0.1824   9.00    0.0
2024/05/08 14:18:40.000   28.328203780  -16.438398167   887.0732   2   5   0.1102   0.1041   0.4567  -0.0277   0.1059  -0.1823  10.00    0.0
2024/05/08 14:18:41.000   28.328204051  -16.438398729   886.8839   2   5   0.1102   0.1040   0.4566  -0.0277   0.1057  -0.1823  11.00    0.0
2024/05/08 14:18:42.000   28.328204312  -16.438399282   886.7002   2   5   0.1102   0.1039   0.4565  -0.0276   0.1056  -0.1822  12.00    0.0
2024/05/08 14:18:43.000   28.328204577  -16.438399828   886.5146   2   5   0.1102   0.1038   0.4564  -0.0276   0.1055  -0.1822  13.00    0.0
2024/05/08 14:18:44.000   28.328204835  -16.438400371   886.3339   2   5   0.1101   0.1037   0.4563  -0.0276   0.1054  -0.1821  14.00    0.0
2024/05/08 14:18:45.000   28.328205097  -16.438400904   886.1517   2   5   0.1101   0.1036   0.4561  -0.0275   0.1053  -0.1821 -15.00    0.0
2024/05/08 14:18:46.000   28.328205348  -16.438401428   885.9752   2   5   0.1101   0.1036   0.4560  -0.0275   0.1052  -0.1820 -14.00    0.0
2024/05/08 14:18:47.000   28.328205605  -16.438401950   885.7971   2   5   0.1100   0.1035   0.4559  -0.0275   0.1051  -0.1819 -13.00    0.0
2024/05/08 14:18:48.000   28.328205851  -16.438402460   885.6240   2   5   0.1100   0.1034   0.4558  -0.0274   0.1050  -0.1819 -12.00    0.0
2024/05/08 14:18:49.000   28.328206106  -16.438402967   885.4489   2   5   0.1100   0.1033   0.4557  -0.0274   0.1049  -0.1818 -11.00    0.0
2024/05/08 14:18:50.000   28.328206347  -16.438403464   885.2805   2   5   0.1099   0.1033   0.4555  -0.0274   0.1048  -0.1817 -10.00    0.0
2024/05/08 14:18:51.000   28.328206594  -16.438403957   885.1114   2   5   0.1099   0.1032   0.4554  -0.0273   0.1047  -0.1817  -9.00    0.0
2024/05/08 14:18:52.000   28.328206832  -16.438404443   884.9472   2   5   0.1098   0.1031   0.4553  -0.0273   0.1046  -0.1816  -8.00    0.0
2024/05/08 14:18:53.000   28.328207074  -16.438404921   884.7822   2   5   0.1098   0.1030   0.4551  -0.0273   0.1045  -0.1815  -7.00    0.0
2024/05/08 14:18:54.000   28.328207308  -16.438405396   884.6203   2   5   0.1098   0.1030   0.4550  -0.0272   0.1044  -0.1814  -6.00    0.0
2024/05/08 14:18:55.000   28.328207545  -16.438405865   884.4581   2   5   0.1097   0.1029   0.4549  -0.0272   0.1043  -0.1814  -5.00    0.0
2024/05/08 14:18:56.000   28.328207772  -16.438406325   884.3007   2   5   0.1097   0.1028   0.4547  -0.0272   0.1042  -0.1813  -4.00    0.0
2024/05/08 14:18:57.000   28.328208002  -16.438406781   884.1427   2   5   0.1097   0.1028   0.4546  -0.0271   0.1041  -0.1812  -3.00    0.0
2024/05/08 14:18:58.000   28.328208212  -16.438407229   883.9929   2   5   0.1096   0.1027   0.4545  -0.0271   0.1040  -0.1811  -2.00    0.0
2024/05/08 14:18:59.000   28.328208428  -16.438407674   883.8422   2   5   0.1096   0.1026   0.4544  -0.0271   0.1039  -0.1811  -1.00    0.0
2024/05/08 14:19:00.000   28.328208650  -16.438408076   883.6935   2   5   0.1096   0.1026   0.4543  -0.0270   0.1038  -0.1811   0.00    0.0
2024/05/08 14:19:01.000   28.328208829  -16.438408541   883.4559   2   5   0.1095   0.1025   0.4540  -0.0270   0.1037  -0.1810   1.00    0.0
2024/05/08 14:19:02.000   28.328209022  -16.438408967   883.2871   2   5   0.1095   0.1024   0.4539  -0.0270   0.1036  -0.1810   2.00    0.0
2024/05/08 14:19:03.000   28.328209227  -16.438409388   883.1352   2   5   0.1095   0.1024   0.4538  -0.0269   0.1036  -0.1810   3.00    0.0
2024/05/08 14:19:04.000   28.328209424  -16.438409798   882.9925   2   5   0.1095   0.1023   0.4537  -0.0269   0.1035  -0.1809   4.00    0.0
2024/05/08 14:19:05.000   28.328209620  -16.438410208   882.8532   2   5   0.1095   0.1023   0.4537  -0.0269   0.1034  -0.1809   5.00    0.0
2024/05/08 14:19:06.000   28.328209808  -16.438410613   882.7167   2   5   0.1095   0.1022   0.4536  -0.0268   0.1033  -0.1809   6.00    0.0
2024/05/08 14:19:07.000   28.328209999  -16.438411015   882.5814   2   5   0.1094   0.1021   0.4535  -0.0268   0.1032  -0.1809   7.00    0.0
2024/05/08 14:19:08.000   28.328210179  -16.438411409   882.4500   2   5   0.1094   0.1021   0.4535  -0.0268   0.1031  -0.1808   8.00    0.0
2024/05/08 14:19:09.000   28.328210370  -16.438411800   882.3172   2   5   0.1094   0.1020   0.4534  -0.0267   0.1031  -0.1808   9.00    0.0
2024/05/08 14:19:10.000   28.328210554  -16.438412184   882.1865   2   5   0.1094   0.1020   0.4533  -0.0267   0.1030  -0.1808  10.00    0.0
2024/05/08 14:19:11.000   28.328210746  -16.438412565   882.0545   2   5   0.1094   0.1019   0.4533  -0.0267   0.1029  -0.1807  11.00    0.0
2024/05/08 14:19:12.000   28.328210926  -16.438412937   881.9258   2   5   0.1093   0.1018   0.4532  -0.0266   0.1028  -0.1807  12.00    0.0
2024/05/08 14:19:13.000   28.328211113  -16.438413312   881.7958   2   5   0.1093   0.1018   0.4531  -0.0266   0.1027  -0.1806  13.00    0.0
2024/05/08 14:19:14.000   28.328211292  -16.438413675   881.6686   2   5   0.1093   0.1017   0.4531  -0.0266   0.1027  -0.1806  14.00    0.0
2024/05/08 14:19:15.000   28.328211476  -16.438414037   881.5413   2   5   0.1093   0.1017   0.4530  -0.0266   0.1026  -0.1806 -15.00    0.0
2024/05/08 14:19:16.000   28.328211652  -16.438414397   881.4155   2   5   0.1092   0.1016   0.4529  -0.0265   0.1025  -0.1805 -14.00    0.0
2024/05/08 14:19:17.000   28.328211834  -16.438414754   881.2892   2   5   0.1092   0.1016   0.4528  -0.0265   0.1024  -0.1805 -13.00    0.0
2024/05/08 14:19:18.000   28.328212008  -16.438415106   881.1641   2   5   0.1092   0.1015   0.4527  -0.0265   0.1023  -0.1804 -12.00    0.0
2024/05/08 14:19:19.000   28.328212191  -16.438415453   881.0400   2   5   0.1092   0.1015   0.4526  -0.0264   0.1023  -0.1803 -11.00    0.0
2024/05/08 14:19:20.000   28.328212367  -16.438415798   880.9163   2   5   0.1091   0.1014   0.4525  -0.0264   0.1022  -0.1803 -10.00    0.0
2024/05/08 14:19:21.000   28.328212550  -16.438416140   880.7931   2   5   0.1091   0.1014   0.4524  -0.0264   0.1021  -0.1802  -9.00    0.0
2024/05/08 14:19:22.000   28.328212726  -16.438416475   880.6714   2   5   0.1091   0.1013   0.4523  -0.0264   0.1021  -0.1802  -8.00    0.0
2024/05/08 14:19:23.000   28.328212910  -16.438416810   880.5482   2   5   0.1090   0.1013   0.4522  -0.0263   0.1020  -0.1801  -7.00    0.0
2024/05/08 14:19:24.000   28.328213084  -16.438417140   880.4274   2   5   0.1090   0.1012   0.4521  -0.0263   0.1019  -0.1800  -6.00    0.0
2024/05/08 14:19:25.000   28.328213263  -16.438417468   880.3080   2   5   0.1090   0.1012   0.4520  -0.0263   0.1018  -0.1800  -5.00    0.0
2024/05/08 14:19:26.000   28.328213431  -16.438417787   880.1917   2   5   0.1089   0.1011   0.4519  -0.0262   0.1018  -0.1799  -4.00    0.0
2024/05/08 14:19:27.000   28.328213602  -16.438418110   880.0754   2   5   0.1089   0.1011   0.4518  -0.0262   0.1017  -0.1798  -3.00    0.0
2024/05/08 14:19:28.000   28.328213761  -16.438418429   879.9624   2   5   0.1089   0.1010   0.4517  -0.0262   0.1016  -0.1798  -2.00    0.0
2024/05/08 14:19:29.000   28.328213923  -16.438418746   879.8501   2   5   0.1088   0.1010   0.4516  -0.0262   0.1016  -0.1797  -1.00    0.0
2024/05/08 14:19:30.000   28.328214092  -16.438419029   879.7357   2   5   0.1088   0.1009   0.4516  -0.0261   0.1015  -0.1797   0.00    0.0
2024/05/08 14:19:31.000   28.328214233  -16.438419380   879.4751   2   5   0.1088   0.1009   0.4512  -0.0261   0.1014  -0.1797   1.00    0.0
2024/05/08 14:19:32.000   28.328214387  -16.438419686   879.3457   2   5   0.1088   0.1008   0.4511  -0.0261   0.1013  -0.1797   2.00    0.0
2024/05/08 14:19:33.000   28.328214549  -16.438419985   879.2288   2   5   0.1088   0.1008   0.4510  -0.0260   0.1013  -0.1796   3.00    0.0
2024/05/08 14:19:34.000   28.328214703  -16.438420281   879.1184   2   5   0.1088   0.1008   0.4510  -0.0260   0.1012  -0.1796   4.00    0.0
2024/05/08 14:19:35.000   28.328214860  -16.438420573   879.0104   2   5   0.1087   0.1007   0.4509  -0.0260   0.1011  -0.1796   5.00    0.0
2024/05/08 14:19:36.000   28.328215004  -16.438420864   878.9070   2   5   0.1087   0.1007   0.4509  -0.0259   0.1011  -0.1796   6.00    0.0
2024/05/08 14:19:37.000   28.328215154  -16.438421156   878.8043   2   5   0.1087   0.1006   0.4509  -0.0259   0.1010  -0.1796   7.00    0.0
2024/05/08 14:19:38.000   28.328215301  -16.438421441   878.7018   2   5   0.1087   0.1006   0.4508  -0.0259   0.1009  -0.1795   8.00    0.0
2024/05/08 14:19:39.000   28.328185567  -16.438347940   903.2841   1   6   0.0302   0.0212   0.1548   0.0127  -0.0232  -0.0494   9.00    3.5
2024/05/08 14:19:40.000   28.328185571  -16.438347931   903.2824   1   6   0.0302   0.0212   0.1548   0.0127  -0.0232  -0.0494  10.00    3.8
2024/05/08 14:19:41.000   28.328185576  -16.438347921   903.2806   1   6   0.0303   0.0212   0.1549   0.0127  -0.0232  -0.0494  11.00    3.9
2024/05/08 14:19:42.000   28.328185581  -16.438347911   903.2792   1   6   0.0303   0.0212   0.1549   0.0127  -0.0233  -0.0494  12.00    3.6
2024/05/08 14:19:43.000   28.328185586  -16.438347902   903.2776   1   6   0.0303   0.0212   0.1550   0.0127  -0.0233  -0.0495  13.00    3.1
2024/05/08 14:19:44.000   28.328216189  -16.438423115   878.0903   2   5   0.1086   0.1003   0.4505  -0.0257   0.1006  -0.1794  14.00    0.0
2024/05/08 14:19:45.000   28.328216337  -16.438423384   877.9916   2   5   0.1086   0.1003   0.4505  -0.0257   0.1005  -0.1793 -15.00    0.0
2024/05/08 14:19:46.000   28.328216477  -16.438423652   877.8933   2   5   0.1086   0.1003   0.4504  -0.0257   0.1005  -0.1793 -14.00    0.0
2024/05/08 14:19:47.000   28.328216624  -16.438423917   877.7953   2   5   0.1085   0.1002   0.4503  -0.0257   0.1004  -0.1792 -13.00    0.0
2024/05/08 14:19:48.000   28.328216766  -16.438424179   877.6971   2   5   0.1085   0.1002   0.4503  -0.0256   0.1003  -0.1792 -12.00    0.0
2024/05/08 14:19:49.000   28.328216913  -16.438424442   877.5990   2   5   0.1085   0.1001   0.4502  -0.0256   0.1003  -0.1791 -11.00    0.0
2024/05/08 14:19:50.000   28.328217053  -16.438424698   877.5028   2   5   0.1085   0.1001   0.4501  -0.0256   0.1002  -0.1791 -10.00    0.0
2024/05/08 14:19:51.000   28.328217199  -16.438424954   877.4063   2   5   0.1084   0.1001   0.4500  -0.0256   0.1002  -0.1790  -9.00    0.0
2024/05/08 14:19:52.000   28.328217338  -16.438425204   877.3115   2   5   0.1084   0.1000   0.4500  -0.0255   0.1001  -0.1790  -8.00    0.0
2024/05/08 14:19:53.000   28.328217484  -16.438425452   877.2163   2   5   0.1084   0.1000   0.4499  -0.0255   0.1001  -0.1789  -7.00    0.0
2024/05/08 14:19:54.000   28.328217625  -16.438425696   877.1216   2   5   0.1083   0.1000   0.4498  -0.0255   0.1000  -0.1789  -6.00    0.0
2024/05/08 14:19:55.000   28.328217769  -16.438425941   877.0273   2   5   0.1083   0.0999   0.4497  -0.0255   0.1000  -0.1788  -5.00    0.0
2024/05/08 14:19:56.000   28.328217901  -16.438426181   876.9361   2   5   0.1083   0.0999   0.4496  -0.0254   0.0999  -0.1788  -4.00    0.0
2024/05/08 14:19:57.000   28.328218041  -16.438426419   876.8455   2   5   0.1083   0.0998   0.4495  -0.0254   0.0998  -0.1787  -3.00    0.0
2024/05/08 14:19:58.000   28.328218176  -16.438426656   876.7537   2   5   0.1082   0.0998   0.4495  -0.0254   0.0998  -0.1786  -2.00    0.0
2024/05/08 14:19:59.000   28.328218313  -16.438426893   876.6644   2   5   0.1082   0.0998   0.4494  -0.0254   0.0997  -0.1786  -1.00    0.0
2024/05/08 14:20:00.000   28.328218450  -16.438427099   876.5728   2   5   0.1082   0.0998   0.4493  -0.0253   0.0997  -0.1786   0.00    0.0
2024/05/08 14:20:01.000   28.328218556  -16.438427371   876.3671   2   5   0.1082   0.0997   0.4490  -0.0253   0.0996  -0.1786   1.00    0.0
2024/05/08 14:20:02.000   28.328218679  -16.438427601   876.2638   2   5   0.1082   0.0997   0.4489  -0.0253   0.0995  -0.1785   2.00    0.0
2024/05/08 14:20:03.000   28.328218807  -16.438427829   876.1727   2   5   0.1082   0.0997   0.4489  -0.0253   0.0995  -0.1785   3.00    0.0
2024/05/08 14:20:04.000   28.328218931  -16.438428055   876.0838   2   5   0.1081   0.0996   0.4489  -0.0252   0.0994  -0.1785   4.00    0.0
2024/05/08 14:20:05.000   28.328219061  -16.438428279   875.9981   2   5   0.1081   0.0996   0.4489  -0.0252   0.0994  -0.1785   5.00    0.0
2024/05/08 14:20:06.000   28.328219188  -16.438428499   875.9115   2   5   0.1081   0.0996   0.4488  -0.0252   0.0993  -0.1785   6.00    0.0
2024/05/08 14:20:07.000   28.328219323  -16.438428720   875.8249   2   5   0.1081   0.0995   0.4488  -0.0252   0.0993  -0.1785   7.00    0.0
2024/05/08 14:20:08.000   28.328219448  -16.438428936   875.7399   2   5   0.1081   0.0995   0.4488  -0.0251   0.0992  -0.1784   8.00    0.0
2024/05/08 14:20:09.000   28.328219577  -16.438429150   875.6563   2   5   0.1081   0.0995   0.4488  -0.0251   0.0992  -0.1784   9.00    0.0
2024/05/08 14:20:10.000   28.328219699  -16.438429363   875.5726   2   5   0.1081   0.0994   0.4487  -0.0251   0.0992  -0.1784  10.00    0.0
2024/05/08 14:20:11.000   28.328219828  -16.438429574   875.4884   2   5   0.1081   0.0994   0.4487  -0.0251   0.0991  -0.1784  11.00    0.0
2024/05/08 14:20:12.000   28.328219951  -16.438429785   875.4052   2   5   0.1081   0.0994   0.4487  -0.0250   0.0991  -0.1783  12.00    0.0
2024/05/08 14:20:13.000   28.328220078  -16.438429996   875.3229   2   5   0.1080   0.0993   0.4486  -0.0250   0.0990  -0.1783  13.00    0.0
2024/05/08 14:20:14.000   28.328220196  -16.438430200   875.2412   2   5   0.1080   0.0993   0.4486  -0.0250   0.0990  -0.1783  14.00    0.0
2024/05/08 14:20:15.000   28.328220320  -16.438430404   875.1597   2   5   0.1080   0.0993   0.4485  -0.0250   0.0989  -0.1783 -15.00    0.0
2024/05/08 14:20:16.000   28.328220438  -16.438430606   875.0777   2   5   0.1080   0.0993   0.4485  -0.0249   0.0989  -0.1782 -14.00    0.0
2024/05/08 14:20:17.000   28.328220563  -16.438430808   874.9964   2   5   0.1080   0.0992   0.4484  -0.0249   0.0988  -0.1782 -13.00    0.0
2024/05/08 14:20:18.000   28.328220680  -16.438431006   874.9166   2   5   0.1079   0.0992   0.4484  -0.0249   0.0988  -0.1781 -12.00    0.0
2024/05/08 14:20:19.000   28.328220801  -16.438431204   874.8374   2   5   0.1079   0.0992   0.4483  -0.0249   0.0987  -0.1781 -11.00    0.0
2024/05/08 14:20:20.000   28.328220917  -16.438431401   874.7573   2   5   0.1079   0.0991   0.4482  -0.0249   0.0987  -0.1780 -10.00    0.0
2024/05/08 14:20:21.000   28.328221038  -16.438431598   874.6784   2   5   0.1079   0.0991   0.4482  -0.0248   0.0986  -0.1780  -9.00    0.0
2024/05/08 14:20:22.000   28.328221152  -16.438431787   874.5996   2   5   0.1078   0.0991   0.4481  -0.0248   0.0986  -0.1779  -8.00    0.0
2024/05/08 14:20:23.000   28.328221272  -16.438431979   874.5220   2   5   0.1078   0.0991   0.4480  -0.0248   0.0986  -0.1779  -7.00    0.0
2024/05/08 14:20:24.000   28.328221387  -16.438432168   874.4450   2   5   0.1078   0.0990   0.4480  -0.0248   0.0985  -0.1778  -6.00    0.0
2024/05/08 14:20:25.000   28.328221505  -16.438432354   874.3669   2   5   0.1078   0.0990   0.4479  -0.0248   0.0985  -0.1778  -5.00    0.0
2024/05/08 14:20:26.000   28.328221621  -16.438432539   874.2901   2   5   0.1077   0.0990   0.4478  -0.0247   0.0984  -0.1777  -4.00    0.0
2024/05/08 14:20:27.000   28.328221738  -16.438432720   874.2154   2   5   0.1077   0.0989   0.4477  -0.0247   0.0984  -0.1777  -3.00    0.0
2024/05/08 14:20:28.000   28.328221848  -16.438432901   874.1406   2   5   0.1077   0.0989   0.4477  -0.0247   0.0983  -0.1776  -2.00    0.0
2024/05/08 14:20:29.000   28.328221961  -16.438433083   874.0676   2   5   0.1077   0.0989   0.4476  -0.0247   0.0983  -0.1776  -1.00    0.0
2024/05/08 14:20:30.000   28.328222080  -16.438433241   873.9902   2   5   0.1076   0.0989   0.4476  -0.0246   0.0982  -0.1776   0.00    0.0
2024/05/08 14:20:31.000   28.328222171  -16.438433454   873.8251   2   5   0.1076   0.0988   0.4473  -0.0246   0.0982  -0.1776   1.00    0.0
2024/05/08 14:20:32.000   28.328222279  -16.438433624   873.7380   2   5   0.1076   0.0988   0.4473  -0.0246   0.0981  -0.1775   2.00    0.0
2024/05/08 14:20:33.000   28.328222395  -16.438433797   873.6597   2   5   0.1076   0.0988   0.4472  -0.0246   0.0981  -0.1775   3.00    0.0
2024/05/08 14:20:34.000   28.328222502  -16.438433968   873.5859   2   5   0.1076   0.0988   0.4472  -0.0245   0.0981  -0.1775   4.00    0.0
2024/05/08 14:20:35.000   28.328222614  -16.438434143   873.5150   2   5   0.1076   0.0987   0.4472  -0.0245   0.0980  -0.1775   5.00    0.0
2024/05/08 14:20:36.000   28.328222722  -16.438434314   873.4432   2   5   0.1076   0.0987   0.4472  -0.0245   0.0980  -0.1775   6.00    0.0
2024/05/08 14:20:37.000   28.328222834  -16.438434483   873.3737   2   5   0.1076   0.0987   0.4472  -0.0245   0.0979  -0.1775   7.00    0.0
2024/05/08 14:20:38.000   28.328222937  -16.438434650   873.3044   2   5   0.1076   0.0987   0.4472  -0.0245   0.0979  -0.1775   8.00    0.0
2024/05/08 14:20:39.000   28.328223046  -16.438434814   873.2367   2   5   0.1076   0.0987   0.4471  -0.0244   0.0979  -0.1774   9.00    0.0
2024/05/08 14:20:40.000   28.328223146  -16.438434979   873.1679   2   5   0.1075   0.0986   0.4471  -0.0244   0.0978  -0.1774  10.00    0.0
2024/05/08 14:20:41.000   28.328223249  -16.438435146   873.1011   2   5   0.1075   0.0986   0.4471  -0.0244   0.0978  -0.1774  11.00    0.0
2024/05/08 14:20:42.000   28.328223347  -16.438435308   873.0339   2   5   0.1075   0.0986   0.4471  -0.0244   0.0978  -0.1774  12.00    0.0
2024/05/08 14:20:43.000   28.328223450  -16.438435472   872.9689   2   5   0.1075   0.0986   0.4470  -0.0243   0.0977  -0.1773  13.00    0.0
2024/05/08 14:20:44.000   28.328223547  -16.438435634   872.9025   2   5   0.1075   0.0985   0.4470  -0.0243   0.0977  -0.1773  14.00    0.0
2024/05/08 14:20:45.000   28.328223649  -16.438435796   872.8374   2   5   0.1075   0.0985   0.4470  -0.0243   0.0976  -0.1773 -15.00    0.0
2024/05/08 14:20:46.000   28.328223745  -16.438435954   872.7711   2   5   0.1075   0.0985   0.4469  -0.0243   0.0976  -0.1773 -14.00    0.0
2024/05/08 14:20:47.000   28.328223844  -16.438436114   872.7065   2   5   0.1074   0.0985   0.4469  -0.0243   0.0976  -0.1772 -13.00    0.0
2024/05/08 14:20:48.000   28.328223937  -16.438436271   872.6413   2   5   0.1074   0.0984   0.4468  -0.0242   0.0975  -0.1772 -12.00    0.0
2024/05/08 14:20:49.000   28.328224038  -16.438436428   872.5770   2   5   0.1074   0.0984   0.4468  -0.0242   0.0975  -0.1771 -11.00    0.0
2024/05/08 14:20:50.000   28.328224133  -16.438436582   872.5108   2   5   0.1074   0.0984   0.4467  -0.0242   0.0975  -0.1771 -10.00    0.0
2024/05/08 14:20:51.000   28.328224236  -16.438436739   872.4461   2   5   0.1073   0.0984   0.4467  -0.0242   0.0974  -0.1771  -9.00    0.0
2024/05/08 14:20:52.000   28.328224331  -16.438436891   872.3809   2   5   0.1073   0.0984   0.4466  -0.0242   0.0974  -0.1770  -8.00    0.0
2024/05/08 14:20:53.000   28.328224431  -16.438437043   872.3169   2   5   0.1073   0.0983   0.4465  -0.0241   0.0974  -0.1770  -7.00    0.0
2024/05/08 14:20:54.000   28.328224525  -16.438437194   872.2517   2   5   0.1073   0.0983   0.4465  -0.0241   0.0973  -0.1769  -6.00    0.0
2024/05/08 14:20:55.000   28.328224623  -16.438437344   872.1885   2   5   0.1072   0.0983   0.4464  -0.0241   0.0973  -0.1769  -5.00    0.0
2024/05/08 14:20:56.000   28.328224717  -16.438437491   872.1242   2   5   0.1072   0.0983   0.4463  -0.0241   0.0973  -0.1768  -4.00    0.0
2024/05/08 14:20:57.000   28.328224815  -16.438437638   872.0625   2   5   0.1072   0.0983   0.4463  -0.0241   0.0972  -0.1768  -3.00    0.0
2024/05/08 14:20:58.000   28.328224911  -16.438437784   871.9985   2   6   0.1072   0.0982   0.4462  -0.0241   0.0972  -0.1767  -2.00    0.0
2024/05/08 14:20:59.000   28.328225013  -16.438437933   871.9342   2   5   0.1071   0.0982   0.4461  -0.0240   0.0972  -0.1767  -1.00    0.0
2024/05/08 14:21:00.000   28.328225114  -16.438438055   871.8692   2   6   0.1071   0.0982   0.4461  -0.0240   0.0971  -0.1766   0.00    0.0
2024/05/08 14:21:01.000   28.328225185  -16.438438232   871.7326   2   6   0.1071   0.0982   0.4459  -0.0240   0.0971  -0.1766   1.00    0.0
2024/05/08 14:21:02.000   28.328225280  -16.438438374   871.6555   2   5   0.1071   0.0982   0.4458  -0.0240   0.0970  -0.1766   2.00    0.0
2024/05/08 14:21:03.000   28.328225372  -16.438438515   871.5910   2   6   0.1071   0.0981   0.4458  -0.0239   0.0970  -0.1766   3.00    0.0
2024/05/08 14:21:04.000   28.328225472  -16.438438654   871.5279   2   5   0.1071   0.0981   0.4458  -0.0239   0.0970  -0.1766   4.00    0.0
2024/05/08 14:21:05.000   28.328225563  -16.438438792   871.4658   2   5   0.1071   0.0981   0.4458  -0.0239   0.0969  -0.1766   5.00    0.0
2024/05/08 14:21:06.000   28.328225653  -16.438438929   871.4075   2   5   0.1071   0.0981   0.4458  -0.0239   0.0969  -0.1766   6.00    0.0
2024/05/08 14:21:07.000   28.328225740  -16.438439065   871.3479   2   6   0.1071   0.0981   0.4458  -0.0239   0.0969  -0.1766   7.00    0.0
2024/05/08 14:21:08.000   28.328225827  -16.438439198   871.2897   2   6   0.1071   0.0980   0.4458  -0.0238   0.0968  -0.1765   8.00    0.0
2024/05/08 14:21:09.000   28.328225913  -16.438439330   871.2324   2   6   0.1071   0.0980   0.4458  -0.0238   0.0968  -0.1765   9.00    0.0
2024/05/08 14:21:10.000   28.328225999  -16.438439460   871.1754   2   6   0.1070   0.0980   0.4457  -0.0238   0.0968  -0.1765  10.00    0.0
2024/05/08 14:21:11.000   28.328226086  -16.438439592   871.1178   2   6   0.1070   0.0980   0.4457  -0.0238   0.0967  -0.1765  11.00    0.0
2024/05/08 14:21:12.000   28.328226175  -16.438439725   871.0592   2   6   0.1070   0.0980   0.4457  -0.0238   0.0967  -0.1765  12.00    0.0
2024/05/08 14:21:13.000   28.328226261  -16.438439854   871.0011   2   6   0.1070   0.0980   0.4457  -0.0237   0.0967  -0.1764  13.00    0.0
2024/05/08 14:21:14.000   28.328226347  -16.438439986   870.9430   2   6   0.1070   0.0979   0.4456  -0.0237   0.0966  -0.1764  14.00    0.0
2024/05/08 14:21:15.000   28.328226433  -16.438440115   870.8848   2   6   0.1070   0.0979   0.4456  -0.0237   0.0966  -0.1764 -15.00    0.0
2024/05/08 14:21:16.000   28.328226513  -16.438440241   870.8280   2   6   0.1070   0.0979   0.4456  -0.0237   0.0966  -0.1764 -14.00    0.0
2024/05/08 14:21:17.000   28.328226597  -16.438440371   870.7722   2   5   0.1069   0.0979   0.4455  -0.0237   0.0966  -0.1763 -13.00    0.0
2024/05/08 14:21:18.000   28.328226680  -16.438440497   870.7157   2   5   0.1069   0.0979   0.4455  -0.0236   0.0965  -0.1763 -12.00    0.0
2024/05/08 14:21:19.000   28.328226765  -16.438440624   870.6613   2   5   0.1069   0.0978   0.4455  -0.0236   0.0965  -0.1763 -11.00    0.0
2024/05/08 14:21:20.000   28.328226842  -16.438440748   870.6067   2   6   0.1069   0.0978   0.4454  -0.0236   0.0965  -0.1762 -10.00    0.0
2024/05/08 14:21:21.000   28.328226922  -16.438440871   870.5559   2   5   0.1069   0.0978   0.4453  -0.0236   0.0964  -0.1762  -9.00    0.0
2024/05/08 14:21:22.000   28.328226997  -16.438440992   870.5033   2   6   0.1068   0.0978   0.4453  -0.0236   0.0964  -0.1761  -8.00    0.0
2024/05/08 14:21:23.000   28.328227075  -16.438441115   870.4530   2   5   0.1068   0.0978   0.4452  -0.0236   0.0964  -0.1761  -7.00    0.0
2024/05/08 14:21:24.000   28.328227150  -16.438441236   870.3995   2   5   0.1068   0.0978   0.4452  -0.0235   0.0963  -0.1760  -6.00    0.0
2024/05/08 14:21:25.000   28.328227230  -16.438441358   870.3484   2   5   0.1068   0.0977   0.4451  -0.0235   0.0963  -0.1760  -5.00    0.0
2024/05/08 14:21:26.000   28.328227310  -16.438441476   870.2947   2   6   0.1067   0.0977   0.4450  -0.0235   0.0963  -0.1759  -4.00    0.0
2024/05/08 14:21:27.000   28.328227390  -16.438441595   870.2403   2   6   0.1067   0.0977   0.4450  -0.0235   0.0963  -0.1759  -3.00    0.0
2024/05/08 14:21:28.000   28.328227469  -16.438441713   870.1868   2   6   0.1067   0.0977   0.4449  -0.0235   0.0962  -0.1758  -2.00    0.0
2024/05/08 14:21:29.000   28.328227546  -16.438441831   870.1342   2   6   0.1067   0.0977   0.4449  -0.0235   0.0962  -0.1758  -1.00    0.0
2024/05/08 14:21:30.000   28.328227640  -16.438441925   870.0767   2   6   0.1067   0.0977   0.4449  -0.0234   0.0962  -0.1758   0.00    0.0
2024/05/08 14:21:31.000   28.328227698  -16.438442068   869.9513   2   6   0.1066   0.0977   0.4446  -0.0234   0.0961  -0.1758   1.00    0.0
2024/05/08 14:21:32.000   28.328227775  -16.438442184   869.8781   2   6   0.1066   0.0976   0.4446  -0.0234   0.0961  -0.1758   2.00    0.0
2024/05/08 14:21:33.000   28.328227855  -16.438442293   869.8187   2   6   0.1066   0.0976   0.4446  -0.0234   0.0961  -0.1757   3.00    0.0
2024/05/08 14:21:34.000   28.328227933  -16.438442402   869.7609   2   6   0.1066   0.0976   0.4445  -0.0234   0.0960  -0.1757   4.00    0.0
2024/05/08 14:21:35.000   28.328228006  -16.438442512   869.7077   2   6   0.1066   0.0976   0.4445  -0.0233   0.0960  -0.1757   5.00    0.0
2024/05/08 14:21:36.000   28.328228075  -16.438442618   869.6563   2   6   0.1066   0.0976   0.4445  -0.0233   0.0960  -0.1757   6.00    0.0
2024/05/08 14:21:37.000   28.328228148  -16.438442724   869.6037   2   6   0.1066   0.0976   0.4445  -0.0233   0.0960  -0.1757   7.00    0.0
2024/05/08 14:21:38.000   28.328228219  -16.438442832   869.5534   2   6   0.1066   0.0975   0.4445  -0.0233   0.0959  -0.1757   8.00    0.0
2024/05/08 14:21:39.000   28.328228291  -16.438442935   869.5024   2   6   0.1066   0.0975   0.4445  -0.0233   0.0959  -0.1757   9.00    0.0
2024/05/08 14:21:40.000   28.328228364  -16.438443039   869.4519   2   6   0.1066   0.0975   0.4445  -0.0232   0.0959  -0.1757  10.00    0.0
2024/05/08 14:21:41.000   28.328228437  -16.438443141   869.4015   2   6   0.1066   0.0975   0.4444  -0.0232   0.0959  -0.1756  11.00    0.0
2024/05/08 14:21:42.000   28.328228509  -16.438443245   869.3506   2   6   0.1065   0.0975   0.4444  -0.0232   0.0958  -0.1756  12.00    0.0
2024/05/08 14:21:43.000   28.328228583  -16.438443348   869.2991   2   6   0.1065   0.0975   0.4444  -0.0232   0.0958  -0.1756  13.00    0.0
2024/05/08 14:21:44.000   28.328228656  -16.438443447   869.2483   2   6   0.1065   0.0975   0.4444  -0.0232   0.0958  -0.1756  14.00    0.0
2024/05/08 14:21:45.000   28.328228729  -16.438443548   869.1971   2   6   0.1065   0.0974   0.4443  -0.0231   0.0958  -0.1756 -15.00    0.0
2024/05/08 14:21:46.000   28.328228802  -16.438443646   869.1459   2   6   0.1065   0.0974   0.4443  -0.0231   0.0958  -0.1755 -14.00    0.0
2024/05/08 14:21:47.000   28.328228872  -16.438443744   869.0949   2   6   0.1065   0.0974   0.4443  -0.0231   0.0957  -0.1755 -13.00    0.0
2024/05/08 14:21:48.000   28.328228943  -16.438443844   869.0430   2   6   0.1065   0.0974   0.4442  -0.0231   0.0957  -0.1755 -12.00    0.0
2024/05/08 14:21:49.000   28.328229012  -16.438443939   868.9911   2   6   0.1064   0.0974   0.4442  -0.0231   0.0957  -0.1754 -11.00    0.0
2024/05/08 14:21:50.000   28.328229083  -16.438444034   868.9385   2   6   0.1064   0.0974   0.4441  -0.0231   0.0957  -0.1754 -10.00    0.0
2024/05/08 14:21:51.000   28.328229149  -16.438444128   868.8870   2   6   0.1064   0.0974   0.4441  -0.0230   0.0957  -0.1754  -9.00    0.0
2024/05/08 14:21:52.000   28.328229213  -16.438444220   868.8349   2   6   0.1064   0.0973   0.4440  -0.0230   0.0956  -0.1753  -8.00    0.0
2024/05/08 14:21:53.000   28.328229273  -16.438444310   868.7835   2   6   0.1063   0.0973   0.4439  -0.0230   0.0956  -0.1753  -7.00    0.0
2024/05/08 14:21:54.000   28.328229330  -16.438444399   868.7307   2   6   0.1063   0.0973   0.4439  -0.0230   0.0956  -0.1752  -6.00    0.0
2024/05/08 14:21:55.000   28.328229387  -16.438444486   868.6762   2   6   0.1063   0.0973   0.4438  -0.0230   0.0956  -0.1752  -5.00    0.0
2024/05/08 14:21:56.000   28.328229441  -16.438444573   868.6213   2   6   0.1063   0.0973   0.4437  -0.0230   0.0956  -0.1752  -4.00    0.0
2024/05/08 14:21:57.000   28.328229487  -16.438444659   868.5682   2   6   0.1062   0.0973   0.4436  -0.0229   0.0956  -0.1751  -3.00    0.0
2024/05/08 14:21:58.000   28.328229533  -16.438444744   868.5146   2   6   0.1062   0.0973   0.4436  -0.0229   0.0955  -0.1751  -2.00    0.0
2024/05/08 14:21:59.000   28.328229576  -16.438444824   868.4581   2   6   0.1062   0.0972   0.4435  -0.0229   0.0955  -0.1751  -1.00    0.0
2024/05/08 14:22:00.000   28.328229628  -16.438444886   868.3984   2   6   0.1062   0.0973   0.4435  -0.0228   0.0955  -0.1750   0.00    0.0
2024/05/08 14:22:01.000   28.328229641  -16.438444993   868.2652   2   6   0.1061   0.0972   0.4432  -0.0228   0.0955  -0.1751   1.00    0.0
2024/05/08 14:22:02.000   28.328229685  -16.438445074   868.1741   2   6   0.1061   0.0972   0.4431  -0.0228   0.0954  -0.1751   2.00    0.0
2024/05/08 14:22:03.000   28.328229728  -16.438445152   868.0955   2   6   0.1061   0.0972   0.4430  -0.0228   0.0954  -0.1751   3.00    0.0
2024/05/08 14:22:04.000   28.328229767  -16.438445233   868.0248   2   6   0.1061   0.0972   0.4430  -0.0228   0.0954  -0.1751   4.00    0.0
2024/05/08 14:22:05.000   28.328229811  -16.438445312   867.9592   2   6   0.1061   0.0972   0.4429  -0.0227   0.0954  -0.1751   5.00    0.0
2024/05/08 14:22:06.000   28.328229854  -16.438445393   867.8985   2   6   0.1061   0.0972   0.4429  -0.0227   0.0954  -0.1751   6.00    0.0
2024/05/08 14:22:07.000   28.328229899  -16.438445474   867.8395   2   6   0.1061   0.0972   0.4428  -0.0227   0.0954  -0.1751   7.00    0.0
2024/05/08 14:22:08.000   28.328229948  -16.438445552   867.7813   2   6   0.1061   0.0971   0.4428  -0.0227   0.0954  -0.1751   8.00    0.0
2024/05/08 14:22:09.000   28.328230001  -16.438445634   867.7247   2   6   0.1061   0.0971   0.4427  -0.0226   0.0953  -0.1751   9.00    0.0
2024/05/08 14:22:10.000   28.328230058  -16.438445715   867.6694   2   6   0.1061   0.0971   0.4427  -0.0226   0.0953  -0.1750  10.00    0.0
2024/05/08 14:22:11.000   28.328230113  -16.438445794   867.6152   2   6   0.1060   0.0971   0.4427  -0.0226   0.0953  -0.1750  11.00    0.0
2024/05/08 14:22:12.000   28.328230168  -16.438445875   867.5621   2   6   0.1060   0.0971   0.4426  -0.0226   0.0953  -0.1750  12.00    0.0
2024/05/08 14:22:13.000   28.328230223  -16.438445955   867.5108   2   6   0.1060   0.0971   0.4426  -0.0226   0.0953  -0.1750  13.00    0.0
2024/05/08 14:22:14.000   28.328230278  -16.438446035   867.4606   2   6   0.1060   0.0971   0.4425  -0.0225   0.0953  -0.1750  14.00    0.0
2024/05/08 14:22:15.000   28.328230336  -16.438446115   867.4106   2   6   0.1060   0.0971   0.4425  -0.0225   0.0953  -0.1750 -15.00    0.0
2024/05/08 14:22:16.000   28.328230391  -16.438446196   867.3595   2   6   0.1060   0.0971   0.4424  -0.0225   0.0952  -0.1749 -14.00    0.0
2024/05/08 14:22:17.000   28.328230443  -16.438446276   867.3071   2   6   0.1059   0.0970   0.4424  -0.0225   0.0952  -0.1749 -13.00    0.0
2024/05/08 14:22:18.000   28.328230497  -16.438446357   867.2537   2   6   0.1059   0.0970   0.4423  -0.0225   0.0952  -0.1749 -12.00    0.0
2024/05/08 14:22:19.000   28.328230551  -16.438446434   867.1993   2   6   0.1059   0.0970   0.4423  -0.0225   0.0952  -0.1748 -11.00    0.0
2024/05/08 14:22:20.000   28.328230603  -16.438446510   867.1433   2   6   0.1059   0.0970   0.4422  -0.0224   0.0952  -0.1748 -10.00    0.0
2024/05/08 14:22:21.000   28.328230648  -16.438446586   867.0877   2   6   0.1059   0.0970   0.4421  -0.0224   0.0952  -0.1748  -9.00    0.0
2024/05/08 14:22:22.000   28.328230686  -16.438446659   867.0313   2   6   0.1058   0.0970   0.4420  -0.0224   0.0952  -0.1748  -8.00    0.0
2024/05/08 14:22:23.000   28.328230720  -16.438446728   866.9726   2   6   0.1058   0.0970   0.4419  -0.0224   0.0952  -0.1747  -7.00    0.0
2024/05/08 14:22:24.000   28.328230752  -16.438446796   866.9111   2   6   0.1058   0.0970   0.4418  -0.0224   0.0952  -0.1747  -6.00    0.0
2024/05/08 14:22:25.000   28.328230779  -16.438446865   866.8472   2   6   0.1057   0.0969   0.4417  -0.0223   0.0952  -0.1747  -5.00    0.0
2024/05/08 14:22:26.000   28.328230805  -16.438446934   866.7808   2   6   0.1057   0.0969   0.4416  -0.0223   0.0952  -0.1746  -4.00    0.0
2024/05/08 14:22:27.000   28.328230824  -16.438447000   866.7124   2   6   0.1057   0.0969   0.4415  -0.0223   0.0952  -0.1746  -3.00    0.0
2024/05/08 14:22:28.000   28.328230841  -16.438447064   866.6439   2   6   0.1057   0.0969   0.4414  -0.0223   0.0952  -0.1746  -2.00    0.0
2024/05/08 14:22:29.000   28.328230857  -16.438447127   866.5737   2   6   0.1056   0.0969   0.4412  -0.0222   0.0951  -0.1746  -1.00    0.0
2024/05/08 14:22:30.000   28.328230886  -16.438447172   866.4999   2   6   0.1056   0.0969   0.4412  -0.0221   0.0951  -0.1746   0.00    0.0
2024/05/08 14:22:31.000   28.328230876  -16.438447268   866.3508   2   6   0.1056   0.0969   0.4409  -0.0222   0.0951  -0.1746   1.00    0.0
2024/05/08 14:22:32.000   28.328230890  -16.438447339   866.2448   2   6   0.1056   0.0969   0.4407  -0.0221   0.0951  -0.1746   2.00    0.0
2024/05/08 14:22:33.000   28.328230917  -16.438447407   866.1536   2   6   0.1056   0.0969   0.4406  -0.0221   0.0951  -0.1747   3.00    0.0
2024/05/08 14:22:34.000   28.328230952  -16.438447474   866.0689   2   6   0.1055   0.0969   0.4405  -0.0221   0.0951  -0.1747   4.00    0.0
2024/05/08 14:22:35.000   28.328230986  -16.438447542   865.9937   2   6   0.1055   0.0968   0.4404  -0.0221   0.0951  -0.1747   5.00    0.0
2024/05/08 14:22:36.000   28.328231025  -16.438447610   865.9243   2   6   0.1055   0.0968   0.4403  -0.0220   0.0951  -0.1747   6.00    0.0
2024/05/08 14:22:37.000   28.328231069  -16.438447677   865.8581   2   6   0.1055   0.0968   0.4402  -0.0220   0.0951  -0.1747   7.00    0.0
2024/05/08 14:22:38.000   28.328231112  -16.438447744   865.7949   2   6   0.1055   0.0968   0.4402  -0.0220   0.0950  -0.1747   8.00    0.0
2024/05/08 14:22:39.000   28.328231161  -16.438447814   865.7353   2   6   0.1055   0.0968   0.4401  -0.0220   0.0950  -0.1747   9.00    0.0
2024/05/08 14:22:40.000   28.328231209  -16.438447885   865.6792   2   6   0.1055   0.0968   0.4400  -0.0220   0.0950  -0.1747  10.00    0.0
2024/05/08 14:22:41.000   28.328231257  -16.438447956   865.6258   2   6   0.1055   0.0968   0.4400  -0.0219   0.0950  -0.1746  11.00    0.0
2024/05/08 14:22:42.000   28.328231307  -16.438448025   865.5753   2   6   0.1055   0.0968   0.4399  -0.0219   0.0950  -0.1746  12.00    0.0
2024/05/08 14:22:43.000   28.328231358  -16.438448097   865.5253   2   6   0.1054   0.0968   0.4399  -0.0219   0.0950  -0.1746  13.00    0.0
2024/05/08 14:22:44.000   28.328231411  -16.438448170   865.4767   2   6   0.1054   0.0968   0.4398  -0.0219   0.0950  -0.1746  14.00    0.0
2024/05/08 14:22:45.000   28.328231462  -16.438448243   865.4309   2   6   0.1054   0.0968   0.4398  -0.0219   0.0950  -0.1746 -15.00    0.0
2024/05/08 14:22:46.000   28.328231513  -16.438448311   865.3836   2   6   0.1054   0.0967   0.4397  -0.0219   0.0950  -0.1746 -14.00    0.0
2024/05/08 14:22:47.000   28.328231560  -16.438448378   865.3344   2   6   0.1054   0.0967   0.4397  -0.0218   0.0949  -0.1745 -13.00    0.0
2024/05/08 14:22:48.000   28.328231606  -16.438448447   865.2846   2   6   0.1054   0.0967   0.4396  -0.0218   0.0949  -0.1745 -12.00    0.0
2024/05/08 14:22:49.000   28.328231654  -16.438448516   865.2329   2   6   0.1053   0.0967   0.4395  -0.0218   0.0949  -0.1745 -11.00    0.0
2024/05/08 14:22:50.000   28.328231702  -16.438448584   865.1780   2   6   0.1053   0.0967   0.4394  -0.0218   0.0949  -0.1744 -10.00    0.0
2024/05/08 14:22:51.000   28.328231746  -16.438448648   865.1237   2   6   0.1053   0.0967   0.4393  -0.0218   0.0949  -0.1744  -9.00    0.0
2024/05/08 14:22:52.000   28.328231789  -16.438448709   865.0673   2   6   0.1053   0.0967   0.4392  -0.0218   0.0949  -0.1744  -8.00    0.0
2024/05/08 14:22:53.000   28.328231825  -16.438448772   865.0082   2   6   0.1053   0.0967   0.4391  -0.0217   0.0949  -0.1744  -7.00    0.0
2024/05/08 14:22:54.000   28.328231856  -16.438448830   864.9489   2   6   0.1052   0.0967   0.4390  -0.0217   0.0949  -0.1743  -6.00    0.0
2024/05/08 14:22:55.000   28.328231884  -16.438448888   864.8891   2   6   0.1052   0.0967   0.4389  -0.0217   0.0949  -0.1743  -5.00    0.0
2024/05/08 14:22:56.000   28.328231906  -16.438448946   864.8298   2   6   0.1052   0.0966   0.4388  -0.0217   0.0949  -0.1743  -4.00    0.0
2024/05/08 14:22:57.000   28.328231925  -16.438449005   864.7693   2   6   0.1051   0.0966   0.4386  -0.0217   0.0949  -0.1743  -3.00    0.0
2024/05/08 14:22:58.000   28.328231944  -16.438449062   864.7083   2   6   0.1051   0.0966   0.4385  -0.0216   0.0949  -0.1743  -2.00    0.0
2024/05/08 14:22:59.000   28.328231962  -16.438449118   864.6466   2   6   0.1051   0.0966   0.4384  -0.0216   0.0949  -0.1742  -1.00    0.0
2024/05/08 14:23:00.000   28.328231989  -16.438449159   864.5847   2   6   0.1051   0.0966   0.4383  -0.0215   0.0949  -0.1743   0.00    0.0
2024/05/08 14:23:01.000   28.328231982  -16.438449243   864.4742   2   6   0.1050   0.0966   0.4381  -0.0216   0.0949  -0.1743   1.00    0.0
2024/05/08 14:23:02.000   28.328232003  -16.438449304   864.3924   2   6   0.1050   0.0966   0.4380  -0.0215   0.0948  -0.1743   2.00    0.0
2024/05/08 14:23:03.000   28.328232028  -16.438449363   864.3194   2   6   0.1050   0.0966   0.4379  -0.0215   0.0948  -0.1743   3.00    0.0
2024/05/08 14:23:04.000   28.328232063  -16.438449422   864.2534   2   6   0.1050   0.0966   0.4378  -0.0215   0.0948  -0.1743   4.00    0.0
2024/05/08 14:23:05.000   28.328232103  -16.438449482   864.1923   2   6   0.1050   0.0966   0.4377  -0.0215   0.0948  -0.1743   5.00    0.0
2024/05/08 14:23:06.000   28.328232146  -16.438449539   864.1357   2   6   0.1050   0.0966   0.4377  -0.0215   0.0948  -0.1743   6.00    0.0
2024/05/08 14:23:07.000   28.328232196  -16.438449599   864.0815   2   6   0.1050   0.0966   0.4376  -0.0214   0.0948  -0.1743   7.00    0.0
2024/05/08 14:23:08.000   28.328232240  -16.438449659   864.0311   2   6   0.1050   0.0966   0.4376  -0.0214   0.0948  -0.1743   8.00    0.0
2024/05/08 14:23:09.000   28.328232289  -16.438449720   863.9829   2   6   0.1050   0.0965   0.4375  -0.0214   0.0948  -0.1743   9.00    0.0
2024/05/08 14:23:10.000   28.328232340  -16.438449782   863.9372   2   6   0.1049   0.0965   0.4375  -0.0214   0.0948  -0.1743  10.00    0.0
2024/05/08 14:23:11.000   28.328232391  -16.438449842   863.8937   2   6   0.1049   0.0965   0.4374  -0.0214   0.0948  -0.1743  11.00    0.0
2024/05/08 14:23:12.000   28.328232443  -16.438449902   863.8511   2   6   0.1049   0.0965   0.4374  -0.0213   0.0948  -0.1742  12.00    0.0
2024/05/08 14:23:13.000   28.328232496  -16.438449963   863.8097   2   6   0.1049   0.0965   0.4373  -0.0213   0.0948  -0.1742  13.00    0.0
2024/05/08 14:23:14.000   28.328232552  -16.438450025   863.7676   2   6   0.1049   0.0965   0.4373  -0.0213   0.0948  -0.1742  14.00    0.0
2024/05/08 14:23:15.000   28.328232606  -16.438450086   863.7269   2   6   0.1049   0.0965   0.4373  -0.0213   0.0947  -0.1742 -15.00    0.0
2024/05/08 14:23:16.000   28.328232657  -16.438450147   863.6860   2   6   0.1049   0.0965   0.4372  -0.0213   0.0947  -0.1742 -14.00    0.0
2024/05/08 14:23:17.000   28.328232706  -16.438450209   863.6449   2   6   0.1049   0.0965   0.4371  -0.0213   0.0947  -0.1741 -13.00    0.0
2024/05/08 14:23:18.000   28.328232756  -16.438450269   863.6025   2   6   0.1048   0.0965   0.4371  -0.0213   0.0947  -0.1741 -12.00    0.0
2024/05/08 14:23:19.000   28.328201538  -16.438372674   891.3869   1   6   0.0305   0.0219   0.1606   0.0114  -0.0218  -0.0513 -11.00    3.3
2024/05/08 14:23:20.000   28.328201539  -16.438372664   891.3866   1   6   0.0305   0.0220   0.1607   0.0114  -0.0218  -0.0513 -10.00    3.1
2024/05/08 14:23:21.000   28.328232892  -16.438450434   863.4710   2   6   0.1048   0.0965   0.4368  -0.0212   0.0947  -0.1740  -9.00    0.0
2024/05/08 14:23:22.000   28.328232934  -16.438450489   863.4249   2   6   0.1047   0.0964   0.4367  -0.0212   0.0947  -0.1740  -8.00    0.0
2024/05/08 14:23:23.000   28.328232972  -16.438450542   863.3775   2   6   0.1047   0.0964   0.4366  -0.0212   0.0947  -0.1740  -7.00    0.0
2024/05/08 14:23:24.000   28.328233005  -16.438450594   863.3308   2   6   0.1047   0.0964   0.4365  -0.0212   0.0947  -0.1739  -6.00    0.0
2024/05/08 14:23:25.000   28.328233036  -16.438450647   863.2837   2   6   0.1047   0.0964   0.4364  -0.0212   0.0947  -0.1739  -5.00    0.0
2024/05/08 14:23:26.000   28.328233067  -16.438450697   863.2343   2   6   0.1046   0.0964   0.4363  -0.0211   0.0947  -0.1739  -4.00    0.0
2024/05/08 14:23:27.000   28.328233092  -16.438450746   863.1856   2   6   0.1046   0.0964   0.4362  -0.0211   0.0947  -0.1739  -3.00    0.0
2024/05/08 14:23:28.000   28.328233113  -16.438450794   863.1385   2   6   0.1046   0.0964   0.4361  -0.0211   0.0947  -0.1738  -2.00    0.0
2024/05/08 14:23:29.000   28.328233131  -16.438450842   863.0934   2   6   0.1046   0.0964   0.4360  -0.0211   0.0947  -0.1738  -1.00    0.0
2024/05/08 14:23:30.000   28.328233165  -16.438450873   863.0458   2   6   0.1046   0.0964   0.4360  -0.0210   0.0947  -0.1738   0.00    0.0
2024/05/08 14:23:31.000   28.328233161  -16.438450941   862.9613   2   6   0.1045   0.0964   0.4358  -0.0210   0.0947  -0.1738   1.00    0.0
2024/05/08 14:23:32.000   28.328233179  -16.438450990   862.9011   2   6   0.1045   0.0964   0.4357  -0.0210   0.0947  -0.1738   2.00    0.0
2024/05/08 14:23:33.000   28.328233199  -16.438451037   862.8500   2   6   0.1045   0.0964   0.4356  -0.0210   0.0947  -0.1738   3.00    0.0
2024/05/08 14:23:34.000   28.328233222  -16.438451083   862.8029   2   6   0.1045   0.0964   0.4356  -0.0210   0.0947  -0.1739   4.00    0.0
2024/05/08 14:23:35.000   28.328233252  -16.438451129   862.7566   2   6   0.1045   0.0964   0.4355  -0.0209   0.0947  -0.1739   5.00    0.0
2024/05/08 14:23:36.000   28.328233290  -16.438451176   862.7126   2   6   0.1045   0.0963   0.4355  -0.0209   0.0947  -0.1739   6.00    0.0
2024/05/08 14:23:37.000   28.328233331  -16.438451224   862.6711   2   6   0.1045   0.0963   0.4355  -0.0209   0.0947  -0.1739   7.00    0.0
2024/05/08 14:23:38.000   28.328233370  -16.438451273   862.6327   2   6   0.1045   0.0963   0.4354  -0.0209   0.0947  -0.1738   8.00    0.0
2024/05/08 14:23:39.000   28.328233408  -16.438451322   862.5961   2   6   0.1044   0.0963   0.4354  -0.0209   0.0946  -0.1738   9.00    0.0
2024/05/08 14:23:40.000   28.328233447  -16.438451374   862.5612   2   6   0.1044   0.0963   0.4354  -0.0208   0.0946  -0.1738  10.00    0.0
2024/05/08 14:23:41.000   28.328233487  -16.438451424   862.5277   2   6   0.1044   0.0963   0.4353  -0.0208   0.0946  -0.1738  11.00    0.0
2024/05/08 14:23:42.000   28.328233531  -16.438451475   862.4934   2   6   0.1044   0.0963   0.4353  -0.0208   0.0946  -0.1738  12.00    0.0
2024/05/08 14:23:43.000   28.328233577  -16.438451526   862.4585   2   6   0.1044   0.0963   0.4352  -0.0208   0.0946  -0.1738  13.00    0.0
2024/05/08 14:23:44.000   28.328233621  -16.438451578   862.4258   2   6   0.1044   0.0963   0.4352  -0.0208   0.0946  -0.1738  14.00    0.0
2024/05/08 14:23:45.000   28.328233668  -16.438451627   862.3923   2   6   0.1044   0.0963   0.4352  -0.0208   0.0946  -0.1737 -15.00    0.0
2024/05/08 14:23:46.000   28.328233713  -16.438451677   862.3592   2   6   0.1044   0.0963   0.4351  -0.0208   0.0946  -0.1737 -14.00    0.0
2024/05/08 14:23:47.000   28.328233756  -16.438451726   862.3261   2   6   0.1043   0.0963   0.4351  -0.0207   0.0946  -0.1737 -13.00    0.0
2024/05/08 14:23:48.000   28.328233800  -16.438451775   862.2916   2   6   0.1043   0.0963   0.4350  -0.0207   0.0946  -0.1737 -12.00    0.0
2024/05/08 14:23:49.000   28.328233843  -16.438451821   862.2567   2   6   0.1043   0.0963   0.4349  -0.0207   0.0946  -0.1736 -11.00    0.0
2024/05/08 14:23:50.000   28.328233884  -16.438451868   862.2204   2   6   0.1043   0.0963   0.4349  -0.0207   0.0946  -0.1736 -10.00    0.0
2024/05/08 14:23:51.000   28.328233923  -16.438451914   862.1844   2   6   0.1043   0.0963   0.4348  -0.0207   0.0946  -0.1736  -9.00    0.0
2024/05/08 14:23:52.000   28.328233956  -16.438451956   862.1483   2   6   0.1042   0.0962   0.4347  -0.0207   0.0946  -0.1735  -8.00    0.0
2024/05/08 14:23:53.000   28.328233988  -16.438452001   862.1116   2   6   0.1042   0.0962   0.4346  -0.0207   0.0946  -0.1735  -7.00    0.0
2024/05/08 14:23:54.000   28.328234021  -16.438452044   862.0728   2   6   0.1042   0.0962   0.4345  -0.0206   0.0946  -0.1735  -6.00    0.0
2024/05/08 14:23:55.000   28.328234048  -16.438452086   862.0353   2   6   0.1042   0.0962   0.4344  -0.0206   0.0946  -0.1734  -5.00    0.0
2024/05/08 14:23:56.000   28.328234073  -16.438452128   861.9976   2   6   0.1041   0.0962   0.4343  -0.0206   0.0946  -0.1734  -4.00    0.0
2024/05/08 14:23:57.000   28.328234098  -16.438452168   861.9586   2   6   0.1041   0.0962   0.4342  -0.0206   0.0946  -0.1734  -3.00    0.0
2024/05/08 14:23:58.000   28.328234119  -16.438452210   861.9208   2   6   0.1041   0.0962   0.4341  -0.0206   0.0946  -0.1734  -2.00    0.0
2024/05/08 14:23:59.000   28.328234139  -16.438452249   861.8834   2   6   0.1041   0.0962   0.4341  -0.0206   0.0946  -0.1734  -1.00    0.0
2024/05/08 14:24:00.000   28.328234170  -16.438452273   861.8438   2   6   0.1041   0.0962   0.4340  -0.0205   0.0946  -0.1734   0.00    0.0
2024/05/08 14:24:01.000   28.328234176  -16.438452330   861.7823   2   6   0.1040   0.0962   0.4339  -0.0205   0.0946  -0.1734   1.00    0.0
2024/05/08 14:24:02.000   28.328234198  -16.438452367   861.7364   2   6   0.1040   0.0962   0.4338  -0.0205   0.0946  -0.1734   2.00    0.0
2024/05/08 14:24:03.000   28.328234224  -16.438452410   861.6956   2   6   0.1040   0.0962   0.4338  -0.0205   0.0946  -0.1734   3.00    0.0
2024/05/08 14:24:04.000   28.328234259  -16.438452449   861.6577   2   6   0.1040   0.0962   0.4337  -0.0204   0.0946  -0.1734   4.00    0.0
2024/05/08 14:24:05.000   28.328234292  -16.438452491   861.6217   2   6   0.1040   0.0962   0.4337  -0.0204   0.0946  -0.1734   5.00    0.0
2024/05/08 14:24:06.000   28.328234324  -16.438452532   861.5885   2   6   0.1040   0.0962   0.4336  -0.0204   0.0946  -0.1734   6.00    0.0
2024/05/08 14:24:07.000   28.328234360  -16.438452577   861.5562   2   6   0.1040   0.0962   0.4336  -0.0204   0.0946  -0.1734   7.00    0.0
2024/05/08 14:24:08.000   28.328234397  -16.438452621   861.5257   2   6   0.1040   0.0962   0.4336  -0.0203   0.0946  -0.1734   8.00    0.0
2024/05/08 14:24:09.000   28.328234435  -16.438452666   861.4958   2   6   0.1039   0.0961   0.4336  -0.0203   0.0946  -0.1734   9.00    0.0
2024/05/08 14:24:10.000   28.328234473  -16.438452713   861.4671   2   6   0.1039   0.0961   0.4335  -0.0203   0.0946  -0.1733  10.00    0.0
2024/05/08 14:24:11.000   28.328206374  -16.438379692   888.0798   1   6   0.0305   0.0221   0.1621   0.0110  -0.0212  -0.0518  11.00    4.3
2024/05/08 14:24:12.000   28.328206374  -16.438379684   888.0803   1   6   0.0306   0.0222   0.1622   0.0110  -0.0212  -0.0518  12.00    6.6
2024/05/08 14:24:13.000   28.328206375  -16.438379676   888.0805   1   6   0.0306   0.0222   0.1622   0.0110  -0.0212  -0.0518  13.00    9.0
2024/05/08 14:24:14.000   28.328206375  -16.438379667   888.0808   1   6   0.0306   0.0222   0.1623   0.0110  -0.0212  -0.0518  14.00   10.1
2024/05/08 14:24:15.000   28.328206375  -16.438379658   888.0809   1   6   0.0306   0.0222   0.1623   0.0111  -0.0212  -0.0518  15.00    7.9
2024/05/08 14:24:16.000   28.328206376  -16.438379649   888.0808   1   6   0.0306   0.0222   0.1624   0.0111  -0.0213  -0.0519 -14.00    5.0
2024/05/08 14:24:17.000   28.328206377  -16.438379640   888.0810   1   6   0.0306   0.0222   0.1625   0.0111  -0.0213  -0.0519 -13.00    3.2
2024/05/08 14:24:18.000   28.328234785  -16.438453074   861.2485   2   6   0.1038   0.0961   0.4332  -0.0202   0.0945  -0.1732 -12.00    0.0
2024/05/08 14:24:19.000   28.328234824  -16.438453119   861.2189   2   6   0.1038   0.0961   0.4331  -0.0202   0.0945  -0.1731 -11.00    0.0
2024/05/08 14:24:20.000   28.328234864  -16.438453162   861.1891   2   6   0.1038   0.0961   0.4330  -0.0202   0.0945  -0.1731 -10.00    0.0
2024/05/08 14:24:21.000   28.328234905  -16.438453204   861.1578   2   6   0.1038   0.0961   0.4329  -0.0202   0.0946  -0.1731  -9.00    0.0
2024/05/08 14:24:22.000   28.328234943  -16.438453245   861.1257   2   6   0.1037   0.0961   0.4329  -0.0202   0.0946  -0.1730  -8.00    0.0
2024/05/08 14:24:23.000   28.328234977  -16.438453285   861.0933   2   6   0.1037   0.0961   0.4328  -0.0202   0.0946  -0.1730  -7.00    0.0
2024/05/08 14:24:24.000   28.328235010  -16.438453325   861.0610   2   6   0.1037   0.0961   0.4327  -0.0201   0.0946  -0.1730  -6.00    0.0
2024/05/08 14:24:25.000   28.328235042  -16.438453363   861.0288   2   6   0.1037   0.0961   0.4326  -0.0201   0.0946  -0.1729  -5.00    0.0
2024/05/08 14:24:26.000   28.328235068  -16.438453400   860.9966   2   6   0.1036   0.0961   0.4325  -0.0201   0.0946  -0.1729  -4.00    0.0
2024/05/08 14:24:27.000   28.328235095  -16.438453438   860.9638   2   6   0.1036   0.0961   0.4324  -0.0201   0.0946  -0.1729  -3.00    0.0
2024/05/08 14:24:28.000   28.328235120  -16.438453476   860.9310   2   6   0.1036   0.0960   0.4323  -0.0201   0.0946  -0.1729  -2.00    0.0
