% program   : RTKPOST-EX 2.5.0
% inp file  : C:\Users\SallyHenry\Desktop\Sally Internship\GNSS gravi\DATA\Survey Rover Obs\GUI14.24o
% inp file  : C:\Users\SallyHenry\Desktop\Sally Internship\GNSS gravi\DATA\BaseStations\TN01\TN0100ESP_R_20241290000_01D_30S_MO.rnx
% inp file  : C:\Users\SallyHenry\Desktop\Sally Internship\GNSS gravi\DATA\BaseStations\TN01\TN0100ESP_R_20241290000_01D_MN.rnx
% inp file  : C:\Users\SallyHenry\Desktop\Sally Internship\GNSS gravi\DATA\aux_files\Survey\IGS0OPSFIN_20241290000_01D_15M_ORB.SP3
% inp file  : C:\Users\SallyHenry\Desktop\Sally Internship\GNSS gravi\DATA\aux_files\Survey\IGS0OPSFIN_20241290000_01D_30S_CLK.CLK
% obs start : 2024/05/08 13:29:36.0 GPST (week2313 307776.0s)
% obs end   : 2024/05/08 13:44:36.0 GPST (week2313 308676.0s)
% pos mode  : Static
% freqs     : L1+L2/E5b
% solution  : Combined-No Phase Reset
% elev mask : 15.0 deg
% dynamics  : on
% tidecorr  : solid
% ionos opt : Estimate TEC
% tropo opt : Estimate ZTD+Grad
% ephemeris : Precise
% navi sys  : GPS GLONASS Galileo QZSS BDS
% amb res   : Fix and Hold
% amb glo   : Fix and Hold
% amb bds   : on
% val thres : 3.0
% antenna1  :                       ( 0.0000  0.0000  1.8000)
% antenna2  :                       ( 0.0000  0.0000  0.0771)
% ref pos   :  28.477186930  -16.241151700    51.7531
%
% (lat/lon/height=WGS84/ellipsoidal,Q=1:fix,2:float,3:sbas,4:dgps,5:single,6:ppp,ns=# of satellites)
%  GPST                  latitude(deg) longitude(deg)  height(m)   Q  ns   sdn(m)   sde(m)   sdu(m)  sdne(m)  sdeu(m)  sdun(m) age(s)  ratio
2024/05/08 13:29:36.000   28.341755689  -16.436769808   842.8278   2   6   0.0198   0.0561   0.1002   0.0234  -0.0481  -0.0327 -24.00    0.0
2024/05/08 13:29:37.000   28.341755686  -16.436769803   842.8285   2   6   0.0198   0.0560   0.1002   0.0234  -0.0481  -0.0327 -23.00    0.0
2024/05/08 13:29:38.000   28.341755685  -16.436769795   842.8287   2   6   0.0198   0.0560   0.1002   0.0234  -0.0480  -0.0327 -22.00    0.0
2024/05/08 13:29:39.000   28.341755684  -16.436769789   842.8288   2   6   0.0198   0.0560   0.1002   0.0233  -0.0479  -0.0326 -21.00    0.0
2024/05/08 13:29:40.000   28.341755683  -16.436769783   842.8289   2   6   0.0198   0.0559   0.1002   0.0233  -0.0479  -0.0326 -20.00    0.0
2024/05/08 13:29:41.000   28.341755683  -16.436769777   842.8288   2   6   0.0198   0.0559   0.1001   0.0233  -0.0478  -0.0326 -19.00    0.0
2024/05/08 13:29:42.000   28.341755682  -16.436769774   842.8289   2   6   0.0198   0.0558   0.1001   0.0233  -0.0478  -0.0326 -18.00    0.0
2024/05/08 13:29:43.000   28.341755681  -16.436769771   842.8288   2   6   0.0198   0.0558   0.1001   0.0232  -0.0477  -0.0326 -17.00    0.0
2024/05/08 13:29:44.000   28.341755681  -16.436769769   842.8288   2   6   0.0198   0.0557   0.1001   0.0232  -0.0477  -0.0326 -16.00    0.0
2024/05/08 13:29:45.000   28.341755681  -16.436769768   842.8288   2   6   0.0198   0.0557   0.1001   0.0232  -0.0476  -0.0326 -15.00    0.0
2024/05/08 13:29:46.000   28.341755681  -16.436769766   842.8285   2   6   0.0198   0.0557   0.1000   0.0232  -0.0476  -0.0325 -14.00    0.0
2024/05/08 13:29:47.000   28.341755681  -16.436769763   842.8282   2   6   0.0198   0.0556   0.1000   0.0232  -0.0475  -0.0325 -13.00    0.0
2024/05/08 13:29:48.000   28.341755680  -16.436769760   842.8279   2   6   0.0198   0.0556   0.1000   0.0231  -0.0475  -0.0325 -12.00    0.0
2024/05/08 13:29:49.000   28.341755680  -16.436769758   842.8277   2   6   0.0198   0.0556   0.1000   0.0231  -0.0474  -0.0325 -11.00    0.0
2024/05/08 13:29:50.000   28.341755680  -16.436769754   842.8275   2   6   0.0198   0.0555   0.1000   0.0231  -0.0474  -0.0325 -10.00    0.0
2024/05/08 13:29:51.000   28.341755679  -16.436769751   842.8274   2   6   0.0198   0.0555   0.1000   0.0231  -0.0473  -0.0325  -9.00    0.0
2024/05/08 13:29:52.000   28.341755678  -16.436769749   842.8275   2   6   0.0198   0.0555   0.1000   0.0231  -0.0473  -0.0325  -8.00    0.0
2024/05/08 13:29:53.000   28.341755677  -16.436769747   842.8277   2   6   0.0198   0.0554   0.1000   0.0231  -0.0473  -0.0325  -7.00    0.0
2024/05/08 13:29:54.000   28.341755676  -16.436769741   842.8277   2   6   0.0198   0.0554   0.1000   0.0230  -0.0472  -0.0325  -6.00    0.0
2024/05/08 13:29:55.000   28.341755674  -16.436769736   842.8281   2   6   0.0198   0.0554   0.1000   0.0230  -0.0472  -0.0325  -5.00    0.0
2024/05/08 13:29:56.000   28.341755672  -16.436769729   842.8285   2   6   0.0198   0.0554   0.1001   0.0230  -0.0472  -0.0325  -4.00    0.0
2024/05/08 13:29:57.000   28.341755669  -16.436769719   842.8286   2   6   0.0198   0.0554   0.1001   0.0230  -0.0472  -0.0325  -3.00    0.0
2024/05/08 13:29:58.000   28.341755665  -16.436769710   842.8294   2   6   0.0198   0.0554   0.1002   0.0230  -0.0472  -0.0325  -2.00    0.0
2024/05/08 13:29:59.000   28.341755661  -16.436769698   842.8295   2   6   0.0198   0.0553   0.1003   0.0230  -0.0472  -0.0325  -1.00    0.0
2024/05/08 13:30:00.000   28.341755655  -16.436769684   842.8301   2   6   0.0199   0.0554   0.1004   0.0230  -0.0472  -0.0325   0.00    0.0
2024/05/08 13:30:01.000   28.341755649  -16.436769670   842.8317   2   6   0.0199   0.0554   0.1005   0.0230  -0.0472  -0.0326   1.00    0.0
2024/05/08 13:30:02.000   28.341755643  -16.436769661   842.8341   2   6   0.0199   0.0554   0.1006   0.0230  -0.0472  -0.0326   2.00    0.0
2024/05/08 13:30:03.000   28.341755637  -16.436769654   842.8356   2   6   0.0199   0.0554   0.1006   0.0230  -0.0472  -0.0326   3.00    0.0
2024/05/08 13:30:04.000   28.341755633  -16.436769644   842.8369   2   6   0.0199   0.0553   0.1007   0.0230  -0.0472  -0.0326   4.00    0.0
2024/05/08 13:30:05.000   28.341755629  -16.436769639   842.8381   2   6   0.0199   0.0553   0.1008   0.0230  -0.0472  -0.0326   5.00    0.0
2024/05/08 13:30:06.000   28.341755625  -16.436769631   842.8389   2   6   0.0200   0.0553   0.1008   0.0230  -0.0472  -0.0326   6.00    0.0
2024/05/08 13:30:07.000   28.341755622  -16.436769627   842.8396   2   6   0.0200   0.0553   0.1008   0.0230  -0.0472  -0.0326   7.00    0.0
2024/05/08 13:30:08.000   28.341755620  -16.436769623   842.8399   2   6   0.0200   0.0553   0.1009   0.0229  -0.0471  -0.0326   8.00    0.0
2024/05/08 13:30:09.000   28.341755618  -16.436769618   842.8402   2   6   0.0200   0.0553   0.1009   0.0229  -0.0471  -0.0326   9.00    0.0
2024/05/08 13:30:10.000   28.341755616  -16.436769617   842.8407   2   6   0.0200   0.0553   0.1009   0.0229  -0.0471  -0.0326  10.00    0.0
2024/05/08 13:30:11.000   28.341755615  -16.436769615   842.8409   2   6   0.0200   0.0552   0.1009   0.0229  -0.0471  -0.0326  11.00    0.0
2024/05/08 13:30:12.000   28.341755614  -16.436769612   842.8412   2   6   0.0200   0.0552   0.1009   0.0229  -0.0471  -0.0326  12.00    0.0
2024/05/08 13:30:13.000   28.341755613  -16.436769608   842.8411   2   6   0.0200   0.0552   0.1009   0.0229  -0.0470  -0.0326  13.00    0.0
2024/05/08 13:30:14.000   28.341755613  -16.436769607   842.8412   2   6   0.0200   0.0552   0.1009   0.0229  -0.0470  -0.0326  14.00    0.0
2024/05/08 13:30:15.000   28.341755612  -16.436769605   842.8412   2   6   0.0200   0.0552   0.1009   0.0229  -0.0470  -0.0326 -15.00    0.0
2024/05/08 13:30:16.000   28.341755611  -16.436769605   842.8414   2   6   0.0200   0.0551   0.1009   0.0229  -0.0470  -0.0326 -14.00    0.0
2024/05/08 13:30:17.000   28.341755611  -16.436769603   842.8414   2   6   0.0200   0.0551   0.1009   0.0229  -0.0469  -0.0326 -13.00    0.0
2024/05/08 13:30:18.000   28.341755610  -16.436769601   842.8415   2   6   0.0200   0.0551   0.1009   0.0228  -0.0469  -0.0326 -12.00    0.0
2024/05/08 13:30:19.000   28.341755610  -16.436769599   842.8415   2   6   0.0200   0.0551   0.1009   0.0228  -0.0469  -0.0326 -11.00    0.0
2024/05/08 13:30:20.000   28.341755609  -16.436769597   842.8417   2   6   0.0200   0.0551   0.1009   0.0228  -0.0469  -0.0326 -10.00    0.0
2024/05/08 13:30:21.000   28.341755609  -16.436769594   842.8419   2   6   0.0200   0.0551   0.1009   0.0228  -0.0469  -0.0326  -9.00    0.0
2024/05/08 13:30:22.000   28.341755609  -16.436769590   842.8420   2   6   0.0200   0.0550   0.1009   0.0228  -0.0469  -0.0326  -8.00    0.0
2024/05/08 13:30:23.000   28.341755608  -16.436769586   842.8424   2   6   0.0200   0.0550   0.1010   0.0228  -0.0468  -0.0326  -7.00    0.0
2024/05/08 13:30:24.000   28.341755608  -16.436769579   842.8424   2   6   0.0200   0.0550   0.1010   0.0228  -0.0468  -0.0326  -6.00    0.0
2024/05/08 13:30:25.000   28.341755607  -16.436769575   842.8425   2   6   0.0200   0.0550   0.1010   0.0228  -0.0468  -0.0326  -5.00    0.0
2024/05/08 13:30:26.000   28.341755606  -16.436769568   842.8426   2   6   0.0200   0.0550   0.1011   0.0228  -0.0468  -0.0326  -4.00    0.0
2024/05/08 13:30:27.000   28.341755604  -16.436769562   842.8430   2   6   0.0200   0.0550   0.1011   0.0228  -0.0468  -0.0326  -3.00    0.0
2024/05/08 13:30:28.000   28.341755602  -16.436769553   842.8434   2   6   0.0200   0.0550   0.1012   0.0228  -0.0468  -0.0326  -2.00    0.0
2024/05/08 13:30:29.000   28.341755599  -16.436769544   842.8442   2   6   0.0200   0.0550   0.1013   0.0228  -0.0468  -0.0327  -1.00    0.0
2024/05/08 13:30:30.000   28.341755595  -16.436769534   842.8451   2   6   0.0201   0.0550   0.1014   0.0228  -0.0469  -0.0327   0.00    0.0
2024/05/08 13:30:31.000   28.341755591  -16.436769519   842.8457   2   6   0.0201   0.0550   0.1015   0.0228  -0.0469  -0.0327   1.00    0.0
2024/05/08 13:30:32.000   28.341755589  -16.436769506   842.8464   2   6   0.0201   0.0550   0.1016   0.0228  -0.0469  -0.0327   2.00    0.0
2024/05/08 13:30:33.000   28.341755586  -16.436769493   842.8473   2   6   0.0201   0.0550   0.1017   0.0228  -0.0469  -0.0328   3.00    0.0
2024/05/08 13:30:34.000   28.341755585  -16.436769478   842.8477   2   6   0.0202   0.0550   0.1018   0.0228  -0.0469  -0.0328   4.00    0.0
2024/05/08 13:30:35.000   28.341755584  -16.436769467   842.8477   2   6   0.0202   0.0550   0.1018   0.0228  -0.0469  -0.0328   5.00    0.0
2024/05/08 13:30:36.000   28.341755583  -16.436769456   842.8471   2   6   0.0202   0.0550   0.1019   0.0228  -0.0469  -0.0328   6.00    0.0
2024/05/08 13:30:37.000   28.341755583  -16.436769447   842.8466   2   6   0.0202   0.0550   0.1019   0.0228  -0.0469  -0.0328   7.00    0.0
2024/05/08 13:30:38.000   28.341755583  -16.436769440   842.8460   2   6   0.0202   0.0550   0.1019   0.0228  -0.0469  -0.0328   8.00    0.0
2024/05/08 13:30:39.000   28.341755582  -16.436769434   842.8457   2   6   0.0202   0.0550   0.1019   0.0227  -0.0469  -0.0328   9.00    0.0
2024/05/08 13:30:40.000   28.341755582  -16.436769429   842.8455   2   6   0.0202   0.0550   0.1020   0.0227  -0.0469  -0.0328  10.00    0.0
2024/05/08 13:30:41.000   28.341755583  -16.436769425   842.8451   2   6   0.0202   0.0550   0.1020   0.0227  -0.0468  -0.0328  11.00    0.0
2024/05/08 13:30:42.000   28.341755582  -16.436769423   842.8450   2   6   0.0202   0.0550   0.1020   0.0227  -0.0468  -0.0328  12.00    0.0
2024/05/08 13:30:43.000   28.341755583  -16.436769420   842.8446   2   6   0.0202   0.0550   0.1020   0.0227  -0.0468  -0.0328  13.00    0.0
2024/05/08 13:30:44.000   28.341755583  -16.436769418   842.8442   2   6   0.0202   0.0549   0.1020   0.0227  -0.0468  -0.0328  14.00    0.0
2024/05/08 13:30:45.000   28.341755583  -16.436769417   842.8440   2   6   0.0202   0.0549   0.1020   0.0227  -0.0468  -0.0328 -15.00    0.0
2024/05/08 13:30:46.000   28.341755583  -16.436769416   842.8439   2   6   0.0202   0.0549   0.1020   0.0227  -0.0468  -0.0328 -14.00    0.0
2024/05/08 13:30:47.000   28.341755583  -16.436769414   842.8437   2   6   0.0202   0.0549   0.1020   0.0227  -0.0468  -0.0328 -13.00    0.0
2024/05/08 13:30:48.000   28.341755584  -16.436769411   842.8434   2   6   0.0202   0.0549   0.1020   0.0227  -0.0467  -0.0328 -12.00    0.0
2024/05/08 13:30:49.000   28.341755584  -16.436769408   842.8432   2   6   0.0202   0.0549   0.1020   0.0227  -0.0467  -0.0328 -11.00    0.0
2024/05/08 13:30:50.000   28.341755585  -16.436769404   842.8430   2   6   0.0202   0.0549   0.1020   0.0227  -0.0467  -0.0328 -10.00    0.0
2024/05/08 13:30:51.000   28.341755586  -16.436769400   842.8428   2   6   0.0202   0.0549   0.1020   0.0227  -0.0467  -0.0328  -9.00    0.0
2024/05/08 13:30:52.000   28.341755587  -16.436769393   842.8424   2   6   0.0202   0.0548   0.1021   0.0227  -0.0467  -0.0328  -8.00    0.0
2024/05/08 13:30:53.000   28.341755588  -16.436769389   842.8422   2   6   0.0202   0.0548   0.1021   0.0227  -0.0467  -0.0328  -7.00    0.0
2024/05/08 13:30:54.000   28.341755589  -16.436769384   842.8420   2   6   0.0202   0.0548   0.1021   0.0226  -0.0467  -0.0328  -6.00    0.0
2024/05/08 13:30:55.000   28.341755589  -16.436769378   842.8418   2   6   0.0202   0.0548   0.1021   0.0226  -0.0467  -0.0328  -5.00    0.0
2024/05/08 13:30:56.000   28.341755589  -16.436769371   842.8417   2   6   0.0203   0.0548   0.1022   0.0226  -0.0467  -0.0328  -4.00    0.0
2024/05/08 13:30:57.000   28.341755589  -16.436769366   842.8418   2   6   0.0203   0.0548   0.1023   0.0226  -0.0467  -0.0328  -3.00    0.0
2024/05/08 13:30:58.000   28.341755586  -16.436769358   842.8423   2   6   0.0203   0.0548   0.1023   0.0226  -0.0467  -0.0329  -2.00    0.0
2024/05/08 13:30:59.000   28.341755583  -16.436769352   842.8431   2   6   0.0203   0.0548   0.1024   0.0226  -0.0467  -0.0329  -1.00    0.0
2024/05/08 13:31:00.000   28.341755580  -16.436769347   842.8436   2   6   0.0203   0.0548   0.1025   0.0226  -0.0467  -0.0329   0.00    0.0
2024/05/08 13:31:01.000   28.341755577  -16.436769336   842.8436   2   6   0.0203   0.0548   0.1026   0.0226  -0.0467  -0.0329   1.00    0.0
2024/05/08 13:31:02.000   28.341755574  -16.436769329   842.8443   2   6   0.0204   0.0548   0.1027   0.0226  -0.0468  -0.0330   2.00    0.0
2024/05/08 13:31:03.000   28.341755573  -16.436769320   842.8444   2   6   0.0204   0.0548   0.1028   0.0226  -0.0468  -0.0330   3.00    0.0
2024/05/08 13:31:04.000   28.341755572  -16.436769313   842.8448   2   6   0.0204   0.0548   0.1029   0.0226  -0.0468  -0.0330   4.00    0.0
2024/05/08 13:31:05.000   28.341755572  -16.436769309   842.8452   2   6   0.0204   0.0548   0.1029   0.0226  -0.0468  -0.0330   5.00    0.0
2024/05/08 13:31:06.000   28.341755570  -16.436769308   842.8458   2   6   0.0204   0.0548   0.1030   0.0226  -0.0468  -0.0330   6.00    0.0
2024/05/08 13:31:07.000   28.341755568  -16.436769310   842.8468   2   6   0.0204   0.0548   0.1030   0.0226  -0.0468  -0.0330   7.00    0.0
2024/05/08 13:31:08.000   28.341755567  -16.436769312   842.8477   2   6   0.0204   0.0548   0.1031   0.0226  -0.0468  -0.0330   8.00    0.0
2024/05/08 13:31:09.000   28.341755565  -16.436769314   842.8484   2   6   0.0205   0.0548   0.1031   0.0226  -0.0468  -0.0330   9.00    0.0
2024/05/08 13:31:10.000   28.341755564  -16.436769316   842.8490   2   6   0.0205   0.0548   0.1031   0.0226  -0.0468  -0.0330  10.00    0.0
2024/05/08 13:31:11.000   28.341755563  -16.436769318   842.8496   2   6   0.0205   0.0548   0.1031   0.0226  -0.0467  -0.0330  11.00    0.0
2024/05/08 13:31:12.000   28.341755562  -16.436769321   842.8502   2   6   0.0205   0.0548   0.1031   0.0226  -0.0467  -0.0330  12.00    0.0
2024/05/08 13:31:13.000   28.341755561  -16.436769322   842.8505   2   6   0.0205   0.0548   0.1031   0.0226  -0.0467  -0.0330  13.00    0.0
2024/05/08 13:31:14.000   28.341755560  -16.436769323   842.8508   2   6   0.0205   0.0548   0.1031   0.0226  -0.0467  -0.0330  14.00    0.0
2024/05/08 13:31:15.000   28.341755560  -16.436769323   842.8510   2   6   0.0205   0.0548   0.1032   0.0226  -0.0467  -0.0330 -15.00    0.0
2024/05/08 13:31:16.000   28.341755559  -16.436769323   842.8513   2   6   0.0205   0.0547   0.1032   0.0226  -0.0467  -0.0330 -14.00    0.0
2024/05/08 13:31:17.000   28.341755559  -16.436769325   842.8517   2   6   0.0205   0.0547   0.1032   0.0226  -0.0467  -0.0330 -13.00    0.0
2024/05/08 13:31:18.000   28.341755558  -16.436769326   842.8520   2   6   0.0205   0.0547   0.1032   0.0226  -0.0467  -0.0330 -12.00    0.0
2024/05/08 13:31:19.000   28.341755558  -16.436769327   842.8524   2   6   0.0205   0.0547   0.1032   0.0226  -0.0467  -0.0330 -11.00    0.0
2024/05/08 13:31:20.000   28.341755557  -16.436769328   842.8529   2   6   0.0205   0.0547   0.1032   0.0226  -0.0467  -0.0330 -10.00    0.0
2024/05/08 13:31:21.000   28.341755557  -16.436769329   842.8532   2   6   0.0205   0.0547   0.1032   0.0226  -0.0467  -0.0330  -9.00    0.0
2024/05/08 13:31:22.000   28.341755556  -16.436769329   842.8538   2   6   0.0205   0.0547   0.1032   0.0226  -0.0466  -0.0330  -8.00    0.0
2024/05/08 13:31:23.000   28.341755555  -16.436769329   842.8542   2   6   0.0205   0.0547   0.1032   0.0226  -0.0466  -0.0330  -7.00    0.0
2024/05/08 13:31:24.000   28.341755553  -16.436769330   842.8552   2   6   0.0205   0.0547   0.1033   0.0225  -0.0466  -0.0330  -6.00    0.0
2024/05/08 13:31:25.000   28.341755552  -16.436769331   842.8563   2   6   0.0205   0.0547   0.1033   0.0225  -0.0466  -0.0331  -5.00    0.0
2024/05/08 13:31:26.000   28.341755550  -16.436769332   842.8576   2   6   0.0205   0.0547   0.1034   0.0225  -0.0466  -0.0331  -4.00    0.0
2024/05/08 13:31:27.000   28.341755547  -16.436769331   842.8587   2   6   0.0205   0.0546   0.1034   0.0225  -0.0466  -0.0331  -3.00    0.0
2024/05/08 13:31:28.000   28.341755545  -16.436769331   842.8607   2   6   0.0205   0.0546   0.1035   0.0225  -0.0466  -0.0331  -2.00    0.0
2024/05/08 13:31:29.000   28.341755543  -16.436769329   842.8620   2   6   0.0206   0.0546   0.1036   0.0225  -0.0467  -0.0331  -1.00    0.0
2024/05/08 13:31:30.000   28.341755540  -16.436769325   842.8631   2   6   0.0206   0.0547   0.1037   0.0225  -0.0467  -0.0331   0.00    0.0
2024/05/08 13:31:31.000   28.341755538  -16.436769319   842.8642   2   6   0.0206   0.0546   0.1038   0.0225  -0.0467  -0.0332   1.00    0.0
2024/05/08 13:31:32.000   28.341755535  -16.436769313   842.8652   2   6   0.0206   0.0546   0.1039   0.0225  -0.0467  -0.0332   2.00    0.0
2024/05/08 13:31:33.000   28.341755533  -16.436769306   842.8654   2   6   0.0207   0.0546   0.1040   0.0225  -0.0467  -0.0332   3.00    0.0
2024/05/08 13:31:34.000   28.341755533  -16.436769298   842.8655   2   6   0.0207   0.0546   0.1040   0.0225  -0.0467  -0.0332   4.00    0.0
2024/05/08 13:31:35.000   28.341755532  -16.436769293   842.8656   2   6   0.0207   0.0546   0.1041   0.0225  -0.0467  -0.0332   5.00    0.0
2024/05/08 13:31:36.000   28.341755532  -16.436769287   842.8656   2   6   0.0207   0.0546   0.1041   0.0225  -0.0467  -0.0333   6.00    0.0
2024/05/08 13:31:37.000   28.341755532  -16.436769282   842.8656   2   6   0.0207   0.0546   0.1042   0.0225  -0.0467  -0.0333   7.00    0.0
2024/05/08 13:31:38.000   28.341755532  -16.436769278   842.8656   2   6   0.0207   0.0546   0.1042   0.0225  -0.0467  -0.0333   8.00    0.0
2024/05/08 13:31:39.000   28.341755532  -16.436769275   842.8658   2   6   0.0207   0.0546   0.1042   0.0225  -0.0467  -0.0333   9.00    0.0
2024/05/08 13:31:40.000   28.341755532  -16.436769272   842.8656   2   6   0.0207   0.0546   0.1042   0.0225  -0.0467  -0.0333  10.00    0.0
2024/05/08 13:31:41.000   28.341755532  -16.436769268   842.8656   2   6   0.0207   0.0546   0.1043   0.0225  -0.0467  -0.0333  11.00    0.0
2024/05/08 13:31:42.000   28.341755532  -16.436769267   842.8656   2   6   0.0207   0.0546   0.1043   0.0225  -0.0467  -0.0333  12.00    0.0
2024/05/08 13:31:43.000   28.341755532  -16.436769266   842.8657   2   6   0.0207   0.0546   0.1043   0.0225  -0.0467  -0.0333  13.00    0.0
2024/05/08 13:31:44.000   28.341755532  -16.436769266   842.8658   2   6   0.0207   0.0546   0.1043   0.0225  -0.0466  -0.0333  14.00    0.0
2024/05/08 13:31:45.000   28.341755531  -16.436769266   842.8659   2   6   0.0207   0.0546   0.1043   0.0225  -0.0466  -0.0333 -15.00    0.0
2024/05/08 13:31:46.000   28.341755532  -16.436769266   842.8659   2   6   0.0207   0.0546   0.1043   0.0225  -0.0466  -0.0333 -14.00    0.0
2024/05/08 13:31:47.000   28.341755532  -16.436769266   842.8659   2   6   0.0207   0.0546   0.1043   0.0225  -0.0466  -0.0333 -13.00    0.0
2024/05/08 13:31:48.000   28.341755531  -16.436769267   842.8660   2   6   0.0207   0.0546   0.1043   0.0225  -0.0466  -0.0333 -12.00    0.0
2024/05/08 13:31:49.000   28.341755531  -16.436769269   842.8662   2   6   0.0207   0.0545   0.1043   0.0225  -0.0466  -0.0333 -11.00    0.0
2024/05/08 13:31:50.000   28.341755531  -16.436769270   842.8663   2   6   0.0207   0.0545   0.1043   0.0225  -0.0466  -0.0333 -10.00    0.0
2024/05/08 13:31:51.000   28.341755531  -16.436769270   842.8665   2   6   0.0207   0.0545   0.1044   0.0225  -0.0466  -0.0333  -9.00    0.0
2024/05/08 13:31:52.000   28.341755530  -16.436769273   842.8671   2   6   0.0207   0.0545   0.1044   0.0225  -0.0466  -0.0333  -8.00    0.0
2024/05/08 13:31:53.000   28.341755530  -16.436769274   842.8674   2   6   0.0207   0.0545   0.1044   0.0225  -0.0466  -0.0333  -7.00    0.0
2024/05/08 13:31:54.000   28.341755529  -16.436769278   842.8679   2   6   0.0208   0.0545   0.1044   0.0225  -0.0466  -0.0333  -6.00    0.0
2024/05/08 13:31:55.000   28.341755529  -16.436769281   842.8683   2   6   0.0208   0.0545   0.1044   0.0225  -0.0466  -0.0333  -5.00    0.0
2024/05/08 13:31:56.000   28.341755529  -16.436769282   842.8690   2   6   0.0208   0.0545   0.1045   0.0225  -0.0466  -0.0333  -4.00    0.0
2024/05/08 13:31:57.000   28.341755527  -16.436769284   842.8697   2   6   0.0208   0.0545   0.1045   0.0225  -0.0466  -0.0333  -3.00    0.0
2024/05/08 13:31:58.000   28.341755526  -16.436769287   842.8707   2   6   0.0208   0.0545   0.1046   0.0224  -0.0466  -0.0333  -2.00    0.0
2024/05/08 13:31:59.000   28.341755525  -16.436769285   842.8704   2   6   0.0208   0.0545   0.1047   0.0224  -0.0466  -0.0334  -1.00    0.0
2024/05/08 13:32:00.000   28.341755522  -16.436769285   842.8710   2   6   0.0208   0.0545   0.1048   0.0225  -0.0466  -0.0334   0.00    0.0
2024/05/08 13:32:01.000   28.341755521  -16.436769282   842.8711   2   6   0.0209   0.0545   0.1049   0.0225  -0.0466  -0.0334   1.00    0.0
2024/05/08 13:32:02.000   28.341755518  -16.436769283   842.8720   2   6   0.0209   0.0545   0.1050   0.0225  -0.0466  -0.0334   2.00    0.0
2024/05/08 13:32:03.000   28.341755515  -16.436769286   842.8727   2   6   0.0209   0.0545   0.1051   0.0225  -0.0466  -0.0335   3.00    0.0
2024/05/08 13:32:04.000   28.341755513  -16.436769290   842.8736   2   6   0.0209   0.0545   0.1051   0.0225  -0.0466  -0.0335   4.00    0.0
2024/05/08 13:32:05.000   28.341755510  -16.436769294   842.8740   2   6   0.0209   0.0545   0.1052   0.0225  -0.0466  -0.0335   5.00    0.0
2024/05/08 13:32:06.000   28.341755508  -16.436769297   842.8741   2   6   0.0210   0.0545   0.1052   0.0224  -0.0466  -0.0335   6.00    0.0
2024/05/08 13:32:07.000   28.341755506  -16.436769301   842.8741   2   6   0.0210   0.0545   0.1053   0.0224  -0.0466  -0.0335   7.00    0.0
2024/05/08 13:32:08.000   28.341755503  -16.436769306   842.8745   2   6   0.0210   0.0545   0.1053   0.0224  -0.0466  -0.0335   8.00    0.0
2024/05/08 13:32:09.000   28.341755501  -16.436769309   842.8746   2   6   0.0210   0.0544   0.1053   0.0224  -0.0466  -0.0335   9.00    0.0
2024/05/08 13:32:10.000   28.341755499  -16.436769312   842.8747   2   6   0.0210   0.0544   0.1053   0.0224  -0.0466  -0.0335  10.00    0.0
2024/05/08 13:32:11.000   28.341755498  -16.436769314   842.8748   2   6   0.0210   0.0544   0.1054   0.0224  -0.0466  -0.0335  11.00    0.0
2024/05/08 13:32:12.000   28.341755496  -16.436769317   842.8750   2   6   0.0210   0.0544   0.1054   0.0224  -0.0466  -0.0335  12.00    0.0
2024/05/08 13:32:13.000   28.341755494  -16.436769320   842.8750   2   6   0.0210   0.0544   0.1054   0.0224  -0.0466  -0.0335  13.00    0.0
2024/05/08 13:32:14.000   28.341755493  -16.436769321   842.8749   2   6   0.0210   0.0544   0.1054   0.0224  -0.0466  -0.0335  14.00    0.0
2024/05/08 13:32:15.000   28.341755492  -16.436769324   842.8749   2   6   0.0210   0.0544   0.1054   0.0224  -0.0466  -0.0335 -15.00    0.0
2024/05/08 13:32:16.000   28.341755491  -16.436769326   842.8749   2   6   0.0210   0.0544   0.1054   0.0224  -0.0466  -0.0335 -14.00    0.0
2024/05/08 13:32:17.000   28.341755490  -16.436769328   842.8750   2   6   0.0210   0.0544   0.1054   0.0224  -0.0466  -0.0335 -13.00    0.0
2024/05/08 13:32:18.000   28.341755489  -16.436769330   842.8750   2   6   0.0210   0.0544   0.1054   0.0224  -0.0466  -0.0335 -12.00    0.0
2024/05/08 13:32:19.000   28.341755488  -16.436769334   842.8752   2   6   0.0210   0.0544   0.1054   0.0224  -0.0465  -0.0335 -11.00    0.0
2024/05/08 13:32:20.000   28.341755487  -16.436769338   842.8755   2   6   0.0210   0.0544   0.1054   0.0224  -0.0465  -0.0335 -10.00    0.0
2024/05/08 13:32:21.000   28.341755486  -16.436769342   842.8757   2   6   0.0210   0.0544   0.1054   0.0224  -0.0465  -0.0335  -9.00    0.0
2024/05/08 13:32:22.000   28.341755484  -16.436769346   842.8760   2   6   0.0210   0.0543   0.1055   0.0224  -0.0465  -0.0335  -8.00    0.0
2024/05/08 13:32:23.000   28.341755483  -16.436769352   842.8765   2   6   0.0210   0.0543   0.1055   0.0224  -0.0465  -0.0335  -7.00    0.0
2024/05/08 13:32:24.000   28.341755481  -16.436769359   842.8771   2   6   0.0210   0.0543   0.1055   0.0224  -0.0465  -0.0335  -6.00    0.0
2024/05/08 13:32:25.000   28.341755479  -16.436769365   842.8777   2   6   0.0210   0.0543   0.1055   0.0224  -0.0465  -0.0335  -5.00    0.0
2024/05/08 13:32:26.000   28.341755478  -16.436769373   842.8785   2   6   0.0210   0.0543   0.1056   0.0224  -0.0465  -0.0335  -4.00    0.0
2024/05/08 13:32:27.000   28.341755476  -16.436769380   842.8790   2   6   0.0210   0.0543   0.1056   0.0224  -0.0465  -0.0336  -3.00    0.0
2024/05/08 13:32:28.000   28.341755474  -16.436769388   842.8797   2   6   0.0211   0.0543   0.1057   0.0224  -0.0465  -0.0336  -2.00    0.0
2024/05/08 13:32:29.000   28.341755473  -16.436769395   842.8805   2   6   0.0211   0.0543   0.1058   0.0224  -0.0465  -0.0336  -1.00    0.0
2024/05/08 13:32:30.000   28.341755471  -16.436769400   842.8812   2   6   0.0211   0.0543   0.1059   0.0224  -0.0465  -0.0336   0.00    0.0
2024/05/08 13:32:31.000   28.341755470  -16.436769404   842.8822   2   6   0.0211   0.0543   0.1059   0.0224  -0.0465  -0.0336   1.00    0.0
2024/05/08 13:32:32.000   28.341755470  -16.436769409   842.8823   2   6   0.0211   0.0543   0.1060   0.0224  -0.0465  -0.0337   2.00    0.0
2024/05/08 13:32:33.000   28.341755468  -16.436769414   842.8832   2   6   0.0212   0.0543   0.1061   0.0224  -0.0465  -0.0337   3.00    0.0
2024/05/08 13:32:34.000   28.341755466  -16.436769420   842.8840   2   6   0.0212   0.0543   0.1062   0.0224  -0.0466  -0.0337   4.00    0.0
2024/05/08 13:32:35.000   28.341755465  -16.436769426   842.8850   2   6   0.0212   0.0543   0.1062   0.0224  -0.0466  -0.0337   5.00    0.0
2024/05/08 13:32:36.000   28.341755463  -16.436769431   842.8857   2   6   0.0212   0.0543   0.1063   0.0224  -0.0466  -0.0337   6.00    0.0
2024/05/08 13:32:37.000   28.341755463  -16.436769436   842.8864   2   6   0.0212   0.0543   0.1063   0.0224  -0.0465  -0.0337   7.00    0.0
2024/05/08 13:32:38.000   28.341755461  -16.436769443   842.8874   2   6   0.0212   0.0543   0.1063   0.0224  -0.0465  -0.0337   8.00    0.0
2024/05/08 13:32:39.000   28.341755461  -16.436769448   842.8880   2   6   0.0212   0.0543   0.1064   0.0224  -0.0465  -0.0337   9.00    0.0
2024/05/08 13:32:40.000   28.341755461  -16.436769451   842.8885   2   6   0.0212   0.0543   0.1064   0.0224  -0.0465  -0.0337  10.00    0.0
2024/05/08 13:32:41.000   28.341755460  -16.436769456   842.8891   2   6   0.0212   0.0543   0.1064   0.0224  -0.0465  -0.0337  11.00    0.0
2024/05/08 13:32:42.000   28.341755460  -16.436769458   842.8895   2   6   0.0212   0.0543   0.1064   0.0224  -0.0465  -0.0337  12.00    0.0
2024/05/08 13:32:43.000   28.341755460  -16.436769462   842.8900   2   6   0.0212   0.0543   0.1064   0.0224  -0.0465  -0.0337  13.00    0.0
2024/05/08 13:32:44.000   28.341755460  -16.436769465   842.8905   2   6   0.0212   0.0542   0.1064   0.0224  -0.0465  -0.0338  14.00    0.0
2024/05/08 13:32:45.000   28.341755459  -16.436769469   842.8910   2   6   0.0212   0.0542   0.1064   0.0224  -0.0465  -0.0338 -15.00    0.0
2024/05/08 13:32:46.000   28.341755459  -16.436769471   842.8912   2   6   0.0212   0.0542   0.1064   0.0224  -0.0465  -0.0338 -14.00    0.0
2024/05/08 13:32:47.000   28.341755460  -16.436769474   842.8916   2   6   0.0212   0.0542   0.1064   0.0224  -0.0465  -0.0338 -13.00    0.0
2024/05/08 13:32:48.000   28.341755460  -16.436769477   842.8920   2   6   0.0212   0.0542   0.1064   0.0224  -0.0465  -0.0338 -12.00    0.0
2024/05/08 13:32:49.000   28.341755460  -16.436769480   842.8924   2   6   0.0212   0.0542   0.1065   0.0223  -0.0465  -0.0338 -11.00    0.0
2024/05/08 13:32:50.000   28.341755460  -16.436769482   842.8929   2   6   0.0212   0.0542   0.1065   0.0223  -0.0465  -0.0338 -10.00    0.0
2024/05/08 13:32:51.000   28.341755461  -16.436769484   842.8933   2   6   0.0212   0.0542   0.1065   0.0223  -0.0465  -0.0338  -9.00    0.0
2024/05/08 13:32:52.000   28.341755462  -16.436769486   842.8937   2   6   0.0213   0.0542   0.1065   0.0223  -0.0465  -0.0338  -8.00    0.0
2024/05/08 13:32:53.000   28.341755463  -16.436769489   842.8940   2   6   0.0213   0.0542   0.1065   0.0223  -0.0465  -0.0338  -7.00    0.0
2024/05/08 13:32:54.000   28.341755464  -16.436769492   842.8943   2   6   0.0213   0.0542   0.1065   0.0223  -0.0465  -0.0338  -6.00    0.0
2024/05/08 13:32:55.000   28.341755465  -16.436769496   842.8945   2   6   0.0213   0.0542   0.1066   0.0223  -0.0464  -0.0338  -5.00    0.0
2024/05/08 13:32:56.000   28.341755466  -16.436769501   842.8948   2   6   0.0213   0.0542   0.1066   0.0223  -0.0464  -0.0338  -4.00    0.0
2024/05/08 13:32:57.000   28.341755467  -16.436769504   842.8953   2   6   0.0213   0.0542   0.1066   0.0223  -0.0464  -0.0338  -3.00    0.0
2024/05/08 13:32:58.000   28.341755469  -16.436769507   842.8959   2   6   0.0213   0.0542   0.1067   0.0223  -0.0464  -0.0338  -2.00    0.0
2024/05/08 13:32:59.000   28.341755470  -16.436769512   842.8971   2   6   0.0213   0.0541   0.1068   0.0223  -0.0465  -0.0338  -1.00    0.0
2024/05/08 13:33:00.000   28.341755471  -16.436769516   842.8981   2   6   0.0213   0.0542   0.1069   0.0223  -0.0465  -0.0338   0.00    0.0
2024/05/08 13:33:01.000   28.341755471  -16.436769515   842.8988   2   6   0.0214   0.0541   0.1069   0.0223  -0.0465  -0.0339   1.00    0.0
2024/05/08 13:33:02.000   28.341755472  -16.436769514   842.8995   2   6   0.0214   0.0541   0.1070   0.0223  -0.0465  -0.0339   2.00    0.0
2024/05/08 13:33:03.000   28.341755473  -16.436769515   842.9000   2   6   0.0214   0.0541   0.1071   0.0223  -0.0465  -0.0339   3.00    0.0
2024/05/08 13:33:04.000   28.341755472  -16.436769519   842.9011   2   6   0.0214   0.0541   0.1072   0.0223  -0.0465  -0.0339   4.00    0.0
2024/05/08 13:33:05.000   28.341755472  -16.436769523   842.9022   2   6   0.0214   0.0541   0.1072   0.0223  -0.0465  -0.0339   5.00    0.0
2024/05/08 13:33:06.000   28.341755471  -16.436769526   842.9031   2   6   0.0214   0.0541   0.1072   0.0223  -0.0465  -0.0339   6.00    0.0
2024/05/08 13:33:07.000   28.341755471  -16.436769529   842.9037   2   6   0.0214   0.0541   0.1073   0.0223  -0.0465  -0.0340   7.00    0.0
2024/05/08 13:33:08.000   28.341755470  -16.436769533   842.9049   2   6   0.0215   0.0541   0.1073   0.0223  -0.0465  -0.0340   8.00    0.0
2024/05/08 13:33:09.000   28.341755470  -16.436769535   842.9055   2   6   0.0215   0.0541   0.1073   0.0223  -0.0465  -0.0340   9.00    0.0
2024/05/08 13:33:10.000   28.341755470  -16.436769537   842.9059   2   6   0.0215   0.0541   0.1073   0.0223  -0.0465  -0.0340  10.00    0.0
2024/05/08 13:33:11.000   28.341755470  -16.436769540   842.9062   2   6   0.0215   0.0541   0.1073   0.0223  -0.0465  -0.0340  11.00    0.0
2024/05/08 13:33:12.000   28.341755470  -16.436769542   842.9065   2   6   0.0215   0.0541   0.1074   0.0223  -0.0465  -0.0340  12.00    0.0
2024/05/08 13:33:13.000   28.341755470  -16.436769545   842.9067   2   6   0.0215   0.0541   0.1074   0.0223  -0.0465  -0.0340  13.00    0.0
2024/05/08 13:33:14.000   28.341755470  -16.436769547   842.9068   2   6   0.0215   0.0541   0.1074   0.0223  -0.0465  -0.0340  14.00    0.0
2024/05/08 13:33:15.000   28.341755470  -16.436769550   842.9071   2   6   0.0215   0.0541   0.1074   0.0223  -0.0465  -0.0340 -15.00    0.0
2024/05/08 13:33:16.000   28.341755469  -16.436769552   842.9072   2   6   0.0215   0.0541   0.1074   0.0223  -0.0464  -0.0340 -14.00    0.0
2024/05/08 13:33:17.000   28.341755469  -16.436769553   842.9071   2   6   0.0215   0.0541   0.1074   0.0223  -0.0464  -0.0340 -13.00    0.0
2024/05/08 13:33:18.000   28.341755469  -16.436769555   842.9073   2   6   0.0215   0.0541   0.1074   0.0223  -0.0464  -0.0340 -12.00    0.0
2024/05/08 13:33:19.000   28.341755469  -16.436769558   842.9075   2   6   0.0215   0.0541   0.1074   0.0223  -0.0464  -0.0340 -11.00    0.0
2024/05/08 13:33:20.000   28.341755468  -16.436769561   842.9076   2   6   0.0215   0.0541   0.1074   0.0223  -0.0464  -0.0340 -10.00    0.0
2024/05/08 13:33:21.000   28.341755468  -16.436769561   842.9075   2   6   0.0215   0.0541   0.1074   0.0223  -0.0464  -0.0340  -9.00    0.0
2024/05/08 13:33:22.000   28.341755469  -16.436769561   842.9073   2   6   0.0215   0.0541   0.1074   0.0223  -0.0464  -0.0340  -8.00    0.0
2024/05/08 13:33:23.000   28.341755470  -16.436769560   842.9071   2   6   0.0215   0.0541   0.1075   0.0223  -0.0464  -0.0340  -7.00    0.0
2024/05/08 13:33:24.000   28.341755471  -16.436769560   842.9069   2   6   0.0215   0.0540   0.1075   0.0223  -0.0464  -0.0340  -6.00    0.0
2024/05/08 13:33:25.000   28.341755473  -16.436769561   842.9068   2   6   0.0215   0.0540   0.1075   0.0223  -0.0464  -0.0340  -5.00    0.0
2024/05/08 13:33:26.000   28.341755474  -16.436769562   842.9066   2   6   0.0215   0.0540   0.1075   0.0223  -0.0464  -0.0340  -4.00    0.0
2024/05/08 13:33:27.000   28.341755476  -16.436769562   842.9061   2   6   0.0215   0.0540   0.1076   0.0223  -0.0464  -0.0340  -3.00    0.0
2024/05/08 13:33:28.000   28.341755478  -16.436769561   842.9056   2   6   0.0215   0.0540   0.1076   0.0223  -0.0464  -0.0340  -2.00    0.0
2024/05/08 13:33:29.000   28.341755479  -16.436769560   842.9055   2   6   0.0215   0.0540   0.1077   0.0223  -0.0464  -0.0340  -1.00    0.0
2024/05/08 13:33:30.000   28.341755479  -16.436769563   842.9061   2   6   0.0216   0.0540   0.1078   0.0223  -0.0464  -0.0341   0.00    0.0
2024/05/08 13:33:31.000   28.341755482  -16.436769562   842.9060   2   6   0.0216   0.0540   0.1078   0.0223  -0.0464  -0.0341   1.00    0.0
2024/05/08 13:33:32.000   28.341755484  -16.436769561   842.9054   2   6   0.0216   0.0540   0.1079   0.0223  -0.0464  -0.0341   2.00    0.0
2024/05/08 13:33:33.000   28.341755486  -16.436769558   842.9043   2   6   0.0216   0.0540   0.1080   0.0223  -0.0464  -0.0341   3.00    0.0
2024/05/08 13:33:34.000   28.341755489  -16.436769555   842.9038   2   6   0.0216   0.0540   0.1080   0.0223  -0.0464  -0.0341   4.00    0.0
2024/05/08 13:33:35.000   28.341755491  -16.436769552   842.9030   2   6   0.0216   0.0540   0.1081   0.0223  -0.0464  -0.0341   5.00    0.0
2024/05/08 13:33:36.000   28.341755492  -16.436769551   842.9028   2   6   0.0217   0.0540   0.1081   0.0223  -0.0464  -0.0341   6.00    0.0
2024/05/08 13:33:37.000   28.341755493  -16.436769551   842.9028   2   6   0.0217   0.0540   0.1081   0.0223  -0.0464  -0.0342   7.00    0.0
2024/05/08 13:33:38.000   28.341755494  -16.436769553   842.9028   2   6   0.0217   0.0540   0.1082   0.0223  -0.0464  -0.0342   8.00    0.0
2024/05/08 13:33:39.000   28.341755494  -16.436769555   842.9027   2   6   0.0217   0.0540   0.1082   0.0223  -0.0464  -0.0342   9.00    0.0
2024/05/08 13:33:40.000   28.341755494  -16.436769556   842.9026   2   6   0.0217   0.0540   0.1082   0.0223  -0.0464  -0.0342  10.00    0.0
2024/05/08 13:33:41.000   28.341755495  -16.436769556   842.9025   2   6   0.0217   0.0540   0.1082   0.0223  -0.0464  -0.0342  11.00    0.0
2024/05/08 13:33:42.000   28.341755495  -16.436769557   842.9024   2   6   0.0217   0.0540   0.1082   0.0223  -0.0464  -0.0342  12.00    0.0
2024/05/08 13:33:43.000   28.341755496  -16.436769558   842.9023   2   6   0.0217   0.0540   0.1082   0.0223  -0.0464  -0.0342  13.00    0.0
2024/05/08 13:33:44.000   28.341755496  -16.436769560   842.9024   2   6   0.0217   0.0540   0.1082   0.0223  -0.0464  -0.0342  14.00    0.0
2024/05/08 13:33:45.000   28.341755497  -16.436769561   842.9023   2   6   0.0217   0.0540   0.1082   0.0223  -0.0464  -0.0342 -15.00    0.0
2024/05/08 13:33:46.000   28.341755497  -16.436769562   842.9021   2   6   0.0217   0.0540   0.1082   0.0223  -0.0464  -0.0342 -14.00    0.0
2024/05/08 13:33:47.000   28.341755497  -16.436769564   842.9021   2   6   0.0217   0.0540   0.1082   0.0223  -0.0464  -0.0342 -13.00    0.0
2024/05/08 13:33:48.000   28.341755497  -16.436769564   842.9020   2   6   0.0217   0.0540   0.1083   0.0223  -0.0464  -0.0342 -12.00    0.0
2024/05/08 13:33:49.000   28.341755497  -16.436769565   842.9019   2   6   0.0217   0.0540   0.1083   0.0223  -0.0464  -0.0342 -11.00    0.0
2024/05/08 13:33:50.000   28.341755497  -16.436769568   842.9019   2   6   0.0217   0.0540   0.1083   0.0223  -0.0464  -0.0342 -10.00    0.0
2024/05/08 13:33:51.000   28.341755498  -16.436769570   842.9019   2   6   0.0217   0.0540   0.1083   0.0223  -0.0464  -0.0342  -9.00    0.0
2024/05/08 13:33:52.000   28.341755498  -16.436769572   842.9020   2   6   0.0217   0.0539   0.1083   0.0223  -0.0464  -0.0342  -8.00    0.0
2024/05/08 13:33:53.000   28.341755498  -16.436769576   842.9022   2   6   0.0217   0.0539   0.1083   0.0223  -0.0464  -0.0342  -7.00    0.0
2024/05/08 13:33:54.000   28.341755498  -16.436769581   842.9025   2   6   0.0217   0.0539   0.1083   0.0223  -0.0464  -0.0342  -6.00    0.0
2024/05/08 13:33:55.000   28.341755497  -16.436769587   842.9029   2   6   0.0217   0.0539   0.1083   0.0223  -0.0464  -0.0342  -5.00    0.0
2024/05/08 13:33:56.000   28.341755497  -16.436769594   842.9035   2   6   0.0217   0.0539   0.1084   0.0223  -0.0464  -0.0342  -4.00    0.0
2024/05/08 13:33:57.000   28.341755498  -16.436769599   842.9037   2   6   0.0217   0.0539   0.1084   0.0223  -0.0464  -0.0342  -3.00    0.0
2024/05/08 13:33:58.000   28.341755499  -16.436769603   842.9037   2   6   0.0217   0.0539   0.1085   0.0223  -0.0464  -0.0342  -2.00    0.0
2024/05/08 13:33:59.000   28.341755501  -16.436769605   842.9036   2   6   0.0218   0.0539   0.1085   0.0223  -0.0464  -0.0342  -1.00    0.0
2024/05/08 13:34:00.000   28.341755505  -16.436769603   842.9027   2   7   0.0218   0.0539   0.1086   0.0223  -0.0464  -0.0342   0.00    0.0
2024/05/08 13:34:01.000   28.341755512  -16.436769603   842.8970   2   7   0.0218   0.0539   0.1086   0.0223  -0.0463  -0.0343   1.00    0.0
2024/05/08 13:34:02.000   28.341755518  -16.436769608   842.8930   2   7   0.0218   0.0539   0.1088   0.0223  -0.0463  -0.0343   2.00    0.0
2024/05/08 13:34:03.000   28.341755522  -16.436769609   842.8897   2   7   0.0218   0.0539   0.1089   0.0223  -0.0462  -0.0343   3.00    0.0
2024/05/08 13:34:04.000   28.341755526  -16.436769608   842.8865   2   7   0.0218   0.0539   0.1090   0.0223  -0.0462  -0.0343   4.00    0.0
2024/05/08 13:34:05.000   28.341755530  -16.436769607   842.8838   2   7   0.0218   0.0539   0.1091   0.0223  -0.0462  -0.0343   5.00    0.0
2024/05/08 13:34:06.000   28.341755533  -16.436769609   842.8815   2   7   0.0218   0.0539   0.1092   0.0223  -0.0461  -0.0343   6.00    0.0
2024/05/08 13:34:07.000   28.341755537  -16.436769610   842.8795   2   7   0.0218   0.0539   0.1092   0.0223  -0.0461  -0.0344   7.00    0.0
2024/05/08 13:34:08.000   28.341755540  -16.436769609   842.8773   2   7   0.0219   0.0539   0.1093   0.0223  -0.0461  -0.0344   8.00    0.0
2024/05/08 13:34:09.000   28.341755541  -16.436769611   842.8758   2   7   0.0219   0.0539   0.1093   0.0223  -0.0460  -0.0344   9.00    0.0
2024/05/08 13:34:10.000   28.341755543  -16.436769613   842.8745   2   7   0.0219   0.0539   0.1094   0.0222  -0.0460  -0.0344  10.00    0.0
2024/05/08 13:34:11.000   28.341755544  -16.436769614   842.8734   2   7   0.0219   0.0539   0.1094   0.0222  -0.0460  -0.0344  11.00    0.0
2024/05/08 13:34:12.000   28.341755545  -16.436769617   842.8726   2   7   0.0219   0.0539   0.1095   0.0222  -0.0459  -0.0344  12.00    0.0
2024/05/08 13:34:13.000   28.341755546  -16.436769618   842.8719   2   7   0.0219   0.0539   0.1095   0.0222  -0.0459  -0.0344  13.00    0.0
2024/05/08 13:34:14.000   28.341755547  -16.436769620   842.8712   2   7   0.0219   0.0539   0.1095   0.0222  -0.0459  -0.0344  14.00    0.0
2024/05/08 13:34:15.000   28.341755548  -16.436769623   842.8705   2   7   0.0219   0.0539   0.1095   0.0222  -0.0459  -0.0344 -15.00    0.0
2024/05/08 13:34:16.000   28.341755548  -16.436769625   842.8700   2   7   0.0219   0.0539   0.1096   0.0222  -0.0459  -0.0344 -14.00    0.0
2024/05/08 13:34:17.000   28.341755549  -16.436769627   842.8694   2   7   0.0219   0.0539   0.1096   0.0222  -0.0458  -0.0344 -13.00    0.0
2024/05/08 13:34:18.000   28.341755549  -16.436769630   842.8688   2   7   0.0219   0.0539   0.1096   0.0222  -0.0458  -0.0344 -12.00    0.0
2024/05/08 13:34:19.000   28.341755550  -16.436769633   842.8683   2   7   0.0219   0.0539   0.1096   0.0222  -0.0458  -0.0344 -11.00    0.0
2024/05/08 13:34:20.000   28.341755550  -16.436769635   842.8678   2   7   0.0219   0.0539   0.1097   0.0222  -0.0458  -0.0344 -10.00    0.0
2024/05/08 13:34:21.000   28.341755551  -16.436769638   842.8674   2   7   0.0219   0.0539   0.1097   0.0222  -0.0457  -0.0344  -9.00    0.0
2024/05/08 13:34:22.000   28.341755552  -16.436769640   842.8665   2   7   0.0219   0.0539   0.1097   0.0222  -0.0457  -0.0344  -8.00    0.0
2024/05/08 13:34:23.000   28.341755553  -16.436769643   842.8659   2   7   0.0219   0.0539   0.1098   0.0222  -0.0457  -0.0344  -7.00    0.0
2024/05/08 13:34:24.000   28.341755553  -16.436769646   842.8650   2   7   0.0219   0.0539   0.1098   0.0222  -0.0457  -0.0344  -6.00    0.0
2024/05/08 13:34:25.000   28.341755554  -16.436769652   842.8640   2   7   0.0219   0.0539   0.1099   0.0222  -0.0456  -0.0344  -5.00    0.0
2024/05/08 13:34:26.000   28.341755554  -16.436769657   842.8630   2   7   0.0219   0.0539   0.1099   0.0222  -0.0456  -0.0344  -4.00    0.0
2024/05/08 13:34:27.000   28.341755553  -16.436769662   842.8616   2   7   0.0219   0.0539   0.1100   0.0222  -0.0456  -0.0344  -3.00    0.0
2024/05/08 13:34:28.000   28.341755553  -16.436769668   842.8606   2   7   0.0219   0.0539   0.1101   0.0222  -0.0455  -0.0345  -2.00    0.0
2024/05/08 13:34:29.000   28.341755552  -16.436769672   842.8591   2   7   0.0219   0.0539   0.1102   0.0222  -0.0455  -0.0345  -1.00    0.0
2024/05/08 13:34:30.000   28.341755552  -16.436769678   842.8579   2   7   0.0219   0.0539   0.1103   0.0222  -0.0455  -0.0345   0.00    0.0
2024/05/08 13:34:31.000   28.341755553  -16.436769683   842.8543   2   7   0.0219   0.0539   0.1104   0.0222  -0.0454  -0.0345   1.00    0.0
2024/05/08 13:34:32.000   28.341755555  -16.436769686   842.8516   2   7   0.0220   0.0539   0.1105   0.0222  -0.0454  -0.0345   2.00    0.0
2024/05/08 13:34:33.000   28.341755556  -16.436769690   842.8497   2   7   0.0220   0.0539   0.1106   0.0222  -0.0453  -0.0346   3.00    0.0
2024/05/08 13:34:34.000   28.341755557  -16.436769694   842.8481   2   7   0.0220   0.0539   0.1107   0.0222  -0.0453  -0.0346   4.00    0.0
2024/05/08 13:34:35.000   28.341755558  -16.436769698   842.8466   2   7   0.0220   0.0539   0.1108   0.0222  -0.0453  -0.0346   5.00    0.0
2024/05/08 13:34:36.000   28.341755559  -16.436769702   842.8448   2   7   0.0220   0.0539   0.1109   0.0222  -0.0452  -0.0346   6.00    0.0
2024/05/08 13:34:37.000   28.341755560  -16.436769705   842.8434   2   7   0.0220   0.0539   0.1109   0.0222  -0.0452  -0.0346   7.00    0.0
2024/05/08 13:34:38.000   28.341755561  -16.436769708   842.8419   2   7   0.0220   0.0540   0.1110   0.0221  -0.0452  -0.0346   8.00    0.0
2024/05/08 13:34:39.000   28.341755561  -16.436769711   842.8405   2   7   0.0220   0.0540   0.1110   0.0221  -0.0451  -0.0346   9.00    0.0
2024/05/08 13:34:40.000   28.341755563  -16.436769714   842.8393   2   7   0.0220   0.0540   0.1111   0.0221  -0.0451  -0.0346  10.00    0.0
2024/05/08 13:34:41.000   28.341755563  -16.436769717   842.8385   2   7   0.0220   0.0540   0.1111   0.0221  -0.0451  -0.0346  11.00    0.0
2024/05/08 13:34:42.000   28.341755564  -16.436769720   842.8375   2   7   0.0220   0.0540   0.1111   0.0221  -0.0451  -0.0346  12.00    0.0
2024/05/08 13:34:43.000   28.341755564  -16.436769722   842.8368   2   7   0.0220   0.0540   0.1112   0.0221  -0.0450  -0.0346  13.00    0.0
2024/05/08 13:34:44.000   28.341755565  -16.436769725   842.8361   2   7   0.0220   0.0540   0.1112   0.0221  -0.0450  -0.0346  14.00    0.0
2024/05/08 13:34:45.000   28.341755565  -16.436769727   842.8353   2   7   0.0220   0.0539   0.1112   0.0221  -0.0450  -0.0346 -15.00    0.0
2024/05/08 13:34:46.000   28.341755566  -16.436769730   842.8347   2   7   0.0220   0.0539   0.1112   0.0221  -0.0450  -0.0346 -14.00    0.0
2024/05/08 13:34:47.000   28.341755566  -16.436769733   842.8341   2   7   0.0220   0.0539   0.1112   0.0221  -0.0450  -0.0346 -13.00    0.0
2024/05/08 13:34:48.000   28.341755566  -16.436769736   842.8334   2   7   0.0220   0.0539   0.1113   0.0221  -0.0449  -0.0346 -12.00    0.0
2024/05/08 13:34:49.000   28.341755566  -16.436769741   842.8325   2   7   0.0220   0.0539   0.1113   0.0221  -0.0449  -0.0346 -11.00    0.0
2024/05/08 13:34:50.000   28.341755567  -16.436769743   842.8314   2   7   0.0220   0.0539   0.1113   0.0221  -0.0449  -0.0347 -10.00    0.0
2024/05/08 13:34:51.000   28.341755567  -16.436769747   842.8305   2   7   0.0220   0.0539   0.1113   0.0221  -0.0449  -0.0347  -9.00    0.0
2024/05/08 13:34:52.000   28.341755568  -16.436769751   842.8291   2   7   0.0220   0.0539   0.1113   0.0221  -0.0448  -0.0347  -8.00    0.0
2024/05/08 13:34:53.000   28.341755568  -16.436769756   842.8280   2   7   0.0220   0.0539   0.1114   0.0221  -0.0448  -0.0347  -7.00    0.0
2024/05/08 13:34:54.000   28.341755568  -16.436769762   842.8272   2   7   0.0220   0.0539   0.1114   0.0221  -0.0448  -0.0347  -6.00    0.0
2024/05/08 13:34:55.000   28.341755569  -16.436769769   842.8262   2   7   0.0220   0.0539   0.1115   0.0221  -0.0448  -0.0347  -5.00    0.0
2024/05/08 13:34:56.000   28.341755570  -16.436769777   842.8252   2   7   0.0220   0.0539   0.1115   0.0221  -0.0447  -0.0347  -4.00    0.0
2024/05/08 13:34:57.000   28.341755571  -16.436769786   842.8242   2   7   0.0220   0.0539   0.1116   0.0221  -0.0447  -0.0347  -3.00    0.0
2024/05/08 13:34:58.000   28.341755574  -16.436769794   842.8225   2   7   0.0220   0.0539   0.1116   0.0221  -0.0447  -0.0347  -2.00    0.0
2024/05/08 13:34:59.000   28.341755576  -16.436769801   842.8211   2   7   0.0220   0.0539   0.1117   0.0221  -0.0446  -0.0347  -1.00    0.0
2024/05/08 13:35:00.000   28.341755577  -16.436769812   842.8197   2   7   0.0221   0.0540   0.1118   0.0221  -0.0446  -0.0347   0.00    0.0
2024/05/08 13:35:01.000   28.341755580  -16.436769822   842.8169   2   7   0.0221   0.0540   0.1119   0.0221  -0.0446  -0.0347   1.00    0.0
2024/05/08 13:35:02.000   28.341755582  -16.436769830   842.8140   2   7   0.0221   0.0540   0.1119   0.0221  -0.0445  -0.0348   2.00    1.0
2024/05/08 13:35:03.000   28.341755584  -16.436769835   842.8114   2   7   0.0221   0.0540   0.1120   0.0221  -0.0445  -0.0348   3.00    1.0
2024/05/08 13:35:04.000   28.341755586  -16.436769840   842.8092   2   7   0.0221   0.0540   0.1121   0.0221  -0.0444  -0.0348   4.00    1.0
2024/05/08 13:35:05.000   28.341755587  -16.436769847   842.8075   2   7   0.0221   0.0540   0.1122   0.0221  -0.0444  -0.0348   5.00    1.0
2024/05/08 13:35:06.000   28.341755588  -16.436769853   842.8060   2   7   0.0221   0.0540   0.1122   0.0221  -0.0444  -0.0348   6.00    1.0
2024/05/08 13:35:07.000   28.341755588  -16.436769858   842.8043   2   7   0.0221   0.0540   0.1123   0.0221  -0.0443  -0.0348   7.00    1.0
2024/05/08 13:35:08.000   28.341755589  -16.436769864   842.8028   2   7   0.0221   0.0540   0.1123   0.0221  -0.0443  -0.0348   8.00    1.0
2024/05/08 13:35:09.000   28.341755590  -16.436769867   842.8012   2   7   0.0221   0.0540   0.1123   0.0221  -0.0443  -0.0348   9.00    1.0
2024/05/08 13:35:10.000   28.341755591  -16.436769871   842.8001   2   7   0.0221   0.0540   0.1124   0.0221  -0.0443  -0.0348  10.00    1.0
2024/05/08 13:35:11.000   28.341755591  -16.436769875   842.7992   2   7   0.0221   0.0540   0.1124   0.0221  -0.0442  -0.0348  11.00    1.0
2024/05/08 13:35:12.000   28.341755592  -16.436769879   842.7984   2   7   0.0221   0.0540   0.1124   0.0221  -0.0442  -0.0348  12.00    1.0
2024/05/08 13:35:13.000   28.341755592  -16.436769882   842.7979   2   7   0.0221   0.0540   0.1124   0.0221  -0.0442  -0.0348  13.00    1.0
2024/05/08 13:35:14.000   28.341755593  -16.436769885   842.7972   2   7   0.0221   0.0540   0.1124   0.0221  -0.0442  -0.0348  14.00    1.0
2024/05/08 13:35:15.000   28.341755594  -16.436769887   842.7968   2   7   0.0221   0.0540   0.1125   0.0220  -0.0442  -0.0348 -15.00    1.0
2024/05/08 13:35:16.000   28.341755594  -16.436769888   842.7966   2   7   0.0221   0.0540   0.1125   0.0220  -0.0441  -0.0348 -14.00    1.0
2024/05/08 13:35:17.000   28.341755594  -16.436769891   842.7967   2   7   0.0221   0.0540   0.1125   0.0220  -0.0441  -0.0348 -13.00    1.0
2024/05/08 13:35:18.000   28.341755593  -16.436769892   842.7970   2   7   0.0221   0.0540   0.1125   0.0220  -0.0441  -0.0348 -12.00    1.0
2024/05/08 13:35:19.000   28.341755593  -16.436769893   842.7973   2   7   0.0221   0.0540   0.1125   0.0220  -0.0441  -0.0348 -11.00    1.0
2024/05/08 13:35:20.000   28.341755593  -16.436769893   842.7973   2   7   0.0221   0.0540   0.1125   0.0220  -0.0441  -0.0348 -10.00    1.0
2024/05/08 13:35:21.000   28.341755593  -16.436769894   842.7973   2   7   0.0221   0.0540   0.1125   0.0220  -0.0440  -0.0348  -9.00    1.0
2024/05/08 13:35:22.000   28.341755592  -16.436769897   842.7974   2   7   0.0221   0.0540   0.1125   0.0220  -0.0440  -0.0348  -8.00    1.1
2024/05/08 13:35:23.000   28.341755592  -16.436769900   842.7971   2   7   0.0221   0.0540   0.1125   0.0220  -0.0440  -0.0348  -7.00    1.0
2024/05/08 13:35:24.000   28.341755592  -16.436769905   842.7968   2   7   0.0221   0.0540   0.1126   0.0220  -0.0440  -0.0348  -6.00    1.0
2024/05/08 13:35:25.000   28.341755592  -16.436769909   842.7962   2   7   0.0221   0.0540   0.1126   0.0220  -0.0439  -0.0348  -5.00    1.0
2024/05/08 13:35:26.000   28.341755594  -16.436769914   842.7949   2   7   0.0221   0.0540   0.1126   0.0220  -0.0439  -0.0348  -4.00    1.0
2024/05/08 13:35:27.000   28.341755595  -16.436769920   842.7934   2   7   0.0221   0.0540   0.1126   0.0220  -0.0439  -0.0349  -3.00    1.0
2024/05/08 13:35:28.000   28.341755597  -16.436769926   842.7920   2   7   0.0221   0.0540   0.1127   0.0220  -0.0439  -0.0349  -2.00    1.0
2024/05/08 13:35:29.000   28.341755600  -16.436769934   842.7906   2   7   0.0221   0.0540   0.1127   0.0220  -0.0438  -0.0349  -1.00    1.0
2024/05/08 13:35:30.000   28.341755603  -16.436769944   842.7893   2   7   0.0221   0.0540   0.1128   0.0220  -0.0438  -0.0349   0.00    1.0
2024/05/08 13:35:31.000   28.341755605  -16.436769954   842.7872   2   7   0.0222   0.0540   0.1128   0.0220  -0.0438  -0.0349   1.00    1.0
2024/05/08 13:35:32.000   28.341755608  -16.436769963   842.7849   2   7   0.0222   0.0540   0.1129   0.0220  -0.0437  -0.0349   2.00    1.0
2024/05/08 13:35:33.000   28.341755611  -16.436769968   842.7825   2   7   0.0222   0.0540   0.1129   0.0220  -0.0437  -0.0349   3.00    1.0
2024/05/08 13:35:34.000   28.341755613  -16.436769974   842.7807   2   7   0.0222   0.0540   0.1130   0.0220  -0.0437  -0.0349   4.00    1.0
2024/05/08 13:35:35.000   28.341755614  -16.436769979   842.7787   2   7   0.0222   0.0540   0.1130   0.0220  -0.0436  -0.0349   5.00    1.0
2024/05/08 13:35:36.000   28.341755616  -16.436769982   842.7773   2   7   0.0222   0.0540   0.1130   0.0220  -0.0436  -0.0349   6.00    1.0
2024/05/08 13:35:37.000   28.341755617  -16.436769983   842.7762   2   7   0.0222   0.0541   0.1131   0.0220  -0.0436  -0.0349   7.00    1.0
2024/05/08 13:35:38.000   28.341755618  -16.436769985   842.7749   2   7   0.0222   0.0541   0.1131   0.0220  -0.0436  -0.0349   8.00    1.0
2024/05/08 13:35:39.000   28.341755619  -16.436769986   842.7738   2   7   0.0222   0.0541   0.1131   0.0220  -0.0435  -0.0349   9.00    1.0
2024/05/08 13:35:40.000   28.341755620  -16.436769988   842.7729   2   7   0.0222   0.0541   0.1131   0.0220  -0.0435  -0.0349  10.00    1.0
2024/05/08 13:35:41.000   28.341755621  -16.436769989   842.7720   2   7   0.0222   0.0541   0.1131   0.0220  -0.0435  -0.0349  11.00    1.0
2024/05/08 13:35:42.000   28.341755622  -16.436769989   842.7711   2   7   0.0222   0.0541   0.1131   0.0220  -0.0435  -0.0349  12.00    1.0
2024/05/08 13:35:43.000   28.341755623  -16.436769991   842.7706   2   7   0.0222   0.0541   0.1132   0.0220  -0.0434  -0.0349  13.00    1.0
2024/05/08 13:35:44.000   28.341755624  -16.436769992   842.7698   2   7   0.0222   0.0541   0.1132   0.0220  -0.0434  -0.0349  14.00    1.0
2024/05/08 13:35:45.000   28.341755626  -16.436769993   842.7689   2   7   0.0222   0.0541   0.1132   0.0220  -0.0434  -0.0349 -15.00    1.0
2024/05/08 13:35:46.000   28.341755627  -16.436769995   842.7681   2   7   0.0222   0.0541   0.1132   0.0220  -0.0434  -0.0349 -14.00    1.0
2024/05/08 13:35:47.000   28.341755628  -16.436769995   842.7673   2   7   0.0222   0.0541   0.1132   0.0220  -0.0434  -0.0349 -13.00    1.0
2024/05/08 13:35:48.000   28.341755629  -16.436769996   842.7664   2   7   0.0222   0.0541   0.1132   0.0220  -0.0434  -0.0349 -12.00    1.0
2024/05/08 13:35:49.000   28.341755630  -16.436769997   842.7653   2   7   0.0222   0.0541   0.1132   0.0220  -0.0434  -0.0349 -11.00    1.0
2024/05/08 13:35:50.000   28.341755631  -16.436769999   842.7641   2   7   0.0222   0.0541   0.1132   0.0220  -0.0434  -0.0349 -10.00    1.0
2024/05/08 13:35:51.000   28.341755632  -16.436769999   842.7628   2   7   0.0222   0.0541   0.1132   0.0220  -0.0433  -0.0349  -9.00    1.0
2024/05/08 13:35:52.000   28.341755633  -16.436769999   842.7615   2   7   0.0222   0.0541   0.1132   0.0220  -0.0433  -0.0349  -8.00    1.0
2024/05/08 13:35:53.000   28.341755634  -16.436770000   842.7602   2   7   0.0222   0.0540   0.1132   0.0220  -0.0433  -0.0349  -7.00    1.0
2024/05/08 13:35:54.000   28.341755635  -16.436770002   842.7589   2   7   0.0222   0.0540   0.1132   0.0220  -0.0433  -0.0349  -6.00    1.0
2024/05/08 13:35:55.000   28.341755637  -16.436770004   842.7573   2   7   0.0222   0.0540   0.1132   0.0220  -0.0433  -0.0349  -5.00    1.0
2024/05/08 13:35:56.000   28.341755639  -16.436770006   842.7554   2   7   0.0222   0.0540   0.1132   0.0220  -0.0432  -0.0349  -4.00    1.0
2024/05/08 13:35:57.000   28.341755641  -16.436770009   842.7529   2   7   0.0222   0.0540   0.1132   0.0220  -0.0432  -0.0349  -3.00    1.0
2024/05/08 13:35:58.000   28.341755645  -16.436770013   842.7499   2   7   0.0222   0.0540   0.1132   0.0220  -0.0432  -0.0349  -2.00    1.0
2024/05/08 13:35:59.000   28.341755649  -16.436770020   842.7478   2   7   0.0222   0.0540   0.1132   0.0220  -0.0432  -0.0349  -1.00    1.0
2024/05/08 13:36:00.000   28.341755653  -16.436770030   842.7467   2   7   0.0222   0.0541   0.1132   0.0220  -0.0432  -0.0349   0.00    1.0
2024/05/08 13:36:01.000   28.341755658  -16.436770039   842.7453   2   7   0.0222   0.0541   0.1132   0.0220  -0.0431  -0.0349   1.00    1.0
2024/05/08 13:36:02.000   28.341755663  -16.436770049   842.7439   2   7   0.0222   0.0541   0.1132   0.0220  -0.0431  -0.0349   2.00    1.0
2024/05/08 13:36:03.000   28.341755669  -16.436770058   842.7427   2   7   0.0222   0.0541   0.1132   0.0220  -0.0431  -0.0349   3.00    1.0
2024/05/08 13:36:04.000   28.341755672  -16.436770066   842.7422   2   7   0.0222   0.0541   0.1132   0.0220  -0.0431  -0.0349   4.00    1.0
2024/05/08 13:36:05.000   28.341755675  -16.436770070   842.7417   2   7   0.0222   0.0541   0.1133   0.0220  -0.0430  -0.0349   5.00    1.0
2024/05/08 13:36:06.000   28.341755677  -16.436770075   842.7409   2   7   0.0222   0.0541   0.1133   0.0220  -0.0430  -0.0349   6.00    1.0
2024/05/08 13:36:07.000   28.341755679  -16.436770080   842.7401   2   7   0.0222   0.0541   0.1133   0.0220  -0.0430  -0.0349   7.00    1.0
2024/05/08 13:36:08.000   28.341755681  -16.436770084   842.7393   2   7   0.0222   0.0541   0.1133   0.0220  -0.0430  -0.0349   8.00    1.0
2024/05/08 13:36:09.000   28.341755681  -16.436770088   842.7392   2   7   0.0222   0.0541   0.1133   0.0220  -0.0429  -0.0349   9.00    1.0
2024/05/08 13:36:10.000   28.341755681  -16.436770091   842.7391   2   7   0.0222   0.0541   0.1133   0.0220  -0.0429  -0.0349  10.00    1.0
2024/05/08 13:36:11.000   28.341755682  -16.436770095   842.7392   2   7   0.0222   0.0541   0.1133   0.0220  -0.0429  -0.0349  11.00    1.0
2024/05/08 13:36:12.000   28.341755682  -16.436770097   842.7394   2   7   0.0222   0.0541   0.1133   0.0220  -0.0429  -0.0349  12.00    1.0
2024/05/08 13:36:13.000   28.341755682  -16.436770100   842.7396   2   7   0.0222   0.0541   0.1133   0.0220  -0.0429  -0.0349  13.00    1.0
2024/05/08 13:36:14.000   28.341755682  -16.436770101   842.7397   2   7   0.0222   0.0541   0.1133   0.0220  -0.0429  -0.0349  14.00    1.0
2024/05/08 13:36:15.000   28.341755683  -16.436770103   842.7398   2   7   0.0222   0.0541   0.1133   0.0220  -0.0429  -0.0349 -15.00    1.0
2024/05/08 13:36:16.000   28.341755683  -16.436770104   842.7400   2   7   0.0222   0.0541   0.1133   0.0220  -0.0429  -0.0349 -14.00    1.0
2024/05/08 13:36:17.000   28.341755684  -16.436770107   842.7402   2   7   0.0222   0.0541   0.1133   0.0220  -0.0429  -0.0349 -13.00    1.0
2024/05/08 13:36:18.000   28.341755684  -16.436770109   842.7404   2   7   0.0222   0.0541   0.1133   0.0220  -0.0428  -0.0349 -12.00    1.0
2024/05/08 13:36:19.000   28.341755684  -16.436770111   842.7409   2   7   0.0222   0.0541   0.1133   0.0220  -0.0428  -0.0349 -11.00    1.0
2024/05/08 13:36:20.000   28.341755685  -16.436770113   842.7414   2   7   0.0222   0.0541   0.1133   0.0220  -0.0428  -0.0349 -10.00    1.0
2024/05/08 13:36:21.000   28.341755685  -16.436770114   842.7417   2   7   0.0222   0.0541   0.1132   0.0220  -0.0428  -0.0349  -9.00    1.0
2024/05/08 13:36:22.000   28.341755686  -16.436770117   842.7421   2   7   0.0222   0.0541   0.1132   0.0220  -0.0428  -0.0349  -8.00    1.0
2024/05/08 13:36:23.000   28.341755688  -16.436770120   842.7423   2   7   0.0222   0.0541   0.1132   0.0220  -0.0428  -0.0349  -7.00    1.0
2024/05/08 13:36:24.000   28.341755689  -16.436770125   842.7431   2   7   0.0222   0.0541   0.1132   0.0220  -0.0428  -0.0349  -6.00    1.0
2024/05/08 13:36:25.000   28.341755691  -16.436770128   842.7444   2   7   0.0222   0.0541   0.1132   0.0220  -0.0428  -0.0349  -5.00    1.0
2024/05/08 13:36:26.000   28.341755692  -16.436770134   842.7458   2   7   0.0222   0.0541   0.1132   0.0220  -0.0428  -0.0349  -4.00    1.0
