% program   : RTKPOST-EX 2.5.0
% inp file  : C:\Users\SallyHenry\Desktop\Sally Internship\GNSS gravi\DATA\Survey Rover Obs\GUI18.24o
% inp file  : C:\Users\SallyHenry\Desktop\Sally Internship\GNSS gravi\DATA\BaseStations\TN01\TN0100ESP_R_20241290000_01D_30S_MO.rnx
% inp file  : C:\Users\SallyHenry\Desktop\Sally Internship\GNSS gravi\DATA\BaseStations\TN01\TN0100ESP_R_20241290000_01D_MN.rnx
% inp file  : C:\Users\SallyHenry\Desktop\Sally Internship\GNSS gravi\DATA\aux_files\Survey\IGS0OPSFIN_20241290000_01D_15M_ORB.SP3
% inp file  : C:\Users\SallyHenry\Desktop\Sally Internship\GNSS gravi\DATA\aux_files\Survey\IGS0OPSFIN_20241290000_01D_30S_CLK.CLK
% obs start : 2024/05/08 15:21:47.0 GPST (week2313 314507.0s)
% obs end   : 2024/05/08 15:36:47.0 GPST (week2313 315407.0s)
% pos mode  : Static
% freqs     : L1+L2/E5b
% solution  : Combined-No Phase Reset
% elev mask : 15.0 deg
% dynamics  : on
% tidecorr  : solid
% ionos opt : Estimate TEC
% tropo opt : Estimate ZTD+Grad
% ephemeris : Precise
% navi sys  : GPS GLONASS Galileo QZSS BDS
% amb res   : Fix and Hold
% amb glo   : Fix and Hold
% amb bds   : on
% val thres : 3.0
% antenna1  :                       ( 0.0000  0.0000  1.8000)
% antenna2  :                       ( 0.0000  0.0000  0.0771)
% ref pos   :  28.477186930  -16.241151700    51.7531
%
% (lat/lon/height=WGS84/ellipsoidal,Q=1:fix,2:float,3:sbas,4:dgps,5:single,6:ppp,ns=# of satellites)
%  GPST                  latitude(deg) longitude(deg)  height(m)   Q  ns   sdn(m)   sde(m)   sdu(m)  sdne(m)  sdeu(m)  sdun(m) age(s)  ratio
2024/05/08 15:21:47.000   28.325995287  -16.458148974  1392.0326   2   6   0.0297   0.0648   0.1649  -0.0358   0.0976  -0.0614 -13.00    0.0
2024/05/08 15:21:48.000   28.325995289  -16.458148984  1392.0304   2   6   0.0296   0.0647   0.1647  -0.0358   0.0974  -0.0613 -12.00    0.0
2024/05/08 15:21:49.000   28.325995292  -16.458148996  1392.0277   2   6   0.0296   0.0646   0.1645  -0.0357   0.0973  -0.0612 -11.00    0.0
2024/05/08 15:21:50.000   28.325995295  -16.458149009  1392.0245   2   6   0.0296   0.0645   0.1643  -0.0357   0.0971  -0.0611 -10.00    0.0
2024/05/08 15:21:51.000   28.325995298  -16.458149019  1392.0220   2   6   0.0296   0.0644   0.1641  -0.0356   0.0970  -0.0611  -9.00    0.0
2024/05/08 15:21:52.000   28.325995301  -16.458149030  1392.0188   2   6   0.0296   0.0644   0.1640  -0.0356   0.0969  -0.0610  -8.00    0.0
2024/05/08 15:21:53.000   28.325995303  -16.458149042  1392.0154   2   6   0.0295   0.0643   0.1638  -0.0355   0.0968  -0.0609  -7.00    0.0
2024/05/08 15:21:54.000   28.325995306  -16.458149054  1392.0118   2   6   0.0295   0.0642   0.1637  -0.0355   0.0967  -0.0609  -6.00    0.0
2024/05/08 15:21:55.000   28.325995310  -16.458149069  1392.0073   2   6   0.0295   0.0642   0.1635  -0.0354   0.0966  -0.0608  -5.00    0.0
2024/05/08 15:21:56.000   28.325995314  -16.458149083  1392.0030   2   6   0.0295   0.0641   0.1634  -0.0354   0.0965  -0.0608  -4.00    0.0
2024/05/08 15:21:57.000   28.325995317  -16.458149094  1391.9992   2   6   0.0295   0.0641   0.1633  -0.0354   0.0964  -0.0607  -3.00    0.0
2024/05/08 15:21:58.000   28.325995319  -16.458149105  1391.9961   2   6   0.0295   0.0641   0.1633  -0.0353   0.0964  -0.0607  -2.00    0.0
2024/05/08 15:21:59.000   28.325995321  -16.458149112  1391.9936   2   6   0.0295   0.0640   0.1632  -0.0353   0.0963  -0.0606  -1.00    0.0
2024/05/08 15:22:00.000   28.325995323  -16.458149120  1391.9910   2   6   0.0295   0.0640   0.1632  -0.0353   0.0962  -0.0606   0.00    0.0
2024/05/08 15:22:01.000   28.325995323  -16.458149125  1391.9889   2   6   0.0295   0.0640   0.1631  -0.0352   0.0962  -0.0606   1.00    0.0
2024/05/08 15:22:02.000   28.325995324  -16.458149125  1391.9882   2   6   0.0295   0.0639   0.1631  -0.0352   0.0961  -0.0605   2.00    0.0
2024/05/08 15:22:03.000   28.325995324  -16.458149129  1391.9870   2   6   0.0295   0.0639   0.1630  -0.0352   0.0961  -0.0605   3.00    0.0
2024/05/08 15:22:04.000   28.325995325  -16.458149135  1391.9858   2   6   0.0295   0.0639   0.1630  -0.0352   0.0960  -0.0605   4.00    0.0
2024/05/08 15:22:05.000   28.325995324  -16.458149138  1391.9852   2   6   0.0295   0.0639   0.1629  -0.0351   0.0960  -0.0604   5.00    0.0
2024/05/08 15:22:06.000   28.325995325  -16.458149147  1391.9840   2   6   0.0295   0.0638   0.1628  -0.0351   0.0959  -0.0604   6.00    0.0
2024/05/08 15:22:07.000   28.325995327  -16.458149155  1391.9825   2   6   0.0295   0.0638   0.1627  -0.0351   0.0958  -0.0603   7.00    0.0
2024/05/08 15:22:08.000   28.325995328  -16.458149163  1391.9810   2   6   0.0295   0.0637   0.1626  -0.0350   0.0957  -0.0603   8.00    0.0
2024/05/08 15:22:09.000   28.325995330  -16.458149175  1391.9789   2   6   0.0295   0.0637   0.1625  -0.0350   0.0957  -0.0603   9.00    0.0
2024/05/08 15:22:10.000   28.325995331  -16.458149182  1391.9775   2   6   0.0295   0.0637   0.1624  -0.0350   0.0956  -0.0602  10.00    0.0
2024/05/08 15:22:11.000   28.325995332  -16.458149189  1391.9763   2   6   0.0294   0.0636   0.1623  -0.0349   0.0955  -0.0602  11.00    0.0
2024/05/08 15:22:12.000   28.325995333  -16.458149197  1391.9749   2   6   0.0294   0.0636   0.1622  -0.0349   0.0954  -0.0601  12.00    0.0
2024/05/08 15:22:13.000   28.325995335  -16.458149204  1391.9735   2   6   0.0294   0.0635   0.1621  -0.0349   0.0954  -0.0601  13.00    0.0
2024/05/08 15:22:14.000   28.325995337  -16.458149212  1391.9718   2   6   0.0294   0.0635   0.1620  -0.0348   0.0953  -0.0600  14.00    0.0
2024/05/08 15:22:15.000   28.325995339  -16.458149220  1391.9701   2   6   0.0294   0.0634   0.1619  -0.0348   0.0952  -0.0600 -15.00    0.0
2024/05/08 15:22:16.000   28.325995341  -16.458149227  1391.9687   2   6   0.0294   0.0634   0.1618  -0.0348   0.0952  -0.0600 -14.00    0.0
2024/05/08 15:22:17.000   28.325995342  -16.458149234  1391.9671   2   6   0.0294   0.0634   0.1617  -0.0347   0.0951  -0.0599 -13.00    0.0
2024/05/08 15:22:18.000   28.325995345  -16.458149243  1391.9651   2   6   0.0294   0.0633   0.1616  -0.0347   0.0950  -0.0599 -12.00    0.0
2024/05/08 15:22:19.000   28.325995347  -16.458149254  1391.9626   2   6   0.0293   0.0633   0.1615  -0.0347   0.0950  -0.0598 -11.00    0.0
2024/05/08 15:22:20.000   28.325995350  -16.458149265  1391.9601   2   6   0.0293   0.0632   0.1615  -0.0347   0.0949  -0.0598 -10.00    0.0
2024/05/08 15:22:21.000   28.325995352  -16.458149276  1391.9578   2   6   0.0293   0.0632   0.1614  -0.0346   0.0948  -0.0598  -9.00    0.0
2024/05/08 15:22:22.000   28.325995354  -16.458149285  1391.9559   2   6   0.0293   0.0632   0.1613  -0.0346   0.0948  -0.0597  -8.00    0.0
2024/05/08 15:22:23.000   28.325995355  -16.458149295  1391.9536   2   6   0.0293   0.0631   0.1612  -0.0346   0.0947  -0.0597  -7.00    0.0
2024/05/08 15:22:24.000   28.325995357  -16.458149306  1391.9512   2   6   0.0293   0.0631   0.1612  -0.0346   0.0947  -0.0597  -6.00    0.0
2024/05/08 15:22:25.000   28.325995358  -16.458149315  1391.9494   2   6   0.0293   0.0631   0.1611  -0.0345   0.0946  -0.0596  -5.00    0.0
2024/05/08 15:22:26.000   28.325995359  -16.458149326  1391.9476   2   6   0.0293   0.0631   0.1611  -0.0345   0.0946  -0.0596  -4.00    0.0
2024/05/08 15:22:27.000   28.325995359  -16.458149338  1391.9454   2   6   0.0293   0.0630   0.1610  -0.0345   0.0945  -0.0596  -3.00    0.0
2024/05/08 15:22:28.000   28.325995358  -16.458149346  1391.9438   2   6   0.0293   0.0630   0.1610  -0.0345   0.0945  -0.0596  -2.00    0.0
2024/05/08 15:22:29.000   28.325995357  -16.458149355  1391.9423   2   6   0.0293   0.0630   0.1610  -0.0345   0.0945  -0.0596  -1.00    0.0
2024/05/08 15:22:30.000   28.325995356  -16.458149363  1391.9415   2   6   0.0293   0.0630   0.1610  -0.0345   0.0945  -0.0595   0.00    0.0
2024/05/08 15:22:31.000   28.325995354  -16.458149371  1391.9409   2   6   0.0293   0.0630   0.1610  -0.0344   0.0944  -0.0595   1.00    0.0
2024/05/08 15:22:32.000   28.325995350  -16.458149374  1391.9413   2   6   0.0293   0.0630   0.1610  -0.0344   0.0944  -0.0595   2.00    0.0
2024/05/08 15:22:33.000   28.325995349  -16.458149381  1391.9408   2   6   0.0294   0.0630   0.1610  -0.0344   0.0944  -0.0595   3.00    0.0
2024/05/08 15:22:34.000   28.325995346  -16.458149386  1391.9408   2   6   0.0294   0.0630   0.1610  -0.0344   0.0944  -0.0595   4.00    0.0
2024/05/08 15:22:35.000   28.325995345  -16.458149392  1391.9404   2   6   0.0294   0.0630   0.1610  -0.0344   0.0944  -0.0595   5.00    0.0
2024/05/08 15:22:36.000   28.325995345  -16.458149400  1391.9398   2   6   0.0294   0.0630   0.1610  -0.0344   0.0943  -0.0595   6.00    0.0
2024/05/08 15:22:37.000   28.325995345  -16.458149408  1391.9388   2   6   0.0294   0.0630   0.1609  -0.0343   0.0943  -0.0594   7.00    0.0
2024/05/08 15:22:38.000   28.325995346  -16.458149415  1391.9376   2   6   0.0294   0.0629   0.1609  -0.0343   0.0942  -0.0594   8.00    0.0
2024/05/08 15:22:39.000   28.325995346  -16.458149421  1391.9369   2   6   0.0294   0.0629   0.1609  -0.0343   0.0942  -0.0594   9.00    0.0
2024/05/08 15:22:40.000   28.325995346  -16.458149427  1391.9360   2   6   0.0294   0.0629   0.1608  -0.0343   0.0942  -0.0594  10.00    0.0
2024/05/08 15:22:41.000   28.325995347  -16.458149432  1391.9355   2   6   0.0294   0.0629   0.1607  -0.0343   0.0941  -0.0593  11.00    0.0
2024/05/08 15:22:42.000   28.325995348  -16.458149437  1391.9345   2   6   0.0293   0.0628   0.1607  -0.0342   0.0941  -0.0593  12.00    0.0
2024/05/08 15:22:43.000   28.325995348  -16.458149442  1391.9337   2   6   0.0293   0.0628   0.1606  -0.0342   0.0940  -0.0593  13.00    0.0
2024/05/08 15:22:44.000   28.325995349  -16.458149447  1391.9328   2   6   0.0293   0.0628   0.1606  -0.0342   0.0940  -0.0593  14.00    0.0
2024/05/08 15:22:45.000   28.325995350  -16.458149454  1391.9315   2   6   0.0293   0.0628   0.1605  -0.0342   0.0939  -0.0592 -15.00    0.0
2024/05/08 15:22:46.000   28.325995352  -16.458149460  1391.9303   2   6   0.0293   0.0627   0.1604  -0.0342   0.0939  -0.0592 -14.00    0.0
2024/05/08 15:22:47.000   28.325995353  -16.458149463  1391.9295   2   6   0.0293   0.0627   0.1604  -0.0342   0.0938  -0.0592 -13.00    0.0
2024/05/08 15:22:48.000   28.325995354  -16.458149469  1391.9284   2   6   0.0293   0.0627   0.1603  -0.0341   0.0938  -0.0592 -12.00    0.0
2024/05/08 15:22:49.000   28.325995355  -16.458149474  1391.9274   2   6   0.0293   0.0627   0.1603  -0.0341   0.0938  -0.0591 -11.00    0.0
2024/05/08 15:22:50.000   28.325995356  -16.458149478  1391.9266   2   6   0.0293   0.0626   0.1602  -0.0341   0.0937  -0.0591 -10.00    0.0
2024/05/08 15:22:51.000   28.325995356  -16.458149481  1391.9260   2   6   0.0293   0.0626   0.1602  -0.0341   0.0937  -0.0591  -9.00    0.0
2024/05/08 15:22:52.000   28.325995357  -16.458149486  1391.9250   2   6   0.0293   0.0626   0.1601  -0.0341   0.0936  -0.0591  -8.00    0.0
2024/05/08 15:22:53.000   28.325995357  -16.458149490  1391.9244   2   6   0.0293   0.0626   0.1601  -0.0340   0.0936  -0.0590  -7.00    0.0
2024/05/08 15:22:54.000   28.325995357  -16.458149494  1391.9239   2   6   0.0293   0.0626   0.1601  -0.0340   0.0936  -0.0590  -6.00    0.0
2024/05/08 15:22:55.000   28.325995358  -16.458149498  1391.9230   2   6   0.0293   0.0625   0.1600  -0.0340   0.0935  -0.0590  -5.00    0.0
2024/05/08 15:22:56.000   28.325995358  -16.458149503  1391.9223   2   6   0.0293   0.0625   0.1600  -0.0340   0.0935  -0.0590  -4.00    0.0
2024/05/08 15:22:57.000   28.325995357  -16.458149507  1391.9219   2   6   0.0293   0.0625   0.1600  -0.0340   0.0935  -0.0590  -3.00    0.0
2024/05/08 15:22:58.000   28.325995358  -16.458149508  1391.9218   2   6   0.0293   0.0625   0.1600  -0.0340   0.0935  -0.0590  -2.00    0.0
2024/05/08 15:22:59.000   28.325995358  -16.458149509  1391.9221   2   6   0.0293   0.0625   0.1600  -0.0340   0.0935  -0.0590  -1.00    0.0
2024/05/08 15:23:00.000   28.325995360  -16.458149516  1391.9213   2   6   0.0293   0.0625   0.1600  -0.0340   0.0935  -0.0590   0.00    0.0
2024/05/08 15:23:01.000   28.325995360  -16.458149523  1391.9203   2   6   0.0293   0.0625   0.1600  -0.0340   0.0935  -0.0590   1.00    0.0
2024/05/08 15:23:02.000   28.325995360  -16.458149526  1391.9206   2   6   0.0294   0.0625   0.1601  -0.0339   0.0934  -0.0590   2.00    0.0
2024/05/08 15:23:03.000   28.325995359  -16.458149526  1391.9209   2   6   0.0294   0.0625   0.1601  -0.0339   0.0934  -0.0589   3.00    0.0
2024/05/08 15:23:04.000   28.325995358  -16.458149528  1391.9211   2   6   0.0294   0.0625   0.1601  -0.0339   0.0934  -0.0589   4.00    0.0
2024/05/08 15:23:05.000   28.325995357  -16.458149530  1391.9216   2   6   0.0294   0.0625   0.1601  -0.0339   0.0934  -0.0589   5.00    0.0
2024/05/08 15:23:06.000   28.325995356  -16.458149533  1391.9217   2   6   0.0294   0.0625   0.1601  -0.0339   0.0934  -0.0589   6.00    0.0
2024/05/08 15:23:07.000   28.325995356  -16.458149536  1391.9216   2   6   0.0294   0.0625   0.1601  -0.0339   0.0934  -0.0589   7.00    0.0
2024/05/08 15:23:08.000   28.325995355  -16.458149537  1391.9218   2   6   0.0294   0.0625   0.1600  -0.0339   0.0933  -0.0589   8.00    0.0
2024/05/08 15:23:09.000   28.325995354  -16.458149536  1391.9223   2   6   0.0294   0.0625   0.1600  -0.0339   0.0933  -0.0589   9.00    0.0
2024/05/08 15:23:10.000   28.325995354  -16.458149536  1391.9225   2   6   0.0294   0.0625   0.1600  -0.0339   0.0933  -0.0589  10.00    0.0
2024/05/08 15:23:11.000   28.325995354  -16.458149536  1391.9228   2   6   0.0294   0.0625   0.1599  -0.0338   0.0932  -0.0588  11.00    0.0
2024/05/08 15:23:12.000   28.325995353  -16.458149536  1391.9232   2   6   0.0294   0.0624   0.1599  -0.0338   0.0932  -0.0588  12.00    0.0
2024/05/08 15:23:13.000   28.325995353  -16.458149536  1391.9234   2   6   0.0294   0.0624   0.1599  -0.0338   0.0932  -0.0588  13.00    0.0
2024/05/08 15:23:14.000   28.325995353  -16.458149536  1391.9234   2   6   0.0294   0.0624   0.1598  -0.0338   0.0932  -0.0588  14.00    0.0
2024/05/08 15:23:15.000   28.325995353  -16.458149537  1391.9234   2   6   0.0294   0.0624   0.1598  -0.0338   0.0931  -0.0588 -15.00    0.0
2024/05/08 15:23:16.000   28.325995352  -16.458149536  1391.9237   2   6   0.0294   0.0624   0.1597  -0.0338   0.0931  -0.0588 -14.00    0.0
2024/05/08 15:23:17.000   28.325995352  -16.458149537  1391.9239   2   6   0.0294   0.0624   0.1597  -0.0338   0.0931  -0.0587 -13.00    0.0
2024/05/08 15:23:18.000   28.325995352  -16.458149538  1391.9238   2   6   0.0294   0.0623   0.1597  -0.0337   0.0930  -0.0587 -12.00    0.0
2024/05/08 15:23:19.000   28.325995351  -16.458149538  1391.9238   2   6   0.0294   0.0623   0.1596  -0.0337   0.0930  -0.0587 -11.00    0.0
2024/05/08 15:23:20.000   28.325995351  -16.458149539  1391.9237   2   6   0.0294   0.0623   0.1596  -0.0337   0.0930  -0.0587 -10.00    0.0
2024/05/08 15:23:21.000   28.325995351  -16.458149540  1391.9238   2   6   0.0294   0.0623   0.1595  -0.0337   0.0929  -0.0587  -9.00    0.0
2024/05/08 15:23:22.000   28.325995351  -16.458149541  1391.9236   2   6   0.0293   0.0623   0.1595  -0.0337   0.0929  -0.0587  -8.00    0.0
2024/05/08 15:23:23.000   28.325995351  -16.458149544  1391.9232   2   6   0.0293   0.0623   0.1595  -0.0337   0.0929  -0.0586  -7.00    0.0
2024/05/08 15:23:24.000   28.325995351  -16.458149546  1391.9230   2   6   0.0294   0.0622   0.1595  -0.0337   0.0929  -0.0586  -6.00    0.0
2024/05/08 15:23:25.000   28.325995351  -16.458149550  1391.9226   2   6   0.0294   0.0622   0.1594  -0.0337   0.0928  -0.0586  -5.00    0.0
2024/05/08 15:23:26.000   28.325995351  -16.458149555  1391.9222   2   6   0.0294   0.0622   0.1594  -0.0337   0.0928  -0.0586  -4.00    0.0
2024/05/08 15:23:27.000   28.325995350  -16.458149559  1391.9217   2   6   0.0294   0.0622   0.1594  -0.0336   0.0928  -0.0586  -3.00    0.0
2024/05/08 15:23:28.000   28.325995350  -16.458149565  1391.9212   2   6   0.0294   0.0622   0.1594  -0.0336   0.0928  -0.0586  -2.00    0.0
2024/05/08 15:23:29.000   28.325995350  -16.458149570  1391.9206   2   6   0.0294   0.0622   0.1594  -0.0336   0.0928  -0.0586  -1.00    0.0
2024/05/08 15:23:30.000   28.325995348  -16.458149572  1391.9206   2   6   0.0294   0.0622   0.1595  -0.0336   0.0928  -0.0586   0.00    0.0
2024/05/08 15:23:31.000   28.325995347  -16.458149576  1391.9201   2   6   0.0294   0.0622   0.1595  -0.0336   0.0928  -0.0586   1.00    0.0
2024/05/08 15:23:32.000   28.325995346  -16.458149579  1391.9201   2   6   0.0294   0.0622   0.1595  -0.0336   0.0928  -0.0586   2.00    0.0
2024/05/08 15:23:33.000   28.325995347  -16.458149584  1391.9191   2   6   0.0294   0.0623   0.1596  -0.0336   0.0928  -0.0586   3.00    0.0
2024/05/08 15:23:34.000   28.325995346  -16.458149588  1391.9183   2   6   0.0295   0.0623   0.1596  -0.0336   0.0928  -0.0586   4.00    0.0
2024/05/08 15:23:35.000   28.325995346  -16.458149594  1391.9173   2   6   0.0295   0.0623   0.1596  -0.0336   0.0928  -0.0586   5.00    0.0
2024/05/08 15:23:36.000   28.325995345  -16.458149598  1391.9165   2   6   0.0295   0.0623   0.1596  -0.0336   0.0928  -0.0586   6.00    0.0
2024/05/08 15:23:37.000   28.325995345  -16.458149603  1391.9156   2   6   0.0295   0.0623   0.1596  -0.0336   0.0927  -0.0586   7.00    0.0
2024/05/08 15:23:38.000   28.325995345  -16.458149607  1391.9149   2   6   0.0295   0.0623   0.1596  -0.0336   0.0927  -0.0586   8.00    0.0
2024/05/08 15:23:39.000   28.325995345  -16.458149610  1391.9144   2   6   0.0295   0.0622   0.1596  -0.0336   0.0927  -0.0586   9.00    0.0
2024/05/08 15:23:40.000   28.325995346  -16.458149615  1391.9134   2   6   0.0295   0.0622   0.1595  -0.0336   0.0927  -0.0585  10.00    0.0
2024/05/08 15:23:41.000   28.325995346  -16.458149617  1391.9130   2   6   0.0295   0.0622   0.1595  -0.0335   0.0927  -0.0585  11.00    0.0
2024/05/08 15:23:42.000   28.325995346  -16.458149619  1391.9125   2   6   0.0295   0.0622   0.1595  -0.0335   0.0926  -0.0585  12.00    0.0
2024/05/08 15:23:43.000   28.325995346  -16.458149621  1391.9123   2   6   0.0295   0.0622   0.1595  -0.0335   0.0926  -0.0585  13.00    0.0
2024/05/08 15:23:44.000   28.325995346  -16.458149622  1391.9121   2   6   0.0295   0.0622   0.1595  -0.0335   0.0926  -0.0585  14.00    0.0
2024/05/08 15:23:45.000   28.325995346  -16.458149622  1391.9121   2   6   0.0295   0.0622   0.1594  -0.0335   0.0926  -0.0585 -15.00    0.0
2024/05/08 15:23:46.000   28.325995347  -16.458149623  1391.9120   2   6   0.0295   0.0622   0.1594  -0.0335   0.0926  -0.0585 -14.00    0.0
2024/05/08 15:23:47.000   28.325995346  -16.458149623  1391.9122   2   6   0.0295   0.0622   0.1594  -0.0335   0.0925  -0.0585 -13.00    0.0
2024/05/08 15:23:48.000   28.325995347  -16.458149625  1391.9118   2   6   0.0295   0.0622   0.1593  -0.0335   0.0925  -0.0585 -12.00    0.0
2024/05/08 15:23:49.000   28.325995347  -16.458149627  1391.9117   2   6   0.0295   0.0621   0.1593  -0.0335   0.0925  -0.0584 -11.00    0.0
2024/05/08 15:23:50.000   28.325995346  -16.458149627  1391.9118   2   6   0.0295   0.0621   0.1593  -0.0335   0.0925  -0.0584 -10.00    0.0
2024/05/08 15:23:51.000   28.325995346  -16.458149626  1391.9119   2   6   0.0295   0.0621   0.1593  -0.0334   0.0925  -0.0584  -9.00    0.0
2024/05/08 15:23:52.000   28.325995347  -16.458149628  1391.9117   2   6   0.0295   0.0621   0.1593  -0.0334   0.0924  -0.0584  -8.00    0.0
2024/05/08 15:23:53.000   28.325995347  -16.458149628  1391.9118   2   6   0.0295   0.0621   0.1592  -0.0334   0.0924  -0.0584  -7.00    0.0
2024/05/08 15:23:54.000   28.325995347  -16.458149629  1391.9116   2   6   0.0295   0.0621   0.1592  -0.0334   0.0924  -0.0584  -6.00    0.0
2024/05/08 15:23:55.000   28.325995347  -16.458149631  1391.9116   2   6   0.0295   0.0621   0.1592  -0.0334   0.0924  -0.0584  -5.00    0.0
2024/05/08 15:23:56.000   28.325995349  -16.458149633  1391.9113   2   6   0.0295   0.0621   0.1592  -0.0334   0.0924  -0.0584  -4.00    0.0
2024/05/08 15:23:57.000   28.325995350  -16.458149635  1391.9110   2   6   0.0295   0.0621   0.1592  -0.0334   0.0924  -0.0584  -3.00    0.0
2024/05/08 15:23:58.000   28.325995352  -16.458149640  1391.9103   2   6   0.0295   0.0621   0.1593  -0.0334   0.0924  -0.0584  -2.00    0.0
2024/05/08 15:23:59.000   28.325995354  -16.458149642  1391.9104   2   6   0.0295   0.0621   0.1593  -0.0334   0.0924  -0.0584  -1.00    0.0
2024/05/08 15:24:00.000   28.325995357  -16.458149643  1391.9105   2   6   0.0295   0.0621   0.1594  -0.0334   0.0924  -0.0584   0.00    0.0
2024/05/08 15:24:01.000   28.325995360  -16.458149645  1391.9106   2   6   0.0295   0.0621   0.1594  -0.0334   0.0924  -0.0584   1.00    0.0
2024/05/08 15:24:02.000   28.325995363  -16.458149649  1391.9103   2   6   0.0296   0.0622   0.1594  -0.0334   0.0924  -0.0584   2.00    0.0
2024/05/08 15:24:03.000   28.325995365  -16.458149650  1391.9103   2   6   0.0296   0.0622   0.1595  -0.0334   0.0924  -0.0584   3.00    0.0
2024/05/08 15:24:04.000   28.325995365  -16.458149651  1391.9105   2   6   0.0296   0.0622   0.1595  -0.0334   0.0924  -0.0584   4.00    0.0
2024/05/08 15:24:05.000   28.325995364  -16.458149649  1391.9114   2   6   0.0296   0.0622   0.1595  -0.0334   0.0924  -0.0584   5.00    0.0
2024/05/08 15:24:06.000   28.325995365  -16.458149648  1391.9118   2   6   0.0296   0.0622   0.1595  -0.0334   0.0924  -0.0584   6.00    0.0
2024/05/08 15:24:07.000   28.325995365  -16.458149646  1391.9123   2   6   0.0296   0.0622   0.1595  -0.0334   0.0924  -0.0584   7.00    0.0
2024/05/08 15:24:08.000   28.325995365  -16.458149645  1391.9127   2   6   0.0296   0.0622   0.1595  -0.0334   0.0924  -0.0584   8.00    0.0
2024/05/08 15:24:09.000   28.325995365  -16.458149644  1391.9130   2   6   0.0296   0.0622   0.1595  -0.0334   0.0924  -0.0584   9.00    0.0
2024/05/08 15:24:10.000   28.325995364  -16.458149644  1391.9132   2   6   0.0296   0.0622   0.1595  -0.0334   0.0924  -0.0584  10.00    0.0
2024/05/08 15:24:11.000   28.325995364  -16.458149642  1391.9135   2   6   0.0296   0.0622   0.1595  -0.0333   0.0923  -0.0584  11.00    0.0
2024/05/08 15:24:12.000   28.325995363  -16.458149642  1391.9136   2   6   0.0296   0.0622   0.1595  -0.0333   0.0923  -0.0584  12.00    0.0
2024/05/08 15:24:13.000   28.325995363  -16.458149642  1391.9137   2   6   0.0296   0.0621   0.1595  -0.0333   0.0923  -0.0584  13.00    0.0
2024/05/08 15:24:14.000   28.325995363  -16.458149642  1391.9136   2   6   0.0296   0.0621   0.1594  -0.0333   0.0923  -0.0584  14.00    0.0
2024/05/08 15:24:15.000   28.325995363  -16.458149642  1391.9136   2   6   0.0296   0.0621   0.1594  -0.0333   0.0923  -0.0583 -15.00    0.0
2024/05/08 15:24:16.000   28.325995363  -16.458149641  1391.9139   2   6   0.0296   0.0621   0.1594  -0.0333   0.0923  -0.0583 -14.00    0.0
2024/05/08 15:24:17.000   28.325995363  -16.458149643  1391.9137   2   6   0.0296   0.0621   0.1594  -0.0333   0.0923  -0.0583 -13.00    0.0
2024/05/08 15:24:18.000   28.325995363  -16.458149642  1391.9139   2   6   0.0296   0.0621   0.1594  -0.0333   0.0922  -0.0583 -12.00    0.0
2024/05/08 15:24:19.000   28.325995363  -16.458149640  1391.9143   2   6   0.0296   0.0621   0.1593  -0.0333   0.0922  -0.0583 -11.00    0.0
2024/05/08 15:24:20.000   28.325995363  -16.458149639  1391.9146   2   6   0.0296   0.0621   0.1593  -0.0333   0.0922  -0.0583 -10.00    0.0
2024/05/08 15:24:21.000   28.325995363  -16.458149640  1391.9146   2   6   0.0296   0.0621   0.1593  -0.0333   0.0922  -0.0583  -9.00    0.0
2024/05/08 15:24:22.000   28.325995362  -16.458149638  1391.9152   2   6   0.0296   0.0621   0.1593  -0.0333   0.0922  -0.0583  -8.00    0.0
2024/05/08 15:24:23.000   28.325995361  -16.458149636  1391.9157   2   6   0.0296   0.0621   0.1593  -0.0333   0.0922  -0.0583  -7.00    0.0
2024/05/08 15:24:24.000   28.325995361  -16.458149635  1391.9159   2   6   0.0296   0.0621   0.1593  -0.0333   0.0922  -0.0583  -6.00    0.0
2024/05/08 15:24:25.000   28.325995360  -16.458149633  1391.9165   2   6   0.0296   0.0621   0.1593  -0.0333   0.0922  -0.0583  -5.00    0.0
2024/05/08 15:24:26.000   28.325995360  -16.458149631  1391.9169   2   6   0.0296   0.0621   0.1593  -0.0332   0.0921  -0.0583  -4.00    0.0
2024/05/08 15:24:27.000   28.325995360  -16.458149630  1391.9172   2   6   0.0296   0.0621   0.1593  -0.0332   0.0921  -0.0583  -3.00    0.0
2024/05/08 15:24:28.000   28.325995361  -16.458149631  1391.9167   2   6   0.0297   0.0621   0.1593  -0.0332   0.0921  -0.0583  -2.00    0.0
2024/05/08 15:24:29.000   28.325995361  -16.458149632  1391.9161   2   6   0.0297   0.0621   0.1594  -0.0332   0.0922  -0.0583  -1.00    0.0
2024/05/08 15:24:30.000   28.325995362  -16.458149636  1391.9156   2   6   0.0297   0.0621   0.1594  -0.0332   0.0922  -0.0583   0.00    0.0
2024/05/08 15:24:31.000   28.325995361  -16.458149635  1391.9160   2   6   0.0297   0.0621   0.1595  -0.0332   0.0922  -0.0583   1.00    0.0
2024/05/08 15:24:32.000   28.325995361  -16.458149636  1391.9155   2   6   0.0297   0.0621   0.1595  -0.0332   0.0922  -0.0583   2.00    0.0
2024/05/08 15:24:33.000   28.325995361  -16.458149634  1391.9160   2   6   0.0297   0.0622   0.1595  -0.0332   0.0922  -0.0583   3.00    0.0
2024/05/08 15:24:34.000   28.325995361  -16.458149630  1391.9164   2   6   0.0298   0.0622   0.1596  -0.0332   0.0922  -0.0583   4.00    0.0
2024/05/08 15:24:35.000   28.325995362  -16.458149629  1391.9160   2   6   0.0298   0.0622   0.1596  -0.0332   0.0922  -0.0583   5.00    0.0
2024/05/08 15:24:36.000   28.325995363  -16.458149627  1391.9159   2   6   0.0298   0.0622   0.1596  -0.0332   0.0922  -0.0583   6.00    0.0
2024/05/08 15:24:37.000   28.325995363  -16.458149626  1391.9159   2   6   0.0298   0.0622   0.1596  -0.0332   0.0922  -0.0583   7.00    0.0
2024/05/08 15:24:38.000   28.325995364  -16.458149624  1391.9157   2   6   0.0298   0.0622   0.1596  -0.0332   0.0922  -0.0583   8.00    0.0
2024/05/08 15:24:39.000   28.325995364  -16.458149622  1391.9159   2   6   0.0298   0.0622   0.1596  -0.0332   0.0922  -0.0583   9.00    0.0
2024/05/08 15:24:40.000   28.325995363  -16.458149620  1391.9162   2   6   0.0298   0.0622   0.1596  -0.0332   0.0922  -0.0583  10.00    0.0
2024/05/08 15:24:41.000   28.325995363  -16.458149618  1391.9165   2   6   0.0298   0.0622   0.1596  -0.0332   0.0921  -0.0583  11.00    0.0
2024/05/08 15:24:42.000   28.325995363  -16.458149618  1391.9167   2   6   0.0298   0.0622   0.1596  -0.0332   0.0921  -0.0583  12.00    0.0
2024/05/08 15:24:43.000   28.325995363  -16.458149618  1391.9167   2   6   0.0298   0.0622   0.1596  -0.0332   0.0921  -0.0583  13.00    0.0
2024/05/08 15:24:44.000   28.325995363  -16.458149619  1391.9167   2   6   0.0298   0.0621   0.1595  -0.0332   0.0921  -0.0583  14.00    0.0
2024/05/08 15:24:45.000   28.325995363  -16.458149619  1391.9168   2   6   0.0298   0.0621   0.1595  -0.0332   0.0921  -0.0583 -15.00    0.0
2024/05/08 15:24:46.000   28.325995363  -16.458149619  1391.9170   2   6   0.0298   0.0621   0.1595  -0.0332   0.0921  -0.0583 -14.00    0.0
2024/05/08 15:24:47.000   28.325995362  -16.458149618  1391.9173   2   6   0.0298   0.0621   0.1595  -0.0332   0.0921  -0.0583 -13.00    0.0
2024/05/08 15:24:48.000   28.325995362  -16.458149618  1391.9175   2   6   0.0298   0.0621   0.1595  -0.0332   0.0921  -0.0583 -12.00    0.0
2024/05/08 15:24:49.000   28.325995362  -16.458149619  1391.9177   2   6   0.0298   0.0621   0.1595  -0.0332   0.0920  -0.0582 -11.00    0.0
2024/05/08 15:24:50.000   28.325995362  -16.458149620  1391.9177   2   6   0.0298   0.0621   0.1595  -0.0332   0.0920  -0.0582 -10.00    0.0
2024/05/08 15:24:51.000   28.325995363  -16.458149622  1391.9176   2   6   0.0298   0.0621   0.1594  -0.0331   0.0920  -0.0582  -9.00    0.0
2024/05/08 15:24:52.000   28.325995363  -16.458149624  1391.9172   2   6   0.0298   0.0621   0.1594  -0.0331   0.0920  -0.0582  -8.00    0.0
2024/05/08 15:24:53.000   28.325995365  -16.458149626  1391.9166   2   6   0.0298   0.0621   0.1594  -0.0331   0.0920  -0.0582  -7.00    0.0
2024/05/08 15:24:54.000   28.325995366  -16.458149629  1391.9157   2   6   0.0298   0.0621   0.1594  -0.0331   0.0920  -0.0582  -6.00    0.0
2024/05/08 15:24:55.000   28.325995368  -16.458149632  1391.9152   2   6   0.0298   0.0621   0.1594  -0.0331   0.0920  -0.0582  -5.00    0.0
2024/05/08 15:24:56.000   28.325995370  -16.458149636  1391.9142   2   6   0.0298   0.0621   0.1594  -0.0331   0.0920  -0.0582  -4.00    0.0
2024/05/08 15:24:57.000   28.325995372  -16.458149637  1391.9132   2   6   0.0298   0.0621   0.1594  -0.0331   0.0920  -0.0582  -3.00    0.0
2024/05/08 15:24:58.000   28.325995375  -16.458149640  1391.9117   2   6   0.0298   0.0621   0.1595  -0.0331   0.0920  -0.0582  -2.00    0.0
2024/05/08 15:24:59.000   28.325995379  -16.458149647  1391.9098   2   6   0.0298   0.0621   0.1595  -0.0331   0.0920  -0.0582  -1.00    0.0
2024/05/08 15:25:00.000   28.325995382  -16.458149650  1391.9084   2   6   0.0299   0.0621   0.1595  -0.0331   0.0920  -0.0582   0.00    0.0
2024/05/08 15:25:01.000   28.325995386  -16.458149653  1391.9067   2   6   0.0299   0.0621   0.1595  -0.0331   0.0920  -0.0582   1.00    0.0
2024/05/08 15:25:02.000   28.325995390  -16.458149656  1391.9048   2   6   0.0299   0.0622   0.1596  -0.0331   0.0920  -0.0582   2.00    0.0
2024/05/08 15:25:03.000   28.325995394  -16.458149660  1391.9032   2   6   0.0299   0.0622   0.1596  -0.0331   0.0920  -0.0582   3.00    1.0
2024/05/08 15:25:04.000   28.325995396  -16.458149664  1391.9021   2   6   0.0299   0.0622   0.1597  -0.0331   0.0920  -0.0583   4.00    1.0
2024/05/08 15:25:05.000   28.325995399  -16.458149669  1391.9001   2   6   0.0299   0.0622   0.1597  -0.0331   0.0920  -0.0583   5.00    1.0
2024/05/08 15:25:06.000   28.325995402  -16.458149672  1391.8984   2   6   0.0299   0.0622   0.1597  -0.0331   0.0920  -0.0583   6.00    1.0
2024/05/08 15:25:07.000   28.325995404  -16.458149677  1391.8964   2   6   0.0300   0.0622   0.1597  -0.0331   0.0920  -0.0583   7.00    1.0
2024/05/08 15:25:08.000   28.325995405  -16.458149681  1391.8947   2   6   0.0300   0.0622   0.1597  -0.0331   0.0920  -0.0583   8.00    1.0
2024/05/08 15:25:09.000   28.325995407  -16.458149685  1391.8928   2   6   0.0300   0.0622   0.1597  -0.0331   0.0920  -0.0583   9.00    1.0
2024/05/08 15:25:10.000   28.325995409  -16.458149689  1391.8915   2   6   0.0300   0.0622   0.1597  -0.0331   0.0920  -0.0583  10.00    1.0
2024/05/08 15:25:11.000   28.325995410  -16.458149691  1391.8908   2   6   0.0300   0.0622   0.1597  -0.0331   0.0920  -0.0582  11.00    1.0
2024/05/08 15:25:12.000   28.325995411  -16.458149693  1391.8902   2   6   0.0300   0.0622   0.1597  -0.0331   0.0920  -0.0582  12.00    1.0
2024/05/08 15:25:13.000   28.325995411  -16.458149694  1391.8901   2   6   0.0300   0.0622   0.1597  -0.0331   0.0920  -0.0582  13.00    1.0
2024/05/08 15:25:14.000   28.325995411  -16.458149695  1391.8898   2   6   0.0300   0.0622   0.1597  -0.0331   0.0920  -0.0582  14.00    1.0
2024/05/08 15:25:15.000   28.325995411  -16.458149698  1391.8894   2   6   0.0300   0.0622   0.1597  -0.0331   0.0919  -0.0582 -15.00    1.0
2024/05/08 15:25:16.000   28.325995411  -16.458149698  1391.8894   2   6   0.0300   0.0622   0.1596  -0.0331   0.0919  -0.0582 -14.00    1.0
2024/05/08 15:25:17.000   28.325995411  -16.458149699  1391.8895   2   6   0.0300   0.0622   0.1596  -0.0331   0.0919  -0.0582 -13.00    1.0
2024/05/08 15:25:18.000   28.325995411  -16.458149700  1391.8896   2   6   0.0300   0.0622   0.1596  -0.0331   0.0919  -0.0582 -12.00    1.0
2024/05/08 15:25:19.000   28.325995410  -16.458149701  1391.8900   2   6   0.0300   0.0621   0.1596  -0.0331   0.0919  -0.0582 -11.00    1.0
2024/05/08 15:25:20.000   28.325995410  -16.458149702  1391.8901   2   6   0.0300   0.0621   0.1596  -0.0331   0.0919  -0.0582 -10.00    1.0
2024/05/08 15:25:21.000   28.325995410  -16.458149703  1391.8903   2   6   0.0300   0.0621   0.1596  -0.0330   0.0919  -0.0582  -9.00    1.0
2024/05/08 15:25:22.000   28.325995409  -16.458149705  1391.8906   2   6   0.0300   0.0621   0.1596  -0.0330   0.0919  -0.0582  -8.00    1.0
2024/05/08 15:25:23.000   28.325995409  -16.458149707  1391.8911   2   6   0.0300   0.0621   0.1596  -0.0330   0.0919  -0.0582  -7.00    1.0
2024/05/08 15:25:24.000   28.325995408  -16.458149709  1391.8917   2   6   0.0300   0.0621   0.1596  -0.0330   0.0919  -0.0582  -6.00    1.0
2024/05/08 15:25:25.000   28.325995408  -16.458149713  1391.8920   2   6   0.0300   0.0621   0.1596  -0.0330   0.0919  -0.0582  -5.00    1.0
2024/05/08 15:25:26.000   28.325995409  -16.458149718  1391.8924   2   6   0.0300   0.0621   0.1596  -0.0330   0.0919  -0.0582  -4.00    1.0
2024/05/08 15:25:27.000   28.325995408  -16.458149720  1391.8929   2   6   0.0300   0.0621   0.1596  -0.0330   0.0919  -0.0582  -3.00    1.0
2024/05/08 15:25:28.000   28.325995410  -16.458149725  1391.8928   2   6   0.0300   0.0621   0.1596  -0.0330   0.0919  -0.0582  -2.00    1.0
2024/05/08 15:25:29.000   28.325995413  -16.458149731  1391.8920   2   6   0.0300   0.0622   0.1597  -0.0330   0.0919  -0.0582  -1.00    1.0
2024/05/08 15:25:30.000   28.325995414  -16.458149737  1391.8909   2   6   0.0300   0.0622   0.1597  -0.0330   0.0919  -0.0582   0.00    1.0
2024/05/08 15:25:31.000   28.325995414  -16.458149745  1391.8892   2   6   0.0301   0.0622   0.1597  -0.0330   0.0919  -0.0582   1.00    1.0
2024/05/08 15:25:32.000   28.325995415  -16.458149750  1391.8887   2   6   0.0301   0.0622   0.1598  -0.0330   0.0919  -0.0582   2.00    1.0
2024/05/08 15:25:33.000   28.325995417  -16.458149754  1391.8875   2   6   0.0301   0.0622   0.1598  -0.0330   0.0919  -0.0582   3.00    1.0
2024/05/08 15:25:34.000   28.325995418  -16.458149757  1391.8867   2   6   0.0301   0.0622   0.1598  -0.0330   0.0919  -0.0582   4.00    1.0
2024/05/08 15:25:35.000   28.325995419  -16.458149758  1391.8860   2   6   0.0301   0.0622   0.1598  -0.0330   0.0919  -0.0582   5.00    1.0
2024/05/08 15:25:36.000   28.325995419  -16.458149759  1391.8854   2   6   0.0301   0.0622   0.1599  -0.0330   0.0919  -0.0582   6.00    1.0
2024/05/08 15:25:37.000   28.325995418  -16.458149759  1391.8852   2   6   0.0301   0.0622   0.1599  -0.0330   0.0919  -0.0582   7.00    1.0
2024/05/08 15:25:38.000   28.325995418  -16.458149758  1391.8852   2   6   0.0301   0.0622   0.1599  -0.0330   0.0919  -0.0582   8.00    1.0
2024/05/08 15:25:39.000   28.325995418  -16.458149757  1391.8856   2   6   0.0301   0.0622   0.1599  -0.0330   0.0919  -0.0582   9.00    1.0
2024/05/08 15:25:40.000   28.325995418  -16.458149757  1391.8855   2   6   0.0301   0.0622   0.1599  -0.0330   0.0919  -0.0582  10.00    1.0
2024/05/08 15:25:41.000   28.325995419  -16.458149757  1391.8855   2   6   0.0301   0.0622   0.1599  -0.0330   0.0919  -0.0582  11.00    1.0
2024/05/08 15:25:42.000   28.325995419  -16.458149758  1391.8855   2   6   0.0301   0.0622   0.1599  -0.0330   0.0919  -0.0582  12.00    1.0
2024/05/08 15:25:43.000   28.325995420  -16.458149757  1391.8857   2   6   0.0301   0.0622   0.1598  -0.0330   0.0919  -0.0582  13.00    1.0
2024/05/08 15:25:44.000   28.325995420  -16.458149757  1391.8861   2   6   0.0301   0.0622   0.1598  -0.0330   0.0919  -0.0582  14.00    1.0
2024/05/08 15:25:45.000   28.325995420  -16.458149756  1391.8864   2   6   0.0301   0.0622   0.1598  -0.0330   0.0919  -0.0582 -15.00    1.0
2024/05/08 15:25:46.000   28.325995421  -16.458149756  1391.8865   2   6   0.0301   0.0622   0.1598  -0.0330   0.0919  -0.0582 -14.00    1.0
2024/05/08 15:25:47.000   28.325995421  -16.458149757  1391.8864   2   6   0.0301   0.0622   0.1598  -0.0330   0.0919  -0.0582 -13.00    1.0
2024/05/08 15:25:48.000   28.325995421  -16.458149756  1391.8868   2   6   0.0301   0.0622   0.1598  -0.0330   0.0918  -0.0582 -12.00    1.0
2024/05/08 15:25:49.000   28.325995421  -16.458149755  1391.8871   2   6   0.0301   0.0622   0.1598  -0.0330   0.0918  -0.0582 -11.00    1.0
2024/05/08 15:25:50.000   28.325995421  -16.458149754  1391.8874   2   6   0.0301   0.0622   0.1598  -0.0330   0.0918  -0.0582 -10.00    1.0
2024/05/08 15:25:51.000   28.325995422  -16.458149755  1391.8875   2   6   0.0301   0.0622   0.1598  -0.0330   0.0918  -0.0582  -9.00    1.0
2024/05/08 15:25:52.000   28.325995423  -16.458149756  1391.8873   2   6   0.0302   0.0622   0.1598  -0.0330   0.0918  -0.0582  -8.00    1.0
2024/05/08 15:25:53.000   28.325995423  -16.458149756  1391.8875   2   6   0.0302   0.0622   0.1598  -0.0330   0.0918  -0.0582  -7.00    1.0
2024/05/08 15:25:54.000   28.325995424  -16.458149756  1391.8874   2   6   0.0302   0.0622   0.1598  -0.0330   0.0918  -0.0582  -6.00    1.0
2024/05/08 15:25:55.000   28.325995424  -16.458149757  1391.8876   2   6   0.0302   0.0622   0.1598  -0.0330   0.0918  -0.0582  -5.00    1.0
2024/05/08 15:25:56.000   28.325995426  -16.458149758  1391.8876   2   6   0.0302   0.0622   0.1598  -0.0330   0.0918  -0.0582  -4.00    1.0
2024/05/08 15:25:57.000   28.325995428  -16.458149759  1391.8872   2   6   0.0302   0.0622   0.1598  -0.0330   0.0918  -0.0582  -3.00    1.0
2024/05/08 15:25:58.000   28.325995431  -16.458149759  1391.8870   2   6   0.0302   0.0622   0.1598  -0.0330   0.0918  -0.0582  -2.00    1.0
2024/05/08 15:25:59.000   28.325995434  -16.458149760  1391.8864   2   6   0.0302   0.0622   0.1598  -0.0330   0.0918  -0.0582  -1.00    1.0
2024/05/08 15:26:00.000   28.325995436  -16.458149761  1391.8858   2   6   0.0302   0.0622   0.1598  -0.0330   0.0918  -0.0582   0.00    1.0
2024/05/08 15:26:01.000   28.325995441  -16.458149767  1391.8844   2   6   0.0302   0.0622   0.1599  -0.0330   0.0918  -0.0582   1.00    1.0
2024/05/08 15:26:02.000   28.325995444  -16.458149769  1391.8837   2   6   0.0302   0.0623   0.1599  -0.0330   0.0918  -0.0582   2.00    1.0
2024/05/08 15:26:03.000   28.325995446  -16.458149770  1391.8836   2   6   0.0303   0.0623   0.1599  -0.0330   0.0918  -0.0582   3.00    1.0
2024/05/08 15:26:04.000   28.325995449  -16.458149771  1391.8833   2   6   0.0303   0.0623   0.1600  -0.0330   0.0918  -0.0582   4.00    1.0
2024/05/08 15:26:05.000   28.325995451  -16.458149771  1391.8830   2   6   0.0303   0.0623   0.1600  -0.0330   0.0918  -0.0582   5.00    1.0
2024/05/08 15:26:06.000   28.325995453  -16.458149771  1391.8826   2   6   0.0303   0.0623   0.1600  -0.0330   0.0918  -0.0582   6.00    1.0
2024/05/08 15:26:07.000   28.325995454  -16.458149771  1391.8821   2   6   0.0303   0.0623   0.1600  -0.0330   0.0918  -0.0582   7.00    1.0
2024/05/08 15:26:08.000   28.325995455  -16.458149772  1391.8817   2   6   0.0303   0.0623   0.1600  -0.0330   0.0918  -0.0582   8.00    1.0
2024/05/08 15:26:09.000   28.325995456  -16.458149773  1391.8815   2   6   0.0303   0.0623   0.1600  -0.0329   0.0918  -0.0582   9.00    1.0
2024/05/08 15:26:10.000   28.325995456  -16.458149772  1391.8815   2   6   0.0303   0.0623   0.1600  -0.0329   0.0918  -0.0582  10.00    1.0
2024/05/08 15:26:11.000   28.325995457  -16.458149773  1391.8814   2   6   0.0303   0.0623   0.1600  -0.0329   0.0918  -0.0582  11.00    1.0
2024/05/08 15:26:12.000   28.325995457  -16.458149772  1391.8815   2   6   0.0303   0.0623   0.1600  -0.0329   0.0918  -0.0582  12.00    1.0
2024/05/08 15:26:13.000   28.325995458  -16.458149772  1391.8816   2   6   0.0303   0.0623   0.1600  -0.0329   0.0918  -0.0582  13.00    1.0
2024/05/08 15:26:14.000   28.325995458  -16.458149772  1391.8817   2   6   0.0303   0.0623   0.1600  -0.0329   0.0918  -0.0582  14.00    1.0
2024/05/08 15:26:15.000   28.325995458  -16.458149772  1391.8817   2   6   0.0303   0.0623   0.1600  -0.0329   0.0918  -0.0582 -15.00    1.0
2024/05/08 15:26:16.000   28.325995458  -16.458149772  1391.8819   2   6   0.0303   0.0623   0.1600  -0.0329   0.0918  -0.0582 -14.00    1.0
2024/05/08 15:26:17.000   28.325995458  -16.458149771  1391.8823   2   6   0.0303   0.0623   0.1599  -0.0329   0.0918  -0.0582 -13.00    1.0
2024/05/08 15:26:18.000   28.325995459  -16.458149771  1391.8823   2   6   0.0303   0.0623   0.1599  -0.0329   0.0918  -0.0582 -12.00    1.0
2024/05/08 15:26:19.000   28.325995460  -16.458149772  1391.8820   2   6   0.0303   0.0623   0.1599  -0.0329   0.0918  -0.0582 -11.00    1.0
2024/05/08 15:26:20.000   28.325995460  -16.458149772  1391.8819   2   6   0.0303   0.0623   0.1599  -0.0329   0.0918  -0.0582 -10.00    1.0
2024/05/08 15:26:21.000   28.325995461  -16.458149773  1391.8819   2   6   0.0303   0.0623   0.1599  -0.0329   0.0918  -0.0582  -9.00    1.0
2024/05/08 15:26:22.000   28.325995461  -16.458149773  1391.8820   2   6   0.0303   0.0623   0.1599  -0.0329   0.0918  -0.0582  -8.00    1.0
2024/05/08 15:26:23.000   28.325995462  -16.458149773  1391.8822   2   6   0.0303   0.0623   0.1599  -0.0329   0.0918  -0.0582  -7.00    1.0
2024/05/08 15:26:24.000   28.325995464  -16.458149776  1391.8815   2   6   0.0303   0.0623   0.1599  -0.0329   0.0918  -0.0582  -6.00    1.0
2024/05/08 15:26:25.000   28.325995465  -16.458149777  1391.8816   2   6   0.0303   0.0623   0.1599  -0.0329   0.0917  -0.0582  -5.00    1.0
2024/05/08 15:26:26.000   28.325995466  -16.458149777  1391.8816   2   6   0.0303   0.0623   0.1599  -0.0329   0.0917  -0.0582  -4.00    1.0
2024/05/08 15:26:27.000   28.325995468  -16.458149777  1391.8816   2   6   0.0303   0.0623   0.1599  -0.0329   0.0917  -0.0582  -3.00    1.0
2024/05/08 15:26:28.000   28.325995469  -16.458149775  1391.8820   2   6   0.0303   0.0623   0.1599  -0.0329   0.0917  -0.0582  -2.00    1.0
2024/05/08 15:26:29.000   28.325995471  -16.458149775  1391.8814   2   6   0.0304   0.0623   0.1599  -0.0329   0.0917  -0.0582  -1.00    1.0
2024/05/08 15:26:30.000   28.325995473  -16.458149776  1391.8802   2   6   0.0304   0.0623   0.1600  -0.0329   0.0918  -0.0582   0.00    1.0
2024/05/08 15:26:31.000   28.325995476  -16.458149778  1391.8790   2   6   0.0304   0.0623   0.1600  -0.0329   0.0918  -0.0582   1.00    1.0
2024/05/08 15:26:32.000   28.325995478  -16.458149779  1391.8778   2   6   0.0304   0.0623   0.1600  -0.0329   0.0918  -0.0582   2.00    1.0
2024/05/08 15:26:33.000   28.325995481  -16.458149780  1391.8766   2   6   0.0304   0.0623   0.1600  -0.0329   0.0918  -0.0582   3.00    1.0
2024/05/08 15:26:34.000   28.325995484  -16.458149780  1391.8757   2   6   0.0304   0.0623   0.1600  -0.0329   0.0918  -0.0583   4.00    1.0
2024/05/08 15:26:35.000   28.325995486  -16.458149781  1391.8748   2   6   0.0304   0.0623   0.1600  -0.0329   0.0918  -0.0583   5.00    1.0
2024/05/08 15:26:36.000   28.325995487  -16.458149782  1391.8744   2   6   0.0304   0.0623   0.1601  -0.0329   0.0918  -0.0583   6.00    1.0
2024/05/08 15:26:37.000   28.325995487  -16.458149784  1391.8737   2   6   0.0304   0.0623   0.1601  -0.0329   0.0918  -0.0583   7.00    1.0
2024/05/08 15:26:38.000   28.325995487  -16.458149782  1391.8738   2   6   0.0304   0.0623   0.1601  -0.0329   0.0918  -0.0583   8.00    1.0
2024/05/08 15:26:39.000   28.325995488  -16.458149782  1391.8735   2   6   0.0305   0.0623   0.1601  -0.0329   0.0918  -0.0583   9.00    1.0
2024/05/08 15:26:40.000   28.325995488  -16.458149781  1391.8736   2   6   0.0305   0.0623   0.1601  -0.0329   0.0918  -0.0583  10.00    1.0
2024/05/08 15:26:41.000   28.325995489  -16.458149782  1391.8734   2   6   0.0305   0.0623   0.1601  -0.0329   0.0918  -0.0583  11.00    1.0
2024/05/08 15:26:42.000   28.325995489  -16.458149782  1391.8735   2   6   0.0305   0.0623   0.1600  -0.0329   0.0918  -0.0583  12.00    1.0
2024/05/08 15:26:43.000   28.325995489  -16.458149781  1391.8738   2   6   0.0305   0.0623   0.1600  -0.0329   0.0918  -0.0583  13.00    1.0
2024/05/08 15:26:44.000   28.325995489  -16.458149781  1391.8738   2   6   0.0305   0.0623   0.1600  -0.0329   0.0918  -0.0582  14.00    1.0
2024/05/08 15:26:45.000   28.325995489  -16.458149782  1391.8738   2   6   0.0305   0.0623   0.1600  -0.0329   0.0917  -0.0582 -15.00    1.0
2024/05/08 15:26:46.000   28.325995489  -16.458149781  1391.8742   2   6   0.0305   0.0623   0.1600  -0.0329   0.0917  -0.0582 -14.00    1.0
2024/05/08 15:26:47.000   28.325995489  -16.458149781  1391.8743   2   6   0.0305   0.0623   0.1600  -0.0329   0.0917  -0.0582 -13.00    1.0
2024/05/08 15:26:48.000   28.325995489  -16.458149781  1391.8744   2   6   0.0305   0.0623   0.1600  -0.0329   0.0917  -0.0582 -12.00    1.0
2024/05/08 15:26:49.000   28.325995489  -16.458149780  1391.8746   2   6   0.0305   0.0623   0.1600  -0.0329   0.0917  -0.0582 -11.00    1.0
2024/05/08 15:26:50.000   28.325995490  -16.458149780  1391.8745   2   6   0.0305   0.0623   0.1600  -0.0329   0.0917  -0.0582 -10.00    1.0
2024/05/08 15:26:51.000   28.325995490  -16.458149780  1391.8747   2   6   0.0305   0.0623   0.1600  -0.0329   0.0917  -0.0582  -9.00    1.0
2024/05/08 15:26:52.000   28.325995490  -16.458149779  1391.8751   2   6   0.0305   0.0623   0.1600  -0.0329   0.0917  -0.0582  -8.00    1.0
2024/05/08 15:26:53.000   28.325995490  -16.458149778  1391.8752   2   6   0.0305   0.0623   0.1600  -0.0329   0.0917  -0.0582  -7.00    1.0
2024/05/08 15:26:54.000   28.325995491  -16.458149778  1391.8750   2   6   0.0305   0.0623   0.1600  -0.0329   0.0917  -0.0582  -6.00    1.0
2024/05/08 15:26:55.000   28.325995493  -16.458149779  1391.8743   2   6   0.0305   0.0623   0.1600  -0.0329   0.0917  -0.0582  -5.00    1.0
2024/05/08 15:26:56.000   28.325995495  -16.458149781  1391.8731   2   6   0.0305   0.0623   0.1600  -0.0329   0.0917  -0.0582  -4.00    1.0
2024/05/08 15:26:57.000   28.325995496  -16.458149782  1391.8717   2   6   0.0305   0.0623   0.1600  -0.0329   0.0917  -0.0582  -3.00    1.0
2024/05/08 15:26:58.000   28.325995498  -16.458149783  1391.8703   2   6   0.0305   0.0623   0.1600  -0.0329   0.0917  -0.0582  -2.00    1.0
2024/05/08 15:26:59.000   28.325995499  -16.458149784  1391.8692   2   6   0.0305   0.0623   0.1600  -0.0329   0.0917  -0.0582  -1.00    1.0
2024/05/08 15:27:00.000   28.325995499  -16.458149782  1391.8691   2   6   0.0305   0.0623   0.1600  -0.0329   0.0917  -0.0582   0.00    1.0
2024/05/08 15:27:01.000   28.325995498  -16.458149779  1391.8693   2   6   0.0305   0.0623   0.1600  -0.0329   0.0917  -0.0582   1.00    1.0
2024/05/08 15:27:02.000   28.325995496  -16.458149780  1391.8690   2   6   0.0305   0.0623   0.1600  -0.0329   0.0917  -0.0582   2.00    1.0
2024/05/08 15:27:03.000   28.325995497  -16.458149780  1391.8685   2   6   0.0305   0.0623   0.1600  -0.0329   0.0917  -0.0583   3.00    1.0
2024/05/08 15:27:04.000   28.325995498  -16.458149780  1391.8680   2   6   0.0306   0.0623   0.1600  -0.0329   0.0917  -0.0583   4.00    1.0
2024/05/08 15:27:05.000   28.325995498  -16.458149779  1391.8675   2   6   0.0306   0.0623   0.1600  -0.0329   0.0917  -0.0583   5.00    1.0
2024/05/08 15:27:06.000   28.325995498  -16.458149778  1391.8675   2   6   0.0306   0.0623   0.1600  -0.0329   0.0917  -0.0583   6.00    1.0
2024/05/08 15:27:07.000   28.325995498  -16.458149776  1391.8677   2   6   0.0306   0.0623   0.1600  -0.0329   0.0917  -0.0583   7.00    1.0
2024/05/08 15:27:08.000   28.325995497  -16.458149774  1391.8679   2   6   0.0306   0.0623   0.1600  -0.0329   0.0917  -0.0583   8.00    1.0
2024/05/08 15:27:09.000   28.325995497  -16.458149772  1391.8681   2   6   0.0306   0.0623   0.1600  -0.0329   0.0917  -0.0583   9.00    1.0
2024/05/08 15:27:10.000   28.325995497  -16.458149771  1391.8681   2   6   0.0306   0.0623   0.1600  -0.0329   0.0917  -0.0583  10.00    1.0
2024/05/08 15:27:11.000   28.325995497  -16.458149770  1391.8680   2   6   0.0306   0.0623   0.1600  -0.0329   0.0917  -0.0583  11.00    1.0
2024/05/08 15:27:12.000   28.325995496  -16.458149769  1391.8681   2   6   0.0306   0.0623   0.1600  -0.0329   0.0917  -0.0583  12.00    1.0
2024/05/08 15:27:13.000   28.325995497  -16.458149768  1391.8681   2   6   0.0306   0.0623   0.1600  -0.0329   0.0917  -0.0583  13.00    1.0
2024/05/08 15:27:14.000   28.325995496  -16.458149766  1391.8684   2   6   0.0306   0.0623   0.1600  -0.0328   0.0917  -0.0583  14.00    1.0
2024/05/08 15:27:15.000   28.325995496  -16.458149765  1391.8685   2   6   0.0306   0.0623   0.1600  -0.0328   0.0917  -0.0583 -15.00    1.0
2024/05/08 15:27:16.000   28.325995496  -16.458149763  1391.8690   2   6   0.0306   0.0623   0.1600  -0.0328   0.0917  -0.0582 -14.00    1.0
2024/05/08 15:27:17.000   28.325995496  -16.458149761  1391.8692   2   6   0.0306   0.0623   0.1600  -0.0328   0.0917  -0.0582 -13.00    1.0
2024/05/08 15:27:18.000   28.325995496  -16.458149758  1391.8695   2   6   0.0306   0.0623   0.1600  -0.0328   0.0917  -0.0582 -12.00    1.0
2024/05/08 15:27:19.000   28.325995496  -16.458149756  1391.8698   2   6   0.0306   0.0623   0.1600  -0.0328   0.0917  -0.0582 -11.00    1.0
2024/05/08 15:27:20.000   28.325995497  -16.458149753  1391.8700   2   6   0.0306   0.0623   0.1600  -0.0328   0.0917  -0.0582 -10.00    1.0
2024/05/08 15:27:21.000   28.325995497  -16.458149749  1391.8706   2   6   0.0306   0.0623   0.1600  -0.0328   0.0917  -0.0582  -9.00    1.0
2024/05/08 15:27:22.000   28.325995498  -16.458149746  1391.8710   2   6   0.0306   0.0623   0.1600  -0.0328   0.0917  -0.0582  -8.00    1.0
2024/05/08 15:27:23.000   28.325995499  -16.458149742  1391.8712   2   6   0.0306   0.0623   0.1600  -0.0328   0.0916  -0.0582  -7.00    1.0
2024/05/08 15:27:24.000   28.325995500  -16.458149737  1391.8715   2   6   0.0306   0.0623   0.1599  -0.0328   0.0916  -0.0582  -6.00    1.0
2024/05/08 15:27:25.000   28.325995501  -16.458149732  1391.8717   2   6   0.0306   0.0623   0.1599  -0.0328   0.0916  -0.0582  -5.00    1.0
2024/05/08 15:27:26.000   28.325995503  -16.458149727  1391.8716   2   6   0.0306   0.0623   0.1599  -0.0328   0.0916  -0.0582  -4.00    1.0
2024/05/08 15:27:27.000   28.325995505  -16.458149720  1391.8717   2   6   0.0306   0.0623   0.1599  -0.0328   0.0916  -0.0582  -3.00    1.0
2024/05/08 15:27:28.000   28.325995508  -16.458149713  1391.8716   2   6   0.0306   0.0623   0.1599  -0.0328   0.0916  -0.0582  -2.00    1.0
2024/05/08 15:27:29.000   28.325995512  -16.458149705  1391.8714   2   6   0.0306   0.0623   0.1599  -0.0328   0.0916  -0.0582  -1.00    1.0
2024/05/08 15:27:30.000   28.325995518  -16.458149698  1391.8709   2   6   0.0306   0.0623   0.1599  -0.0328   0.0916  -0.0582   0.00    1.1
2024/05/08 15:27:31.000   28.325995524  -16.458149692  1391.8706   2   6   0.0306   0.0623   0.1599  -0.0328   0.0916  -0.0582   1.00    1.0
2024/05/08 15:27:32.000   28.325995528  -16.458149683  1391.8708   2   6   0.0306   0.0623   0.1599  -0.0328   0.0916  -0.0582   2.00    1.0
2024/05/08 15:27:33.000   28.325995531  -16.458149673  1391.8714   2   6   0.0306   0.0623   0.1599  -0.0328   0.0916  -0.0582   3.00    1.0
2024/05/08 15:27:34.000   28.325995534  -16.458149667  1391.8717   2   6   0.0307   0.0623   0.1599  -0.0328   0.0916  -0.0583   4.00    1.0
2024/05/08 15:27:35.000   28.325995536  -16.458149663  1391.8713   2   6   0.0307   0.0623   0.1599  -0.0328   0.0916  -0.0583   5.00    1.0
2024/05/08 15:27:36.000   28.325995537  -16.458149659  1391.8714   2   6   0.0307   0.0623   0.1599  -0.0328   0.0916  -0.0583   6.00    1.0
2024/05/08 15:27:37.000   28.325995539  -16.458149656  1391.8714   2   6   0.0307   0.0623   0.1599  -0.0328   0.0916  -0.0583   7.00    1.0
2024/05/08 15:27:38.000   28.325995540  -16.458149655  1391.8711   2   6   0.0307   0.0623   0.1599  -0.0328   0.0916  -0.0583   8.00    1.0
2024/05/08 15:27:39.000   28.325995541  -16.458149652  1391.8710   2   6   0.0307   0.0623   0.1599  -0.0328   0.0916  -0.0583   9.00    1.0
2024/05/08 15:27:40.000   28.325995541  -16.458149649  1391.8711   2   6   0.0307   0.0623   0.1599  -0.0328   0.0916  -0.0583  10.00    1.0
2024/05/08 15:27:41.000   28.325995542  -16.458149647  1391.8713   2   6   0.0307   0.0623   0.1599  -0.0328   0.0916  -0.0583  11.00    1.0
2024/05/08 15:27:42.000   28.325995542  -16.458149644  1391.8716   2   6   0.0307   0.0623   0.1599  -0.0328   0.0916  -0.0582  12.00    1.1
2024/05/08 15:27:43.000   28.325995542  -16.458149642  1391.8716   2   6   0.0307   0.0623   0.1599  -0.0328   0.0916  -0.0582  13.00    1.0
2024/05/08 15:27:44.000   28.325995542  -16.458149640  1391.8718   2   6   0.0307   0.0623   0.1599  -0.0328   0.0916  -0.0582  14.00    1.0
2024/05/08 15:27:45.000   28.325995542  -16.458149638  1391.8721   2   6   0.0307   0.0623   0.1599  -0.0328   0.0916  -0.0582 -15.00    1.0
2024/05/08 15:27:46.000   28.325995542  -16.458149635  1391.8725   2   6   0.0307   0.0623   0.1599  -0.0328   0.0916  -0.0582 -14.00    1.0
2024/05/08 15:27:47.000   28.325995542  -16.458149634  1391.8727   2   6   0.0307   0.0623   0.1599  -0.0328   0.0916  -0.0582 -13.00    1.0
2024/05/08 15:27:48.000   28.325995542  -16.458149631  1391.8735   2   6   0.0307   0.0623   0.1599  -0.0328   0.0916  -0.0582 -12.00    1.0
2024/05/08 15:27:49.000   28.325995541  -16.458149628  1391.8740   2   6   0.0307   0.0623   0.1599  -0.0328   0.0916  -0.0582 -11.00    1.0
2024/05/08 15:27:50.000   28.325995541  -16.458149626  1391.8746   2   6   0.0307   0.0623   0.1599  -0.0328   0.0916  -0.0582 -10.00    1.0
2024/05/08 15:27:51.000   28.325995541  -16.458149622  1391.8753   2   6   0.0307   0.0623   0.1598  -0.0328   0.0916  -0.0582  -9.00    1.0
2024/05/08 15:27:52.000   28.325995540  -16.458149619  1391.8762   2   6   0.0307   0.0623   0.1598  -0.0328   0.0916  -0.0582  -8.00    1.0
2024/05/08 15:27:53.000   28.325995539  -16.458149612  1391.8779   2   6   0.0307   0.0623   0.1598  -0.0328   0.0916  -0.0582  -7.00    1.0
2024/05/08 15:27:54.000   28.325995538  -16.458149607  1391.8790   2   6   0.0307   0.0623   0.1598  -0.0328   0.0916  -0.0582  -6.00    1.1
2024/05/08 15:27:55.000   28.325995537  -16.458149599  1391.8804   2   6   0.0307   0.0623   0.1598  -0.0328   0.0916  -0.0582  -5.00    1.0
2024/05/08 15:27:56.000   28.325995536  -16.458149593  1391.8816   2   6   0.0307   0.0623   0.1598  -0.0328   0.0916  -0.0582  -4.00    1.0
2024/05/08 15:27:57.000   28.325995533  -16.458149584  1391.8837   2   6   0.0307   0.0623   0.1598  -0.0328   0.0916  -0.0582  -3.00    1.0
2024/05/08 15:27:58.000   28.325995528  -16.458149574  1391.8868   2   6   0.0307   0.0623   0.1598  -0.0328   0.0916  -0.0582  -2.00    1.0
2024/05/08 15:27:59.000   28.325995527  -16.458149565  1391.8892   2   6   0.0307   0.0623   0.1597  -0.0328   0.0915  -0.0582  -1.00    1.0
2024/05/08 15:28:00.000   28.325995525  -16.458149557  1391.8907   2   6   0.0307   0.0623   0.1597  -0.0328   0.0915  -0.0582   0.00    1.0
2024/05/08 15:28:01.000   28.325995524  -16.458149553  1391.8913   2   6   0.0307   0.0623   0.1597  -0.0328   0.0915  -0.0582   1.00    1.0
2024/05/08 15:28:02.000   28.325995523  -16.458149550  1391.8917   2   6   0.0307   0.0623   0.1597  -0.0328   0.0915  -0.0582   2.00    1.0
2024/05/08 15:28:03.000   28.325995522  -16.458149547  1391.8919   2   6   0.0307   0.0623   0.1597  -0.0328   0.0915  -0.0582   3.00    1.0
2024/05/08 15:28:04.000   28.325995522  -16.458149545  1391.8916   2   6   0.0307   0.0623   0.1597  -0.0328   0.0915  -0.0582   4.00    1.0
2024/05/08 15:28:05.000   28.325995522  -16.458149544  1391.8913   2   6   0.0307   0.0623   0.1597  -0.0328   0.0915  -0.0582   5.00    1.0
2024/05/08 15:28:06.000   28.325995523  -16.458149542  1391.8909   2   6   0.0307   0.0623   0.1597  -0.0328   0.0915  -0.0582   6.00    1.0
2024/05/08 15:28:07.000   28.325995523  -16.458149539  1391.8905   2   6   0.0307   0.0623   0.1597  -0.0328   0.0915  -0.0582   7.00    1.0
2024/05/08 15:28:08.000   28.325995524  -16.458149537  1391.8901   2   6   0.0307   0.0623   0.1597  -0.0328   0.0915  -0.0582   8.00    1.0
2024/05/08 15:28:09.000   28.325995524  -16.458149535  1391.8897   2   6   0.0307   0.0623   0.1597  -0.0328   0.0915  -0.0582   9.00    1.0
2024/05/08 15:28:10.000   28.325995525  -16.458149533  1391.8892   2   6   0.0307   0.0623   0.1597  -0.0328   0.0915  -0.0582  10.00    1.0
2024/05/08 15:28:11.000   28.325995525  -16.458149531  1391.8890   2   6   0.0307   0.0623   0.1597  -0.0328   0.0915  -0.0582  11.00    1.0
2024/05/08 15:28:12.000   28.325995526  -16.458149531  1391.8885   2   6   0.0307   0.0623   0.1597  -0.0328   0.0915  -0.0582  12.00    1.0
2024/05/08 15:28:13.000   28.325995526  -16.458149530  1391.8881   2   6   0.0307   0.0623   0.1597  -0.0328   0.0915  -0.0582  13.00    1.0
2024/05/08 15:28:14.000   28.325995527  -16.458149530  1391.8876   2   6   0.0307   0.0623   0.1597  -0.0328   0.0915  -0.0582  14.00    1.0
2024/05/08 15:28:15.000   28.325995526  -16.458149528  1391.8877   2   6   0.0307   0.0623   0.1597  -0.0328   0.0915  -0.0582 -15.00    1.0
2024/05/08 15:28:16.000   28.325995527  -16.458149529  1391.8871   2   6   0.0307   0.0623   0.1597  -0.0328   0.0915  -0.0582 -14.00    1.0
2024/05/08 15:28:17.000   28.325995528  -16.458149528  1391.8867   2   6   0.0307   0.0623   0.1597  -0.0328   0.0915  -0.0582 -13.00    1.0
2024/05/08 15:28:18.000   28.325995528  -16.458149527  1391.8861   2   6   0.0307   0.0623   0.1596  -0.0328   0.0915  -0.0582 -12.00    1.0
2024/05/08 15:28:19.000   28.325995529  -16.458149526  1391.8855   2   6   0.0307   0.0623   0.1596  -0.0328   0.0915  -0.0582 -11.00    1.0
2024/05/08 15:28:20.000   28.325995529  -16.458149525  1391.8848   2   6   0.0307   0.0623   0.1596  -0.0328   0.0915  -0.0582 -10.00    1.0
2024/05/08 15:28:21.000   28.325995530  -16.458149524  1391.8838   2   6   0.0307   0.0623   0.1596  -0.0328   0.0915  -0.0582  -9.00    1.0
2024/05/08 15:28:22.000   28.325995531  -16.458149520  1391.8830   2   6   0.0307   0.0623   0.1596  -0.0328   0.0915  -0.0582  -8.00    1.0
2024/05/08 15:28:23.000   28.325995532  -16.458149518  1391.8820   2   6   0.0307   0.0623   0.1596  -0.0328   0.0915  -0.0582  -7.00    1.0
2024/05/08 15:28:24.000   28.325995534  -16.458149515  1391.8807   2   6   0.0307   0.0623   0.1596  -0.0328   0.0915  -0.0582  -6.00    1.0
2024/05/08 15:28:25.000   28.325995535  -16.458149512  1391.8795   2   6   0.0307   0.0623   0.1596  -0.0328   0.0915  -0.0582  -5.00    1.0
2024/05/08 15:28:26.000   28.325995537  -16.458149507  1391.8782   2   6   0.0307   0.0623   0.1595  -0.0328   0.0915  -0.0582  -4.00    1.0
2024/05/08 15:28:27.000   28.325995538  -16.458149501  1391.8767   2   6   0.0307   0.0623   0.1595  -0.0328   0.0915  -0.0582  -3.00    1.0
2024/05/08 15:28:28.000   28.325995540  -16.458149493  1391.8755   2   6   0.0307   0.0623   0.1595  -0.0328   0.0915  -0.0582  -2.00    1.0
2024/05/08 15:28:29.000   28.325995541  -16.458149483  1391.8749   2   6   0.0307   0.0622   0.1595  -0.0328   0.0915  -0.0582  -1.00    1.0
2024/05/08 15:28:30.000   28.325995542  -16.458149474  1391.8752   2   6   0.0307   0.0622   0.1595  -0.0328   0.0914  -0.0582   0.00    1.0
2024/05/08 15:28:31.000   28.325995543  -16.458149465  1391.8760   2   6   0.0307   0.0622   0.1594  -0.0328   0.0914  -0.0582   1.00    1.0
2024/05/08 15:28:32.000   28.325995546  -16.458149460  1391.8761   2   6   0.0307   0.0622   0.1594  -0.0328   0.0914  -0.0582   2.00    1.0
2024/05/08 15:28:33.000   28.325995547  -16.458149458  1391.8761   2   6   0.0307   0.0622   0.1594  -0.0328   0.0914  -0.0582   3.00    1.0
2024/05/08 15:28:34.000   28.325995549  -16.458149457  1391.8764   2   6   0.0308   0.0622   0.1594  -0.0328   0.0914  -0.0582   4.00    1.0
2024/05/08 15:28:35.000   28.325995550  -16.458149456  1391.8763   2   6   0.0308   0.0622   0.1594  -0.0328   0.0914  -0.0582   5.00    1.0
2024/05/08 15:28:36.000   28.325995551  -16.458149456  1391.8761   2   6   0.0308   0.0622   0.1594  -0.0328   0.0914  -0.0582   6.00    1.0
2024/05/08 15:28:37.000   28.325995552  -16.458149455  1391.8763   2   6   0.0308   0.0622   0.1594  -0.0328   0.0914  -0.0582   7.00    1.0
