% program   : RTKPOST-EX 2.5.0
% inp file  : C:\Users\SallyHenry\Desktop\Sally Internship\GNSS gravi\DATA\Survey Rover Obs\GUI10.24o
% inp file  : C:\Users\SallyHenry\Desktop\Sally Internship\GNSS gravi\DATA\BaseStations\TN01\TN0100ESP_R_20241290000_01D_30S_MO.rnx
% inp file  : C:\Users\SallyHenry\Desktop\Sally Internship\GNSS gravi\DATA\BaseStations\TN01\TN0100ESP_R_20241290000_01D_MN.rnx
% inp file  : C:\Users\SallyHenry\Desktop\Sally Internship\GNSS gravi\DATA\aux_files\Survey\IGS0OPSFIN_20241290000_01D_15M_ORB.SP3
% inp file  : C:\Users\SallyHenry\Desktop\Sally Internship\GNSS gravi\DATA\aux_files\Survey\IGS0OPSFIN_20241290000_01D_30S_CLK.CLK
% obs start : 2024/05/08 10:28:04.0 GPST (week2313 296884.0s)
% obs end   : 2024/05/08 10:43:34.0 GPST (week2313 297814.0s)
% pos mode  : Static
% freqs     : L1+L2/E5b
% solution  : Combined-No Phase Reset
% elev mask : 15.0 deg
% dynamics  : on
% tidecorr  : solid
% ionos opt : Estimate TEC
% tropo opt : Estimate ZTD+Grad
% ephemeris : Precise
% navi sys  : GPS GLONASS Galileo QZSS BDS
% amb res   : Fix and Hold
% amb glo   : Fix and Hold
% amb bds   : on
% val thres : 3.0
% antenna1  :                       ( 0.0000  0.0000  1.8000)
% antenna2  :                       ( 0.0000  0.0000  0.0771)
% ref pos   :  28.477186930  -16.241151700    51.7531
%
% (lat/lon/height=WGS84/ellipsoidal,Q=1:fix,2:float,3:sbas,4:dgps,5:single,6:ppp,ns=# of satellites)
%  GPST                  latitude(deg) longitude(deg)  height(m)   Q  ns   sdn(m)   sde(m)   sdu(m)  sdne(m)  sdeu(m)  sdun(m) age(s)  ratio
2024/05/08 10:28:04.000   28.404696485  -16.362761983   525.2731   1   8   0.0013   0.0010   0.0111   0.0002  -0.0005   0.0016   4.00   52.4
2024/05/08 10:28:05.000   28.404696485  -16.362761983   525.2732   1   8   0.0013   0.0010   0.0111   0.0002  -0.0005   0.0016   5.00   51.7
2024/05/08 10:28:06.000   28.404696485  -16.362761983   525.2733   1   8   0.0013   0.0010   0.0111   0.0002  -0.0005   0.0016   6.00   51.0
2024/05/08 10:28:07.000   28.404696485  -16.362761983   525.2733   1   8   0.0013   0.0010   0.0111   0.0002  -0.0005   0.0016   7.00   50.2
2024/05/08 10:28:08.000   28.404696485  -16.362761983   525.2734   1   8   0.0013   0.0010   0.0111   0.0002  -0.0005   0.0016   8.00   49.4
2024/05/08 10:28:09.000   28.404696485  -16.362761983   525.2735   1   8   0.0013   0.0010   0.0111   0.0002  -0.0005   0.0016   9.00   48.5
2024/05/08 10:28:10.000   28.404696486  -16.362761983   525.2735   1   8   0.0013   0.0010   0.0111   0.0002  -0.0005   0.0016  10.00   47.6
2024/05/08 10:28:11.000   28.404696486  -16.362761983   525.2736   1   8   0.0013   0.0010   0.0111   0.0002  -0.0005   0.0016  11.00   46.6
2024/05/08 10:28:12.000   28.404696486  -16.362761983   525.2736   1   8   0.0013   0.0010   0.0111   0.0002  -0.0006   0.0016  12.00   45.6
2024/05/08 10:28:13.000   28.404696486  -16.362761983   525.2736   1   8   0.0013   0.0010   0.0111   0.0002  -0.0006   0.0016  13.00   44.6
2024/05/08 10:28:14.000   28.404696486  -16.362761983   525.2736   1   8   0.0013   0.0010   0.0111   0.0002  -0.0006   0.0016  14.00   43.6
2024/05/08 10:28:15.000   28.404696486  -16.362761983   525.2736   1   8   0.0013   0.0010   0.0111   0.0002  -0.0006   0.0016  15.00   42.5
2024/05/08 10:28:16.000   28.404696486  -16.362761982   525.2736   1   8   0.0013   0.0010   0.0111   0.0002  -0.0006   0.0016 -14.00   41.5
2024/05/08 10:28:17.000   28.404696486  -16.362761982   525.2736   1   8   0.0013   0.0010   0.0111   0.0002  -0.0006   0.0016 -13.00   40.4
2024/05/08 10:28:18.000   28.404696486  -16.362761982   525.2736   1   8   0.0013   0.0010   0.0111   0.0002  -0.0006   0.0016 -12.00   39.4
2024/05/08 10:28:19.000   28.404696486  -16.362761982   525.2737   1   8   0.0013   0.0010   0.0111   0.0002  -0.0006   0.0016 -11.00   38.3
2024/05/08 10:28:20.000   28.404696486  -16.362761982   525.2737   1   8   0.0013   0.0010   0.0111   0.0002  -0.0006   0.0016 -10.00   37.3
2024/05/08 10:28:21.000   28.404696486  -16.362761982   525.2738   1   8   0.0013   0.0010   0.0111   0.0002  -0.0006   0.0016  -9.00   36.3
2024/05/08 10:28:22.000   28.404696486  -16.362761982   525.2738   1   8   0.0013   0.0010   0.0111   0.0002  -0.0006   0.0016  -8.00   35.4
2024/05/08 10:28:23.000   28.404696487  -16.362761982   525.2739   1   8   0.0013   0.0010   0.0111   0.0002  -0.0006   0.0016  -7.00   34.4
2024/05/08 10:28:24.000   28.404696487  -16.362761982   525.2740   1   8   0.0013   0.0010   0.0111   0.0002  -0.0006   0.0016  -6.00   33.7
2024/05/08 10:28:25.000   28.404696487  -16.362761982   525.2742   1   8   0.0013   0.0010   0.0111   0.0002  -0.0006   0.0016  -5.00   32.6
2024/05/08 10:28:26.000   28.404696487  -16.362761982   525.2744   1   8   0.0013   0.0010   0.0111   0.0002  -0.0006   0.0016  -4.00   31.4
2024/05/08 10:28:27.000   28.404696488  -16.362761982   525.2746   1   8   0.0013   0.0010   0.0111   0.0002  -0.0006   0.0016  -3.00   30.2
2024/05/08 10:28:28.000   28.404696488  -16.362761982   525.2748   1   8   0.0013   0.0010   0.0111   0.0002  -0.0006   0.0016  -2.00   26.2
2024/05/08 10:28:29.000   28.404696489  -16.362761982   525.2750   1   8   0.0013   0.0010   0.0111   0.0002  -0.0006   0.0016  -1.00   14.8
2024/05/08 10:28:30.000   28.404696485  -16.362761982   525.2733   1   8   0.0013   0.0010   0.0111   0.0002  -0.0006   0.0015   0.00   58.6
2024/05/08 10:28:31.000   28.404696486  -16.362761982   525.2737   1   8   0.0013   0.0010   0.0111   0.0002  -0.0006   0.0016   1.00   59.3
2024/05/08 10:28:32.000   28.404696486  -16.362761982   525.2740   1   8   0.0013   0.0010   0.0111   0.0002  -0.0006   0.0016   2.00   60.0
2024/05/08 10:28:33.000   28.404696487  -16.362761982   525.2742   1   8   0.0013   0.0010   0.0112   0.0002  -0.0006   0.0016   3.00   60.3
2024/05/08 10:28:34.000   28.404696487  -16.362761982   525.2745   1   8   0.0013   0.0010   0.0112   0.0002  -0.0006   0.0016   4.00   60.5
2024/05/08 10:28:35.000   28.404696488  -16.362761982   525.2747   1   8   0.0013   0.0010   0.0112   0.0002  -0.0006   0.0016   5.00   60.5
2024/05/08 10:28:36.000   28.404696488  -16.362761982   525.2748   1   8   0.0013   0.0010   0.0112   0.0002  -0.0006   0.0016   6.00   59.9
2024/05/08 10:28:37.000   28.404696488  -16.362761982   525.2749   1   8   0.0013   0.0010   0.0112   0.0002  -0.0006   0.0016   7.00   59.5
2024/05/08 10:28:38.000   28.404696488  -16.362761982   525.2751   1   8   0.0013   0.0010   0.0112   0.0002  -0.0006   0.0016   8.00   58.9
2024/05/08 10:28:39.000   28.404696489  -16.362761982   525.2751   1   8   0.0013   0.0010   0.0112   0.0002  -0.0006   0.0016   9.00   58.1
2024/05/08 10:28:40.000   28.404696489  -16.362761982   525.2752   1   8   0.0013   0.0010   0.0112   0.0002  -0.0006   0.0016  10.00   57.2
2024/05/08 10:28:41.000   28.404696489  -16.362761981   525.2752   1   8   0.0013   0.0010   0.0112   0.0002  -0.0006   0.0016  11.00   56.2
2024/05/08 10:28:42.000   28.404696489  -16.362761981   525.2753   1   8   0.0013   0.0010   0.0112   0.0002  -0.0006   0.0016  12.00   55.1
2024/05/08 10:28:43.000   28.404696489  -16.362761981   525.2753   1   8   0.0013   0.0010   0.0112   0.0002  -0.0006   0.0016  13.00   54.0
2024/05/08 10:28:44.000   28.404696489  -16.362761981   525.2753   1   8   0.0013   0.0010   0.0112   0.0002  -0.0006   0.0016  14.00   52.8
2024/05/08 10:28:45.000   28.404696489  -16.362761981   525.2753   1   8   0.0013   0.0010   0.0112   0.0002  -0.0006   0.0016  15.00   51.6
2024/05/08 10:28:46.000   28.404696489  -16.362761981   525.2753   1   8   0.0013   0.0010   0.0112   0.0002  -0.0006   0.0016 -14.00   50.4
2024/05/08 10:28:47.000   28.404696489  -16.362761981   525.2753   1   8   0.0013   0.0010   0.0111   0.0002  -0.0006   0.0016 -13.00   49.2
2024/05/08 10:28:48.000   28.404696489  -16.362761981   525.2753   1   8   0.0013   0.0010   0.0111   0.0002  -0.0006   0.0016 -12.00   47.9
2024/05/08 10:28:49.000   28.404696489  -16.362761981   525.2753   1   8   0.0013   0.0010   0.0111   0.0002  -0.0006   0.0016 -11.00   46.6
2024/05/08 10:28:50.000   28.404696489  -16.362761981   525.2753   1   8   0.0013   0.0010   0.0111   0.0002  -0.0006   0.0016 -10.00   45.4
2024/05/08 10:28:51.000   28.404696490  -16.362761981   525.2754   1   8   0.0013   0.0010   0.0111   0.0002  -0.0006   0.0016  -9.00   44.2
2024/05/08 10:28:52.000   28.404696490  -16.362761981   525.2754   1   8   0.0013   0.0010   0.0111   0.0002  -0.0006   0.0016  -8.00   42.9
2024/05/08 10:28:53.000   28.404696490  -16.362761981   525.2755   1   8   0.0013   0.0010   0.0111   0.0002  -0.0006   0.0016  -7.00   41.6
2024/05/08 10:28:54.000   28.404696490  -16.362761981   525.2755   1   8   0.0013   0.0010   0.0111   0.0002  -0.0006   0.0016  -6.00   40.4
2024/05/08 10:28:55.000   28.404696490  -16.362761981   525.2756   1   8   0.0013   0.0010   0.0111   0.0002  -0.0006   0.0016  -5.00   39.2
2024/05/08 10:28:56.000   28.404696490  -16.362761981   525.2757   1   8   0.0013   0.0010   0.0111   0.0002  -0.0006   0.0016  -4.00   37.6
2024/05/08 10:28:57.000   28.404696491  -16.362761981   525.2759   1   8   0.0013   0.0010   0.0111   0.0002  -0.0006   0.0016  -3.00   35.6
2024/05/08 10:28:58.000   28.404696491  -16.362761981   525.2761   1   8   0.0013   0.0010   0.0112   0.0002  -0.0006   0.0016  -2.00   31.5
2024/05/08 10:28:59.000   28.404696491  -16.362761981   525.2762   1   8   0.0013   0.0010   0.0112   0.0002  -0.0006   0.0016  -1.00   17.5
2024/05/08 10:29:00.000   28.404696488  -16.362761981   525.2747   1   8   0.0013   0.0010   0.0111   0.0002  -0.0006   0.0015   0.00   70.8
2024/05/08 10:29:01.000   28.404696489  -16.362761981   525.2749   1   8   0.0013   0.0010   0.0112   0.0002  -0.0006   0.0015   1.00   70.7
2024/05/08 10:29:02.000   28.404696489  -16.362761981   525.2752   1   8   0.0013   0.0010   0.0112   0.0002  -0.0006   0.0015   2.00   70.9
2024/05/08 10:29:03.000   28.404696490  -16.362761981   525.2754   1   8   0.0013   0.0010   0.0112   0.0002  -0.0006   0.0015   3.00   70.6
2024/05/08 10:29:04.000   28.404696490  -16.362761981   525.2756   1   8   0.0013   0.0010   0.0112   0.0002  -0.0006   0.0015   4.00   70.0
2024/05/08 10:29:05.000   28.404696490  -16.362761981   525.2757   1   8   0.0013   0.0010   0.0112   0.0002  -0.0006   0.0016   5.00   69.2
2024/05/08 10:29:06.000   28.404696490  -16.362761981   525.2758   1   8   0.0013   0.0010   0.0112   0.0002  -0.0006   0.0016   6.00   68.3
2024/05/08 10:29:07.000   28.404696491  -16.362761981   525.2758   1   8   0.0013   0.0010   0.0112   0.0002  -0.0006   0.0016   7.00   67.1
2024/05/08 10:29:08.000   28.404696491  -16.362761981   525.2759   1   8   0.0013   0.0010   0.0112   0.0002  -0.0006   0.0016   8.00   66.3
2024/05/08 10:29:09.000   28.404696491  -16.362761981   525.2760   1   8   0.0013   0.0010   0.0112   0.0002  -0.0006   0.0016   9.00   65.3
2024/05/08 10:29:10.000   28.404696491  -16.362761981   525.2760   1   8   0.0013   0.0010   0.0112   0.0002  -0.0006   0.0016  10.00   64.0
2024/05/08 10:29:11.000   28.404696491  -16.362761981   525.2760   1   8   0.0013   0.0010   0.0112   0.0002  -0.0006   0.0016  11.00   62.8
2024/05/08 10:29:12.000   28.404696491  -16.362761981   525.2760   1   8   0.0013   0.0010   0.0112   0.0002  -0.0006   0.0016  12.00   61.6
2024/05/08 10:29:13.000   28.404696491  -16.362761981   525.2761   1   8   0.0013   0.0010   0.0112   0.0002  -0.0006   0.0016  13.00   60.2
2024/05/08 10:29:14.000   28.404696491  -16.362761981   525.2761   1   8   0.0013   0.0010   0.0112   0.0002  -0.0006   0.0016  14.00   58.8
2024/05/08 10:29:15.000   28.404696491  -16.362761981   525.2761   1   8   0.0013   0.0010   0.0112   0.0002  -0.0006   0.0016  15.00   57.3
2024/05/08 10:29:16.000   28.404696491  -16.362761981   525.2761   1   8   0.0013   0.0010   0.0112   0.0002  -0.0006   0.0016 -14.00   55.8
2024/05/08 10:29:17.000   28.404696491  -16.362761981   525.2761   1   8   0.0013   0.0010   0.0112   0.0002  -0.0006   0.0016 -13.00   54.3
2024/05/08 10:29:18.000   28.404696492  -16.362761981   525.2761   1   8   0.0013   0.0010   0.0112   0.0002  -0.0006   0.0016 -12.00   53.0
2024/05/08 10:29:19.000   28.404696492  -16.362761981   525.2761   1   8   0.0013   0.0010   0.0112   0.0002  -0.0006   0.0016 -11.00   51.7
2024/05/08 10:29:20.000   28.404696492  -16.362761981   525.2762   1   8   0.0013   0.0010   0.0112   0.0002  -0.0006   0.0016 -10.00   50.4
2024/05/08 10:29:21.000   28.404696492  -16.362761981   525.2762   1   8   0.0013   0.0010   0.0112   0.0002  -0.0006   0.0016  -9.00   49.1
2024/05/08 10:29:22.000   28.404696492  -16.362761981   525.2762   1   8   0.0013   0.0010   0.0112   0.0002  -0.0006   0.0016  -8.00   47.6
2024/05/08 10:29:23.000   28.404696492  -16.362761981   525.2763   1   8   0.0013   0.0010   0.0112   0.0002  -0.0006   0.0016  -7.00   46.1
2024/05/08 10:29:24.000   28.404696492  -16.362761981   525.2764   1   8   0.0013   0.0010   0.0112   0.0002  -0.0006   0.0016  -6.00   44.7
2024/05/08 10:29:25.000   28.404696492  -16.362761981   525.2765   1   8   0.0013   0.0010   0.0112   0.0002  -0.0006   0.0016  -5.00   42.8
2024/05/08 10:29:26.000   28.404696492  -16.362761981   525.2766   1   8   0.0013   0.0010   0.0112   0.0002  -0.0006   0.0016  -4.00   41.3
2024/05/08 10:29:27.000   28.404696493  -16.362761981   525.2767   1   8   0.0013   0.0010   0.0112   0.0002  -0.0006   0.0016  -3.00   39.1
2024/05/08 10:29:28.000   28.404696493  -16.362761981   525.2769   1   8   0.0013   0.0010   0.0112   0.0002  -0.0006   0.0016  -2.00   34.7
2024/05/08 10:29:29.000   28.404696493  -16.362761981   525.2772   1   8   0.0013   0.0010   0.0112   0.0002  -0.0006   0.0016  -1.00   19.0
2024/05/08 10:29:30.000   28.404696493  -16.362761982   525.2723   1   9   0.0013   0.0010   0.0098   0.0002  -0.0010   0.0018   0.00   87.0
2024/05/08 10:29:31.000   28.404696493  -16.362761982   525.2725   1   9   0.0013   0.0010   0.0098   0.0002  -0.0010   0.0018   1.00   87.6
2024/05/08 10:29:32.000   28.404696493  -16.362761982   525.2727   1   9   0.0013   0.0010   0.0098   0.0002  -0.0010   0.0018   2.00   87.3
2024/05/08 10:29:33.000   28.404696494  -16.362761982   525.2729   1   9   0.0013   0.0010   0.0099   0.0002  -0.0010   0.0018   3.00   87.3
2024/05/08 10:29:34.000   28.404696494  -16.362761981   525.2730   1   9   0.0013   0.0010   0.0099   0.0002  -0.0010   0.0018   4.00   86.9
2024/05/08 10:29:35.000   28.404696494  -16.362761981   525.2731   1   9   0.0013   0.0010   0.0099   0.0002  -0.0010   0.0018   5.00   85.8
2024/05/08 10:29:36.000   28.404696495  -16.362761981   525.2732   1   9   0.0013   0.0010   0.0099   0.0002  -0.0010   0.0018   6.00   85.0
2024/05/08 10:29:37.000   28.404696495  -16.362761981   525.2733   1   9   0.0013   0.0010   0.0099   0.0002  -0.0010   0.0018   7.00   84.0
2024/05/08 10:29:38.000   28.404696495  -16.362761981   525.2733   1   9   0.0013   0.0010   0.0099   0.0002  -0.0010   0.0018   8.00   83.0
2024/05/08 10:29:39.000   28.404696495  -16.362761981   525.2734   1   9   0.0013   0.0010   0.0099   0.0002  -0.0010   0.0018   9.00   81.5
2024/05/08 10:29:40.000   28.404696495  -16.362761981   525.2734   1   9   0.0013   0.0010   0.0099   0.0002  -0.0010   0.0018  10.00   79.9
2024/05/08 10:29:41.000   28.404696495  -16.362761981   525.2734   1   9   0.0013   0.0010   0.0099   0.0002  -0.0010   0.0018  11.00   78.3
2024/05/08 10:29:42.000   28.404696495  -16.362761981   525.2734   1   9   0.0013   0.0010   0.0099   0.0002  -0.0010   0.0018  12.00   76.6
2024/05/08 10:29:43.000   28.404696496  -16.362761981   525.2734   1   9   0.0013   0.0010   0.0099   0.0002  -0.0010   0.0018  13.00   74.8
2024/05/08 10:29:44.000   28.404696496  -16.362761981   525.2734   1   9   0.0013   0.0010   0.0099   0.0002  -0.0010   0.0018  14.00   73.0
2024/05/08 10:29:45.000   28.404696496  -16.362761981   525.2734   1   9   0.0013   0.0010   0.0099   0.0002  -0.0010   0.0018  15.00   71.1
2024/05/08 10:29:46.000   28.404696496  -16.362761981   525.2735   1   9   0.0013   0.0010   0.0099   0.0002  -0.0010   0.0018 -14.00   69.3
2024/05/08 10:29:47.000   28.404696496  -16.362761981   525.2735   1   9   0.0013   0.0010   0.0099   0.0002  -0.0010   0.0018 -13.00   67.4
2024/05/08 10:29:48.000   28.404696496  -16.362761981   525.2735   1   9   0.0013   0.0010   0.0099   0.0002  -0.0010   0.0018 -12.00   65.4
2024/05/08 10:29:49.000   28.404696496  -16.362761981   525.2735   1   9   0.0013   0.0010   0.0099   0.0002  -0.0010   0.0018 -11.00   63.3
2024/05/08 10:29:50.000   28.404696496  -16.362761981   525.2735   1   9   0.0013   0.0010   0.0099   0.0002  -0.0010   0.0018 -10.00   61.4
2024/05/08 10:29:51.000   28.404696496  -16.362761981   525.2735   1   9   0.0013   0.0010   0.0099   0.0002  -0.0010   0.0018  -9.00   59.4
2024/05/08 10:29:52.000   28.404696496  -16.362761981   525.2735   1   9   0.0013   0.0010   0.0099   0.0002  -0.0010   0.0018  -8.00   57.4
2024/05/08 10:29:53.000   28.404696496  -16.362761981   525.2735   1   9   0.0013   0.0010   0.0099   0.0002  -0.0010   0.0018  -7.00   55.4
2024/05/08 10:29:54.000   28.404696496  -16.362761981   525.2736   1   9   0.0013   0.0010   0.0099   0.0002  -0.0010   0.0018  -6.00   53.3
2024/05/08 10:29:55.000   28.404696496  -16.362761981   525.2736   1   9   0.0013   0.0010   0.0099   0.0002  -0.0010   0.0018  -5.00   51.0
2024/05/08 10:29:56.000   28.404696497  -16.362761981   525.2736   1   9   0.0013   0.0010   0.0099   0.0002  -0.0010   0.0018  -4.00   48.4
2024/05/08 10:29:57.000   28.404696497  -16.362761981   525.2736   1   9   0.0013   0.0010   0.0099   0.0002  -0.0010   0.0018  -3.00   45.0
2024/05/08 10:29:58.000   28.404696497  -16.362761981   525.2737   1   9   0.0013   0.0010   0.0099   0.0002  -0.0010   0.0018  -2.00   40.1
2024/05/08 10:29:59.000   28.404696497  -16.362761981   525.2738   1   9   0.0013   0.0010   0.0099   0.0002  -0.0010   0.0018  -1.00   21.6
2024/05/08 10:30:00.000   28.404696496  -16.362761981   525.2729   1   9   0.0013   0.0010   0.0099   0.0002  -0.0010   0.0018   0.00  104.5
2024/05/08 10:30:01.000   28.404696496  -16.362761981   525.2730   1   9   0.0013   0.0010   0.0099   0.0002  -0.0010   0.0018   1.00  102.7
2024/05/08 10:30:02.000   28.404696497  -16.362761981   525.2730   1   9   0.0013   0.0010   0.0099   0.0002  -0.0010   0.0018   2.00  100.8
2024/05/08 10:30:03.000   28.404696497  -16.362761980   525.2731   1   9   0.0013   0.0010   0.0099   0.0002  -0.0010   0.0018   3.00   99.0
2024/05/08 10:30:04.000   28.404696497  -16.362761980   525.2732   1   9   0.0013   0.0010   0.0099   0.0002  -0.0010   0.0018   4.00   97.4
2024/05/08 10:30:05.000   28.404696497  -16.362761980   525.2732   1   9   0.0013   0.0010   0.0099   0.0002  -0.0010   0.0018   5.00   95.3
2024/05/08 10:30:06.000   28.404696497  -16.362761980   525.2732   1   9   0.0013   0.0010   0.0099   0.0002  -0.0011   0.0018   6.00   93.0
2024/05/08 10:30:07.000   28.404696497  -16.362761980   525.2732   1   9   0.0013   0.0010   0.0099   0.0002  -0.0011   0.0018   7.00   90.8
2024/05/08 10:30:08.000   28.404696497  -16.362761980   525.2732   1   9   0.0013   0.0010   0.0099   0.0002  -0.0011   0.0018   8.00   88.4
2024/05/08 10:30:09.000   28.404696497  -16.362761980   525.2732   1   9   0.0013   0.0010   0.0099   0.0002  -0.0011   0.0018   9.00   86.1
2024/05/08 10:30:10.000   28.404696497  -16.362761980   525.2733   1   9   0.0013   0.0010   0.0099   0.0002  -0.0011   0.0018  10.00   83.8
2024/05/08 10:30:11.000   28.404696497  -16.362761980   525.2733   1   9   0.0013   0.0010   0.0099   0.0002  -0.0011   0.0018  11.00   81.6
2024/05/08 10:30:12.000   28.404696497  -16.362761980   525.2733   1   9   0.0013   0.0010   0.0099   0.0002  -0.0011   0.0018  12.00   79.4
2024/05/08 10:30:13.000   28.404696497  -16.362761980   525.2733   1   9   0.0013   0.0010   0.0099   0.0002  -0.0011   0.0018  13.00   77.3
2024/05/08 10:30:14.000   28.404696498  -16.362761980   525.2733   1   9   0.0013   0.0010   0.0099   0.0002  -0.0011   0.0018  14.00   75.2
2024/05/08 10:30:15.000   28.404696498  -16.362761980   525.2733   1   9   0.0013   0.0010   0.0099   0.0002  -0.0011   0.0018  15.00   73.1
2024/05/08 10:30:16.000   28.404696498  -16.362761980   525.2733   1   9   0.0013   0.0010   0.0099   0.0002  -0.0011   0.0018 -14.00   70.9
2024/05/08 10:30:17.000   28.404696498  -16.362761980   525.2734   1   9   0.0013   0.0010   0.0099   0.0002  -0.0011   0.0018 -13.00   68.8
2024/05/08 10:30:18.000   28.404696498  -16.362761980   525.2734   1   9   0.0013   0.0010   0.0099   0.0002  -0.0011   0.0018 -12.00   66.7
2024/05/08 10:30:19.000   28.404696498  -16.362761980   525.2734   1   9   0.0013   0.0010   0.0099   0.0002  -0.0011   0.0018 -11.00   64.6
2024/05/08 10:30:20.000   28.404696498  -16.362761980   525.2734   1   9   0.0013   0.0010   0.0099   0.0002  -0.0011   0.0018 -10.00   62.5
2024/05/08 10:30:21.000   28.404696498  -16.362761980   525.2735   1   9   0.0013   0.0010   0.0099   0.0002  -0.0011   0.0018  -9.00   60.3
2024/05/08 10:30:22.000   28.404696498  -16.362761980   525.2735   1   9   0.0013   0.0010   0.0099   0.0002  -0.0011   0.0018  -8.00   58.2
2024/05/08 10:30:23.000   28.404696498  -16.362761980   525.2735   1   9   0.0013   0.0010   0.0099   0.0002  -0.0011   0.0018  -7.00   55.8
2024/05/08 10:30:24.000   28.404696498  -16.362761980   525.2736   1   9   0.0013   0.0010   0.0099   0.0002  -0.0011   0.0018  -6.00   53.3
2024/05/08 10:30:25.000   28.404696498  -16.362761980   525.2737   1   9   0.0013   0.0010   0.0099   0.0002  -0.0011   0.0018  -5.00   50.9
2024/05/08 10:30:26.000   28.404696498  -16.362761980   525.2738   1   9   0.0013   0.0010   0.0099   0.0002  -0.0011   0.0018  -4.00   48.2
2024/05/08 10:30:27.000   28.404696499  -16.362761980   525.2739   1   9   0.0013   0.0010   0.0099   0.0002  -0.0011   0.0018  -3.00   45.3
2024/05/08 10:30:28.000   28.404696499  -16.362761980   525.2740   1   9   0.0013   0.0010   0.0099   0.0002  -0.0011   0.0018  -2.00   39.3
2024/05/08 10:30:29.000   28.404696499  -16.362761980   525.2741   1   9   0.0013   0.0010   0.0099   0.0002  -0.0011   0.0018  -1.00   21.4
2024/05/08 10:30:30.000   28.404696499  -16.362761980   525.2741   1   9   0.0013   0.0010   0.0099   0.0002  -0.0011   0.0018   0.00  109.1
2024/05/08 10:30:31.000   28.404696499  -16.362761979   525.2742   1   9   0.0013   0.0010   0.0099   0.0002  -0.0011   0.0018   1.00  106.5
2024/05/08 10:30:32.000   28.404696499  -16.362761979   525.2743   1   9   0.0013   0.0010   0.0099   0.0002  -0.0011   0.0018   2.00  103.3
2024/05/08 10:30:33.000   28.404696499  -16.362761979   525.2744   1   9   0.0013   0.0010   0.0100   0.0002  -0.0011   0.0018   3.00  100.4
2024/05/08 10:30:34.000   28.404696499  -16.362761979   525.2744   1   9   0.0013   0.0010   0.0100   0.0002  -0.0011   0.0018   4.00   97.3
2024/05/08 10:30:35.000   28.404696498  -16.362761979   525.2745   1   9   0.0013   0.0010   0.0100   0.0002  -0.0011   0.0018   5.00   94.3
2024/05/08 10:30:36.000   28.404696498  -16.362761979   525.2744   1   9   0.0013   0.0010   0.0100   0.0002  -0.0011   0.0018   6.00   91.3
2024/05/08 10:30:37.000   28.404696498  -16.362761979   525.2744   1   9   0.0013   0.0010   0.0100   0.0002  -0.0011   0.0018   7.00   88.7
2024/05/08 10:30:38.000   28.404696498  -16.362761979   525.2744   1   9   0.0013   0.0010   0.0100   0.0002  -0.0011   0.0018   8.00   85.9
2024/05/08 10:30:39.000   28.404696498  -16.362761979   525.2744   1   9   0.0013   0.0010   0.0100   0.0002  -0.0011   0.0018   9.00   83.4
2024/05/08 10:30:40.000   28.404696498  -16.362761979   525.2744   1   9   0.0013   0.0010   0.0100   0.0002  -0.0011   0.0018  10.00   80.8
2024/05/08 10:30:41.000   28.404696498  -16.362761979   525.2745   1   9   0.0013   0.0010   0.0100   0.0002  -0.0011   0.0018  11.00   78.4
2024/05/08 10:30:42.000   28.404696498  -16.362761979   525.2745   1   9   0.0013   0.0010   0.0100   0.0002  -0.0011   0.0018  12.00   76.0
2024/05/08 10:30:43.000   28.404696498  -16.362761978   525.2745   1   9   0.0013   0.0010   0.0100   0.0002  -0.0011   0.0018  13.00   73.8
2024/05/08 10:30:44.000   28.404696498  -16.362761978   525.2745   1   9   0.0013   0.0010   0.0100   0.0002  -0.0011   0.0018  14.00   71.5
2024/05/08 10:30:45.000   28.404696498  -16.362761978   525.2745   1   9   0.0013   0.0010   0.0100   0.0002  -0.0011   0.0018  15.00   69.4
2024/05/08 10:30:46.000   28.404696498  -16.362761978   525.2744   1   9   0.0013   0.0010   0.0100   0.0002  -0.0011   0.0018 -14.00   67.2
2024/05/08 10:30:47.000   28.404696498  -16.362761978   525.2744   1   9   0.0013   0.0010   0.0100   0.0002  -0.0011   0.0018 -13.00   65.0
2024/05/08 10:30:48.000   28.404696498  -16.362761978   525.2744   1   9   0.0013   0.0010   0.0100   0.0002  -0.0011   0.0018 -12.00   62.8
2024/05/08 10:30:49.000   28.404696498  -16.362761978   525.2744   1   9   0.0013   0.0010   0.0100   0.0002  -0.0011   0.0018 -11.00   60.6
2024/05/08 10:30:50.000   28.404696498  -16.362761978   525.2744   1   9   0.0013   0.0010   0.0100   0.0002  -0.0011   0.0018 -10.00   58.4
2024/05/08 10:30:51.000   28.404696498  -16.362761978   525.2744   1   9   0.0013   0.0010   0.0100   0.0002  -0.0011   0.0018  -9.00   56.1
2024/05/08 10:30:52.000   28.404696498  -16.362761978   525.2744   1   9   0.0013   0.0010   0.0100   0.0002  -0.0011   0.0018  -8.00   53.8
2024/05/08 10:30:53.000   28.404696498  -16.362761978   525.2744   1   9   0.0013   0.0010   0.0100   0.0002  -0.0011   0.0018  -7.00   51.5
2024/05/08 10:30:54.000   28.404696498  -16.362761978   525.2744   1   9   0.0013   0.0010   0.0100   0.0002  -0.0011   0.0018  -6.00   49.0
2024/05/08 10:30:55.000   28.404696497  -16.362761978   525.2744   1   9   0.0013   0.0010   0.0100   0.0002  -0.0011   0.0018  -5.00   46.4
2024/05/08 10:30:56.000   28.404696497  -16.362761978   525.2744   1   9   0.0013   0.0010   0.0100   0.0002  -0.0011   0.0018  -4.00   43.6
2024/05/08 10:30:57.000   28.404696497  -16.362761977   525.2744   1   9   0.0013   0.0010   0.0100   0.0002  -0.0011   0.0018  -3.00   40.2
2024/05/08 10:30:58.000   28.404696497  -16.362761977   525.2745   1   9   0.0013   0.0010   0.0100   0.0002  -0.0011   0.0018  -2.00   34.8
2024/05/08 10:30:59.000   28.404696497  -16.362761977   525.2746   1   9   0.0013   0.0010   0.0100   0.0002  -0.0011   0.0018  -1.00   19.5
2024/05/08 10:31:00.000   28.404696498  -16.362761977   525.2756   1   9   0.0013   0.0010   0.0100   0.0002  -0.0011   0.0018   0.00   90.7
2024/05/08 10:31:01.000   28.404696498  -16.362761976   525.2757   1   9   0.0013   0.0010   0.0100   0.0002  -0.0011   0.0018   1.00   88.1
2024/05/08 10:31:02.000   28.404696498  -16.362761976   525.2757   1   9   0.0013   0.0010   0.0100   0.0002  -0.0011   0.0018   2.00   85.3
2024/05/08 10:31:03.000   28.404696498  -16.362761976   525.2757   1   9   0.0013   0.0010   0.0100   0.0002  -0.0011   0.0018   3.00   82.9
2024/05/08 10:31:04.000   28.404696498  -16.362761976   525.2757   1   9   0.0013   0.0010   0.0100   0.0002  -0.0011   0.0018   4.00   80.9
2024/05/08 10:31:05.000   28.404696497  -16.362761976   525.2756   1   9   0.0013   0.0010   0.0100   0.0002  -0.0011   0.0018   5.00   78.9
2024/05/08 10:31:06.000   28.404696497  -16.362761975   525.2755   1   9   0.0013   0.0010   0.0100   0.0002  -0.0011   0.0018   6.00   76.7
2024/05/08 10:31:07.000   28.404696497  -16.362761975   525.2755   1   9   0.0013   0.0010   0.0100   0.0002  -0.0011   0.0018   7.00   74.5
2024/05/08 10:31:08.000   28.404696497  -16.362761975   525.2755   1   9   0.0013   0.0010   0.0100   0.0002  -0.0011   0.0018   8.00   72.4
2024/05/08 10:31:09.000   28.404696497  -16.362761975   525.2754   1   9   0.0013   0.0010   0.0100   0.0002  -0.0011   0.0018   9.00   70.4
2024/05/08 10:31:10.000   28.404696497  -16.362761975   525.2754   1   9   0.0013   0.0010   0.0100   0.0002  -0.0011   0.0018  10.00   68.5
2024/05/08 10:31:11.000   28.404696497  -16.362761975   525.2753   1   9   0.0013   0.0010   0.0100   0.0002  -0.0011   0.0018  11.00   66.7
2024/05/08 10:31:12.000   28.404696496  -16.362761975   525.2753   1   9   0.0013   0.0010   0.0100   0.0002  -0.0011   0.0018  12.00   64.8
2024/05/08 10:31:13.000   28.404696496  -16.362761975   525.2752   1   9   0.0013   0.0010   0.0100   0.0002  -0.0011   0.0018  13.00   62.9
2024/05/08 10:31:14.000   28.404696496  -16.362761975   525.2752   1   9   0.0013   0.0010   0.0100   0.0002  -0.0011   0.0018  14.00   61.2
2024/05/08 10:31:15.000   28.404696496  -16.362761975   525.2752   1   9   0.0013   0.0010   0.0100   0.0002  -0.0011   0.0018  15.00   59.4
2024/05/08 10:31:16.000   28.404696496  -16.362761974   525.2751   1   9   0.0013   0.0010   0.0100   0.0002  -0.0011   0.0018 -14.00   57.6
2024/05/08 10:31:17.000   28.404696496  -16.362761974   525.2751   1   9   0.0013   0.0010   0.0100   0.0002  -0.0011   0.0018 -13.00   55.9
2024/05/08 10:31:18.000   28.404696496  -16.362761974   525.2750   1   9   0.0013   0.0010   0.0100   0.0002  -0.0011   0.0018 -12.00   54.1
2024/05/08 10:31:19.000   28.404696496  -16.362761974   525.2750   1   9   0.0013   0.0010   0.0100   0.0002  -0.0011   0.0018 -11.00   52.3
2024/05/08 10:31:20.000   28.404696496  -16.362761974   525.2750   1   9   0.0013   0.0010   0.0100   0.0002  -0.0011   0.0018 -10.00   50.4
2024/05/08 10:31:21.000   28.404696495  -16.362761974   525.2749   1   9   0.0013   0.0010   0.0100   0.0002  -0.0011   0.0018  -9.00   48.5
2024/05/08 10:31:22.000   28.404696495  -16.362761974   525.2748   1   9   0.0013   0.0010   0.0100   0.0002  -0.0011   0.0018  -8.00   46.6
2024/05/08 10:31:23.000   28.404696495  -16.362761974   525.2748   1   9   0.0013   0.0010   0.0100   0.0002  -0.0011   0.0018  -7.00   44.6
2024/05/08 10:31:24.000   28.404696495  -16.362761974   525.2747   1   9   0.0013   0.0010   0.0100   0.0002  -0.0011   0.0018  -6.00   42.5
2024/05/08 10:31:25.000   28.404696495  -16.362761974   525.2747   1   9   0.0013   0.0010   0.0100   0.0002  -0.0011   0.0018  -5.00   40.5
2024/05/08 10:31:26.000   28.404696495  -16.362761973   525.2746   1   9   0.0013   0.0010   0.0100   0.0002  -0.0011   0.0018  -4.00   38.1
2024/05/08 10:31:27.000   28.404696495  -16.362761973   525.2746   1   9   0.0013   0.0010   0.0100   0.0002  -0.0011   0.0018  -3.00   35.3
2024/05/08 10:31:28.000   28.404696494  -16.362761973   525.2746   1   9   0.0013   0.0010   0.0100   0.0002  -0.0011   0.0018  -2.00   29.9
2024/05/08 10:31:29.000   28.404696494  -16.362761973   525.2746   1   9   0.0013   0.0010   0.0100   0.0002  -0.0011   0.0018  -1.00   16.6
2024/05/08 10:31:30.000   28.404696495  -16.362761972   525.2754   1   9   0.0013   0.0010   0.0100   0.0002  -0.0011   0.0018   0.00   79.3
2024/05/08 10:31:31.000   28.404696495  -16.362761972   525.2754   1   9   0.0013   0.0010   0.0100   0.0002  -0.0011   0.0018   1.00   77.3
2024/05/08 10:31:32.000   28.404696495  -16.362761972   525.2755   1   9   0.0013   0.0010   0.0100   0.0002  -0.0011   0.0018   2.00   75.3
2024/05/08 10:31:33.000   28.404696495  -16.362761972   525.2755   1   9   0.0013   0.0010   0.0101   0.0002  -0.0011   0.0018   3.00   73.4
2024/05/08 10:31:34.000   28.404696495  -16.362761971   525.2755   1   9   0.0013   0.0010   0.0101   0.0002  -0.0011   0.0018   4.00   71.5
2024/05/08 10:31:35.000   28.404696495  -16.362761971   525.2754   1   9   0.0013   0.0010   0.0101   0.0002  -0.0011   0.0018   5.00   69.9
2024/05/08 10:31:36.000   28.404696495  -16.362761971   525.2754   1   9   0.0013   0.0010   0.0101   0.0002  -0.0011   0.0018   6.00   68.4
2024/05/08 10:31:37.000   28.404696495  -16.362761971   525.2754   1   9   0.0013   0.0010   0.0101   0.0002  -0.0011   0.0018   7.00   66.9
2024/05/08 10:31:38.000   28.404696495  -16.362761971   525.2754   1   9   0.0013   0.0010   0.0101   0.0002  -0.0011   0.0018   8.00   65.3
2024/05/08 10:31:39.000   28.404696495  -16.362761971   525.2753   1   9   0.0013   0.0010   0.0101   0.0002  -0.0011   0.0018   9.00   63.8
2024/05/08 10:31:40.000   28.404696495  -16.362761971   525.2753   1   9   0.0013   0.0010   0.0101   0.0002  -0.0011   0.0018  10.00   62.2
2024/05/08 10:31:41.000   28.404696495  -16.362761970   525.2753   1   9   0.0013   0.0010   0.0101   0.0002  -0.0011   0.0018  11.00   60.7
2024/05/08 10:31:42.000   28.404696495  -16.362761970   525.2752   1   9   0.0013   0.0010   0.0101   0.0002  -0.0011   0.0018  12.00   59.1
2024/05/08 10:31:43.000   28.404696495  -16.362761970   525.2752   1   9   0.0013   0.0010   0.0101   0.0002  -0.0011   0.0018  13.00   57.5
2024/05/08 10:31:44.000   28.404696495  -16.362761970   525.2752   1   9   0.0013   0.0010   0.0101   0.0002  -0.0011   0.0018  14.00   55.9
2024/05/08 10:31:45.000   28.404696495  -16.362761970   525.2752   1   9   0.0013   0.0010   0.0101   0.0002  -0.0011   0.0018  15.00   54.4
2024/05/08 10:31:46.000   28.404696495  -16.362761970   525.2751   1   9   0.0013   0.0010   0.0101   0.0002  -0.0011   0.0018 -14.00   52.8
2024/05/08 10:31:47.000   28.404696495  -16.362761970   525.2751   1   9   0.0013   0.0010   0.0101   0.0002  -0.0011   0.0018 -13.00   51.3
2024/05/08 10:31:48.000   28.404696495  -16.362761970   525.2751   1   9   0.0013   0.0010   0.0101   0.0002  -0.0011   0.0018 -12.00   49.7
2024/05/08 10:31:49.000   28.404696495  -16.362761970   525.2750   1   9   0.0013   0.0010   0.0100   0.0002  -0.0011   0.0018 -11.00   48.1
2024/05/08 10:31:50.000   28.404696495  -16.362761970   525.2750   1   9   0.0013   0.0010   0.0100   0.0002  -0.0011   0.0018 -10.00   46.4
2024/05/08 10:31:51.000   28.404696495  -16.362761970   525.2750   1   9   0.0013   0.0010   0.0100   0.0002  -0.0011   0.0018  -9.00   44.8
2024/05/08 10:31:52.000   28.404696495  -16.362761970   525.2750   1   9   0.0013   0.0010   0.0100   0.0002  -0.0011   0.0018  -8.00   43.1
2024/05/08 10:31:53.000   28.404696495  -16.362761970   525.2749   1   9   0.0013   0.0010   0.0100   0.0002  -0.0011   0.0018  -7.00   41.4
2024/05/08 10:31:54.000   28.404696495  -16.362761970   525.2749   1   9   0.0013   0.0010   0.0100   0.0002  -0.0011   0.0018  -6.00   39.6
2024/05/08 10:31:55.000   28.404696495  -16.362761970   525.2749   1   9   0.0013   0.0010   0.0100   0.0002  -0.0011   0.0018  -5.00   37.7
2024/05/08 10:31:56.000   28.404696495  -16.362761969   525.2748   1   9   0.0013   0.0010   0.0100   0.0002  -0.0011   0.0018  -4.00   35.5
2024/05/08 10:31:57.000   28.404696495  -16.362761969   525.2747   1   9   0.0013   0.0010   0.0101   0.0002  -0.0011   0.0018  -3.00   32.8
2024/05/08 10:31:58.000   28.404696495  -16.362761969   525.2747   1   9   0.0013   0.0010   0.0101   0.0002  -0.0011   0.0018  -2.00   28.0
2024/05/08 10:31:59.000   28.404696495  -16.362761969   525.2746   1   9   0.0013   0.0010   0.0101   0.0002  -0.0011   0.0018  -1.00   15.6
2024/05/08 10:32:00.000   28.404696497  -16.362761969   525.2754   1   9   0.0013   0.0010   0.0101   0.0002  -0.0011   0.0018   0.00   71.5
2024/05/08 10:32:01.000   28.404696497  -16.362761969   525.2753   1   9   0.0013   0.0010   0.0101   0.0002  -0.0011   0.0018   1.00   69.3
2024/05/08 10:32:02.000   28.404696497  -16.362761969   525.2752   1   9   0.0013   0.0010   0.0101   0.0002  -0.0011   0.0018   2.00   66.9
2024/05/08 10:32:03.000   28.404696497  -16.362761968   525.2752   1   9   0.0013   0.0010   0.0101   0.0002  -0.0011   0.0018   3.00   65.0
2024/05/08 10:32:04.000   28.404696497  -16.362761968   525.2751   1   9   0.0013   0.0010   0.0101   0.0002  -0.0011   0.0018   4.00   63.0
2024/05/08 10:32:05.000   28.404696497  -16.362761968   525.2750   1   9   0.0013   0.0010   0.0101   0.0002  -0.0011   0.0018   5.00   61.1
2024/05/08 10:32:06.000   28.404696497  -16.362761968   525.2749   1   9   0.0013   0.0010   0.0101   0.0002  -0.0011   0.0018   6.00   59.3
2024/05/08 10:32:07.000   28.404696497  -16.362761968   525.2748   1   9   0.0013   0.0010   0.0101   0.0002  -0.0011   0.0018   7.00   57.5
2024/05/08 10:32:08.000   28.404696497  -16.362761968   525.2747   1   9   0.0013   0.0010   0.0101   0.0002  -0.0011   0.0018   8.00   55.9
2024/05/08 10:32:09.000   28.404696496  -16.362761968   525.2746   1   9   0.0013   0.0010   0.0101   0.0002  -0.0011   0.0018   9.00   54.3
2024/05/08 10:32:10.000   28.404696496  -16.362761968   525.2746   1   9   0.0013   0.0010   0.0101   0.0002  -0.0011   0.0018  10.00   52.6
2024/05/08 10:32:11.000   28.404696496  -16.362761967   525.2745   1   9   0.0013   0.0010   0.0101   0.0002  -0.0011   0.0018  11.00   50.9
2024/05/08 10:32:12.000   28.404696496  -16.362761967   525.2745   1   9   0.0013   0.0010   0.0101   0.0002  -0.0011   0.0018  12.00   49.6
2024/05/08 10:32:13.000   28.404696496  -16.362761967   525.2744   1   9   0.0013   0.0010   0.0101   0.0002  -0.0011   0.0018  13.00   48.2
2024/05/08 10:32:14.000   28.404696496  -16.362761967   525.2743   1   9   0.0013   0.0010   0.0101   0.0002  -0.0011   0.0018  14.00   46.9
2024/05/08 10:32:15.000   28.404696496  -16.362761967   525.2743   1   9   0.0013   0.0010   0.0101   0.0002  -0.0011   0.0018  15.00   45.6
2024/05/08 10:32:16.000   28.404696496  -16.362761967   525.2743   1   9   0.0013   0.0010   0.0101   0.0002  -0.0011   0.0018 -14.00   44.3
2024/05/08 10:32:17.000   28.404696496  -16.362761967   525.2742   1   9   0.0013   0.0010   0.0101   0.0002  -0.0011   0.0018 -13.00   43.0
2024/05/08 10:32:18.000   28.404696496  -16.362761967   525.2742   1   9   0.0013   0.0010   0.0101   0.0002  -0.0011   0.0018 -12.00   41.7
2024/05/08 10:32:19.000   28.404696496  -16.362761967   525.2741   1   9   0.0013   0.0010   0.0101   0.0002  -0.0011   0.0018 -11.00   40.3
2024/05/08 10:32:20.000   28.404696496  -16.362761967   525.2741   1   9   0.0013   0.0010   0.0101   0.0002  -0.0011   0.0018 -10.00   39.0
2024/05/08 10:32:21.000   28.404696496  -16.362761967   525.2741   1   9   0.0013   0.0010   0.0101   0.0002  -0.0011   0.0018  -9.00   37.6
2024/05/08 10:32:22.000   28.404696496  -16.362761967   525.2740   1   9   0.0013   0.0010   0.0101   0.0002  -0.0011   0.0018  -8.00   36.2
2024/05/08 10:32:23.000   28.404696496  -16.362761967   525.2740   1   9   0.0013   0.0010   0.0101   0.0002  -0.0011   0.0018  -7.00   34.9
2024/05/08 10:32:24.000   28.404696496  -16.362761967   525.2739   1   9   0.0013   0.0010   0.0101   0.0002  -0.0011   0.0018  -6.00   33.5
2024/05/08 10:32:25.000   28.404696496  -16.362761967   525.2738   1   9   0.0013   0.0010   0.0101   0.0002  -0.0011   0.0018  -5.00   32.0
2024/05/08 10:32:26.000   28.404696496  -16.362761967   525.2737   1   9   0.0013   0.0010   0.0101   0.0002  -0.0011   0.0018  -4.00   30.6
2024/05/08 10:32:27.000   28.404696496  -16.362761966   525.2736   1   9   0.0013   0.0010   0.0101   0.0002  -0.0011   0.0018  -3.00   28.7
2024/05/08 10:32:28.000   28.404696496  -16.362761966   525.2735   1   9   0.0013   0.0010   0.0101   0.0002  -0.0011   0.0018  -2.00   24.2
2024/05/08 10:32:29.000   28.404696496  -16.362761966   525.2734   1   9   0.0013   0.0010   0.0101   0.0002  -0.0011   0.0018  -1.00   13.3
2024/05/08 10:32:30.000   28.404696499  -16.362761966   525.2745   1   9   0.0013   0.0010   0.0101   0.0002  -0.0011   0.0018   0.00   59.7
2024/05/08 10:32:31.000   28.404696499  -16.362761966   525.2745   1   9   0.0013   0.0010   0.0101   0.0002  -0.0011   0.0018   1.00   58.4
2024/05/08 10:32:32.000   28.404696499  -16.362761965   525.2744   1   9   0.0013   0.0010   0.0101   0.0002  -0.0011   0.0018   2.00   57.5
2024/05/08 10:32:33.000   28.404696499  -16.362761965   525.2743   1   9   0.0013   0.0010   0.0101   0.0002  -0.0011   0.0018   3.00   56.2
2024/05/08 10:32:34.000   28.404696499  -16.362761965   525.2742   1   9   0.0013   0.0010   0.0102   0.0002  -0.0011   0.0018   4.00   55.0
2024/05/08 10:32:35.000   28.404696499  -16.362761965   525.2741   1   9   0.0013   0.0010   0.0102   0.0002  -0.0011   0.0018   5.00   54.0
2024/05/08 10:32:36.000   28.404696499  -16.362761965   525.2740   1   9   0.0013   0.0010   0.0102   0.0002  -0.0011   0.0018   6.00   53.0
2024/05/08 10:32:37.000   28.404696499  -16.362761965   525.2739   1   9   0.0013   0.0010   0.0102   0.0002  -0.0011   0.0018   7.00   52.1
2024/05/08 10:32:38.000   28.404696499  -16.362761965   525.2738   1   9   0.0013   0.0010   0.0102   0.0002  -0.0011   0.0018   8.00   51.0
2024/05/08 10:32:39.000   28.404696499  -16.362761965   525.2738   1   9   0.0013   0.0010   0.0102   0.0002  -0.0011   0.0018   9.00   49.9
2024/05/08 10:32:40.000   28.404696499  -16.362761965   525.2737   1   9   0.0013   0.0010   0.0102   0.0002  -0.0011   0.0018  10.00   48.8
2024/05/08 10:32:41.000   28.404696499  -16.362761965   525.2736   1   9   0.0013   0.0010   0.0102   0.0002  -0.0011   0.0018  11.00   47.7
2024/05/08 10:32:42.000   28.404696498  -16.362761965   525.2736   1   9   0.0013   0.0010   0.0102   0.0002  -0.0011   0.0018  12.00   46.5
2024/05/08 10:32:43.000   28.404696498  -16.362761965   525.2735   1   9   0.0013   0.0010   0.0102   0.0002  -0.0011   0.0018  13.00   45.3
2024/05/08 10:32:44.000   28.404696498  -16.362761964   525.2735   1   9   0.0013   0.0010   0.0102   0.0002  -0.0011   0.0018  14.00   44.2
2024/05/08 10:32:45.000   28.404696498  -16.362761964   525.2734   1   9   0.0013   0.0010   0.0101   0.0002  -0.0011   0.0018  15.00   43.0
2024/05/08 10:32:46.000   28.404696498  -16.362761964   525.2734   1   9   0.0013   0.0010   0.0101   0.0002  -0.0011   0.0018 -14.00   41.9
2024/05/08 10:32:47.000   28.404696498  -16.362761964   525.2733   1   9   0.0013   0.0010   0.0101   0.0002  -0.0011   0.0018 -13.00   40.7
2024/05/08 10:32:48.000   28.404696498  -16.362761964   525.2733   1   9   0.0013   0.0010   0.0101   0.0002  -0.0011   0.0018 -12.00   39.7
2024/05/08 10:32:49.000   28.404696498  -16.362761964   525.2732   1   9   0.0013   0.0010   0.0101   0.0002  -0.0011   0.0018 -11.00   38.5
2024/05/08 10:32:50.000   28.404696498  -16.362761964   525.2732   1   9   0.0013   0.0010   0.0101   0.0002  -0.0011   0.0018 -10.00   37.3
2024/05/08 10:32:51.000   28.404696498  -16.362761964   525.2731   1   9   0.0013   0.0010   0.0101   0.0002  -0.0011   0.0018  -9.00   36.2
2024/05/08 10:32:52.000   28.404696498  -16.362761964   525.2731   1   9   0.0013   0.0010   0.0101   0.0002  -0.0011   0.0018  -8.00   35.1
2024/05/08 10:32:53.000   28.404696498  -16.362761964   525.2731   1   9   0.0013   0.0010   0.0101   0.0002  -0.0011   0.0018  -7.00   33.8
2024/05/08 10:32:54.000   28.404696498  -16.362761964   525.2731   1   9   0.0013   0.0010   0.0101   0.0002  -0.0011   0.0018  -6.00   32.5
2024/05/08 10:32:55.000   28.404696498  -16.362761964   525.2730   1   9   0.0013   0.0010   0.0101   0.0002  -0.0011   0.0018  -5.00   31.0
2024/05/08 10:32:56.000   28.404696499  -16.362761964   525.2730   1   9   0.0013   0.0010   0.0101   0.0002  -0.0011   0.0018  -4.00   29.4
2024/05/08 10:32:57.000   28.404696499  -16.362761964   525.2730   1   9   0.0013   0.0010   0.0101   0.0002  -0.0011   0.0018  -3.00   27.6
2024/05/08 10:32:58.000   28.404696499  -16.362761964   525.2729   1   9   0.0013   0.0010   0.0101   0.0002  -0.0011   0.0018  -2.00   23.2
2024/05/08 10:32:59.000   28.404696499  -16.362761964   525.2728   1   9   0.0013   0.0010   0.0102   0.0002  -0.0011   0.0018  -1.00   12.6
2024/05/08 10:33:00.000   28.404696501  -16.362761964   525.2738   1   9   0.0013   0.0010   0.0101   0.0002  -0.0011   0.0018   0.00   60.3
2024/05/08 10:33:01.000   28.404696501  -16.362761964   525.2737   1   9   0.0013   0.0010   0.0102   0.0002  -0.0011   0.0018   1.00   59.2
2024/05/08 10:33:02.000   28.404696501  -16.362761964   525.2736   1   9   0.0013   0.0010   0.0102   0.0002  -0.0011   0.0018   2.00   58.3
2024/05/08 10:33:03.000   28.404696501  -16.362761964   525.2735   1   9   0.0013   0.0010   0.0102   0.0002  -0.0011   0.0018   3.00   57.2
2024/05/08 10:33:04.000   28.404696501  -16.362761964   525.2734   1   9   0.0013   0.0010   0.0102   0.0002  -0.0011   0.0018   4.00   56.3
2024/05/08 10:33:05.000   28.404696501  -16.362761964   525.2734   1   9   0.0013   0.0010   0.0102   0.0002  -0.0011   0.0018   5.00   55.4
2024/05/08 10:33:06.000   28.404696501  -16.362761964   525.2734   1   9   0.0013   0.0010   0.0102   0.0002  -0.0011   0.0018   6.00   54.5
2024/05/08 10:33:07.000   28.404696501  -16.362761964   525.2733   1   9   0.0013   0.0010   0.0102   0.0002  -0.0011   0.0018   7.00   53.5
2024/05/08 10:33:08.000   28.404696501  -16.362761964   525.2732   1   9   0.0013   0.0010   0.0102   0.0002  -0.0011   0.0018   8.00   52.4
2024/05/08 10:33:09.000   28.404696501  -16.362761964   525.2731   1   9   0.0013   0.0010   0.0102   0.0002  -0.0011   0.0018   9.00   51.3
2024/05/08 10:33:10.000   28.404696501  -16.362761964   525.2730   1   9   0.0013   0.0010   0.0102   0.0002  -0.0011   0.0018  10.00   50.2
2024/05/08 10:33:11.000   28.404696501  -16.362761964   525.2730   1   9   0.0013   0.0010   0.0102   0.0002  -0.0011   0.0018  11.00   48.9
2024/05/08 10:33:12.000   28.404696501  -16.362761964   525.2729   1   9   0.0013   0.0010   0.0102   0.0002  -0.0011   0.0018  12.00   47.8
2024/05/08 10:33:13.000   28.404696501  -16.362761964   525.2729   1   9   0.0013   0.0010   0.0102   0.0002  -0.0011   0.0018  13.00   46.6
2024/05/08 10:33:14.000   28.404696501  -16.362761964   525.2728   1   9   0.0013   0.0010   0.0102   0.0002  -0.0011   0.0018  14.00   45.4
2024/05/08 10:33:15.000   28.404696501  -16.362761964   525.2727   1   9   0.0013   0.0010   0.0102   0.0002  -0.0011   0.0018  15.00   44.2
2024/05/08 10:33:16.000   28.404696501  -16.362761964   525.2727   1   9   0.0013   0.0010   0.0102   0.0002  -0.0011   0.0018 -14.00   43.0
2024/05/08 10:33:17.000   28.404696501  -16.362761964   525.2726   1   9   0.0013   0.0010   0.0102   0.0002  -0.0011   0.0018 -13.00   41.8
2024/05/08 10:33:18.000   28.404696501  -16.362761964   525.2726   1   9   0.0013   0.0010   0.0102   0.0002  -0.0011   0.0018 -12.00   40.5
2024/05/08 10:33:19.000   28.404696501  -16.362761964   525.2725   1   9   0.0013   0.0010   0.0102   0.0002  -0.0011   0.0018 -11.00   39.3
2024/05/08 10:33:20.000   28.404696501  -16.362761964   525.2724   1   9   0.0013   0.0010   0.0102   0.0002  -0.0011   0.0018 -10.00   38.0
2024/05/08 10:33:21.000   28.404696501  -16.362761964   525.2724   1   9   0.0013   0.0010   0.0102   0.0002  -0.0011   0.0018  -9.00   36.7
2024/05/08 10:33:22.000   28.404696501  -16.362761964   525.2723   1   9   0.0013   0.0010   0.0102   0.0002  -0.0011   0.0018  -8.00   35.4
2024/05/08 10:33:23.000   28.404696501  -16.362761964   525.2722   1   9   0.0013   0.0010   0.0102   0.0002  -0.0011   0.0018  -7.00   34.1
2024/05/08 10:33:24.000   28.404696501  -16.362761964   525.2722   1   9   0.0013   0.0010   0.0102   0.0002  -0.0011   0.0018  -6.00   32.7
2024/05/08 10:33:25.000   28.404696501  -16.362761963   525.2720   1   9   0.0013   0.0010   0.0102   0.0002  -0.0011   0.0018  -5.00   31.3
2024/05/08 10:33:26.000   28.404696501  -16.362761963   525.2719   1   9   0.0013   0.0010   0.0102   0.0002  -0.0011   0.0018  -4.00   29.5
2024/05/08 10:33:27.000   28.404696501  -16.362761963   525.2718   1   9   0.0013   0.0010   0.0102   0.0002  -0.0011   0.0018  -3.00   27.3
2024/05/08 10:33:28.000   28.404696501  -16.362761963   525.2716   1   9   0.0013   0.0010   0.0102   0.0002  -0.0011   0.0018  -2.00   23.1
2024/05/08 10:33:29.000   28.404696501  -16.362761963   525.2715   1   9   0.0013   0.0010   0.0102   0.0002  -0.0011   0.0018  -1.00   12.4
2024/05/08 10:33:30.000   28.404696503  -16.362761963   525.2721   1   9   0.0013   0.0010   0.0102   0.0002  -0.0011   0.0018   0.00   60.5
2024/05/08 10:33:31.000   28.404696503  -16.362761963   525.2718   1   9   0.0013   0.0010   0.0102   0.0002  -0.0011   0.0018   1.00   59.2
2024/05/08 10:33:32.000   28.404696503  -16.362761963   525.2717   1   9   0.0013   0.0010   0.0102   0.0002  -0.0011   0.0018   2.00   58.1
2024/05/08 10:33:33.000   28.404696503  -16.362761963   525.2715   1   9   0.0013   0.0010   0.0102   0.0002  -0.0011   0.0018   3.00   56.9
2024/05/08 10:33:34.000   28.404696503  -16.362761963   525.2713   1   9   0.0013   0.0010   0.0102   0.0002  -0.0011   0.0018   4.00   55.8
2024/05/08 10:33:35.000   28.404696503  -16.362761963   525.2711   1   9   0.0013   0.0010   0.0102   0.0002  -0.0011   0.0018   5.00   54.7
2024/05/08 10:33:36.000   28.404696503  -16.362761963   525.2709   1   9   0.0013   0.0010   0.0102   0.0002  -0.0011   0.0018   6.00   53.5
2024/05/08 10:33:37.000   28.404696503  -16.362761963   525.2708   1   9   0.0013   0.0010   0.0103   0.0002  -0.0011   0.0018   7.00   52.2
2024/05/08 10:33:38.000   28.404696503  -16.362761963   525.2707   1   9   0.0013   0.0010   0.0103   0.0002  -0.0011   0.0018   8.00   51.0
2024/05/08 10:33:39.000   28.404696503  -16.362761963   525.2706   1   9   0.0013   0.0010   0.0103   0.0002  -0.0011   0.0018   9.00   49.9
2024/05/08 10:33:40.000   28.404696503  -16.362761963   525.2705   1   9   0.0013   0.0010   0.0102   0.0002  -0.0011   0.0018  10.00   48.5
2024/05/08 10:33:41.000   28.404696502  -16.362761963   525.2704   1   9   0.0013   0.0010   0.0102   0.0002  -0.0011   0.0018  11.00   47.3
2024/05/08 10:33:42.000   28.404696502  -16.362761963   525.2703   1   9   0.0013   0.0010   0.0102   0.0002  -0.0011   0.0018  12.00   46.1
2024/05/08 10:33:43.000   28.404696502  -16.362761963   525.2702   1   9   0.0013   0.0010   0.0102   0.0002  -0.0011   0.0018  13.00   44.9
2024/05/08 10:33:44.000   28.404696502  -16.362761963   525.2702   1   9   0.0013   0.0010   0.0102   0.0002  -0.0011   0.0018  14.00   43.6
2024/05/08 10:33:45.000   28.404696502  -16.362761963   525.2701   1   9   0.0013   0.0010   0.0102   0.0002  -0.0011   0.0018  15.00   42.4
2024/05/08 10:33:46.000   28.404696502  -16.362761963   525.2700   1   9   0.0013   0.0010   0.0102   0.0002  -0.0011   0.0018 -14.00   41.2
2024/05/08 10:33:47.000   28.404696502  -16.362761963   525.2700   1   9   0.0013   0.0010   0.0102   0.0002  -0.0011   0.0018 -13.00   40.0
2024/05/08 10:33:48.000   28.404696502  -16.362761963   525.2699   1   9   0.0013   0.0010   0.0102   0.0002  -0.0011   0.0018 -12.00   38.7
2024/05/08 10:33:49.000   28.404696502  -16.362761963   525.2698   1   9   0.0013   0.0010   0.0102   0.0002  -0.0011   0.0018 -11.00   37.4
2024/05/08 10:33:50.000   28.404696502  -16.362761963   525.2697   1   9   0.0013   0.0010   0.0102   0.0002  -0.0011   0.0018 -10.00   36.2
2024/05/08 10:33:51.000   28.404696502  -16.362761963   525.2696   1   9   0.0013   0.0010   0.0102   0.0002  -0.0011   0.0018  -9.00   34.9
2024/05/08 10:33:52.000   28.404696502  -16.362761963   525.2695   1   9   0.0013   0.0010   0.0102   0.0002  -0.0011   0.0018  -8.00   33.6
2024/05/08 10:33:53.000   28.404696502  -16.362761962   525.2694   1   9   0.0013   0.0010   0.0102   0.0002  -0.0011   0.0018  -7.00   32.3
2024/05/08 10:33:54.000   28.404696502  -16.362761962   525.2693   1   9   0.0013   0.0010   0.0102   0.0002  -0.0011   0.0018  -6.00   30.8
2024/05/08 10:33:55.000   28.404696502  -16.362761962   525.2692   1   9   0.0013   0.0010   0.0102   0.0002  -0.0011   0.0018  -5.00   29.3
2024/05/08 10:33:56.000   28.404696501  -16.362761962   525.2690   1   9   0.0013   0.0010   0.0102   0.0002  -0.0011   0.0018  -4.00   27.7
2024/05/08 10:33:57.000   28.404696501  -16.362761962   525.2688   1   9   0.0013   0.0010   0.0102   0.0002  -0.0011   0.0018  -3.00   25.5
2024/05/08 10:33:58.000   28.404696501  -16.362761962   525.2686   1   9   0.0013   0.0010   0.0102   0.0002  -0.0011   0.0018  -2.00   21.5
2024/05/08 10:33:59.000   28.404696501  -16.362761962   525.2684   1   9   0.0013   0.0010   0.0102   0.0002  -0.0011   0.0018  -1.00   11.8
2024/05/08 10:34:00.000   28.404696503  -16.362761962   525.2688   1   9   0.0013   0.0010   0.0102   0.0002  -0.0011   0.0018   0.00   58.3
2024/05/08 10:34:01.000   28.404696502  -16.362761975   525.2740   1   9   0.0013   0.0009   0.0085   0.0001  -0.0009   0.0019   1.00    3.0
2024/05/08 10:34:02.000   28.404696503  -16.362761975   525.2740   1   9   0.0013   0.0009   0.0085   0.0001  -0.0009   0.0019   2.00    3.1
2024/05/08 10:34:03.000   28.404696510  -16.362761979   525.2754   1   9   0.0013   0.0008   0.0085   0.0002  -0.0009   0.0019   3.00    3.3
2024/05/08 10:34:04.000   28.404696510  -16.362761979   525.2755   1   9   0.0013   0.0008   0.0085   0.0002  -0.0009   0.0019   4.00    3.1
2024/05/08 10:34:05.000   28.404696510  -16.362761979   525.2755   1   9   0.0013   0.0008   0.0085   0.0002  -0.0009   0.0019   5.00    3.1
2024/05/08 10:34:06.000   28.404696510  -16.362761979   525.2755   1   9   0.0013   0.0008   0.0085   0.0002  -0.0009   0.0019   6.00    3.1
2024/05/08 10:34:07.000   28.404696510  -16.362761979   525.2756   1   9   0.0013   0.0008   0.0085   0.0002  -0.0009   0.0019   7.00    3.1
2024/05/08 10:34:08.000   28.404696510  -16.362761979   525.2755   1   9   0.0013   0.0008   0.0085   0.0002  -0.0009   0.0019   8.00    3.1
2024/05/08 10:34:09.000   28.404696510  -16.362761979   525.2755   1   9   0.0013   0.0008   0.0085   0.0002  -0.0009   0.0019   9.00    3.1
2024/05/08 10:34:10.000   28.404696510  -16.362761979   525.2755   1   9   0.0013   0.0008   0.0085   0.0002  -0.0009   0.0019  10.00    3.1
2024/05/08 10:34:11.000   28.404696510  -16.362761979   525.2755   1   9   0.0013   0.0008   0.0085   0.0002  -0.0009   0.0019  11.00    3.1
2024/05/08 10:34:12.000   28.404696510  -16.362761979   525.2754   1   9   0.0013   0.0008   0.0085   0.0002  -0.0009   0.0019  12.00    3.1
2024/05/08 10:34:13.000   28.404696510  -16.362761979   525.2754   1   9   0.0013   0.0008   0.0085   0.0002  -0.0009   0.0019  13.00    3.1
2024/05/08 10:34:14.000   28.404696510  -16.362761979   525.2754   1   9   0.0013   0.0008   0.0085   0.0002  -0.0009   0.0019  14.00    3.1
2024/05/08 10:34:15.000   28.404696510  -16.362761979   525.2754   1   9   0.0013   0.0008   0.0085   0.0002  -0.0009   0.0019 -15.00    3.1
2024/05/08 10:34:16.000   28.404696510  -16.362761979   525.2753   1   9   0.0013   0.0008   0.0085   0.0002  -0.0009   0.0019 -14.00    3.1
2024/05/08 10:34:17.000   28.404696510  -16.362761979   525.2753   1   9   0.0013   0.0008   0.0085   0.0002  -0.0009   0.0019 -13.00    3.1
2024/05/08 10:34:18.000   28.404696510  -16.362761979   525.2753   1   9   0.0013   0.0008   0.0085   0.0002  -0.0009   0.0019 -12.00    3.1
2024/05/08 10:34:19.000   28.404696510  -16.362761979   525.2753   1   9   0.0013   0.0008   0.0085   0.0002  -0.0009   0.0019 -11.00    3.1
2024/05/08 10:34:20.000   28.404696510  -16.362761979   525.2753   1   9   0.0013   0.0008   0.0085   0.0002  -0.0009   0.0019 -10.00    3.1
2024/05/08 10:34:21.000   28.404696510  -16.362761979   525.2753   1   9   0.0013   0.0008   0.0085   0.0002  -0.0009   0.0019  -9.00    6.1
2024/05/08 10:34:22.000   28.404696492  -16.362761979   525.2692   1   9   0.0011   0.0008   0.0082   0.0001  -0.0009   0.0015  -8.00    5.3
2024/05/08 10:34:23.000   28.404696492  -16.362761979   525.2692   1   9   0.0011   0.0008   0.0082   0.0001  -0.0009   0.0015  -7.00    6.3
2024/05/08 10:34:24.000   28.404696492  -16.362761979   525.2692   1   9   0.0011   0.0008   0.0082   0.0001  -0.0009   0.0015  -6.00    7.3
2024/05/08 10:34:25.000   28.404696492  -16.362761979   525.2692   1   9   0.0011   0.0008   0.0082   0.0001  -0.0009   0.0015  -5.00    8.3
2024/05/08 10:34:26.000   28.404696492  -16.362761979   525.2692   1   9   0.0011   0.0008   0.0082   0.0001  -0.0009   0.0015  -4.00    9.4
2024/05/08 10:34:27.000   28.404696493  -16.362761979   525.2693   1   9   0.0011   0.0008   0.0082   0.0001  -0.0009   0.0015  -3.00   10.5
2024/05/08 10:34:28.000   28.404696493  -16.362761979   525.2692   1   9   0.0011   0.0008   0.0082   0.0001  -0.0009   0.0015  -2.00   11.8
2024/05/08 10:34:29.000   28.404696493  -16.362761979   525.2693   1   9   0.0011   0.0008   0.0082   0.0001  -0.0009   0.0015  -1.00   13.0
2024/05/08 10:34:30.000   28.404696493  -16.362761979   525.2694   1   9   0.0011   0.0008   0.0082   0.0001  -0.0009   0.0015   0.00   14.3
2024/05/08 10:34:31.000   28.404696492  -16.362761979   525.2689   1   9   0.0011   0.0008   0.0082   0.0001  -0.0009   0.0015   1.00    7.8
2024/05/08 10:34:32.000   28.404696492  -16.362761979   525.2689   1   9   0.0011   0.0008   0.0082   0.0001  -0.0009   0.0015   2.00   10.0
2024/05/08 10:34:33.000   28.404696492  -16.362761979   525.2689   1   9   0.0011   0.0008   0.0082   0.0001  -0.0009   0.0015   3.00   11.6
2024/05/08 10:34:34.000   28.404696492  -16.362761979   525.2689   1   9   0.0011   0.0008   0.0082   0.0001  -0.0009   0.0015   4.00   12.9
2024/05/08 10:34:35.000   28.404696492  -16.362761979   525.2688   1   9   0.0011   0.0008   0.0082   0.0001  -0.0009   0.0015   5.00   14.3
2024/05/08 10:34:36.000   28.404696492  -16.362761979   525.2688   1   9   0.0011   0.0008   0.0082   0.0001  -0.0009   0.0015   6.00   15.6
2024/05/08 10:34:37.000   28.404696492  -16.362761979   525.2688   1   9   0.0011   0.0008   0.0082   0.0001  -0.0009   0.0015   7.00   16.9
2024/05/08 10:34:38.000   28.404696492  -16.362761979   525.2687   1   9   0.0011   0.0008   0.0082   0.0001  -0.0009   0.0015   8.00   18.2
2024/05/08 10:34:39.000   28.404696492  -16.362761979   525.2687   1   9   0.0011   0.0008   0.0082   0.0001  -0.0009   0.0015   9.00   19.4
2024/05/08 10:34:40.000   28.404696492  -16.362761979   525.2687   1   9   0.0011   0.0008   0.0082   0.0001  -0.0009   0.0015  10.00   20.5
2024/05/08 10:34:41.000   28.404696492  -16.362761979   525.2687   1   9   0.0011   0.0008   0.0082   0.0001  -0.0009   0.0015  11.00   21.7
2024/05/08 10:34:42.000   28.404696492  -16.362761979   525.2686   1   9   0.0011   0.0008   0.0082   0.0001  -0.0009   0.0015  12.00   22.9
2024/05/08 10:34:43.000   28.404696492  -16.362761979   525.2686   1   9   0.0011   0.0008   0.0082   0.0001  -0.0009   0.0015  13.00   24.1
2024/05/08 10:34:44.000   28.404696492  -16.362761979   525.2686   1   9   0.0011   0.0008   0.0082   0.0001  -0.0009   0.0015  14.00   25.3
2024/05/08 10:34:45.000   28.404696492  -16.362761979   525.2686   1   9   0.0011   0.0008   0.0082   0.0001  -0.0009   0.0015 -15.00   26.5
2024/05/08 10:34:46.000   28.404696492  -16.362761979   525.2686   1   9   0.0011   0.0008   0.0082   0.0001  -0.0009   0.0015 -14.00   27.6
2024/05/08 10:34:47.000   28.404696492  -16.362761979   525.2685   1   9   0.0011   0.0008   0.0082   0.0001  -0.0009   0.0015 -13.00   28.9
2024/05/08 10:34:48.000   28.404696492  -16.362761979   525.2685   1   9   0.0011   0.0008   0.0082   0.0001  -0.0009   0.0015 -12.00   30.1
2024/05/08 10:34:49.000   28.404696492  -16.362761979   525.2685   1   9   0.0011   0.0008   0.0082   0.0001  -0.0009   0.0015 -11.00   31.4
2024/05/08 10:34:50.000   28.404696492  -16.362761979   525.2685   1   9   0.0011   0.0008   0.0082   0.0001  -0.0009   0.0015 -10.00   32.7
2024/05/08 10:34:51.000   28.404696492  -16.362761979   525.2685   1   9   0.0011   0.0008   0.0082   0.0001  -0.0009   0.0015  -9.00   33.9
2024/05/08 10:34:52.000   28.404696492  -16.362761979   525.2685   1   9   0.0011   0.0008   0.0082   0.0001  -0.0009   0.0015  -8.00   35.3
2024/05/08 10:34:53.000   28.404696492  -16.362761979   525.2685   1   9   0.0011   0.0008   0.0082   0.0001  -0.0009   0.0015  -7.00   36.7
2024/05/08 10:34:54.000   28.404696492  -16.362761979   525.2685   1   9   0.0011   0.0008   0.0082   0.0001  -0.0009   0.0015  -6.00   38.2
