% program   : RTKPOST-EX 2.5.0
% inp file  : C:\Users\SallyHenry\Desktop\Sally Internship\GNSS gravi\DATA\Survey Rover Obs\GUI19.24o
% inp file  : C:\Users\SallyHenry\Desktop\Sally Internship\GNSS gravi\DATA\BaseStations\TN01\TN0100ESP_R_20241290000_01D_30S_MO.rnx
% inp file  : C:\Users\SallyHenry\Desktop\Sally Internship\GNSS gravi\DATA\BaseStations\TN01\TN0100ESP_R_20241290000_01D_MN.rnx
% inp file  : C:\Users\SallyHenry\Desktop\Sally Internship\GNSS gravi\DATA\aux_files\Survey\IGS0OPSFIN_20241290000_01D_15M_ORB.SP3
% inp file  : C:\Users\SallyHenry\Desktop\Sally Internship\GNSS gravi\DATA\aux_files\Survey\IGS0OPSFIN_20241290000_01D_30S_CLK.CLK
% obs start : 2024/05/08 16:00:15.0 GPST (week2313 316815.0s)
% obs end   : 2024/05/08 16:15:29.0 GPST (week2313 317729.0s)
% pos mode  : Static
% freqs     : L1+L2/E5b
% solution  : Combined-No Phase Reset
% elev mask : 15.0 deg
% dynamics  : on
% tidecorr  : solid
% ionos opt : Estimate TEC
% tropo opt : Estimate ZTD+Grad
% ephemeris : Precise
% navi sys  : GPS GLONASS Galileo QZSS BDS
% amb res   : Fix and Hold
% amb glo   : Fix and Hold
% amb bds   : on
% val thres : 3.0
% antenna1  :                       ( 0.0000  0.0000  1.8000)
% antenna2  :                       ( 0.0000  0.0000  0.0771)
% ref pos   :  28.477186930  -16.241151700    51.7531
%
% (lat/lon/height=WGS84/ellipsoidal,Q=1:fix,2:float,3:sbas,4:dgps,5:single,6:ppp,ns=# of satellites)
%  GPST                  latitude(deg) longitude(deg)  height(m)   Q  ns   sdn(m)   sde(m)   sdu(m)  sdne(m)  sdeu(m)  sdun(m) age(s)  ratio
2024/05/08 16:00:15.000   28.328410438  -16.426870904   598.4638   2   7   0.0224   0.0399   0.2876   0.0100   0.0116  -0.0564 -15.00    0.0
2024/05/08 16:00:16.000   28.328410431  -16.426870903   598.4848   2   7   0.0223   0.0399   0.2868   0.0100   0.0115  -0.0563 -14.00    0.0
2024/05/08 16:00:17.000   28.328410425  -16.426870902   598.5027   2   7   0.0223   0.0399   0.2861   0.0100   0.0114  -0.0561 -13.00    0.0
2024/05/08 16:00:18.000   28.328410419  -16.426870902   598.5196   2   7   0.0223   0.0399   0.2855   0.0100   0.0114  -0.0560 -12.00    0.0
2024/05/08 16:00:19.000   28.328410414  -16.426870901   598.5337   2   7   0.0223   0.0399   0.2850   0.0100   0.0114  -0.0559 -11.00    0.0
2024/05/08 16:00:20.000   28.328410409  -16.426870901   598.5455   2   7   0.0223   0.0399   0.2845   0.0100   0.0114  -0.0558 -10.00    0.0
2024/05/08 16:00:21.000   28.328410405  -16.426870901   598.5561   2   7   0.0223   0.0399   0.2841   0.0100   0.0114  -0.0557  -9.00    0.0
2024/05/08 16:00:22.000   28.328410401  -16.426870902   598.5644   2   7   0.0223   0.0399   0.2838   0.0100   0.0114  -0.0556  -8.00    0.0
2024/05/08 16:00:23.000   28.328410398  -16.426870903   598.5717   2   7   0.0223   0.0399   0.2835   0.0100   0.0115  -0.0556  -7.00    0.0
2024/05/08 16:00:24.000   28.328410394  -16.426870904   598.5782   2   7   0.0223   0.0399   0.2833   0.0100   0.0115  -0.0555  -6.00    0.0
2024/05/08 16:00:25.000   28.328410390  -16.426870905   598.5827   2   7   0.0223   0.0399   0.2830   0.0100   0.0115  -0.0554  -5.00    0.0
2024/05/08 16:00:26.000   28.328410386  -16.426870907   598.5874   2   7   0.0223   0.0399   0.2829   0.0100   0.0115  -0.0554  -4.00    0.0
2024/05/08 16:00:27.000   28.328410382  -16.426870909   598.5917   2   7   0.0223   0.0399   0.2828   0.0100   0.0116  -0.0553  -3.00    0.0
2024/05/08 16:00:28.000   28.328410377  -16.426870909   598.5943   2   7   0.0223   0.0400   0.2827   0.0100   0.0116  -0.0553  -2.00    0.0
2024/05/08 16:00:29.000   28.328410371  -16.426870908   598.5949   2   7   0.0223   0.0400   0.2827   0.0100   0.0116  -0.0552  -1.00    0.0
2024/05/08 16:00:30.000   28.328410364  -16.426870903   598.6010   2   7   0.0223   0.0400   0.2828   0.0100   0.0117  -0.0552   0.00    0.0
2024/05/08 16:00:31.000   28.328410354  -16.426870899   598.6121   2   7   0.0223   0.0400   0.2824   0.0100   0.0115  -0.0550   1.00    0.0
2024/05/08 16:00:32.000   28.328410346  -16.426870897   598.6136   2   7   0.0223   0.0401   0.2822   0.0100   0.0114  -0.0549   2.00    0.0
2024/05/08 16:00:33.000   28.328410339  -16.426870895   598.6151   2   7   0.0223   0.0401   0.2821   0.0100   0.0113  -0.0549   3.00    0.0
2024/05/08 16:00:34.000   28.328410334  -16.426870896   598.6169   2   7   0.0223   0.0401   0.2820   0.0100   0.0113  -0.0548   4.00    0.0
2024/05/08 16:00:35.000   28.328410329  -16.426870898   598.6182   2   7   0.0223   0.0401   0.2819   0.0100   0.0113  -0.0548   5.00    0.0
2024/05/08 16:00:36.000   28.328410325  -16.426870902   598.6207   2   7   0.0223   0.0401   0.2818   0.0100   0.0113  -0.0547   6.00    0.0
2024/05/08 16:00:37.000   28.328410321  -16.426870906   598.6237   2   7   0.0223   0.0401   0.2817   0.0100   0.0113  -0.0547   7.00    0.0
2024/05/08 16:00:38.000   28.328410319  -16.426870910   598.6273   2   7   0.0223   0.0401   0.2816   0.0100   0.0113  -0.0547   8.00    0.0
2024/05/08 16:00:39.000   28.328410316  -16.426870914   598.6310   2   7   0.0223   0.0402   0.2815   0.0100   0.0114  -0.0546   9.00    0.0
2024/05/08 16:00:40.000   28.328410314  -16.426870918   598.6346   2   7   0.0223   0.0402   0.2814   0.0100   0.0114  -0.0546  10.00    0.0
2024/05/08 16:00:41.000   28.328410312  -16.426870921   598.6385   2   7   0.0223   0.0402   0.2813   0.0100   0.0115  -0.0545  11.00    0.0
2024/05/08 16:00:42.000   28.328410310  -16.426870925   598.6416   2   7   0.0223   0.0402   0.2812   0.0100   0.0115  -0.0545  12.00    0.0
2024/05/08 16:00:43.000   28.328410308  -16.426870929   598.6451   2   7   0.0223   0.0402   0.2811   0.0100   0.0116  -0.0545  13.00    0.0
2024/05/08 16:00:44.000   28.328410307  -16.426870933   598.6483   2   7   0.0223   0.0402   0.2810   0.0100   0.0117  -0.0545  14.00    0.0
2024/05/08 16:00:45.000   28.328410305  -16.426870937   598.6513   2   7   0.0223   0.0401   0.2809   0.0100   0.0118  -0.0544 -15.00    0.0
2024/05/08 16:00:46.000   28.328410304  -16.426870941   598.6545   2   7   0.0223   0.0401   0.2808   0.0100   0.0118  -0.0544 -14.00    0.0
2024/05/08 16:00:47.000   28.328410302  -16.426870944   598.6579   2   7   0.0223   0.0401   0.2807   0.0100   0.0119  -0.0544 -13.00    0.0
2024/05/08 16:00:48.000   28.328410300  -16.426870947   598.6606   2   7   0.0223   0.0401   0.2806   0.0100   0.0120  -0.0543 -12.00    0.0
2024/05/08 16:00:49.000   28.328410299  -16.426870950   598.6632   2   7   0.0223   0.0401   0.2805   0.0100   0.0121  -0.0543 -11.00    0.0
2024/05/08 16:00:50.000   28.328410297  -16.426870954   598.6664   2   7   0.0223   0.0401   0.2804   0.0100   0.0121  -0.0543 -10.00    0.0
2024/05/08 16:00:51.000   28.328410295  -16.426870958   598.6688   2   7   0.0223   0.0401   0.2804   0.0100   0.0122  -0.0543  -9.00    0.0
2024/05/08 16:00:52.000   28.328410292  -16.426870961   598.6713   2   7   0.0223   0.0401   0.2803   0.0100   0.0123  -0.0542  -8.00    0.0
2024/05/08 16:00:53.000   28.328410289  -16.426870966   598.6735   2   7   0.0223   0.0401   0.2803   0.0100   0.0123  -0.0542  -7.00    0.0
2024/05/08 16:00:54.000   28.328410286  -16.426870970   598.6756   2   7   0.0223   0.0402   0.2802   0.0100   0.0123  -0.0542  -6.00    0.0
2024/05/08 16:00:55.000   28.328410283  -16.426870973   598.6768   2   7   0.0223   0.0402   0.2802   0.0100   0.0124  -0.0542  -5.00    0.0
2024/05/08 16:00:56.000   28.328410279  -16.426870975   598.6781   2   7   0.0223   0.0402   0.2802   0.0100   0.0124  -0.0541  -4.00    0.0
2024/05/08 16:00:57.000   28.328410275  -16.426870978   598.6786   2   7   0.0223   0.0402   0.2802   0.0100   0.0125  -0.0541  -3.00    0.0
2024/05/08 16:00:58.000   28.328410269  -16.426870980   598.6808   2   7   0.0223   0.0402   0.2803   0.0099   0.0125  -0.0541  -2.00    0.0
2024/05/08 16:00:59.000   28.328410263  -16.426870981   598.6832   2   7   0.0223   0.0402   0.2804   0.0099   0.0125  -0.0541  -1.00    0.0
2024/05/08 16:01:00.000   28.328410255  -16.426870976   598.6914   2   7   0.0223   0.0403   0.2806   0.0099   0.0126  -0.0540   0.00    0.0
2024/05/08 16:01:01.000   28.328410247  -16.426870977   598.6959   2   7   0.0224   0.0403   0.2801   0.0099   0.0124  -0.0539   1.00    0.0
2024/05/08 16:01:02.000   28.328410244  -16.426870982   598.6922   2   7   0.0224   0.0403   0.2800   0.0099   0.0122  -0.0538   2.00    0.0
2024/05/08 16:01:03.000   28.328410240  -16.426870985   598.6919   2   7   0.0224   0.0403   0.2800   0.0099   0.0122  -0.0538   3.00    0.0
2024/05/08 16:01:04.000   28.328410236  -16.426870987   598.6899   2   7   0.0224   0.0404   0.2800   0.0099   0.0121  -0.0537   4.00    0.0
2024/05/08 16:01:05.000   28.328410233  -16.426870990   598.6891   2   7   0.0224   0.0404   0.2799   0.0099   0.0121  -0.0537   5.00    0.0
2024/05/08 16:01:06.000   28.328410231  -16.426870995   598.6886   2   7   0.0224   0.0404   0.2799   0.0099   0.0121  -0.0537   6.00    0.0
2024/05/08 16:01:07.000   28.328410229  -16.426870999   598.6876   2   7   0.0224   0.0404   0.2799   0.0099   0.0121  -0.0536   7.00    0.0
2024/05/08 16:01:08.000   28.328410228  -16.426871003   598.6880   2   7   0.0224   0.0404   0.2798   0.0099   0.0121  -0.0536   8.00    0.0
2024/05/08 16:01:09.000   28.328410226  -16.426871009   598.6889   2   7   0.0224   0.0404   0.2798   0.0099   0.0121  -0.0536   9.00    0.0
2024/05/08 16:01:10.000   28.328410224  -16.426871015   598.6900   2   7   0.0224   0.0404   0.2797   0.0099   0.0121  -0.0536  10.00    0.0
2024/05/08 16:01:11.000   28.328410223  -16.426871020   598.6904   2   7   0.0224   0.0404   0.2797   0.0099   0.0122  -0.0536  11.00    0.0
2024/05/08 16:01:12.000   28.328410222  -16.426871026   598.6911   2   7   0.0224   0.0404   0.2796   0.0099   0.0122  -0.0535  12.00    0.0
2024/05/08 16:01:13.000   28.328410221  -16.426871031   598.6922   2   7   0.0224   0.0404   0.2796   0.0099   0.0122  -0.0535  13.00    0.0
2024/05/08 16:01:14.000   28.328410220  -16.426871036   598.6929   2   7   0.0224   0.0404   0.2795   0.0099   0.0123  -0.0535  14.00    0.0
2024/05/08 16:01:15.000   28.328410219  -16.426871041   598.6940   2   7   0.0224   0.0404   0.2795   0.0099   0.0123  -0.0535 -15.00    0.0
2024/05/08 16:01:16.000   28.328410217  -16.426871045   598.6956   2   7   0.0224   0.0404   0.2794   0.0099   0.0124  -0.0535 -14.00    0.0
2024/05/08 16:01:17.000   28.328410216  -16.426871049   598.6969   2   7   0.0224   0.0404   0.2793   0.0099   0.0124  -0.0534 -13.00    0.0
2024/05/08 16:01:18.000   28.328410215  -16.426871053   598.6977   2   7   0.0224   0.0404   0.2793   0.0099   0.0125  -0.0534 -12.00    0.0
2024/05/08 16:01:19.000   28.328410214  -16.426871057   598.6987   2   7   0.0224   0.0404   0.2792   0.0099   0.0125  -0.0534 -11.00    0.0
2024/05/08 16:01:20.000   28.328410213  -16.426871061   598.7000   2   7   0.0224   0.0404   0.2792   0.0099   0.0126  -0.0534 -10.00    0.0
2024/05/08 16:01:21.000   28.328410212  -16.426871065   598.7009   2   7   0.0224   0.0404   0.2792   0.0099   0.0126  -0.0534  -9.00    0.0
2024/05/08 16:01:22.000   28.328410211  -16.426871070   598.7012   2   7   0.0224   0.0404   0.2791   0.0099   0.0126  -0.0534  -8.00    0.0
2024/05/08 16:01:23.000   28.328410209  -16.426871075   598.7013   2   7   0.0224   0.0404   0.2791   0.0099   0.0127  -0.0533  -7.00    0.0
2024/05/08 16:01:24.000   28.328410208  -16.426871080   598.7012   2   7   0.0224   0.0405   0.2791   0.0099   0.0127  -0.0533  -6.00    0.0
2024/05/08 16:01:25.000   28.328410207  -16.426871087   598.7019   2   7   0.0224   0.0405   0.2791   0.0099   0.0127  -0.0533  -5.00    0.0
2024/05/08 16:01:26.000   28.328410205  -16.426871094   598.7017   2   7   0.0224   0.0405   0.2791   0.0099   0.0127  -0.0533  -4.00    0.0
2024/05/08 16:01:27.000   28.328410203  -16.426871101   598.7008   2   7   0.0224   0.0405   0.2791   0.0099   0.0127  -0.0533  -3.00    0.0
2024/05/08 16:01:28.000   28.328410201  -16.426871108   598.6979   2   7   0.0224   0.0405   0.2791   0.0099   0.0127  -0.0532  -2.00    0.0
2024/05/08 16:01:29.000   28.328410197  -16.426871114   598.6944   2   7   0.0224   0.0405   0.2792   0.0099   0.0127  -0.0532  -1.00    0.0
2024/05/08 16:01:30.000   28.328410193  -16.426871118   598.6981   2   7   0.0225   0.0406   0.2794   0.0099   0.0128  -0.0532   0.00    0.0
2024/05/08 16:01:31.000   28.328410188  -16.426871122   598.6981   2   7   0.0225   0.0406   0.2790   0.0099   0.0126  -0.0531   1.00    0.0
2024/05/08 16:01:32.000   28.328410182  -16.426871126   598.7008   2   7   0.0225   0.0406   0.2789   0.0099   0.0124  -0.0530   2.00    0.0
2024/05/08 16:01:33.000   28.328410179  -16.426871134   598.6983   2   7   0.0225   0.0406   0.2788   0.0099   0.0123  -0.0529   3.00    0.0
2024/05/08 16:01:34.000   28.328410176  -16.426871140   598.6959   2   7   0.0225   0.0407   0.2788   0.0099   0.0122  -0.0529   4.00    0.0
2024/05/08 16:01:35.000   28.328410173  -16.426871148   598.6960   2   7   0.0225   0.0407   0.2787   0.0099   0.0122  -0.0529   5.00    0.0
2024/05/08 16:01:36.000   28.328410170  -16.426871155   598.6961   2   7   0.0225   0.0407   0.2787   0.0099   0.0122  -0.0528   6.00    0.0
2024/05/08 16:01:37.000   28.328410168  -16.426871163   598.6970   2   7   0.0225   0.0407   0.2786   0.0099   0.0122  -0.0528   7.00    0.0
2024/05/08 16:01:38.000   28.328410166  -16.426871169   598.6982   2   7   0.0225   0.0407   0.2786   0.0099   0.0121  -0.0528   8.00    0.0
2024/05/08 16:01:39.000   28.328410164  -16.426871175   598.6993   2   7   0.0225   0.0407   0.2785   0.0099   0.0121  -0.0528   9.00    0.0
2024/05/08 16:01:40.000   28.328410162  -16.426871180   598.7006   2   7   0.0225   0.0407   0.2785   0.0099   0.0122  -0.0527  10.00    0.0
2024/05/08 16:01:41.000   28.328410160  -16.426871185   598.7017   2   7   0.0225   0.0407   0.2784   0.0099   0.0122  -0.0527  11.00    0.0
2024/05/08 16:01:42.000   28.328410158  -16.426871190   598.7034   2   7   0.0225   0.0407   0.2784   0.0099   0.0122  -0.0527  12.00    0.0
2024/05/08 16:01:43.000   28.328410157  -16.426871194   598.7052   2   7   0.0225   0.0407   0.2784   0.0099   0.0122  -0.0527  13.00    0.0
2024/05/08 16:01:44.000   28.328410155  -16.426871198   598.7071   2   7   0.0225   0.0407   0.2783   0.0099   0.0123  -0.0527  14.00    0.0
2024/05/08 16:01:45.000   28.328410153  -16.426871200   598.7090   2   7   0.0225   0.0407   0.2783   0.0099   0.0123  -0.0527 -15.00    0.0
2024/05/08 16:01:46.000   28.328410152  -16.426871203   598.7111   2   7   0.0225   0.0407   0.2782   0.0099   0.0123  -0.0526 -14.00    0.0
2024/05/08 16:01:47.000   28.328410150  -16.426871206   598.7128   2   7   0.0225   0.0407   0.2782   0.0099   0.0123  -0.0526 -13.00    0.0
2024/05/08 16:01:48.000   28.328410148  -16.426871209   598.7145   2   7   0.0225   0.0407   0.2781   0.0099   0.0124  -0.0526 -12.00    0.0
2024/05/08 16:01:49.000   28.328410147  -16.426871213   598.7168   2   7   0.0225   0.0407   0.2781   0.0099   0.0124  -0.0526 -11.00    0.0
2024/05/08 16:01:50.000   28.328410145  -16.426871217   598.7195   2   7   0.0225   0.0407   0.2780   0.0099   0.0124  -0.0526 -10.00    0.0
2024/05/08 16:01:51.000   28.328410143  -16.426871221   598.7216   2   7   0.0225   0.0407   0.2780   0.0099   0.0124  -0.0526  -9.00    0.0
2024/05/08 16:01:52.000   28.328410140  -16.426871227   598.7239   2   7   0.0225   0.0408   0.2779   0.0099   0.0124  -0.0526  -8.00    0.0
2024/05/08 16:01:53.000   28.328410137  -16.426871232   598.7263   2   7   0.0225   0.0408   0.2779   0.0099   0.0124  -0.0525  -7.00    0.0
2024/05/08 16:01:54.000   28.328410135  -16.426871238   598.7287   2   7   0.0225   0.0408   0.2779   0.0099   0.0124  -0.0525  -6.00    0.0
2024/05/08 16:01:55.000   28.328410132  -16.426871244   598.7307   2   7   0.0225   0.0408   0.2778   0.0099   0.0124  -0.0525  -5.00    0.0
2024/05/08 16:01:56.000   28.328410128  -16.426871252   598.7327   2   7   0.0225   0.0408   0.2778   0.0099   0.0124  -0.0525  -4.00    0.0
2024/05/08 16:01:57.000   28.328410126  -16.426871261   598.7349   2   7   0.0225   0.0408   0.2778   0.0099   0.0124  -0.0524  -3.00    0.0
2024/05/08 16:01:58.000   28.328410123  -16.426871271   598.7367   2   7   0.0225   0.0408   0.2778   0.0099   0.0124  -0.0524  -2.00    0.0
2024/05/08 16:01:59.000   28.328410119  -16.426871279   598.7383   2   7   0.0226   0.0408   0.2778   0.0099   0.0124  -0.0524  -1.00    0.0
2024/05/08 16:02:00.000   28.328410115  -16.426871286   598.7465   2   7   0.0226   0.0409   0.2780   0.0099   0.0125  -0.0524   0.00    0.0
2024/05/08 16:02:01.000   28.328410108  -16.426871293   598.7544   2   7   0.0226   0.0409   0.2777   0.0099   0.0123  -0.0523   1.00    0.0
2024/05/08 16:02:02.000   28.328410105  -16.426871303   598.7544   2   7   0.0226   0.0409   0.2775   0.0099   0.0121  -0.0522   2.00    0.0
2024/05/08 16:02:03.000   28.328410101  -16.426871313   598.7549   2   7   0.0226   0.0410   0.2775   0.0099   0.0120  -0.0521   3.00    0.0
2024/05/08 16:02:04.000   28.328410098  -16.426871322   598.7559   2   7   0.0226   0.0410   0.2774   0.0099   0.0120  -0.0521   4.00    0.0
2024/05/08 16:02:05.000   28.328410096  -16.426871329   598.7579   2   7   0.0226   0.0410   0.2773   0.0099   0.0119  -0.0521   5.00    0.0
2024/05/08 16:02:06.000   28.328410095  -16.426871334   598.7594   2   7   0.0226   0.0410   0.2773   0.0099   0.0119  -0.0520   6.00    0.0
2024/05/08 16:02:07.000   28.328410093  -16.426871338   598.7601   2   7   0.0226   0.0410   0.2772   0.0099   0.0119  -0.0520   7.00    0.0
2024/05/08 16:02:08.000   28.328410091  -16.426871343   598.7613   2   7   0.0226   0.0410   0.2772   0.0099   0.0119  -0.0520   8.00    0.0
2024/05/08 16:02:09.000   28.328410090  -16.426871347   598.7636   2   7   0.0226   0.0410   0.2771   0.0099   0.0119  -0.0520   9.00    0.0
2024/05/08 16:02:10.000   28.328410088  -16.426871351   598.7663   2   7   0.0226   0.0410   0.2771   0.0099   0.0119  -0.0520  10.00    0.0
2024/05/08 16:02:11.000   28.328410086  -16.426871354   598.7682   2   7   0.0226   0.0410   0.2770   0.0099   0.0119  -0.0519  11.00    0.0
2024/05/08 16:02:12.000   28.328410085  -16.426871358   598.7708   2   7   0.0226   0.0411   0.2770   0.0099   0.0119  -0.0519  12.00    0.0
2024/05/08 16:02:13.000   28.328410083  -16.426871360   598.7732   2   7   0.0226   0.0411   0.2770   0.0099   0.0119  -0.0519  13.00    0.0
2024/05/08 16:02:14.000   28.328410082  -16.426871363   598.7753   2   7   0.0226   0.0411   0.2769   0.0099   0.0120  -0.0519  14.00    0.0
2024/05/08 16:02:15.000   28.328410081  -16.426871366   598.7775   2   7   0.0226   0.0411   0.2769   0.0099   0.0120  -0.0519 -15.00    0.0
2024/05/08 16:02:16.000   28.328410079  -16.426871368   598.7792   2   7   0.0226   0.0411   0.2768   0.0099   0.0120  -0.0519 -14.00    0.0
2024/05/08 16:02:17.000   28.328410078  -16.426871371   598.7811   2   7   0.0226   0.0411   0.2768   0.0099   0.0120  -0.0519 -13.00    0.0
2024/05/08 16:02:18.000   28.328410076  -16.426871374   598.7834   2   7   0.0226   0.0411   0.2767   0.0099   0.0120  -0.0518 -12.00    0.0
2024/05/08 16:02:19.000   28.328410075  -16.426871378   598.7860   2   7   0.0226   0.0411   0.2767   0.0099   0.0121  -0.0518 -11.00    0.0
2024/05/08 16:02:20.000   28.328410073  -16.426871381   598.7880   2   7   0.0226   0.0411   0.2766   0.0099   0.0121  -0.0518 -10.00    0.0
2024/05/08 16:02:21.000   28.328410071  -16.426871384   598.7902   2   7   0.0227   0.0411   0.2766   0.0099   0.0121  -0.0518  -9.00    0.0
2024/05/08 16:02:22.000   28.328410069  -16.426871389   598.7928   2   7   0.0227   0.0411   0.2765   0.0099   0.0121  -0.0518  -8.00    0.0
2024/05/08 16:02:23.000   28.328410067  -16.426871395   598.7958   2   7   0.0227   0.0411   0.2765   0.0099   0.0121  -0.0518  -7.00    0.0
2024/05/08 16:02:24.000   28.328410065  -16.426871402   598.7984   2   7   0.0227   0.0411   0.2764   0.0099   0.0121  -0.0517  -6.00    0.0
2024/05/08 16:02:25.000   28.328410063  -16.426871411   598.8017   2   7   0.0227   0.0411   0.2764   0.0099   0.0121  -0.0517  -5.00    0.0
2024/05/08 16:02:26.000   28.328410061  -16.426871422   598.8053   2   7   0.0227   0.0411   0.2764   0.0099   0.0121  -0.0517  -4.00    0.0
2024/05/08 16:02:27.000   28.328410059  -16.426871432   598.8082   2   7   0.0227   0.0411   0.2763   0.0099   0.0121  -0.0517  -3.00    0.0
2024/05/08 16:02:28.000   28.328410056  -16.426871443   598.8117   2   7   0.0227   0.0411   0.2763   0.0099   0.0121  -0.0516  -2.00    0.0
2024/05/08 16:02:29.000   28.328410054  -16.426871455   598.8177   2   7   0.0227   0.0412   0.2763   0.0099   0.0121  -0.0516  -1.00    0.0
2024/05/08 16:02:30.000   28.328410051  -16.426871466   598.8251   2   7   0.0227   0.0412   0.2764   0.0099   0.0123  -0.0516   0.00    0.0
2024/05/08 16:02:31.000   28.328410046  -16.426871478   598.8349   2   7   0.0227   0.0412   0.2762   0.0099   0.0122  -0.0515   1.00    0.0
2024/05/08 16:02:32.000   28.328410043  -16.426871491   598.8390   2   7   0.0227   0.0412   0.2761   0.0099   0.0121  -0.0514   2.00    0.0
2024/05/08 16:02:33.000   28.328410038  -16.426871499   598.8413   2   7   0.0227   0.0413   0.2760   0.0098   0.0121  -0.0514   3.00    0.0
2024/05/08 16:02:34.000   28.328410033  -16.426871507   598.8423   2   7   0.0228   0.0413   0.2759   0.0098   0.0120  -0.0513   4.00    0.0
2024/05/08 16:02:35.000   28.328410029  -16.426871516   598.8432   2   7   0.0228   0.0413   0.2759   0.0098   0.0120  -0.0513   5.00    0.0
2024/05/08 16:02:36.000   28.328410025  -16.426871524   598.8437   2   7   0.0228   0.0413   0.2758   0.0098   0.0120  -0.0513   6.00    0.0
2024/05/08 16:02:37.000   28.328410022  -16.426871531   598.8433   2   7   0.0228   0.0413   0.2757   0.0098   0.0120  -0.0513   7.00    0.0
2024/05/08 16:02:38.000   28.328410019  -16.426871538   598.8433   2   7   0.0228   0.0413   0.2757   0.0098   0.0120  -0.0512   8.00    0.0
2024/05/08 16:02:39.000   28.328410016  -16.426871542   598.8425   2   7   0.0228   0.0413   0.2756   0.0098   0.0121  -0.0512   9.00    0.0
2024/05/08 16:02:40.000   28.328410014  -16.426871547   598.8426   2   7   0.0228   0.0413   0.2756   0.0098   0.0121  -0.0512  10.00    0.0
2024/05/08 16:02:41.000   28.328410012  -16.426871549   598.8427   2   7   0.0228   0.0414   0.2756   0.0098   0.0121  -0.0512  11.00    0.0
2024/05/08 16:02:42.000   28.328410010  -16.426871552   598.8431   2   7   0.0228   0.0414   0.2755   0.0098   0.0121  -0.0512  12.00    0.0
2024/05/08 16:02:43.000   28.328410009  -16.426871555   598.8432   2   7   0.0228   0.0414   0.2755   0.0098   0.0121  -0.0512  13.00    0.0
2024/05/08 16:02:44.000   28.328410007  -16.426871557   598.8445   2   7   0.0228   0.0414   0.2754   0.0098   0.0122  -0.0511  14.00    0.0
2024/05/08 16:02:45.000   28.328410006  -16.426871559   598.8453   2   7   0.0228   0.0414   0.2754   0.0098   0.0122  -0.0511 -15.00    0.0
2024/05/08 16:02:46.000   28.328410005  -16.426871560   598.8463   2   7   0.0228   0.0414   0.2753   0.0098   0.0122  -0.0511 -14.00    0.0
2024/05/08 16:02:47.000   28.328410004  -16.426871562   598.8463   2   7   0.0228   0.0414   0.2753   0.0098   0.0122  -0.0511 -13.00    0.0
2024/05/08 16:02:48.000   28.328410003  -16.426871563   598.8466   2   7   0.0228   0.0414   0.2752   0.0098   0.0122  -0.0511 -12.00    0.0
2024/05/08 16:02:49.000   28.328410002  -16.426871565   598.8472   2   7   0.0228   0.0414   0.2752   0.0098   0.0123  -0.0511 -11.00    0.0
2024/05/08 16:02:50.000   28.328410002  -16.426871567   598.8473   2   7   0.0228   0.0414   0.2752   0.0098   0.0123  -0.0511 -10.00    0.0
2024/05/08 16:02:51.000   28.328410001  -16.426871570   598.8474   2   7   0.0228   0.0414   0.2751   0.0098   0.0123  -0.0510  -9.00    0.0
2024/05/08 16:02:52.000   28.328410000  -16.426871574   598.8475   2   7   0.0228   0.0414   0.2751   0.0098   0.0123  -0.0510  -8.00    0.0
2024/05/08 16:02:53.000   28.328409999  -16.426871579   598.8480   2   7   0.0228   0.0414   0.2750   0.0098   0.0124  -0.0510  -7.00    0.0
2024/05/08 16:02:54.000   28.328409997  -16.426871585   598.8478   2   7   0.0228   0.0414   0.2750   0.0098   0.0124  -0.0510  -6.00    0.0
2024/05/08 16:02:55.000   28.328409996  -16.426871591   598.8475   2   7   0.0228   0.0414   0.2749   0.0098   0.0124  -0.0510  -5.00    0.0
2024/05/08 16:02:56.000   28.328409994  -16.426871599   598.8469   2   7   0.0228   0.0414   0.2749   0.0098   0.0124  -0.0510  -4.00    0.0
2024/05/08 16:02:57.000   28.328409993  -16.426871608   598.8458   2   7   0.0228   0.0414   0.2749   0.0098   0.0125  -0.0509  -3.00    0.0
2024/05/08 16:02:58.000   28.328409991  -16.426871618   598.8447   2   7   0.0228   0.0414   0.2748   0.0098   0.0125  -0.0509  -2.00    0.0
2024/05/08 16:02:59.000   28.328409988  -16.426871628   598.8435   2   7   0.0228   0.0415   0.2748   0.0098   0.0126  -0.0509  -1.00    0.0
2024/05/08 16:03:00.000   28.328409984  -16.426871636   598.8454   2   7   0.0229   0.0415   0.2749   0.0098   0.0128  -0.0508   0.00    0.0
2024/05/08 16:03:01.000   28.328409980  -16.426871644   598.8503   2   7   0.0229   0.0415   0.2747   0.0098   0.0128  -0.0508   1.00    0.0
2024/05/08 16:03:02.000   28.328409978  -16.426871655   598.8518   2   7   0.0229   0.0415   0.2746   0.0098   0.0128  -0.0507   2.00    0.0
2024/05/08 16:03:03.000   28.328409975  -16.426871666   598.8533   2   7   0.0229   0.0416   0.2745   0.0097   0.0128  -0.0507   3.00    0.0
2024/05/08 16:03:04.000   28.328409973  -16.426871676   598.8542   2   7   0.0229   0.0416   0.2745   0.0097   0.0128  -0.0506   4.00    0.0
2024/05/08 16:03:05.000   28.328409971  -16.426871683   598.8553   2   7   0.0229   0.0416   0.2744   0.0097   0.0128  -0.0506   5.00    0.0
2024/05/08 16:03:06.000   28.328409969  -16.426871688   598.8558   2   7   0.0229   0.0416   0.2744   0.0097   0.0129  -0.0506   6.00    0.0
2024/05/08 16:03:07.000   28.328409968  -16.426871693   598.8562   2   7   0.0229   0.0416   0.2743   0.0097   0.0129  -0.0506   7.00    0.0
2024/05/08 16:03:08.000   28.328409966  -16.426871697   598.8563   2   7   0.0229   0.0416   0.2743   0.0097   0.0129  -0.0505   8.00    0.0
2024/05/08 16:03:09.000   28.328409964  -16.426871701   598.8572   2   7   0.0229   0.0416   0.2742   0.0097   0.0130  -0.0505   9.00    0.0
2024/05/08 16:03:10.000   28.328409963  -16.426871706   598.8579   2   7   0.0229   0.0416   0.2742   0.0097   0.0130  -0.0505  10.00    0.0
2024/05/08 16:03:11.000   28.328409962  -16.426871708   598.8579   2   7   0.0229   0.0416   0.2741   0.0097   0.0130  -0.0505  11.00    0.0
2024/05/08 16:03:12.000   28.328409961  -16.426871710   598.8587   2   7   0.0229   0.0416   0.2741   0.0097   0.0131  -0.0505  12.00    0.0
2024/05/08 16:03:13.000   28.328409960  -16.426871712   598.8585   2   7   0.0229   0.0416   0.2741   0.0097   0.0131  -0.0505  13.00    0.0
2024/05/08 16:03:14.000   28.328409959  -16.426871714   598.8587   2   7   0.0229   0.0416   0.2740   0.0097   0.0131  -0.0504  14.00    0.0
2024/05/08 16:03:15.000   28.328409958  -16.426871715   598.8591   2   7   0.0229   0.0416   0.2740   0.0097   0.0131  -0.0504 -15.00    0.0
2024/05/08 16:03:16.000   28.328409957  -16.426871716   598.8599   2   7   0.0229   0.0416   0.2739   0.0097   0.0132  -0.0504 -14.00    0.0
2024/05/08 16:03:17.000   28.328409957  -16.426871717   598.8608   2   7   0.0229   0.0416   0.2739   0.0097   0.0132  -0.0504 -13.00    0.0
2024/05/08 16:03:18.000   28.328409956  -16.426871717   598.8611   2   7   0.0229   0.0417   0.2739   0.0097   0.0132  -0.0504 -12.00    0.0
2024/05/08 16:03:19.000   28.328409955  -16.426871717   598.8616   2   7   0.0229   0.0417   0.2738   0.0097   0.0132  -0.0504 -11.00    0.0
2024/05/08 16:03:20.000   28.328409954  -16.426871719   598.8623   2   7   0.0229   0.0417   0.2738   0.0097   0.0133  -0.0504 -10.00    0.0
2024/05/08 16:03:21.000   28.328409953  -16.426871720   598.8628   2   7   0.0229   0.0417   0.2737   0.0097   0.0133  -0.0504  -9.00    0.0
2024/05/08 16:03:22.000   28.328409951  -16.426871721   598.8632   2   7   0.0229   0.0417   0.2737   0.0097   0.0133  -0.0503  -8.00    0.0
2024/05/08 16:03:23.000   28.328409950  -16.426871720   598.8631   2   7   0.0229   0.0417   0.2736   0.0097   0.0134  -0.0503  -7.00    0.0
2024/05/08 16:03:24.000   28.328409949  -16.426871719   598.8632   2   7   0.0229   0.0417   0.2736   0.0097   0.0134  -0.0503  -6.00    0.0
2024/05/08 16:03:25.000   28.328409947  -16.426871719   598.8641   2   7   0.0230   0.0417   0.2736   0.0097   0.0135  -0.0503  -5.00    0.0
2024/05/08 16:03:26.000   28.328409944  -16.426871721   598.8648   2   7   0.0230   0.0417   0.2735   0.0097   0.0135  -0.0503  -4.00    0.0
2024/05/08 16:03:27.000   28.328409942  -16.426871721   598.8655   2   7   0.0230   0.0417   0.2735   0.0097   0.0136  -0.0502  -3.00    0.0
2024/05/08 16:03:28.000   28.328409939  -16.426871722   598.8666   2   7   0.0230   0.0417   0.2735   0.0097   0.0137  -0.0502  -2.00    0.0
2024/05/08 16:03:29.000   28.328409936  -16.426871722   598.8672   2   7   0.0230   0.0417   0.2735   0.0096   0.0138  -0.0502  -1.00    0.0
2024/05/08 16:03:30.000   28.328409934  -16.426871720   598.8711   2   7   0.0230   0.0418   0.2736   0.0096   0.0140  -0.0502   0.00    0.0
2024/05/08 16:03:31.000   28.328409930  -16.426871720   598.8743   2   7   0.0230   0.0418   0.2734   0.0096   0.0141  -0.0501   1.00    0.0
2024/05/08 16:03:32.000   28.328409926  -16.426871720   598.8744   2   7   0.0230   0.0418   0.2733   0.0096   0.0141  -0.0501   2.00    0.0
2024/05/08 16:03:33.000   28.328409919  -16.426871720   598.8753   2   7   0.0230   0.0418   0.2732   0.0096   0.0142  -0.0500   3.00    0.0
2024/05/08 16:03:34.000   28.328409916  -16.426871724   598.8750   2   7   0.0230   0.0418   0.2732   0.0096   0.0142  -0.0500   4.00    0.0
2024/05/08 16:03:35.000   28.328409913  -16.426871727   598.8754   2   7   0.0231   0.0419   0.2731   0.0096   0.0143  -0.0500   5.00    0.0
2024/05/08 16:03:36.000   28.328409911  -16.426871729   598.8764   2   7   0.0231   0.0419   0.2731   0.0096   0.0143  -0.0499   6.00    0.0
2024/05/08 16:03:37.000   28.328409909  -16.426871732   598.8774   2   7   0.0231   0.0419   0.2730   0.0095   0.0144  -0.0499   7.00    0.0
2024/05/08 16:03:38.000   28.328409908  -16.426871734   598.8773   2   7   0.0231   0.0419   0.2730   0.0095   0.0144  -0.0499   8.00    0.0
2024/05/08 16:03:39.000   28.328409908  -16.426871736   598.8779   2   7   0.0231   0.0419   0.2729   0.0095   0.0145  -0.0499   9.00    0.0
2024/05/08 16:03:40.000   28.328409907  -16.426871738   598.8781   2   7   0.0231   0.0419   0.2729   0.0095   0.0145  -0.0499  10.00    0.0
2024/05/08 16:03:41.000   28.328409906  -16.426871740   598.8788   2   7   0.0231   0.0419   0.2729   0.0095   0.0145  -0.0499  11.00    0.0
2024/05/08 16:03:42.000   28.328409906  -16.426871743   598.8792   2   7   0.0231   0.0419   0.2728   0.0095   0.0146  -0.0498  12.00    0.0
2024/05/08 16:03:43.000   28.328409906  -16.426871744   598.8797   2   7   0.0231   0.0419   0.2728   0.0095   0.0146  -0.0498  13.00    0.0
2024/05/08 16:03:44.000   28.328409906  -16.426871746   598.8799   2   7   0.0231   0.0419   0.2728   0.0095   0.0146  -0.0498  14.00    0.0
2024/05/08 16:03:45.000   28.328409905  -16.426871748   598.8805   2   7   0.0231   0.0419   0.2727   0.0095   0.0146  -0.0498 -15.00    0.0
2024/05/08 16:03:46.000   28.328409905  -16.426871749   598.8807   2   7   0.0231   0.0419   0.2727   0.0095   0.0147  -0.0498 -14.00    0.0
2024/05/08 16:03:47.000   28.328409905  -16.426871751   598.8809   2   7   0.0231   0.0419   0.2727   0.0095   0.0147  -0.0498 -13.00    0.0
2024/05/08 16:03:48.000   28.328409905  -16.426871751   598.8813   2   7   0.0231   0.0419   0.2726   0.0095   0.0147  -0.0498 -12.00    0.0
2024/05/08 16:03:49.000   28.328409906  -16.426871751   598.8821   2   7   0.0231   0.0419   0.2726   0.0095   0.0148  -0.0498 -11.00    0.0
2024/05/08 16:03:50.000   28.328409906  -16.426871751   598.8830   2   7   0.0231   0.0419   0.2725   0.0095   0.0148  -0.0498 -10.00    0.0
2024/05/08 16:03:51.000   28.328409906  -16.426871750   598.8834   2   7   0.0231   0.0419   0.2725   0.0095   0.0148  -0.0497  -9.00    0.0
2024/05/08 16:03:52.000   28.328409906  -16.426871749   598.8840   2   7   0.0231   0.0419   0.2725   0.0095   0.0149  -0.0497  -8.00    0.0
2024/05/08 16:03:53.000   28.328409906  -16.426871748   598.8853   2   7   0.0231   0.0419   0.2724   0.0095   0.0149  -0.0497  -7.00    0.0
2024/05/08 16:03:54.000   28.328409906  -16.426871747   598.8857   2   7   0.0231   0.0419   0.2724   0.0095   0.0150  -0.0497  -6.00    0.0
2024/05/08 16:03:55.000   28.328409904  -16.426871746   598.8862   2   7   0.0231   0.0419   0.2724   0.0095   0.0150  -0.0497  -5.00    0.0
2024/05/08 16:03:56.000   28.328409903  -16.426871746   598.8866   2   7   0.0231   0.0420   0.2723   0.0095   0.0151  -0.0497  -4.00    0.0
2024/05/08 16:03:57.000   28.328409902  -16.426871744   598.8880   2   7   0.0231   0.0420   0.2723   0.0095   0.0152  -0.0496  -3.00    0.0
2024/05/08 16:03:58.000   28.328409900  -16.426871742   598.8891   2   7   0.0231   0.0420   0.2723   0.0095   0.0153  -0.0496  -2.00    0.0
2024/05/08 16:03:59.000   28.328409897  -16.426871738   598.8892   2   7   0.0231   0.0420   0.2723   0.0094   0.0155  -0.0496  -1.00    0.0
2024/05/08 16:04:00.000   28.328409894  -16.426871729   598.8979   2   7   0.0231   0.0420   0.2723   0.0094   0.0157  -0.0496   0.00    0.0
2024/05/08 16:04:01.000   28.328409888  -16.426871723   598.9010   2   7   0.0232   0.0420   0.2722   0.0094   0.0158  -0.0495   1.00    0.0
2024/05/08 16:04:02.000   28.328409883  -16.426871717   598.9007   2   7   0.0232   0.0421   0.2721   0.0094   0.0159  -0.0495   2.00    0.0
2024/05/08 16:04:03.000   28.328409879  -16.426871709   598.9012   2   7   0.0232   0.0421   0.2721   0.0094   0.0159  -0.0495   3.00    0.0
2024/05/08 16:04:04.000   28.328409876  -16.426871702   598.9019   2   7   0.0232   0.0421   0.2720   0.0093   0.0160  -0.0494   4.00    0.0
2024/05/08 16:04:05.000   28.328409874  -16.426871696   598.9023   2   7   0.0232   0.0421   0.2720   0.0093   0.0161  -0.0494   5.00    0.0
2024/05/08 16:04:06.000   28.328409872  -16.426871692   598.9022   2   7   0.0232   0.0421   0.2719   0.0093   0.0161  -0.0494   6.00    0.0
2024/05/08 16:04:07.000   28.328409870  -16.426871688   598.9027   2   7   0.0232   0.0421   0.2719   0.0093   0.0162  -0.0494   7.00    0.0
2024/05/08 16:04:08.000   28.328409869  -16.426871684   598.9029   2   7   0.0232   0.0421   0.2719   0.0093   0.0162  -0.0493   8.00    0.0
2024/05/08 16:04:09.000   28.328409867  -16.426871682   598.9036   2   7   0.0232   0.0421   0.2718   0.0093   0.0163  -0.0493   9.00    0.0
2024/05/08 16:04:10.000   28.328409866  -16.426871679   598.9040   2   7   0.0232   0.0421   0.2718   0.0093   0.0163  -0.0493  10.00    0.0
2024/05/08 16:04:11.000   28.328409865  -16.426871676   598.9047   2   7   0.0232   0.0422   0.2717   0.0093   0.0163  -0.0493  11.00    0.0
2024/05/08 16:04:12.000   28.328409865  -16.426871674   598.9058   2   7   0.0232   0.0422   0.2717   0.0093   0.0164  -0.0493  12.00    0.0
2024/05/08 16:04:13.000   28.328409864  -16.426871672   598.9069   2   7   0.0232   0.0422   0.2717   0.0093   0.0164  -0.0493  13.00    0.0
2024/05/08 16:04:14.000   28.328409864  -16.426871671   598.9075   2   7   0.0232   0.0422   0.2717   0.0093   0.0164  -0.0493  14.00    0.0
2024/05/08 16:04:15.000   28.328409863  -16.426871669   598.9078   2   7   0.0232   0.0422   0.2716   0.0093   0.0164  -0.0493 -15.00    0.0
2024/05/08 16:04:16.000   28.328409863  -16.426871668   598.9084   2   7   0.0232   0.0422   0.2716   0.0093   0.0165  -0.0493 -14.00    0.0
2024/05/08 16:04:17.000   28.328409862  -16.426871666   598.9092   2   7   0.0232   0.0422   0.2716   0.0093   0.0165  -0.0492 -13.00    0.0
2024/05/08 16:04:18.000   28.328409861  -16.426871663   598.9104   2   7   0.0232   0.0422   0.2715   0.0093   0.0165  -0.0492 -12.00    0.0
2024/05/08 16:04:19.000   28.328409860  -16.426871660   598.9112   2   7   0.0232   0.0422   0.2715   0.0093   0.0165  -0.0492 -11.00    0.0
2024/05/08 16:04:20.000   28.328409859  -16.426871657   598.9119   2   7   0.0232   0.0422   0.2714   0.0093   0.0166  -0.0492 -10.00    0.0
2024/05/08 16:04:21.000   28.328409859  -16.426871653   598.9128   2   7   0.0232   0.0422   0.2714   0.0093   0.0166  -0.0492  -9.00    0.0
2024/05/08 16:04:22.000   28.328409858  -16.426871647   598.9142   2   7   0.0232   0.0422   0.2714   0.0093   0.0166  -0.0492  -8.00    0.0
2024/05/08 16:04:23.000   28.328409857  -16.426871640   598.9150   2   7   0.0232   0.0422   0.2713   0.0093   0.0167  -0.0492  -7.00    0.0
2024/05/08 16:04:24.000   28.328409855  -16.426871634   598.9157   2   7   0.0232   0.0422   0.2713   0.0093   0.0168  -0.0492  -6.00    0.0
2024/05/08 16:04:25.000   28.328409852  -16.426871627   598.9167   2   7   0.0232   0.0422   0.2713   0.0093   0.0168  -0.0492  -5.00    0.0
2024/05/08 16:04:26.000   28.328409850  -16.426871619   598.9177   2   7   0.0232   0.0422   0.2712   0.0092   0.0169  -0.0491  -4.00    0.0
2024/05/08 16:04:27.000   28.328409847  -16.426871612   598.9187   2   7   0.0232   0.0422   0.2712   0.0092   0.0170  -0.0491  -3.00    0.0
2024/05/08 16:04:28.000   28.328409845  -16.426871607   598.9193   2   7   0.0233   0.0422   0.2712   0.0092   0.0171  -0.0491  -2.00    0.0
2024/05/08 16:04:29.000   28.328409840  -16.426871598   598.9217   2   7   0.0233   0.0422   0.2712   0.0092   0.0172  -0.0491  -1.00    0.0
2024/05/08 16:04:30.000   28.328409836  -16.426871587   598.9290   2   7   0.0233   0.0423   0.2712   0.0092   0.0174  -0.0491   0.00    0.0
2024/05/08 16:04:31.000   28.328409832  -16.426871580   598.9315   2   7   0.0233   0.0423   0.2711   0.0092   0.0175  -0.0490   1.00    0.0
2024/05/08 16:04:32.000   28.328409828  -16.426871573   598.9311   2   7   0.0233   0.0423   0.2711   0.0091   0.0176  -0.0490   2.00    0.0
2024/05/08 16:04:33.000   28.328409825  -16.426871564   598.9330   2   7   0.0233   0.0423   0.2710   0.0091   0.0177  -0.0490   3.00    0.0
2024/05/08 16:04:34.000   28.328409823  -16.426871556   598.9357   2   7   0.0233   0.0423   0.2709   0.0091   0.0177  -0.0489   4.00    0.0
2024/05/08 16:04:35.000   28.328409822  -16.426871551   598.9376   2   7   0.0233   0.0423   0.2709   0.0091   0.0178  -0.0489   5.00    0.0
2024/05/08 16:04:36.000   28.328409820  -16.426871546   598.9389   2   7   0.0233   0.0423   0.2709   0.0091   0.0178  -0.0489   6.00    0.0
2024/05/08 16:04:37.000   28.328409819  -16.426871542   598.9397   2   7   0.0233   0.0424   0.2708   0.0091   0.0179  -0.0489   7.00    0.0
2024/05/08 16:04:38.000   28.328409818  -16.426871540   598.9405   2   7   0.0234   0.0424   0.2708   0.0091   0.0179  -0.0489   8.00    0.0
2024/05/08 16:04:39.000   28.328409817  -16.426871537   598.9418   2   7   0.0234   0.0424   0.2707   0.0091   0.0179  -0.0489   9.00    0.0
2024/05/08 16:04:40.000   28.328409816  -16.426871532   598.9437   2   8   0.0234   0.0424   0.2707   0.0091   0.0179  -0.0488  10.00    0.0
2024/05/08 16:04:41.000   28.328409816  -16.426871528   598.9455   2   8   0.0234   0.0424   0.2707   0.0091   0.0179  -0.0488  11.00    0.0
2024/05/08 16:04:42.000   28.328409815  -16.426871524   598.9479   2   8   0.0234   0.0424   0.2706   0.0091   0.0179  -0.0488  12.00    0.0
2024/05/08 16:04:43.000   28.328409815  -16.426871520   598.9498   2   8   0.0234   0.0424   0.2706   0.0091   0.0179  -0.0488  13.00    0.0
2024/05/08 16:04:44.000   28.328409816  -16.426871546   598.9435   2   8   0.0234   0.0423   0.2705   0.0091   0.0179  -0.0488  14.00    0.0
2024/05/08 16:04:45.000   28.328409817  -16.426871590   598.9292   2   8   0.0234   0.0423   0.2705   0.0091   0.0178  -0.0488 -15.00    0.0
2024/05/08 16:04:46.000   28.328409816  -16.426871615   598.9248   2   8   0.0234   0.0423   0.2705   0.0091   0.0178  -0.0488 -14.00    0.0
2024/05/08 16:04:47.000   28.328409815  -16.426871621   598.9272   2   8   0.0234   0.0423   0.2704   0.0091   0.0177  -0.0488 -13.00    0.0
2024/05/08 16:04:48.000   28.328409813  -16.426871612   598.9339   2   8   0.0234   0.0423   0.2704   0.0091   0.0176  -0.0488 -12.00    0.0
2024/05/08 16:04:49.000   28.328409811  -16.426871618   598.9353   2   8   0.0234   0.0423   0.2703   0.0091   0.0176  -0.0488 -11.00    0.0
2024/05/08 16:04:50.000   28.328409809  -16.426871613   598.9415   2   8   0.0234   0.0423   0.2703   0.0091   0.0175  -0.0488 -10.00    0.0
2024/05/08 16:04:51.000   28.328409807  -16.426871598   598.9501   2   8   0.0234   0.0423   0.2703   0.0091   0.0175  -0.0488  -9.00    0.0
2024/05/08 16:04:52.000   28.328409803  -16.426871584   598.9602   2   8   0.0234   0.0423   0.2702   0.0091   0.0174  -0.0487  -8.00    0.0
2024/05/08 16:04:53.000   28.328409800  -16.426871571   598.9684   2   8   0.0234   0.0423   0.2702   0.0091   0.0174  -0.0487  -7.00    0.0
2024/05/08 16:04:54.000   28.328409798  -16.426871566   598.9745   2   8   0.0234   0.0423   0.2701   0.0091   0.0174  -0.0487  -6.00    0.0
2024/05/08 16:04:55.000   28.328409794  -16.426871563   598.9812   2   8   0.0234   0.0423   0.2701   0.0091   0.0173  -0.0487  -5.00    0.0
2024/05/08 16:04:56.000   28.328409791  -16.426871562   598.9886   2   8   0.0234   0.0423   0.2701   0.0090   0.0173  -0.0487  -4.00    0.0
2024/05/08 16:04:57.000   28.328409784  -16.426871565   598.9998   2   8   0.0234   0.0423   0.2701   0.0090   0.0173  -0.0487  -3.00    0.0
2024/05/08 16:04:58.000   28.328409779  -16.426871565   599.0108   2   8   0.0234   0.0423   0.2700   0.0090   0.0173  -0.0487  -2.00    0.0
2024/05/08 16:04:59.000   28.328409768  -16.426871576   599.0267   2   8   0.0234   0.0423   0.2700   0.0090   0.0173  -0.0487  -1.00    0.0
2024/05/08 16:05:00.000   28.328409758  -16.426871585   599.0446   2   8   0.0234   0.0423   0.2701   0.0090   0.0173  -0.0487   0.00    0.0
2024/05/08 16:05:01.000   28.328409748  -16.426871591   599.0573   2   8   0.0234   0.0423   0.2700   0.0090   0.0173  -0.0487   1.00    0.0
2024/05/08 16:05:02.000   28.328409737  -16.426871594   599.0699   2   8   0.0235   0.0424   0.2700   0.0090   0.0173  -0.0487   2.00    0.0
2024/05/08 16:05:03.000   28.328409728  -16.426871599   599.0822   2   8   0.0235   0.0424   0.2700   0.0090   0.0172  -0.0487   3.00    0.0
2024/05/08 16:05:04.000   28.328409721  -16.426871600   599.0929   2   8   0.0235   0.0424   0.2699   0.0090   0.0172  -0.0487   4.00    0.0
2024/05/08 16:05:05.000   28.328409715  -16.426871602   599.1019   2   8   0.0235   0.0424   0.2699   0.0090   0.0172  -0.0486   5.00    0.0
2024/05/08 16:05:06.000   28.328409709  -16.426871608   599.1090   2   8   0.0235   0.0424   0.2699   0.0090   0.0172  -0.0486   6.00    0.0
2024/05/08 16:05:07.000   28.328409705  -16.426871614   599.1133   2   8   0.0235   0.0424   0.2698   0.0090   0.0171  -0.0486   7.00    0.0
2024/05/08 16:05:08.000   28.328409701  -16.426871620   599.1179   2   8   0.0235   0.0424   0.2698   0.0090   0.0171  -0.0486   8.00    0.0
2024/05/08 16:05:09.000   28.328409697  -16.426871625   599.1216   2   8   0.0235   0.0424   0.2698   0.0090   0.0171  -0.0486   9.00    0.0
2024/05/08 16:05:10.000   28.328409694  -16.426871625   599.1257   2   8   0.0235   0.0424   0.2697   0.0090   0.0170  -0.0486  10.00    0.0
2024/05/08 16:05:11.000   28.328409691  -16.426871622   599.1302   2   8   0.0235   0.0424   0.2697   0.0090   0.0170  -0.0486  11.00    0.0
2024/05/08 16:05:12.000   28.328409689  -16.426871620   599.1345   2   8   0.0235   0.0424   0.2697   0.0090   0.0170  -0.0486  12.00    0.0
2024/05/08 16:05:13.000   28.328409687  -16.426871618   599.1382   2   8   0.0235   0.0424   0.2697   0.0090   0.0169  -0.0486  13.00    0.0
2024/05/08 16:05:14.000   28.328409685  -16.426871616   599.1421   2   8   0.0235   0.0424   0.2696   0.0090   0.0169  -0.0486  14.00    0.0
2024/05/08 16:05:15.000   28.328409684  -16.426871612   599.1456   2   8   0.0235   0.0424   0.2696   0.0090   0.0169  -0.0486 -15.00    0.0
2024/05/08 16:05:16.000   28.328409682  -16.426871609   599.1488   2   8   0.0235   0.0424   0.2696   0.0090   0.0168  -0.0486 -14.00    0.0
2024/05/08 16:05:17.000   28.328409681  -16.426871608   599.1520   2   8   0.0235   0.0424   0.2695   0.0090   0.0168  -0.0486 -13.00    0.0
2024/05/08 16:05:18.000   28.328409678  -16.426871604   599.1565   2   8   0.0235   0.0424   0.2695   0.0090   0.0168  -0.0486 -12.00    0.0
2024/05/08 16:05:19.000   28.328409675  -16.426871602   599.1611   2   8   0.0235   0.0424   0.2695   0.0090   0.0168  -0.0485 -11.00    0.0
2024/05/08 16:05:20.000   28.328409673  -16.426871601   599.1656   2   8   0.0235   0.0424   0.2694   0.0090   0.0167  -0.0485 -10.00    0.0
2024/05/08 16:05:21.000   28.328409670  -16.426871600   599.1698   2   8   0.0235   0.0424   0.2694   0.0090   0.0167  -0.0485  -9.00    0.0
2024/05/08 16:05:22.000   28.328409667  -16.426871600   599.1740   2   8   0.0235   0.0424   0.2694   0.0090   0.0167  -0.0485  -8.00    0.0
2024/05/08 16:05:23.000   28.328409663  -16.426871600   599.1795   2   8   0.0235   0.0424   0.2693   0.0090   0.0167  -0.0485  -7.00    0.0
2024/05/08 16:05:24.000   28.328409659  -16.426871599   599.1851   2   8   0.0235   0.0424   0.2693   0.0090   0.0167  -0.0485  -6.00    0.0
2024/05/08 16:05:25.000   28.328409654  -16.426871602   599.1918   2   8   0.0235   0.0424   0.2693   0.0090   0.0167  -0.0485  -5.00    0.0
2024/05/08 16:05:26.000   28.328409648  -16.426871604   599.2014   2   8   0.0235   0.0424   0.2692   0.0090   0.0168  -0.0485  -4.00    0.0
2024/05/08 16:05:27.000   28.328409641  -16.426871606   599.2122   2   8   0.0235   0.0424   0.2692   0.0090   0.0168  -0.0485  -3.00    0.0
2024/05/08 16:05:28.000   28.328409635  -16.426871610   599.2254   2   8   0.0235   0.0424   0.2692   0.0090   0.0169  -0.0485  -2.00    0.0
2024/05/08 16:05:29.000   28.328409626  -16.426871616   599.2413   2   8   0.0236   0.0424   0.2692   0.0090   0.0169  -0.0485  -1.00    0.0
2024/05/08 16:05:30.000   28.328409614  -16.426871619   599.2619   2   8   0.0236   0.0424   0.2693   0.0089   0.0171  -0.0485   0.00    0.0
2024/05/08 16:05:31.000   28.328409605  -16.426871626   599.2736   2   8   0.0236   0.0424   0.2692   0.0089   0.0171  -0.0484   1.00    0.0
2024/05/08 16:05:32.000   28.328409596  -16.426871635   599.2862   2   8   0.0236   0.0424   0.2692   0.0089   0.0172  -0.0484   2.00    0.0
2024/05/08 16:05:33.000   28.328409586  -16.426871645   599.2987   2   8   0.0236   0.0424   0.2692   0.0089   0.0172  -0.0484   3.00    0.0
2024/05/08 16:05:34.000   28.328409580  -16.426871651   599.3083   2   8   0.0236   0.0424   0.2692   0.0089   0.0173  -0.0484   4.00    0.0
2024/05/08 16:05:35.000   28.328409575  -16.426871652   599.3167   2   8   0.0236   0.0425   0.2692   0.0089   0.0173  -0.0484   5.00    0.0
2024/05/08 16:05:36.000   28.328409570  -16.426871656   599.3237   2   8   0.0236   0.0425   0.2691   0.0089   0.0173  -0.0484   6.00    0.0
2024/05/08 16:05:37.000   28.328409566  -16.426871657   599.3300   2   8   0.0236   0.0425   0.2691   0.0089   0.0174  -0.0484   7.00    0.0
2024/05/08 16:05:38.000   28.328409563  -16.426871660   599.3359   2   8   0.0236   0.0425   0.2691   0.0089   0.0174  -0.0484   8.00    0.0
2024/05/08 16:05:39.000   28.328409560  -16.426871660   599.3414   2   8   0.0236   0.0425   0.2691   0.0089   0.0174  -0.0483   9.00    0.0
2024/05/08 16:05:40.000   28.328409559  -16.426871661   599.3456   2   8   0.0236   0.0425   0.2691   0.0089   0.0174  -0.0483  10.00    0.0
2024/05/08 16:05:41.000   28.328409557  -16.426871660   599.3493   2   8   0.0236   0.0425   0.2691   0.0089   0.0174  -0.0483  11.00    0.0
2024/05/08 16:05:42.000   28.328409556  -16.426871662   599.3523   2   8   0.0236   0.0425   0.2690   0.0089   0.0174  -0.0483  12.00    0.0
2024/05/08 16:05:43.000   28.328409555  -16.426871663   599.3550   2   8   0.0236   0.0425   0.2690   0.0089   0.0174  -0.0483  13.00    0.0
2024/05/08 16:05:44.000   28.328409553  -16.426871665   599.3581   2   8   0.0236   0.0425   0.2690   0.0089   0.0174  -0.0483  14.00    0.0
2024/05/08 16:05:45.000   28.328409552  -16.426871667   599.3605   2   8   0.0236   0.0425   0.2690   0.0089   0.0174  -0.0483 -15.00    0.0
2024/05/08 16:05:46.000   28.328409551  -16.426871669   599.3625   2   8   0.0236   0.0425   0.2689   0.0089   0.0174  -0.0483 -14.00    0.0
2024/05/08 16:05:47.000   28.328409550  -16.426871671   599.3643   2   8   0.0236   0.0424   0.2689   0.0089   0.0174  -0.0483 -13.00    0.0
2024/05/08 16:05:48.000   28.328409550  -16.426871670   599.3664   2   8   0.0236   0.0424   0.2689   0.0089   0.0174  -0.0483 -12.00    1.2
2024/05/08 16:05:49.000   28.328409549  -16.426871668   599.3695   2   8   0.0236   0.0424   0.2689   0.0089   0.0174  -0.0483 -11.00    1.1
2024/05/08 16:05:50.000   28.328409548  -16.426871667   599.3717   2   8   0.0236   0.0424   0.2689   0.0089   0.0174  -0.0483 -10.00    1.1
2024/05/08 16:05:51.000   28.328409548  -16.426871665   599.3757   2   8   0.0236   0.0424   0.2688   0.0088   0.0174  -0.0483  -9.00    1.3
2024/05/08 16:05:52.000   28.328409547  -16.426871662   599.3792   2   8   0.0236   0.0424   0.2688   0.0088   0.0174  -0.0482  -8.00    1.1
2024/05/08 16:05:53.000   28.328409546  -16.426871661   599.3836   2   8   0.0236   0.0424   0.2688   0.0088   0.0175  -0.0482  -7.00    1.2
2024/05/08 16:05:54.000   28.328409544  -16.426871658   599.3893   2   8   0.0236   0.0424   0.2688   0.0088   0.0175  -0.0482  -6.00    1.0
2024/05/08 16:05:55.000   28.328409543  -16.426871654   599.3962   2   8   0.0236   0.0424   0.2688   0.0088   0.0176  -0.0482  -5.00    1.0
2024/05/08 16:05:56.000   28.328409542  -16.426871651   599.4050   2   8   0.0236   0.0424   0.2688   0.0088   0.0177  -0.0482  -4.00    1.0
2024/05/08 16:05:57.000   28.328409539  -16.426871647   599.4156   2   8   0.0236   0.0424   0.2688   0.0088   0.0178  -0.0482  -3.00    1.2
2024/05/08 16:05:58.000   28.328409535  -16.426871647   599.4265   2   8   0.0237   0.0424   0.2688   0.0088   0.0179  -0.0482  -2.00    1.1
2024/05/08 16:05:59.000   28.328409532  -16.426871643   599.4386   2   8   0.0237   0.0424   0.2688   0.0088   0.0181  -0.0482  -1.00    1.2
2024/05/08 16:06:00.000   28.328409528  -16.426871638   599.4557   2   8   0.0237   0.0425   0.2689   0.0087   0.0183  -0.0482   0.00    1.0
2024/05/08 16:06:01.000   28.328409524  -16.426871643   599.4664   2   8   0.0237   0.0425   0.2689   0.0087   0.0184  -0.0481   1.00    1.0
2024/05/08 16:06:02.000   28.328409518  -16.426871651   599.4791   2   8   0.0237   0.0425   0.2689   0.0087   0.0185  -0.0481   2.00    1.0
2024/05/08 16:06:03.000   28.328409513  -16.426871662   599.4895   2   8   0.0237   0.0425   0.2689   0.0087   0.0186  -0.0481   3.00    1.1
2024/05/08 16:06:04.000   28.328409512  -16.426871668   599.4969   2   8   0.0237   0.0425   0.2689   0.0087   0.0187  -0.0481   4.00    1.0
2024/05/08 16:06:05.000   28.328409511  -16.426871673   599.5054   2   8   0.0237   0.0425   0.2689   0.0087   0.0188  -0.0481   5.00    1.1
2024/05/08 16:06:06.000   28.328409511  -16.426871674   599.5122   2   8   0.0237   0.0425   0.2689   0.0087   0.0189  -0.0481   6.00    1.2
2024/05/08 16:06:07.000   28.328409510  -16.426871677   599.5191   2   8   0.0237   0.0425   0.2689   0.0087   0.0190  -0.0480   7.00    1.1
2024/05/08 16:06:08.000   28.328409510  -16.426871680   599.5247   2   8   0.0237   0.0425   0.2690   0.0087   0.0190  -0.0480   8.00    1.1
2024/05/08 16:06:09.000   28.328409510  -16.426871684   599.5291   2   8   0.0237   0.0425   0.2690   0.0086   0.0191  -0.0480   9.00    1.1
2024/05/08 16:06:10.000   28.328409510  -16.426871689   599.5330   2   8   0.0237   0.0425   0.2690   0.0086   0.0191  -0.0480  10.00    1.0
2024/05/08 16:06:11.000   28.328409510  -16.426871690   599.5369   2   8   0.0237   0.0425   0.2689   0.0086   0.0191  -0.0480  11.00    1.1
2024/05/08 16:06:12.000   28.328409510  -16.426871692   599.5406   2   8   0.0237   0.0425   0.2689   0.0086   0.0192  -0.0480  12.00    1.0
2024/05/08 16:06:13.000   28.328409511  -16.426871695   599.5436   2   8   0.0237   0.0425   0.2689   0.0086   0.0192  -0.0480  13.00    1.1
2024/05/08 16:06:14.000   28.328409511  -16.426871697   599.5462   2   8   0.0237   0.0425   0.2689   0.0086   0.0192  -0.0480  14.00    1.2
2024/05/08 16:06:15.000   28.328409511  -16.426871697   599.5489   2   8   0.0237   0.0425   0.2689   0.0086   0.0192  -0.0480 -15.00    1.2
2024/05/08 16:06:16.000   28.328409512  -16.426871698   599.5511   2   8   0.0237   0.0425   0.2689   0.0086   0.0192  -0.0480 -14.00    1.1
2024/05/08 16:06:17.000   28.328409512  -16.426871696   599.5536   2   8   0.0237   0.0425   0.2689   0.0086   0.0192  -0.0480 -13.00    1.2
2024/05/08 16:06:18.000   28.328409513  -16.426871696   599.5569   2   8   0.0237   0.0425   0.2689   0.0086   0.0192  -0.0480 -12.00    1.0
2024/05/08 16:06:19.000   28.328409513  -16.426871695   599.5599   2   8   0.0237   0.0425   0.2689   0.0086   0.0193  -0.0480 -11.00    1.1
2024/05/08 16:06:20.000   28.328409514  -16.426871695   599.5630   2   8   0.0237   0.0425   0.2688   0.0086   0.0193  -0.0479 -10.00    1.0
2024/05/08 16:06:21.000   28.328409515  -16.426871693   599.5667   2   8   0.0237   0.0425   0.2688   0.0086   0.0193  -0.0479  -9.00    1.0
2024/05/08 16:06:22.000   28.328409517  -16.426871689   599.5712   2   8   0.0237   0.0425   0.2688   0.0086   0.0194  -0.0479  -8.00    1.2
2024/05/08 16:06:23.000   28.328409519  -16.426871683   599.5763   2   8   0.0237   0.0425   0.2688   0.0086   0.0194  -0.0479  -7.00    1.3
2024/05/08 16:06:24.000   28.328409521  -16.426871677   599.5822   2   8   0.0237   0.0425   0.2688   0.0086   0.0195  -0.0479  -6.00    1.2
2024/05/08 16:06:25.000   28.328409524  -16.426871670   599.5873   2   8   0.0237   0.0425   0.2688   0.0086   0.0196  -0.0479  -5.00    1.2
2024/05/08 16:06:26.000   28.328409527  -16.426871659   599.5945   2   8   0.0237   0.0425   0.2689   0.0085   0.0197  -0.0479  -4.00    1.1
2024/05/08 16:06:27.000   28.328409529  -16.426871650   599.6025   2   8   0.0237   0.0425   0.2689   0.0085   0.0199  -0.0479  -3.00    1.1
2024/05/08 16:06:28.000   28.328409532  -16.426871639   599.6108   2   8   0.0237   0.0425   0.2689   0.0085   0.0201  -0.0479  -2.00    1.0
2024/05/08 16:06:29.000   28.328409535  -16.426871629   599.6213   2   8   0.0237   0.0425   0.2689   0.0085   0.0203  -0.0478  -1.00    1.1
2024/05/08 16:06:30.000   28.328409537  -16.426871618   599.6356   2   8   0.0237   0.0425   0.2691   0.0085   0.0205  -0.0478   0.00    1.1
2024/05/08 16:06:31.000   28.328409539  -16.426871608   599.6433   2   8   0.0237   0.0425   0.2691   0.0084   0.0207  -0.0478   1.00    1.0
2024/05/08 16:06:32.000   28.328409538  -16.426871602   599.6529   2   8   0.0237   0.0425   0.2691   0.0084   0.0209  -0.0478   2.00    1.3
2024/05/08 16:06:33.000   28.328409538  -16.426871596   599.6578   2   8   0.0237   0.0425   0.2691   0.0084   0.0210  -0.0478   3.00    1.3
2024/05/08 16:06:34.000   28.328409538  -16.426871590   599.6640   2   8   0.0237   0.0425   0.2692   0.0084   0.0212  -0.0478   4.00    1.0
2024/05/08 16:06:35.000   28.328409539  -16.426871580   599.6709   2   8   0.0237   0.0425   0.2692   0.0084   0.0213  -0.0478   5.00    1.0
2024/05/08 16:06:36.000   28.328409539  -16.426871575   599.6764   2   8   0.0237   0.0425   0.2692   0.0084   0.0214  -0.0477   6.00    1.1
2024/05/08 16:06:37.000   28.328409540  -16.426871570   599.6808   2   8   0.0237   0.0425   0.2692   0.0084   0.0215  -0.0477   7.00    1.2
2024/05/08 16:06:38.000   28.328409541  -16.426871564   599.6850   2   8   0.0237   0.0425   0.2693   0.0083   0.0216  -0.0477   8.00    1.1
2024/05/08 16:06:39.000   28.328409541  -16.426871559   599.6890   2   8   0.0237   0.0425   0.2693   0.0083   0.0216  -0.0477   9.00    1.2
2024/05/08 16:06:40.000   28.328409542  -16.426871555   599.6916   2   8   0.0237   0.0425   0.2693   0.0083   0.0217  -0.0477  10.00    1.1
2024/05/08 16:06:41.000   28.328409543  -16.426871551   599.6942   2   8   0.0237   0.0425   0.2693   0.0083   0.0217  -0.0477  11.00    1.2
2024/05/08 16:06:42.000   28.328409543  -16.426871548   599.6968   2   8   0.0237   0.0425   0.2693   0.0083   0.0218  -0.0477  12.00    1.0
2024/05/08 16:06:43.000   28.328409544  -16.426871545   599.6989   2   8   0.0237   0.0425   0.2693   0.0083   0.0218  -0.0477  13.00    1.0
2024/05/08 16:06:44.000   28.328409544  -16.426871542   599.7006   2   8   0.0237   0.0425   0.2693   0.0083   0.0218  -0.0477  14.00    1.1
2024/05/08 16:06:45.000   28.328409545  -16.426871540   599.7022   2   8   0.0237   0.0425   0.2693   0.0083   0.0218  -0.0476 -15.00    1.2
2024/05/08 16:06:46.000   28.328409545  -16.426871538   599.7037   2   8   0.0237   0.0425   0.2692   0.0083   0.0218  -0.0476 -14.00    1.0
2024/05/08 16:06:47.000   28.328409546  -16.426871535   599.7055   2   8   0.0237   0.0425   0.2692   0.0083   0.0219  -0.0476 -13.00    1.3
2024/05/08 16:06:48.000   28.328409547  -16.426871530   599.7074   2   8   0.0237   0.0425   0.2692   0.0083   0.0219  -0.0476 -12.00    1.1
2024/05/08 16:06:49.000   28.328409548  -16.426871524   599.7099   2   8   0.0237   0.0425   0.2692   0.0083   0.0219  -0.0476 -11.00    1.2
2024/05/08 16:06:50.000   28.328409549  -16.426871516   599.7125   2   8   0.0237   0.0425   0.2692   0.0083   0.0220  -0.0476 -10.00    1.0
2024/05/08 16:06:51.000   28.328409551  -16.426871508   599.7144   2   8   0.0237   0.0425   0.2692   0.0083   0.0220  -0.0476  -9.00    1.0
2024/05/08 16:06:52.000   28.328409553  -16.426871500   599.7167   2   8   0.0237   0.0425   0.2692   0.0083   0.0221  -0.0476  -8.00    1.1
2024/05/08 16:06:53.000   28.328409556  -16.426871489   599.7202   2   8   0.0237   0.0425   0.2692   0.0083   0.0222  -0.0476  -7.00    1.2
2024/05/08 16:06:54.000   28.328409560  -16.426871477   599.7225   2   8   0.0237   0.0425   0.2692   0.0082   0.0223  -0.0476  -6.00    1.0
2024/05/08 16:06:55.000   28.328409564  -16.426871459   599.7268   2   8   0.0237   0.0425   0.2692   0.0082   0.0224  -0.0475  -5.00    1.1
2024/05/08 16:06:56.000   28.328409568  -16.426871441   599.7305   2   8   0.0237   0.0425   0.2692   0.0082   0.0225  -0.0475  -4.00    1.0
2024/05/08 16:06:57.000   28.328409573  -16.426871420   599.7360   2   8   0.0237   0.0425   0.2693   0.0082   0.0227  -0.0475  -3.00    1.1
2024/05/08 16:06:58.000   28.328409579  -16.426871401   599.7403   2   8   0.0237   0.0425   0.2693   0.0082   0.0229  -0.0475  -2.00    1.0
2024/05/08 16:06:59.000   28.328409583  -16.426871379   599.7454   2   8   0.0237   0.0425   0.2693   0.0081   0.0231  -0.0475  -1.00    1.1
2024/05/08 16:07:00.000   28.328409586  -16.426871356   599.7554   2   8   0.0237   0.0425   0.2694   0.0081   0.0234  -0.0475   0.00    1.1
2024/05/08 16:07:01.000   28.328409589  -16.426871339   599.7618   2   8   0.0237   0.0425   0.2694   0.0081   0.0236  -0.0474   1.00    1.0
2024/05/08 16:07:02.000   28.328409592  -16.426871320   599.7657   2   8   0.0237   0.0425   0.2694   0.0081   0.0238  -0.0474   2.00    1.0
2024/05/08 16:07:03.000   28.328409595  -16.426871301   599.7678   2   8   0.0237   0.0425   0.2695   0.0081   0.0240  -0.0474   3.00    1.0
2024/05/08 16:07:04.000   28.328409597  -16.426871280   599.7712   2   8   0.0237   0.0425   0.2695   0.0080   0.0241  -0.0474   4.00    1.1
2024/05/08 16:07:05.000   28.328409599  -16.426871259   599.7750   2   8   0.0237   0.0425   0.2695   0.0080   0.0243  -0.0473   5.00    1.1
