% program   : RTKPOST-EX 2.5.0
% inp file  : C:\Users\SallyHenry\Desktop\Sally Internship\GNSS gravi\DATA\Survey Rover Obs\GUI15.24o
% inp file  : C:\Users\SallyHenry\Desktop\Sally Internship\GNSS gravi\DATA\BaseStations\TN01\TN0100ESP_R_20241290000_01D_30S_MO.rnx
% inp file  : C:\Users\SallyHenry\Desktop\Sally Internship\GNSS gravi\DATA\BaseStations\TN01\TN0100ESP_R_20241290000_01D_MN.rnx
% inp file  : C:\Users\SallyHenry\Desktop\Sally Internship\GNSS gravi\DATA\aux_files\Survey\IGS0OPSFIN_20241290000_01D_15M_ORB.SP3
% inp file  : C:\Users\SallyHenry\Desktop\Sally Internship\GNSS gravi\DATA\aux_files\Survey\IGS0OPSFIN_20241290000_01D_30S_CLK.CLK
% obs start : 2024/05/08 13:50:25.0 GPST (week2313 309025.0s)
% obs end   : 2024/05/08 14:05:26.0 GPST (week2313 309926.0s)
% pos mode  : Static
% freqs     : L1+L2/E5b
% solution  : Combined-No Phase Reset
% elev mask : 15.0 deg
% dynamics  : on
% tidecorr  : solid
% ionos opt : Estimate TEC
% tropo opt : Estimate ZTD+Grad
% ephemeris : Precise
% navi sys  : GPS GLONASS Galileo QZSS BDS
% amb res   : Fix and Hold
% amb glo   : Fix and Hold
% amb bds   : on
% val thres : 3.0
% antenna1  :                       ( 0.0000  0.0000  1.8000)
% antenna2  :                       ( 0.0000  0.0000  0.0771)
% ref pos   :  28.477186930  -16.241151700    51.7531
%
% (lat/lon/height=WGS84/ellipsoidal,Q=1:fix,2:float,3:sbas,4:dgps,5:single,6:ppp,ns=# of satellites)
%  GPST                  latitude(deg) longitude(deg)  height(m)   Q  ns   sdn(m)   sde(m)   sdu(m)  sdne(m)  sdeu(m)  sdun(m) age(s)  ratio
2024/05/08 13:50:25.000   28.334995856  -16.436307448   818.8244   2   7   0.0199   0.0731   0.1297  -0.0115   0.0410  -0.0288  -5.00    0.0
2024/05/08 13:50:26.000   28.334995848  -16.436307467   818.8231   2   7   0.0199   0.0731   0.1298  -0.0115   0.0410  -0.0288  -4.00    0.0
2024/05/08 13:50:27.000   28.334995837  -16.436307482   818.8210   2   7   0.0200   0.0730   0.1299  -0.0115   0.0411  -0.0289  -3.00    0.0
2024/05/08 13:50:28.000   28.334995824  -16.436307495   818.8186   2   7   0.0200   0.0730   0.1300  -0.0116   0.0412  -0.0289  -2.00    0.0
2024/05/08 13:50:29.000   28.334995809  -16.436307505   818.8152   2   7   0.0200   0.0729   0.1302  -0.0116   0.0412  -0.0289  -1.00    0.0
2024/05/08 13:50:30.000   28.334995793  -16.436307503   818.8134   2   7   0.0201   0.0729   0.1304  -0.0116   0.0414  -0.0290   0.00    0.0
2024/05/08 13:50:31.000   28.334995776  -16.436307505   818.8118   2   7   0.0201   0.0729   0.1307  -0.0116   0.0415  -0.0290   1.00    0.0
2024/05/08 13:50:32.000   28.334995761  -16.436307504   818.8102   2   7   0.0201   0.0729   0.1309  -0.0116   0.0416  -0.0290   2.00    0.0
2024/05/08 13:50:33.000   28.334995748  -16.436307513   818.8088   2   7   0.0202   0.0728   0.1311  -0.0116   0.0417  -0.0291   3.00    0.0
2024/05/08 13:50:34.000   28.334995737  -16.436307525   818.8066   2   7   0.0202   0.0728   0.1313  -0.0116   0.0417  -0.0291   4.00    0.0
2024/05/08 13:50:35.000   28.334995727  -16.436307532   818.8048   2   7   0.0202   0.0728   0.1314  -0.0116   0.0418  -0.0291   5.00    0.0
2024/05/08 13:50:36.000   28.334995720  -16.436307544   818.8040   2   7   0.0202   0.0727   0.1315  -0.0116   0.0418  -0.0291   6.00    0.0
2024/05/08 13:50:37.000   28.334995714  -16.436307556   818.8037   2   7   0.0202   0.0727   0.1316  -0.0116   0.0419  -0.0292   7.00    0.0
2024/05/08 13:50:38.000   28.334995711  -16.436307570   818.8032   2   7   0.0203   0.0726   0.1317  -0.0116   0.0419  -0.0292   8.00    0.0
2024/05/08 13:50:39.000   28.334995709  -16.436307581   818.8028   2   7   0.0203   0.0726   0.1317  -0.0116   0.0419  -0.0292   9.00    0.0
2024/05/08 13:50:40.000   28.334995706  -16.436307594   818.8023   2   7   0.0203   0.0725   0.1318  -0.0116   0.0419  -0.0292  10.00    0.0
2024/05/08 13:50:41.000   28.334995705  -16.436307607   818.8022   2   7   0.0203   0.0724   0.1318  -0.0116   0.0419  -0.0292  11.00    0.0
2024/05/08 13:50:42.000   28.334995703  -16.436307622   818.8018   2   7   0.0203   0.0724   0.1318  -0.0116   0.0419  -0.0292  12.00    0.0
2024/05/08 13:50:43.000   28.334995702  -16.436307638   818.8015   2   7   0.0203   0.0723   0.1319  -0.0116   0.0419  -0.0292  13.00    0.0
2024/05/08 13:50:44.000   28.334995701  -16.436307652   818.8013   2   7   0.0203   0.0723   0.1319  -0.0116   0.0419  -0.0292  14.00    0.0
2024/05/08 13:50:45.000   28.334995700  -16.436307669   818.8010   2   7   0.0203   0.0722   0.1319  -0.0116   0.0419  -0.0292 -15.00    0.0
2024/05/08 13:50:46.000   28.334995700  -16.436307688   818.8009   2   7   0.0203   0.0722   0.1319  -0.0116   0.0419  -0.0292 -14.00    0.0
2024/05/08 13:50:47.000   28.334995699  -16.436307702   818.8009   2   7   0.0203   0.0721   0.1319  -0.0116   0.0419  -0.0292 -13.00    0.0
2024/05/08 13:50:48.000   28.334995698  -16.436307716   818.8007   2   7   0.0203   0.0721   0.1320  -0.0116   0.0419  -0.0292 -12.00    0.0
2024/05/08 13:50:49.000   28.334995697  -16.436307730   818.8007   2   7   0.0203   0.0720   0.1320  -0.0116   0.0419  -0.0292 -11.00    0.0
2024/05/08 13:50:50.000   28.334995696  -16.436307747   818.8003   2   7   0.0203   0.0720   0.1320  -0.0116   0.0419  -0.0292 -10.00    0.0
2024/05/08 13:50:51.000   28.334995694  -16.436307763   818.8001   2   7   0.0203   0.0719   0.1320  -0.0116   0.0419  -0.0292  -9.00    0.0
2024/05/08 13:50:52.000   28.334995692  -16.436307779   818.7999   2   7   0.0203   0.0719   0.1321  -0.0116   0.0419  -0.0292  -8.00    0.0
2024/05/08 13:50:53.000   28.334995689  -16.436307798   818.7993   2   7   0.0203   0.0718   0.1321  -0.0116   0.0419  -0.0292  -7.00    0.0
2024/05/08 13:50:54.000   28.334995687  -16.436307817   818.7986   2   7   0.0203   0.0718   0.1322  -0.0116   0.0419  -0.0292  -6.00    0.0
2024/05/08 13:50:55.000   28.334995682  -16.436307829   818.7984   2   7   0.0203   0.0717   0.1323  -0.0116   0.0419  -0.0292  -5.00    0.0
2024/05/08 13:50:56.000   28.334995677  -16.436307843   818.7977   2   7   0.0204   0.0717   0.1324  -0.0116   0.0420  -0.0292  -4.00    0.0
2024/05/08 13:50:57.000   28.334995670  -16.436307855   818.7966   2   7   0.0204   0.0717   0.1325  -0.0116   0.0420  -0.0293  -3.00    0.0
2024/05/08 13:50:58.000   28.334995660  -16.436307867   818.7952   2   7   0.0204   0.0717   0.1327  -0.0116   0.0421  -0.0293  -2.00    0.0
2024/05/08 13:50:59.000   28.334995649  -16.436307874   818.7939   2   7   0.0204   0.0717   0.1329  -0.0116   0.0422  -0.0293  -1.00    0.0
2024/05/08 13:51:00.000   28.334995636  -16.436307877   818.7917   2   7   0.0205   0.0717   0.1332  -0.0116   0.0422  -0.0294   0.00    0.0
2024/05/08 13:51:01.000   28.334995622  -16.436307879   818.7900   2   7   0.0205   0.0717   0.1334  -0.0116   0.0424  -0.0294   1.00    0.0
2024/05/08 13:51:02.000   28.334995608  -16.436307886   818.7896   2   7   0.0206   0.0717   0.1336  -0.0116   0.0425  -0.0295   2.00    0.0
2024/05/08 13:51:03.000   28.334995597  -16.436307900   818.7879   2   7   0.0206   0.0716   0.1339  -0.0116   0.0426  -0.0295   3.00    0.0
2024/05/08 13:51:04.000   28.334995587  -16.436307914   818.7866   2   7   0.0206   0.0716   0.1340  -0.0116   0.0426  -0.0295   4.00    0.0
2024/05/08 13:51:05.000   28.334995578  -16.436307929   818.7858   2   7   0.0206   0.0716   0.1342  -0.0116   0.0427  -0.0295   5.00    0.0
2024/05/08 13:51:06.000   28.334995572  -16.436307946   818.7859   2   7   0.0206   0.0716   0.1343  -0.0116   0.0428  -0.0296   6.00    0.0
2024/05/08 13:51:07.000   28.334995568  -16.436307962   818.7861   2   7   0.0207   0.0716   0.1344  -0.0116   0.0428  -0.0296   7.00    0.0
2024/05/08 13:51:08.000   28.334995563  -16.436307984   818.7858   2   7   0.0207   0.0715   0.1345  -0.0116   0.0428  -0.0296   8.00    0.0
2024/05/08 13:51:09.000   28.334995560  -16.436308008   818.7853   2   7   0.0207   0.0715   0.1346  -0.0116   0.0428  -0.0296   9.00    0.0
2024/05/08 13:51:10.000   28.334995556  -16.436308026   818.7849   2   7   0.0207   0.0715   0.1346  -0.0116   0.0428  -0.0296  10.00    0.0
2024/05/08 13:51:11.000   28.334995554  -16.436308045   818.7843   2   7   0.0207   0.0714   0.1347  -0.0116   0.0429  -0.0296  11.00    0.0
2024/05/08 13:51:12.000   28.334995552  -16.436308063   818.7843   2   7   0.0207   0.0714   0.1347  -0.0116   0.0429  -0.0296  12.00    0.0
2024/05/08 13:51:13.000   28.334995551  -16.436308081   818.7842   2   7   0.0207   0.0714   0.1347  -0.0116   0.0429  -0.0296  13.00    0.0
2024/05/08 13:51:14.000   28.334995550  -16.436308100   818.7841   2   7   0.0207   0.0713   0.1348  -0.0116   0.0429  -0.0296  14.00    0.0
2024/05/08 13:51:15.000   28.334995548  -16.436308116   818.7844   2   7   0.0207   0.0713   0.1348  -0.0116   0.0429  -0.0296 -15.00    0.0
2024/05/08 13:51:16.000   28.334995547  -16.436308135   818.7847   2   7   0.0207   0.0713   0.1348  -0.0116   0.0429  -0.0296 -14.00    0.0
2024/05/08 13:51:17.000   28.334995546  -16.436308155   818.7848   2   7   0.0207   0.0712   0.1348  -0.0116   0.0428  -0.0296 -13.00    0.0
2024/05/08 13:51:18.000   28.334995545  -16.436308176   818.7850   2   7   0.0207   0.0712   0.1348  -0.0116   0.0428  -0.0296 -12.00    0.0
2024/05/08 13:51:19.000   28.334995544  -16.436308195   818.7852   2   7   0.0207   0.0712   0.1349  -0.0116   0.0428  -0.0296 -11.00    0.0
2024/05/08 13:51:20.000   28.334995542  -16.436308213   818.7857   2   7   0.0207   0.0711   0.1349  -0.0116   0.0429  -0.0296 -10.00    0.0
2024/05/08 13:51:21.000   28.334995540  -16.436308233   818.7857   2   7   0.0207   0.0711   0.1349  -0.0116   0.0429  -0.0296  -9.00    0.0
2024/05/08 13:51:22.000   28.334995538  -16.436308251   818.7857   2   7   0.0207   0.0711   0.1350  -0.0116   0.0429  -0.0296  -8.00    0.0
2024/05/08 13:51:23.000   28.334995535  -16.436308270   818.7859   2   7   0.0207   0.0710   0.1351  -0.0116   0.0429  -0.0296  -7.00    0.0
2024/05/08 13:51:24.000   28.334995530  -16.436308286   818.7860   2   7   0.0208   0.0710   0.1351  -0.0116   0.0429  -0.0296  -6.00    0.0
2024/05/08 13:51:25.000   28.334995525  -16.436308304   818.7859   2   7   0.0208   0.0710   0.1352  -0.0116   0.0429  -0.0296  -5.00    0.0
2024/05/08 13:51:26.000   28.334995520  -16.436308322   818.7857   2   7   0.0208   0.0710   0.1353  -0.0116   0.0430  -0.0297  -4.00    0.0
2024/05/08 13:51:27.000   28.334995513  -16.436308340   818.7849   2   7   0.0208   0.0710   0.1355  -0.0116   0.0430  -0.0297  -3.00    0.0
2024/05/08 13:51:28.000   28.334995506  -16.436308352   818.7849   2   7   0.0208   0.0709   0.1356  -0.0116   0.0431  -0.0297  -2.00    0.0
2024/05/08 13:51:29.000   28.334995494  -16.436308362   818.7853   2   7   0.0209   0.0709   0.1359  -0.0116   0.0432  -0.0297  -1.00    0.0
2024/05/08 13:51:30.000   28.334995482  -16.436308359   818.7870   2   7   0.0209   0.0709   0.1361  -0.0116   0.0433  -0.0298   0.00    0.0
2024/05/08 13:51:31.000   28.334995469  -16.436308367   818.7876   2   7   0.0209   0.0710   0.1363  -0.0116   0.0434  -0.0298   1.00    0.0
2024/05/08 13:51:32.000   28.334995456  -16.436308370   818.7875   2   7   0.0210   0.0710   0.1366  -0.0116   0.0435  -0.0299   2.00    0.0
2024/05/08 13:51:33.000   28.334995446  -16.436308382   818.7867   2   7   0.0210   0.0710   0.1368  -0.0116   0.0436  -0.0299   3.00    0.0
2024/05/08 13:51:34.000   28.334995440  -16.436308386   818.7864   2   7   0.0210   0.0710   0.1370  -0.0116   0.0437  -0.0299   4.00    0.0
2024/05/08 13:51:35.000   28.334995435  -16.436308394   818.7854   2   7   0.0210   0.0709   0.1371  -0.0116   0.0437  -0.0300   5.00    0.0
2024/05/08 13:51:36.000   28.334995431  -16.436308407   818.7837   2   7   0.0211   0.0709   0.1373  -0.0116   0.0438  -0.0300   6.00    0.0
2024/05/08 13:51:37.000   28.334995428  -16.436308416   818.7826   2   7   0.0211   0.0709   0.1374  -0.0116   0.0438  -0.0300   7.00    0.0
2024/05/08 13:51:38.000   28.334995426  -16.436308425   818.7816   2   7   0.0211   0.0709   0.1374  -0.0116   0.0439  -0.0300   8.00    0.0
2024/05/08 13:51:39.000   28.334995425  -16.436308434   818.7810   2   7   0.0211   0.0709   0.1375  -0.0116   0.0439  -0.0300   9.00    0.0
2024/05/08 13:51:40.000   28.334995424  -16.436308445   818.7805   2   7   0.0211   0.0709   0.1376  -0.0116   0.0439  -0.0300  10.00    0.0
2024/05/08 13:51:41.000   28.334995424  -16.436308450   818.7802   2   7   0.0211   0.0708   0.1376  -0.0116   0.0439  -0.0300  11.00    0.0
2024/05/08 13:51:42.000   28.334995424  -16.436308453   818.7802   2   7   0.0211   0.0708   0.1376  -0.0116   0.0439  -0.0300  12.00    0.0
2024/05/08 13:51:43.000   28.334995424  -16.436308457   818.7800   2   7   0.0211   0.0708   0.1377  -0.0116   0.0439  -0.0300  13.00    0.0
2024/05/08 13:51:44.000   28.334995425  -16.436308464   818.7801   2   7   0.0211   0.0708   0.1377  -0.0116   0.0439  -0.0300  14.00    0.0
2024/05/08 13:51:45.000   28.334995425  -16.436308464   818.7804   2   7   0.0211   0.0707   0.1377  -0.0116   0.0439  -0.0300 -15.00    0.0
2024/05/08 13:51:46.000   28.334995426  -16.436308465   818.7805   2   7   0.0211   0.0707   0.1378  -0.0116   0.0439  -0.0300 -14.00    0.0
2024/05/08 13:51:47.000   28.334995427  -16.436308468   818.7805   2   7   0.0211   0.0707   0.1378  -0.0116   0.0439  -0.0300 -13.00    0.0
2024/05/08 13:51:48.000   28.334995427  -16.436308466   818.7806   2   7   0.0211   0.0707   0.1378  -0.0116   0.0439  -0.0300 -12.00    0.0
2024/05/08 13:51:49.000   28.334995428  -16.436308466   818.7804   2   7   0.0211   0.0706   0.1378  -0.0116   0.0440  -0.0300 -11.00    0.0
2024/05/08 13:51:50.000   28.334995428  -16.436308468   818.7804   2   7   0.0211   0.0706   0.1379  -0.0116   0.0440  -0.0300 -10.00    0.0
2024/05/08 13:51:51.000   28.334995429  -16.436308463   818.7804   2   7   0.0211   0.0706   0.1379  -0.0116   0.0440  -0.0300  -9.00    0.0
2024/05/08 13:51:52.000   28.334995430  -16.436308453   818.7807   2   7   0.0212   0.0706   0.1380  -0.0116   0.0440  -0.0300  -8.00    0.0
2024/05/08 13:51:53.000   28.334995430  -16.436308445   818.7806   2   7   0.0212   0.0705   0.1380  -0.0116   0.0440  -0.0300  -7.00    0.0
2024/05/08 13:51:54.000   28.334995430  -16.436308434   818.7812   2   7   0.0212   0.0705   0.1381  -0.0116   0.0440  -0.0301  -6.00    0.0
2024/05/08 13:51:55.000   28.334995430  -16.436308423   818.7813   2   7   0.0212   0.0705   0.1382  -0.0116   0.0441  -0.0301  -5.00    0.0
2024/05/08 13:51:56.000   28.334995428  -16.436308411   818.7821   2   7   0.0212   0.0705   0.1383  -0.0116   0.0441  -0.0301  -4.00    0.0
2024/05/08 13:51:57.000   28.334995425  -16.436308395   818.7839   2   7   0.0212   0.0705   0.1384  -0.0116   0.0442  -0.0301  -3.00    0.0
2024/05/08 13:51:58.000   28.334995421  -16.436308382   818.7853   2   7   0.0212   0.0705   0.1386  -0.0115   0.0442  -0.0301  -2.00    0.0
2024/05/08 13:51:59.000   28.334995415  -16.436308361   818.7892   2   7   0.0213   0.0705   0.1388  -0.0115   0.0443  -0.0302  -1.00    0.0
2024/05/08 13:52:00.000   28.334995407  -16.436308334   818.7931   2   7   0.0213   0.0705   0.1390  -0.0115   0.0444  -0.0302   0.00    0.0
2024/05/08 13:52:01.000   28.334995397  -16.436308312   818.7955   2   7   0.0213   0.0705   0.1393  -0.0115   0.0445  -0.0302   1.00    0.0
2024/05/08 13:52:02.000   28.334995387  -16.436308288   818.7996   2   7   0.0214   0.0705   0.1395  -0.0116   0.0446  -0.0303   2.00    0.0
2024/05/08 13:52:03.000   28.334995378  -16.436308269   818.8033   2   7   0.0214   0.0705   0.1397  -0.0116   0.0448  -0.0303   3.00    0.0
2024/05/08 13:52:04.000   28.334995371  -16.436308249   818.8071   2   7   0.0214   0.0705   0.1399  -0.0116   0.0448  -0.0304   4.00    0.0
2024/05/08 13:52:05.000   28.334995366  -16.436308235   818.8105   2   7   0.0215   0.0705   0.1401  -0.0116   0.0449  -0.0304   5.00    0.0
2024/05/08 13:52:06.000   28.334995363  -16.436308217   818.8146   2   7   0.0215   0.0705   0.1402  -0.0116   0.0450  -0.0304   6.00    0.0
2024/05/08 13:52:07.000   28.334995360  -16.436308206   818.8178   2   7   0.0215   0.0705   0.1403  -0.0115   0.0450  -0.0304   7.00    0.0
2024/05/08 13:52:08.000   28.334995358  -16.436308197   818.8206   2   7   0.0215   0.0705   0.1404  -0.0115   0.0450  -0.0304   8.00    0.0
2024/05/08 13:52:09.000   28.334995356  -16.436308189   818.8223   2   7   0.0215   0.0704   0.1404  -0.0115   0.0451  -0.0304   9.00    0.0
2024/05/08 13:52:10.000   28.334995355  -16.436308181   818.8238   2   7   0.0215   0.0704   0.1405  -0.0115   0.0451  -0.0304  10.00    0.0
2024/05/08 13:52:11.000   28.334995354  -16.436308175   818.8253   2   7   0.0215   0.0704   0.1405  -0.0115   0.0451  -0.0304  11.00    0.0
2024/05/08 13:52:12.000   28.334995354  -16.436308167   818.8265   2   7   0.0215   0.0704   0.1406  -0.0115   0.0451  -0.0304  12.00    0.0
2024/05/08 13:52:13.000   28.334995353  -16.436308161   818.8278   2   7   0.0215   0.0704   0.1406  -0.0115   0.0451  -0.0304  13.00    0.0
2024/05/08 13:52:14.000   28.334995353  -16.436308154   818.8292   2   7   0.0215   0.0704   0.1406  -0.0115   0.0451  -0.0304  14.00    0.0
2024/05/08 13:52:15.000   28.334995352  -16.436308146   818.8305   2   7   0.0215   0.0703   0.1407  -0.0115   0.0451  -0.0304 -15.00    0.0
2024/05/08 13:52:16.000   28.334995352  -16.436308138   818.8318   2   7   0.0215   0.0703   0.1407  -0.0115   0.0451  -0.0304 -14.00    0.0
2024/05/08 13:52:17.000   28.334995352  -16.436308131   818.8332   2   7   0.0215   0.0703   0.1407  -0.0115   0.0452  -0.0304 -13.00    0.0
2024/05/08 13:52:18.000   28.334995351  -16.436308123   818.8348   2   7   0.0215   0.0703   0.1407  -0.0115   0.0452  -0.0304 -12.00    0.0
2024/05/08 13:52:19.000   28.334995351  -16.436308113   818.8368   2   7   0.0215   0.0703   0.1408  -0.0115   0.0452  -0.0305 -11.00    0.0
2024/05/08 13:52:20.000   28.334995351  -16.436308103   818.8390   2   7   0.0215   0.0702   0.1408  -0.0115   0.0452  -0.0305 -10.00    0.0
2024/05/08 13:52:21.000   28.334995351  -16.436308100   818.8414   2   7   0.0215   0.0702   0.1408  -0.0115   0.0452  -0.0305  -9.00    0.0
2024/05/08 13:52:22.000   28.334995350  -16.436308091   818.8441   2   7   0.0216   0.0702   0.1409  -0.0115   0.0452  -0.0305  -8.00    0.0
2024/05/08 13:52:23.000   28.334995350  -16.436308080   818.8474   2   7   0.0216   0.0702   0.1409  -0.0115   0.0452  -0.0305  -7.00    0.0
2024/05/08 13:52:24.000   28.334995349  -16.436308070   818.8513   2   7   0.0216   0.0702   0.1410  -0.0115   0.0453  -0.0305  -6.00    0.0
2024/05/08 13:52:25.000   28.334995348  -16.436308064   818.8552   2   7   0.0216   0.0702   0.1411  -0.0115   0.0453  -0.0305  -5.00    0.0
2024/05/08 13:52:26.000   28.334995346  -16.436308057   818.8595   2   7   0.0216   0.0701   0.1412  -0.0115   0.0453  -0.0305  -4.00    0.0
2024/05/08 13:52:27.000   28.334995343  -16.436308045   818.8646   2   7   0.0216   0.0701   0.1413  -0.0115   0.0454  -0.0305  -3.00    0.0
2024/05/08 13:52:28.000   28.334995339  -16.436308030   818.8708   2   7   0.0216   0.0701   0.1415  -0.0115   0.0455  -0.0306  -2.00    0.0
2024/05/08 13:52:29.000   28.334995334  -16.436308013   818.8786   2   7   0.0217   0.0701   0.1417  -0.0115   0.0455  -0.0306  -1.00    0.0
2024/05/08 13:52:30.000   28.334995332  -16.436307987   818.8858   2   7   0.0217   0.0701   0.1419  -0.0115   0.0456  -0.0306   0.00    0.0
2024/05/08 13:52:31.000   28.334995329  -16.436307964   818.8933   2   7   0.0217   0.0701   0.1422  -0.0115   0.0458  -0.0307   1.00    0.0
2024/05/08 13:52:32.000   28.334995326  -16.436307944   818.9011   2   7   0.0218   0.0702   0.1424  -0.0115   0.0459  -0.0307   2.00    0.0
2024/05/08 13:52:33.000   28.334995324  -16.436307924   818.9082   2   7   0.0218   0.0702   0.1426  -0.0115   0.0460  -0.0307   3.00    0.0
2024/05/08 13:52:34.000   28.334995322  -16.436307908   818.9127   2   7   0.0218   0.0702   0.1428  -0.0115   0.0461  -0.0308   4.00    0.0
2024/05/08 13:52:35.000   28.334995321  -16.436307894   818.9174   2   7   0.0218   0.0702   0.1429  -0.0115   0.0461  -0.0308   5.00    0.0
2024/05/08 13:52:36.000   28.334995320  -16.436307883   818.9206   2   7   0.0219   0.0702   0.1430  -0.0115   0.0462  -0.0308   6.00    0.0
2024/05/08 13:52:37.000   28.334995320  -16.436307876   818.9225   2   7   0.0219   0.0702   0.1431  -0.0115   0.0462  -0.0308   7.00    0.0
2024/05/08 13:52:38.000   28.334995320  -16.436307870   818.9247   2   7   0.0219   0.0701   0.1432  -0.0115   0.0463  -0.0308   8.00    0.0
2024/05/08 13:52:39.000   28.334995320  -16.436307864   818.9264   2   7   0.0219   0.0701   0.1433  -0.0115   0.0463  -0.0308   9.00    0.0
2024/05/08 13:52:40.000   28.334995321  -16.436307858   818.9281   2   7   0.0219   0.0701   0.1433  -0.0115   0.0463  -0.0309  10.00    0.0
2024/05/08 13:52:41.000   28.334995321  -16.436307852   818.9289   2   7   0.0219   0.0701   0.1434  -0.0115   0.0463  -0.0309  11.00    0.0
2024/05/08 13:52:42.000   28.334995321  -16.436307849   818.9296   2   7   0.0219   0.0701   0.1434  -0.0115   0.0464  -0.0309  12.00    0.0
2024/05/08 13:52:43.000   28.334995322  -16.436307844   818.9303   2   7   0.0219   0.0701   0.1434  -0.0115   0.0464  -0.0309  13.00    0.0
2024/05/08 13:52:44.000   28.334995323  -16.436307840   818.9310   2   7   0.0219   0.0701   0.1435  -0.0114   0.0464  -0.0309  14.00    0.0
2024/05/08 13:52:45.000   28.334995324  -16.436307834   818.9314   2   7   0.0219   0.0700   0.1435  -0.0114   0.0464  -0.0309 -15.00    0.0
2024/05/08 13:52:46.000   28.334995325  -16.436307832   818.9317   2   7   0.0219   0.0700   0.1435  -0.0114   0.0464  -0.0309 -14.00    0.0
2024/05/08 13:52:47.000   28.334995326  -16.436307830   818.9323   2   7   0.0219   0.0700   0.1435  -0.0114   0.0464  -0.0309 -13.00    0.0
2024/05/08 13:52:48.000   28.334995327  -16.436307825   818.9333   2   7   0.0219   0.0700   0.1436  -0.0114   0.0464  -0.0309 -12.00    0.0
2024/05/08 13:52:49.000   28.334995329  -16.436307820   818.9343   2   7   0.0219   0.0700   0.1436  -0.0114   0.0464  -0.0309 -11.00    0.0
2024/05/08 13:52:50.000   28.334995331  -16.436307816   818.9355   2   7   0.0219   0.0700   0.1436  -0.0114   0.0464  -0.0309 -10.00    0.0
2024/05/08 13:52:51.000   28.334995333  -16.436307811   818.9370   2   7   0.0219   0.0700   0.1437  -0.0114   0.0464  -0.0309  -9.00    0.0
2024/05/08 13:52:52.000   28.334995335  -16.436307805   818.9386   2   7   0.0219   0.0699   0.1437  -0.0114   0.0465  -0.0309  -8.00    0.0
2024/05/08 13:52:53.000   28.334995338  -16.436307798   818.9404   2   7   0.0219   0.0699   0.1438  -0.0114   0.0465  -0.0309  -7.00    0.0
2024/05/08 13:52:54.000   28.334995341  -16.436307788   818.9428   2   7   0.0219   0.0699   0.1438  -0.0114   0.0465  -0.0309  -6.00    0.0
2024/05/08 13:52:55.000   28.334995345  -16.436307778   818.9456   2   7   0.0220   0.0699   0.1439  -0.0114   0.0466  -0.0309  -5.00    0.0
2024/05/08 13:52:56.000   28.334995349  -16.436307762   818.9493   2   7   0.0220   0.0699   0.1440  -0.0114   0.0466  -0.0309  -4.00    0.0
2024/05/08 13:52:57.000   28.334995355  -16.436307746   818.9525   2   7   0.0220   0.0699   0.1441  -0.0114   0.0466  -0.0310  -3.00    0.0
2024/05/08 13:52:58.000   28.334995361  -16.436307727   818.9556   2   7   0.0220   0.0699   0.1443  -0.0114   0.0467  -0.0310  -2.00    0.0
2024/05/08 13:52:59.000   28.334995369  -16.436307702   818.9610   2   7   0.0220   0.0699   0.1445  -0.0114   0.0468  -0.0310  -1.00    0.0
2024/05/08 13:53:00.000   28.334995377  -16.436307669   818.9678   2   7   0.0221   0.0699   0.1447  -0.0114   0.0469  -0.0311   0.00    0.0
2024/05/08 13:53:01.000   28.334995386  -16.436307638   818.9745   2   7   0.0221   0.0699   0.1449  -0.0114   0.0470  -0.0311   1.00    0.0
2024/05/08 13:53:02.000   28.334995395  -16.436307614   818.9803   2   7   0.0221   0.0699   0.1451  -0.0114   0.0471  -0.0311   2.00    0.0
2024/05/08 13:53:03.000   28.334995402  -16.436307589   818.9860   2   7   0.0222   0.0699   0.1453  -0.0114   0.0472  -0.0312   3.00    0.0
2024/05/08 13:53:04.000   28.334995408  -16.436307572   818.9902   2   7   0.0222   0.0699   0.1455  -0.0114   0.0473  -0.0312   4.00    0.0
2024/05/08 13:53:05.000   28.334995414  -16.436307559   818.9931   2   7   0.0222   0.0699   0.1456  -0.0114   0.0474  -0.0312   5.00    0.0
2024/05/08 13:53:06.000   28.334995419  -16.436307547   818.9964   2   7   0.0222   0.0699   0.1457  -0.0114   0.0474  -0.0313   6.00    0.0
2024/05/08 13:53:07.000   28.334995424  -16.436307535   818.9999   2   7   0.0222   0.0699   0.1458  -0.0114   0.0475  -0.0313   7.00    0.0
2024/05/08 13:53:08.000   28.334995428  -16.436307523   819.0036   2   7   0.0222   0.0699   0.1459  -0.0114   0.0475  -0.0313   8.00    0.0
2024/05/08 13:53:09.000   28.334995431  -16.436307515   819.0061   2   7   0.0222   0.0699   0.1459  -0.0114   0.0475  -0.0313   9.00    0.0
2024/05/08 13:53:10.000   28.334995434  -16.436307510   819.0082   2   7   0.0222   0.0699   0.1460  -0.0114   0.0475  -0.0313  10.00    0.0
2024/05/08 13:53:11.000   28.334995437  -16.436307506   819.0100   2   7   0.0223   0.0699   0.1460  -0.0114   0.0476  -0.0313  11.00    0.0
2024/05/08 13:53:12.000   28.334995439  -16.436307503   819.0116   2   7   0.0223   0.0699   0.1460  -0.0114   0.0476  -0.0313  12.00    0.0
2024/05/08 13:53:13.000   28.334995441  -16.436307497   819.0131   2   7   0.0223   0.0698   0.1461  -0.0114   0.0476  -0.0313  13.00    0.0
2024/05/08 13:53:14.000   28.334995443  -16.436307492   819.0146   2   7   0.0223   0.0698   0.1461  -0.0114   0.0476  -0.0313  14.00    0.0
2024/05/08 13:53:15.000   28.334995445  -16.436307487   819.0160   2   7   0.0223   0.0698   0.1461  -0.0114   0.0476  -0.0313 -15.00    0.0
2024/05/08 13:53:16.000   28.334995447  -16.436307485   819.0173   2   7   0.0223   0.0698   0.1461  -0.0113   0.0476  -0.0313 -14.00    0.0
2024/05/08 13:53:17.000   28.334995449  -16.436307482   819.0186   2   7   0.0223   0.0698   0.1462  -0.0113   0.0476  -0.0313 -13.00    0.0
2024/05/08 13:53:18.000   28.334995451  -16.436307478   819.0201   2   7   0.0223   0.0698   0.1462  -0.0113   0.0476  -0.0313 -12.00    0.0
2024/05/08 13:53:19.000   28.334995454  -16.436307473   819.0218   2   7   0.0223   0.0698   0.1462  -0.0113   0.0476  -0.0313 -11.00    0.0
2024/05/08 13:53:20.000   28.334995457  -16.436307466   819.0241   2   7   0.0223   0.0698   0.1462  -0.0113   0.0476  -0.0313 -10.00    0.0
2024/05/08 13:53:21.000   28.334995460  -16.436307459   819.0268   2   7   0.0223   0.0697   0.1463  -0.0113   0.0477  -0.0313  -9.00    0.0
2024/05/08 13:53:22.000   28.334995464  -16.436307454   819.0290   2   7   0.0223   0.0697   0.1463  -0.0113   0.0477  -0.0313  -8.00    0.0
2024/05/08 13:53:23.000   28.334995468  -16.436307442   819.0319   2   7   0.0223   0.0697   0.1464  -0.0113   0.0477  -0.0313  -7.00    0.0
2024/05/08 13:53:24.000   28.334995473  -16.436307431   819.0348   2   7   0.0223   0.0697   0.1464  -0.0113   0.0477  -0.0314  -6.00    0.0
2024/05/08 13:53:25.000   28.334995480  -16.436307417   819.0385   2   7   0.0223   0.0697   0.1465  -0.0113   0.0478  -0.0314  -5.00    0.0
2024/05/08 13:53:26.000   28.334995487  -16.436307395   819.0435   2   7   0.0223   0.0697   0.1466  -0.0113   0.0478  -0.0314  -4.00    0.0
2024/05/08 13:53:27.000   28.334995494  -16.436307367   819.0505   2   7   0.0223   0.0697   0.1467  -0.0113   0.0478  -0.0314  -3.00    0.0
2024/05/08 13:53:28.000   28.334995503  -16.436307334   819.0578   2   7   0.0224   0.0697   0.1468  -0.0113   0.0479  -0.0314  -2.00    0.0
2024/05/08 13:53:29.000   28.334995515  -16.436307295   819.0665   2   7   0.0224   0.0697   0.1470  -0.0113   0.0480  -0.0315  -1.00    0.0
2024/05/08 13:53:30.000   28.334995527  -16.436307243   819.0761   2   7   0.0224   0.0697   0.1472  -0.0113   0.0481  -0.0315   0.00    0.0
2024/05/08 13:53:31.000   28.334995539  -16.436307192   819.0880   2   7   0.0224   0.0697   0.1474  -0.0113   0.0481  -0.0315   1.00    0.0
2024/05/08 13:53:32.000   28.334995552  -16.436307141   819.1000   2   7   0.0225   0.0697   0.1475  -0.0113   0.0482  -0.0316   2.00    0.0
2024/05/08 13:53:33.000   28.334995563  -16.436307100   819.1107   2   7   0.0225   0.0697   0.1477  -0.0113   0.0483  -0.0316   3.00    0.0
2024/05/08 13:53:34.000   28.334995574  -16.436307071   819.1193   2   7   0.0225   0.0697   0.1479  -0.0113   0.0484  -0.0317   4.00    0.0
2024/05/08 13:53:35.000   28.334995584  -16.436307042   819.1268   2   7   0.0225   0.0697   0.1480  -0.0113   0.0485  -0.0317   5.00    0.0
2024/05/08 13:53:36.000   28.334995592  -16.436307018   819.1328   2   7   0.0226   0.0697   0.1481  -0.0113   0.0485  -0.0317   6.00    0.0
2024/05/08 13:53:37.000   28.334995600  -16.436307000   819.1379   2   7   0.0226   0.0697   0.1482  -0.0113   0.0486  -0.0317   7.00    0.0
2024/05/08 13:53:38.000   28.334995606  -16.436306986   819.1417   2   7   0.0226   0.0697   0.1482  -0.0113   0.0486  -0.0317   8.00    0.0
2024/05/08 13:53:39.000   28.334995612  -16.436306969   819.1453   2   7   0.0226   0.0697   0.1483  -0.0113   0.0486  -0.0317   9.00    0.0
2024/05/08 13:53:40.000   28.334995616  -16.436306957   819.1486   2   7   0.0226   0.0697   0.1483  -0.0113   0.0486  -0.0317  10.00    0.0
2024/05/08 13:53:41.000   28.334995620  -16.436306947   819.1512   2   7   0.0226   0.0697   0.1484  -0.0113   0.0486  -0.0317  11.00    0.0
2024/05/08 13:53:42.000   28.334995623  -16.436306939   819.1535   2   7   0.0226   0.0697   0.1484  -0.0113   0.0487  -0.0317  12.00    0.0
2024/05/08 13:53:43.000   28.334995626  -16.436306930   819.1557   2   7   0.0226   0.0697   0.1484  -0.0113   0.0487  -0.0317  13.00    0.0
2024/05/08 13:53:44.000   28.334995628  -16.436306924   819.1576   2   7   0.0226   0.0697   0.1484  -0.0113   0.0487  -0.0317  14.00    0.0
2024/05/08 13:53:45.000   28.334995630  -16.436306918   819.1590   2   7   0.0226   0.0696   0.1484  -0.0113   0.0487  -0.0318 -15.00    0.0
2024/05/08 13:53:46.000   28.334995632  -16.436306914   819.1601   2   7   0.0226   0.0696   0.1485  -0.0113   0.0487  -0.0318 -14.00    0.0
2024/05/08 13:53:47.000   28.334995634  -16.436306910   819.1614   2   7   0.0226   0.0696   0.1485  -0.0113   0.0487  -0.0318 -13.00    0.0
2024/05/08 13:53:48.000   28.334995637  -16.436306902   819.1631   2   7   0.0226   0.0696   0.1485  -0.0113   0.0487  -0.0318 -12.00    0.0
2024/05/08 13:53:49.000   28.334995640  -16.436306891   819.1656   2   7   0.0226   0.0696   0.1485  -0.0113   0.0487  -0.0318 -11.00    0.0
2024/05/08 13:53:50.000   28.334995643  -16.436306882   819.1679   2   7   0.0226   0.0696   0.1485  -0.0113   0.0487  -0.0318 -10.00    0.0
2024/05/08 13:53:51.000   28.334995646  -16.436306869   819.1711   2   7   0.0226   0.0696   0.1486  -0.0113   0.0487  -0.0318  -9.00    0.0
2024/05/08 13:53:52.000   28.334995651  -16.436306856   819.1750   2   7   0.0226   0.0696   0.1486  -0.0112   0.0488  -0.0318  -8.00    0.0
2024/05/08 13:53:53.000   28.334995656  -16.436306838   819.1792   2   7   0.0226   0.0696   0.1486  -0.0112   0.0488  -0.0318  -7.00    0.0
2024/05/08 13:53:54.000   28.334995662  -16.436306820   819.1840   2   7   0.0226   0.0695   0.1487  -0.0112   0.0488  -0.0318  -6.00    0.0
2024/05/08 13:53:55.000   28.334995668  -16.436306798   819.1893   2   7   0.0226   0.0695   0.1487  -0.0112   0.0488  -0.0318  -5.00    0.0
2024/05/08 13:53:56.000   28.334995676  -16.436306765   819.1965   2   7   0.0227   0.0695   0.1488  -0.0112   0.0489  -0.0318  -4.00    0.0
2024/05/08 13:53:57.000   28.334995685  -16.436306731   819.2048   2   7   0.0227   0.0695   0.1489  -0.0112   0.0489  -0.0318  -3.00    0.0
2024/05/08 13:53:58.000   28.334995697  -16.436306695   819.2143   2   7   0.0227   0.0695   0.1490  -0.0112   0.0489  -0.0319  -2.00    0.0
2024/05/08 13:53:59.000   28.334995709  -16.436306654   819.2238   2   7   0.0227   0.0695   0.1491  -0.0112   0.0490  -0.0319  -1.00    0.0
2024/05/08 13:54:00.000   28.334995723  -16.436306603   819.2340   2   7   0.0227   0.0695   0.1493  -0.0112   0.0491  -0.0319   0.00    0.0
2024/05/08 13:54:01.000   28.334995738  -16.436306554   819.2451   2   7   0.0228   0.0695   0.1494  -0.0112   0.0491  -0.0320   1.00    0.0
2024/05/08 13:54:02.000   28.334995753  -16.436306512   819.2556   2   7   0.0228   0.0695   0.1496  -0.0112   0.0492  -0.0320   2.00    0.0
2024/05/08 13:54:03.000   28.334995766  -16.436306473   819.2649   2   7   0.0228   0.0695   0.1498  -0.0112   0.0493  -0.0321   3.00    0.0
2024/05/08 13:54:04.000   28.334995777  -16.436306434   819.2747   2   7   0.0228   0.0695   0.1499  -0.0112   0.0493  -0.0321   4.00    0.0
2024/05/08 13:54:05.000   28.334995786  -16.436306405   819.2819   2   7   0.0228   0.0695   0.1500  -0.0112   0.0494  -0.0321   5.00    0.0
2024/05/08 13:54:06.000   28.334995792  -16.436306377   819.2873   2   7   0.0228   0.0695   0.1501  -0.0112   0.0494  -0.0321   6.00    0.0
2024/05/08 13:54:07.000   28.334995798  -16.436306353   819.2927   2   7   0.0229   0.0695   0.1501  -0.0112   0.0495  -0.0321   7.00    0.0
2024/05/08 13:54:08.000   28.334995802  -16.436306331   819.2973   2   7   0.0229   0.0695   0.1502  -0.0112   0.0495  -0.0322   8.00    0.0
2024/05/08 13:54:09.000   28.334995806  -16.436306316   819.3006   2   7   0.0229   0.0695   0.1502  -0.0112   0.0495  -0.0322   9.00    0.0
2024/05/08 13:54:10.000   28.334995809  -16.436306302   819.3026   2   7   0.0229   0.0695   0.1503  -0.0112   0.0495  -0.0322  10.00    0.0
2024/05/08 13:54:11.000   28.334995812  -16.436306286   819.3054   2   7   0.0229   0.0695   0.1503  -0.0112   0.0495  -0.0322  11.00    0.0
2024/05/08 13:54:12.000   28.334995814  -16.436306274   819.3080   2   7   0.0229   0.0695   0.1503  -0.0112   0.0495  -0.0322  12.00    0.0
2024/05/08 13:54:13.000   28.334995816  -16.436306263   819.3091   2   7   0.0229   0.0695   0.1503  -0.0112   0.0496  -0.0322  13.00    0.0
2024/05/08 13:54:14.000   28.334995817  -16.436306256   819.3104   2   7   0.0229   0.0695   0.1503  -0.0112   0.0496  -0.0322  14.00    0.0
2024/05/08 13:54:15.000   28.334995818  -16.436306247   819.3114   2   7   0.0229   0.0695   0.1504  -0.0112   0.0496  -0.0322 -15.00    0.0
2024/05/08 13:54:16.000   28.334995819  -16.436306232   819.3124   2   7   0.0229   0.0695   0.1504  -0.0112   0.0496  -0.0322 -14.00    0.0
2024/05/08 13:54:17.000   28.334995820  -16.436306222   819.3135   2   7   0.0229   0.0695   0.1504  -0.0112   0.0496  -0.0322 -13.00    0.0
2024/05/08 13:54:18.000   28.334995822  -16.436306211   819.3145   2   7   0.0229   0.0695   0.1504  -0.0112   0.0496  -0.0322 -12.00    0.0
2024/05/08 13:54:19.000   28.334995823  -16.436306201   819.3155   2   7   0.0229   0.0695   0.1504  -0.0112   0.0496  -0.0322 -11.00    0.0
2024/05/08 13:54:20.000   28.334995825  -16.436306191   819.3166   2   7   0.0229   0.0694   0.1504  -0.0112   0.0496  -0.0322 -10.00    0.0
2024/05/08 13:54:21.000   28.334995826  -16.436306177   819.3177   2   7   0.0229   0.0694   0.1504  -0.0112   0.0496  -0.0322  -9.00    0.0
2024/05/08 13:54:22.000   28.334995829  -16.436306167   819.3188   2   7   0.0229   0.0694   0.1505  -0.0112   0.0496  -0.0322  -8.00    0.0
2024/05/08 13:54:23.000   28.334995832  -16.436306151   819.3207   2   7   0.0229   0.0694   0.1505  -0.0112   0.0496  -0.0322  -7.00    0.0
2024/05/08 13:54:24.000   28.334995836  -16.436306131   819.3238   2   7   0.0229   0.0694   0.1505  -0.0112   0.0496  -0.0322  -6.00    0.0
2024/05/08 13:54:25.000   28.334995841  -16.436306110   819.3270   2   7   0.0229   0.0694   0.1506  -0.0112   0.0497  -0.0323  -5.00    0.0
2024/05/08 13:54:26.000   28.334995846  -16.436306085   819.3299   2   7   0.0229   0.0694   0.1506  -0.0112   0.0497  -0.0323  -4.00    0.0
2024/05/08 13:54:27.000   28.334995853  -16.436306055   819.3354   2   7   0.0229   0.0694   0.1507  -0.0112   0.0497  -0.0323  -3.00    0.0
2024/05/08 13:54:28.000   28.334995861  -16.436306013   819.3438   2   7   0.0230   0.0694   0.1508  -0.0112   0.0497  -0.0323  -2.00    0.0
2024/05/08 13:54:29.000   28.334995871  -16.436305975   819.3515   2   7   0.0230   0.0694   0.1509  -0.0112   0.0498  -0.0323  -1.00    0.0
2024/05/08 13:54:30.000   28.334995881  -16.436305926   819.3615   2   7   0.0230   0.0694   0.1510  -0.0112   0.0498  -0.0324   0.00    0.0
2024/05/08 13:54:31.000   28.334995890  -16.436305888   819.3717   2   7   0.0230   0.0694   0.1511  -0.0112   0.0499  -0.0324   1.00    0.0
2024/05/08 13:54:32.000   28.334995898  -16.436305850   819.3804   2   7   0.0230   0.0694   0.1512  -0.0112   0.0499  -0.0325   2.00    0.0
2024/05/08 13:54:33.000   28.334995904  -16.436305816   819.3880   2   7   0.0231   0.0694   0.1513  -0.0112   0.0500  -0.0325   3.00    0.0
2024/05/08 13:54:34.000   28.334995909  -16.436305781   819.3961   2   7   0.0231   0.0694   0.1514  -0.0112   0.0500  -0.0325   4.00    0.0
2024/05/08 13:54:35.000   28.334995913  -16.436305754   819.4016   2   7   0.0231   0.0694   0.1515  -0.0112   0.0501  -0.0326   5.00    0.0
2024/05/08 13:54:36.000   28.334995916  -16.436305731   819.4061   2   7   0.0231   0.0694   0.1516  -0.0112   0.0501  -0.0326   6.00    0.0
2024/05/08 13:54:37.000   28.334995919  -16.436305709   819.4105   2   7   0.0231   0.0694   0.1516  -0.0112   0.0501  -0.0326   7.00    0.0
2024/05/08 13:54:38.000   28.334995921  -16.436305691   819.4138   2   7   0.0231   0.0694   0.1517  -0.0112   0.0501  -0.0326   8.00    0.0
2024/05/08 13:54:39.000   28.334995923  -16.436305673   819.4171   2   7   0.0231   0.0694   0.1517  -0.0112   0.0501  -0.0326   9.00    0.0
2024/05/08 13:54:40.000   28.334995924  -16.436305658   819.4200   2   7   0.0231   0.0694   0.1517  -0.0112   0.0501  -0.0326  10.00    0.0
2024/05/08 13:54:41.000   28.334995926  -16.436305644   819.4222   2   7   0.0231   0.0694   0.1518  -0.0112   0.0502  -0.0326  11.00    0.0
2024/05/08 13:54:42.000   28.334995927  -16.436305636   819.4238   2   7   0.0231   0.0694   0.1518  -0.0112   0.0502  -0.0326  12.00    0.0
2024/05/08 13:54:43.000   28.334995927  -16.436305629   819.4248   2   7   0.0231   0.0694   0.1518  -0.0112   0.0502  -0.0326  13.00    0.0
2024/05/08 13:54:44.000   28.334995928  -16.436305624   819.4256   2   7   0.0231   0.0693   0.1518  -0.0112   0.0502  -0.0326  14.00    0.0
2024/05/08 13:54:45.000   28.334995928  -16.436305618   819.4262   2   7   0.0231   0.0693   0.1518  -0.0112   0.0502  -0.0326 -15.00    0.0
2024/05/08 13:54:46.000   28.334995928  -16.436305611   819.4265   2   7   0.0231   0.0693   0.1518  -0.0112   0.0502  -0.0326 -14.00    0.0
2024/05/08 13:54:47.000   28.334995928  -16.436305604   819.4268   2   7   0.0231   0.0693   0.1518  -0.0112   0.0502  -0.0326 -13.00    0.0
2024/05/08 13:54:48.000   28.334995928  -16.436305598   819.4272   2   7   0.0231   0.0693   0.1518  -0.0112   0.0502  -0.0326 -12.00    0.0
2024/05/08 13:54:49.000   28.334995929  -16.436305589   819.4281   2   7   0.0231   0.0693   0.1518  -0.0111   0.0502  -0.0326 -11.00    0.0
2024/05/08 13:54:50.000   28.334995930  -16.436305586   819.4288   2   7   0.0232   0.0693   0.1518  -0.0111   0.0502  -0.0327 -10.00    0.0
2024/05/08 13:54:51.000   28.334995930  -16.436305579   819.4299   2   7   0.0232   0.0693   0.1519  -0.0111   0.0502  -0.0327  -9.00    0.0
2024/05/08 13:54:52.000   28.334995931  -16.436305571   819.4311   2   7   0.0232   0.0693   0.1519  -0.0111   0.0502  -0.0327  -8.00    0.0
2024/05/08 13:54:53.000   28.334995932  -16.436305564   819.4325   2   7   0.0232   0.0693   0.1519  -0.0111   0.0502  -0.0327  -7.00    0.0
2024/05/08 13:54:54.000   28.334995933  -16.436305557   819.4335   2   7   0.0232   0.0693   0.1519  -0.0111   0.0502  -0.0327  -6.00    0.0
2024/05/08 13:54:55.000   28.334995935  -16.436305548   819.4356   2   7   0.0232   0.0693   0.1519  -0.0111   0.0502  -0.0327  -5.00    0.0
2024/05/08 13:54:56.000   28.334995936  -16.436305540   819.4373   2   7   0.0232   0.0693   0.1520  -0.0111   0.0502  -0.0327  -4.00    0.0
2024/05/08 13:54:57.000   28.334995937  -16.436305534   819.4378   2   7   0.0232   0.0692   0.1520  -0.0111   0.0502  -0.0327  -3.00    0.0
2024/05/08 13:54:58.000   28.334995941  -16.436305518   819.4406   2   7   0.0232   0.0692   0.1520  -0.0111   0.0503  -0.0327  -2.00    0.0
2024/05/08 13:54:59.000   28.334995943  -16.436305504   819.4454   2   7   0.0232   0.0692   0.1521  -0.0111   0.0503  -0.0328  -1.00    0.0
2024/05/08 13:55:00.000   28.334995946  -16.436305481   819.4503   2   7   0.0232   0.0692   0.1522  -0.0111   0.0503  -0.0328   0.00    0.0
2024/05/08 13:55:01.000   28.334995950  -16.436305461   819.4543   2   7   0.0232   0.0692   0.1523  -0.0111   0.0503  -0.0329   1.00    0.0
2024/05/08 13:55:02.000   28.334995954  -16.436305440   819.4573   2   7   0.0233   0.0692   0.1524  -0.0111   0.0504  -0.0329   2.00    0.0
2024/05/08 13:55:03.000   28.334995957  -16.436305426   819.4605   2   7   0.0233   0.0692   0.1524  -0.0111   0.0504  -0.0329   3.00    0.0
2024/05/08 13:55:04.000   28.334995959  -16.436305410   819.4627   2   7   0.0233   0.0692   0.1525  -0.0111   0.0504  -0.0329   4.00    0.0
2024/05/08 13:55:05.000   28.334995961  -16.436305400   819.4647   2   7   0.0233   0.0692   0.1526  -0.0111   0.0504  -0.0330   5.00    0.0
2024/05/08 13:55:06.000   28.334995963  -16.436305393   819.4661   2   7   0.0233   0.0692   0.1526  -0.0111   0.0505  -0.0330   6.00    0.0
2024/05/08 13:55:07.000   28.334995964  -16.436305385   819.4670   2   7   0.0233   0.0692   0.1527  -0.0111   0.0505  -0.0330   7.00    0.0
2024/05/08 13:55:08.000   28.334995965  -16.436305379   819.4672   2   7   0.0233   0.0692   0.1527  -0.0111   0.0505  -0.0330   8.00    0.0
2024/05/08 13:55:09.000   28.334995966  -16.436305376   819.4667   2   7   0.0233   0.0692   0.1527  -0.0111   0.0505  -0.0330   9.00    0.0
2024/05/08 13:55:10.000   28.334995967  -16.436305373   819.4663   2   7   0.0233   0.0692   0.1527  -0.0111   0.0505  -0.0330  10.00    0.0
2024/05/08 13:55:11.000   28.334995967  -16.436305370   819.4660   2   7   0.0233   0.0692   0.1527  -0.0111   0.0505  -0.0330  11.00    0.0
2024/05/08 13:55:12.000   28.334995968  -16.436305365   819.4657   2   7   0.0233   0.0692   0.1527  -0.0111   0.0505  -0.0330  12.00    0.0
2024/05/08 13:55:13.000   28.334995968  -16.436305362   819.4654   2   7   0.0233   0.0692   0.1527  -0.0111   0.0505  -0.0330  13.00    0.0
2024/05/08 13:55:14.000   28.334995968  -16.436305362   819.4651   2   7   0.0233   0.0692   0.1528  -0.0111   0.0505  -0.0330  14.00    0.0
2024/05/08 13:55:15.000   28.334995968  -16.436305363   819.4645   2   7   0.0233   0.0692   0.1528  -0.0111   0.0505  -0.0330 -15.00    0.0
2024/05/08 13:55:16.000   28.334995968  -16.436305362   819.4637   2   7   0.0233   0.0692   0.1528  -0.0111   0.0505  -0.0330 -14.00    0.0
2024/05/08 13:55:17.000   28.334995968  -16.436305361   819.4628   2   7   0.0233   0.0692   0.1528  -0.0111   0.0505  -0.0331 -13.00    0.0
2024/05/08 13:55:18.000   28.334995968  -16.436305359   819.4620   2   7   0.0233   0.0692   0.1528  -0.0111   0.0505  -0.0331 -12.00    0.0
2024/05/08 13:55:19.000   28.334995967  -16.436305357   819.4611   2   7   0.0233   0.0692   0.1528  -0.0111   0.0505  -0.0331 -11.00    0.0
2024/05/08 13:55:20.000   28.334995968  -16.436305359   819.4605   2   7   0.0233   0.0692   0.1528  -0.0111   0.0505  -0.0331 -10.00    0.0
2024/05/08 13:55:21.000   28.334995967  -16.436305360   819.4596   2   7   0.0234   0.0691   0.1528  -0.0111   0.0505  -0.0331  -9.00    0.0
2024/05/08 13:55:22.000   28.334995967  -16.436305361   819.4584   2   7   0.0234   0.0691   0.1528  -0.0111   0.0505  -0.0331  -8.00    0.0
2024/05/08 13:55:23.000   28.334995966  -16.436305364   819.4566   2   7   0.0234   0.0691   0.1528  -0.0111   0.0505  -0.0331  -7.00    0.0
2024/05/08 13:55:24.000   28.334995965  -16.436305372   819.4542   2   7   0.0234   0.0691   0.1528  -0.0111   0.0505  -0.0331  -6.00    0.0
2024/05/08 13:55:25.000   28.334995964  -16.436305379   819.4513   2   7   0.0234   0.0691   0.1528  -0.0111   0.0505  -0.0331  -5.00    0.0
2024/05/08 13:55:26.000   28.334995963  -16.436305388   819.4485   2   7   0.0234   0.0691   0.1528  -0.0111   0.0505  -0.0331  -4.00    0.0
2024/05/08 13:55:27.000   28.334995963  -16.436305396   819.4454   2   7   0.0234   0.0691   0.1528  -0.0111   0.0505  -0.0331  -3.00    0.0
2024/05/08 13:55:28.000   28.334995961  -16.436305416   819.4408   2   7   0.0234   0.0691   0.1528  -0.0111   0.0505  -0.0332  -2.00    0.0
2024/05/08 13:55:29.000   28.334995958  -16.436305435   819.4360   2   7   0.0234   0.0691   0.1529  -0.0111   0.0505  -0.0332  -1.00    0.0
2024/05/08 13:55:30.000   28.334995956  -16.436305445   819.4328   2   7   0.0234   0.0691   0.1529  -0.0111   0.0505  -0.0332   0.00    0.0
2024/05/08 13:55:31.000   28.334995951  -16.436305462   819.4309   2   7   0.0234   0.0691   0.1529  -0.0111   0.0505  -0.0332   1.00    0.0
2024/05/08 13:55:32.000   28.334995948  -16.436305473   819.4300   2   7   0.0234   0.0691   0.1530  -0.0111   0.0505  -0.0333   2.00    0.0
2024/05/08 13:55:33.000   28.334995946  -16.436305485   819.4277   2   7   0.0234   0.0691   0.1530  -0.0111   0.0505  -0.0333   3.00    0.0
2024/05/08 13:55:34.000   28.334995942  -16.436305491   819.4269   2   7   0.0235   0.0691   0.1531  -0.0111   0.0505  -0.0333   4.00    0.0
2024/05/08 13:55:35.000   28.334995939  -16.436305495   819.4264   2   7   0.0235   0.0691   0.1531  -0.0111   0.0505  -0.0334   5.00    0.0
2024/05/08 13:55:36.000   28.334995937  -16.436305502   819.4258   2   7   0.0235   0.0691   0.1532  -0.0111   0.0505  -0.0334   6.00    0.0
2024/05/08 13:55:37.000   28.334995935  -16.436305506   819.4252   2   7   0.0235   0.0691   0.1532  -0.0111   0.0505  -0.0334   7.00    0.0
2024/05/08 13:55:38.000   28.334995934  -16.436305509   819.4241   2   7   0.0235   0.0690   0.1532  -0.0111   0.0505  -0.0334   8.00    0.0
2024/05/08 13:55:39.000   28.334995933  -16.436305514   819.4232   2   7   0.0235   0.0690   0.1532  -0.0111   0.0505  -0.0334   9.00    0.0
2024/05/08 13:55:40.000   28.334995933  -16.436305518   819.4226   2   7   0.0235   0.0690   0.1532  -0.0111   0.0505  -0.0334  10.00    0.0
2024/05/08 13:55:41.000   28.334995932  -16.436305523   819.4215   2   7   0.0235   0.0690   0.1532  -0.0111   0.0505  -0.0334  11.00    0.0
2024/05/08 13:55:42.000   28.334995931  -16.436305529   819.4206   2   7   0.0235   0.0690   0.1532  -0.0111   0.0505  -0.0334  12.00    0.0
2024/05/08 13:55:43.000   28.334995931  -16.436305532   819.4202   2   7   0.0235   0.0690   0.1532  -0.0111   0.0505  -0.0334  13.00    0.0
2024/05/08 13:55:44.000   28.334995930  -16.436305536   819.4195   2   7   0.0235   0.0690   0.1532  -0.0111   0.0505  -0.0334  14.00    0.0
2024/05/08 13:55:45.000   28.334995930  -16.436305540   819.4188   2   7   0.0235   0.0690   0.1532  -0.0111   0.0505  -0.0334 -15.00    0.0
2024/05/08 13:55:46.000   28.334995930  -16.436305544   819.4180   2   7   0.0235   0.0690   0.1532  -0.0111   0.0505  -0.0334 -14.00    0.0
2024/05/08 13:55:47.000   28.334995929  -16.436305546   819.4172   2   7   0.0235   0.0690   0.1532  -0.0111   0.0505  -0.0334 -13.00    1.1
2024/05/08 13:55:48.000   28.334995929  -16.436305553   819.4158   2   7   0.0235   0.0690   0.1532  -0.0111   0.0505  -0.0334 -12.00    1.1
2024/05/08 13:55:49.000   28.334995929  -16.436305561   819.4144   2   7   0.0235   0.0690   0.1532  -0.0111   0.0505  -0.0334 -11.00    1.1
2024/05/08 13:55:50.000   28.334995929  -16.436305568   819.4127   2   7   0.0235   0.0690   0.1532  -0.0111   0.0505  -0.0334 -10.00    1.0
2024/05/08 13:55:51.000   28.334995929  -16.436305574   819.4112   2   7   0.0235   0.0690   0.1532  -0.0111   0.0505  -0.0334  -9.00    1.1
2024/05/08 13:55:52.000   28.334995929  -16.436305583   819.4094   2   7   0.0235   0.0690   0.1532  -0.0111   0.0505  -0.0335  -8.00    1.0
2024/05/08 13:55:53.000   28.334995930  -16.436305595   819.4067   2   7   0.0235   0.0690   0.1532  -0.0111   0.0505  -0.0335  -7.00    1.0
2024/05/08 13:55:54.000   28.334995930  -16.436305611   819.4025   2   7   0.0235   0.0689   0.1532  -0.0111   0.0505  -0.0335  -6.00    1.1
2024/05/08 13:55:55.000   28.334995929  -16.436305630   819.3974   2   7   0.0235   0.0689   0.1532  -0.0111   0.0505  -0.0335  -5.00    1.1
2024/05/08 13:55:56.000   28.334995927  -16.436305654   819.3912   2   7   0.0235   0.0689   0.1532  -0.0111   0.0505  -0.0335  -4.00    1.0
2024/05/08 13:55:57.000   28.334995924  -16.436305680   819.3836   2   7   0.0235   0.0689   0.1531  -0.0111   0.0504  -0.0335  -3.00    1.0
2024/05/08 13:55:58.000   28.334995922  -16.436305715   819.3756   2   7   0.0235   0.0689   0.1531  -0.0111   0.0504  -0.0335  -2.00    1.1
2024/05/08 13:55:59.000   28.334995921  -16.436305751   819.3673   2   7   0.0235   0.0689   0.1531  -0.0111   0.0504  -0.0335  -1.00    1.0
2024/05/08 13:56:00.000   28.334995920  -16.436305780   819.3596   2   7   0.0235   0.0689   0.1531  -0.0111   0.0504  -0.0336   0.00    1.0
2024/05/08 13:56:01.000   28.334995918  -16.436305816   819.3519   2   7   0.0235   0.0689   0.1531  -0.0111   0.0503  -0.0336   1.00    1.1
2024/05/08 13:56:02.000   28.334995918  -16.436305852   819.3431   2   7   0.0235   0.0689   0.1532  -0.0111   0.0503  -0.0336   2.00    1.0
2024/05/08 13:56:03.000   28.334995916  -16.436305885   819.3356   2   7   0.0236   0.0689   0.1532  -0.0111   0.0503  -0.0337   3.00    1.1
2024/05/08 13:56:04.000   28.334995915  -16.436305917   819.3284   2   7   0.0236   0.0689   0.1532  -0.0111   0.0503  -0.0337   4.00    1.1
2024/05/08 13:56:05.000   28.334995914  -16.436305942   819.3217   2   7   0.0236   0.0689   0.1532  -0.0111   0.0503  -0.0337   5.00    1.2
2024/05/08 13:56:06.000   28.334995912  -16.436305964   819.3166   2   7   0.0236   0.0688   0.1532  -0.0111   0.0503  -0.0337   6.00    1.1
2024/05/08 13:56:07.000   28.334995911  -16.436305982   819.3128   2   7   0.0236   0.0688   0.1532  -0.0111   0.0503  -0.0337   7.00    1.0
2024/05/08 13:56:08.000   28.334995910  -16.436305997   819.3091   2   7   0.0236   0.0688   0.1532  -0.0111   0.0503  -0.0337   8.00    1.0
2024/05/08 13:56:09.000   28.334995909  -16.436306012   819.3056   2   7   0.0236   0.0688   0.1532  -0.0111   0.0503  -0.0337   9.00    1.1
2024/05/08 13:56:10.000   28.334995908  -16.436306026   819.3024   2   7   0.0236   0.0688   0.1532  -0.0111   0.0503  -0.0337  10.00    1.1
2024/05/08 13:56:11.000   28.334995907  -16.436306039   819.2996   2   7   0.0236   0.0688   0.1532  -0.0111   0.0503  -0.0337  11.00    1.1
2024/05/08 13:56:12.000   28.334995906  -16.436306048   819.2973   2   7   0.0236   0.0688   0.1532  -0.0111   0.0503  -0.0337  12.00    1.3
2024/05/08 13:56:13.000   28.334995906  -16.436306058   819.2954   2   7   0.0236   0.0688   0.1532  -0.0111   0.0503  -0.0337  13.00    1.1
2024/05/08 13:56:14.000   28.334995905  -16.436306066   819.2937   2   7   0.0236   0.0688   0.1532  -0.0111   0.0503  -0.0337  14.00    1.0
2024/05/08 13:56:15.000   28.334995904  -16.436306075   819.2921   2   7   0.0236   0.0688   0.1532  -0.0111   0.0503  -0.0338 -15.00    1.0
2024/05/08 13:56:16.000   28.334995904  -16.436306085   819.2906   2   7   0.0236   0.0688   0.1532  -0.0111   0.0503  -0.0338 -14.00    1.2
2024/05/08 13:56:17.000   28.334995903  -16.436306094   819.2888   2   7   0.0236   0.0688   0.1532  -0.0111   0.0503  -0.0338 -13.00    1.2
2024/05/08 13:56:18.000   28.334995903  -16.436306105   819.2867   2   7   0.0236   0.0688   0.1532  -0.0111   0.0503  -0.0338 -12.00    1.1
2024/05/08 13:56:19.000   28.334995902  -16.436306118   819.2840   2   7   0.0236   0.0688   0.1532  -0.0111   0.0503  -0.0338 -11.00    1.4
2024/05/08 13:56:20.000   28.334995901  -16.436306133   819.2805   2   7   0.0236   0.0688   0.1532  -0.0111   0.0502  -0.0338 -10.00    1.1
2024/05/08 13:56:21.000   28.334995900  -16.436306149   819.2767   2   7   0.0236   0.0688   0.1532  -0.0111   0.0502  -0.0338  -9.00    1.0
2024/05/08 13:56:22.000   28.334995899  -16.436306173   819.2720   2   7   0.0236   0.0687   0.1532  -0.0111   0.0502  -0.0338  -8.00    1.0
2024/05/08 13:56:23.000   28.334995898  -16.436306200   819.2657   2   7   0.0236   0.0687   0.1532  -0.0111   0.0502  -0.0338  -7.00    1.2
2024/05/08 13:56:24.000   28.334995897  -16.436306232   819.2585   2   7   0.0236   0.0687   0.1531  -0.0111   0.0502  -0.0338  -6.00    1.2
2024/05/08 13:56:25.000   28.334995895  -16.436306267   819.2493   2   7   0.0236   0.0687   0.1531  -0.0111   0.0502  -0.0338  -5.00    1.0
2024/05/08 13:56:26.000   28.334995893  -16.436306313   819.2379   2   7   0.0236   0.0687   0.1531  -0.0111   0.0501  -0.0338  -4.00    1.4
2024/05/08 13:56:27.000   28.334995892  -16.436306374   819.2219   2   7   0.0236   0.0687   0.1530  -0.0111   0.0501  -0.0338  -3.00    1.2
2024/05/08 13:56:28.000   28.334995893  -16.436306446   819.2024   2   7   0.0236   0.0687   0.1530  -0.0111   0.0501  -0.0338  -2.00    1.1
2024/05/08 13:56:29.000   28.334995894  -16.436306524   819.1808   2   7   0.0236   0.0687   0.1529  -0.0111   0.0500  -0.0338  -1.00    1.0
2024/05/08 13:56:30.000   28.334995897  -16.436306602   819.1574   2   7   0.0236   0.0687   0.1529  -0.0110   0.0500  -0.0339   0.00    1.2
2024/05/08 13:56:31.000   28.334995901  -16.436306685   819.1348   2   7   0.0236   0.0686   0.1529  -0.0110   0.0499  -0.0339   1.00    1.1
2024/05/08 13:56:32.000   28.334995904  -16.436306757   819.1132   2   7   0.0236   0.0686   0.1529  -0.0110   0.0499  -0.0339   2.00    1.1
2024/05/08 13:56:33.000   28.334995906  -16.436306824   819.0927   2   7   0.0236   0.0686   0.1529  -0.0110   0.0499  -0.0339   3.00    1.1
2024/05/08 13:56:34.000   28.334995909  -16.436306880   819.0765   2   7   0.0236   0.0686   0.1529  -0.0110   0.0499  -0.0339   4.00    1.1
2024/05/08 13:56:35.000   28.334995912  -16.436306921   819.0649   2   7   0.0236   0.0686   0.1529  -0.0110   0.0498  -0.0340   5.00    1.1
2024/05/08 13:56:36.000   28.334995914  -16.436306957   819.0552   2   7   0.0236   0.0686   0.1528  -0.0110   0.0498  -0.0340   6.00    1.0
2024/05/08 13:56:37.000   28.334995915  -16.436306985   819.0472   2   7   0.0236   0.0686   0.1528  -0.0110   0.0498  -0.0340   7.00    1.1
2024/05/08 13:56:38.000   28.334995917  -16.436307015   819.0394   2   7   0.0236   0.0686   0.1528  -0.0110   0.0498  -0.0340   8.00    1.1
2024/05/08 13:56:39.000   28.334995917  -16.436307038   819.0322   2   7   0.0236   0.0686   0.1528  -0.0110   0.0498  -0.0340   9.00    1.0
2024/05/08 13:56:40.000   28.334995918  -16.436307057   819.0266   2   7   0.0236   0.0686   0.1528  -0.0110   0.0498  -0.0340  10.00    1.2
2024/05/08 13:56:41.000   28.334995918  -16.436307074   819.0222   2   7   0.0236   0.0686   0.1528  -0.0110   0.0498  -0.0340  11.00    1.1
2024/05/08 13:56:42.000   28.334995918  -16.436307091   819.0183   2   7   0.0236   0.0686   0.1528  -0.0110   0.0498  -0.0340  12.00    1.1
2024/05/08 13:56:43.000   28.334995918  -16.436307105   819.0148   2   7   0.0236   0.0686   0.1528  -0.0110   0.0498  -0.0340  13.00    1.0
2024/05/08 13:56:44.000   28.334995919  -16.436307118   819.0119   2   7   0.0236   0.0686   0.1528  -0.0110   0.0498  -0.0340  14.00    1.0
2024/05/08 13:56:45.000   28.334995919  -16.436307131   819.0090   2   7   0.0236   0.0685   0.1528  -0.0110   0.0498  -0.0340 -15.00    1.1
2024/05/08 13:56:46.000   28.334995919  -16.436307144   819.0059   2   7   0.0236   0.0685   0.1528  -0.0110   0.0498  -0.0340 -14.00    1.1
2024/05/08 13:56:47.000   28.334995918  -16.436307158   819.0025   2   7   0.0236   0.0685   0.1528  -0.0110   0.0497  -0.0340 -13.00    1.1
2024/05/08 13:56:48.000   28.334995918  -16.436307179   818.9980   2   7   0.0236   0.0685   0.1528  -0.0110   0.0497  -0.0340 -12.00    1.1
2024/05/08 13:56:49.000   28.334995918  -16.436307196   818.9936   2   7   0.0236   0.0685   0.1528  -0.0110   0.0497  -0.0340 -11.00    1.0
2024/05/08 13:56:50.000   28.334995917  -16.436307216   818.9888   2   7   0.0236   0.0685   0.1527  -0.0110   0.0497  -0.0340 -10.00    1.0
2024/05/08 13:56:51.000   28.334995917  -16.436307246   818.9820   2   7   0.0236   0.0685   0.1527  -0.0110   0.0497  -0.0340  -9.00    1.1
2024/05/08 13:56:52.000   28.334995916  -16.436307278   818.9740   2   7   0.0236   0.0685   0.1527  -0.0110   0.0497  -0.0340  -8.00    1.1
2024/05/08 13:56:53.000   28.334995916  -16.436307313   818.9645   2   7   0.0236   0.0685   0.1527  -0.0110   0.0497  -0.0340  -7.00    1.0
2024/05/08 13:56:54.000   28.334995916  -16.436307358   818.9530   2   7   0.0236   0.0685   0.1526  -0.0110   0.0496  -0.0340  -6.00    1.0
2024/05/08 13:56:55.000   28.334995917  -16.436307406   818.9406   2   7   0.0236   0.0685   0.1526  -0.0110   0.0496  -0.0340  -5.00    1.1
2024/05/08 13:56:56.000   28.334995917  -16.436307469   818.9248   2   7   0.0236   0.0684   0.1525  -0.0110   0.0496  -0.0340  -4.00    1.0
2024/05/08 13:56:57.000   28.334995918  -16.436307550   818.9048   2   7   0.0236   0.0684   0.1525  -0.0110   0.0495  -0.0340  -3.00    1.0
2024/05/08 13:56:58.000   28.334995919  -16.436307642   818.8803   2   7   0.0236   0.0684   0.1524  -0.0110   0.0495  -0.0340  -2.00    1.1
2024/05/08 13:56:59.000   28.334995923  -16.436307746   818.8527   2   7   0.0236   0.0684   0.1523  -0.0110   0.0494  -0.0341  -1.00    1.0
2024/05/08 13:57:00.000   28.334995928  -16.436307858   818.8227   2   7   0.0236   0.0684   0.1523  -0.0110   0.0493  -0.0341   0.00    1.0
2024/05/08 13:57:01.000   28.334995933  -16.436307970   818.7953   2   7   0.0236   0.0684   0.1522  -0.0110   0.0493  -0.0341   1.00    1.2
2024/05/08 13:57:02.000   28.334995937  -16.436308072   818.7719   2   7   0.0236   0.0684   0.1522  -0.0110   0.0492  -0.0341   2.00    1.0
2024/05/08 13:57:03.000   28.334995940  -16.436308161   818.7518   2   7   0.0236   0.0683   0.1521  -0.0110   0.0492  -0.0341   3.00    1.0
2024/05/08 13:57:04.000   28.334995943  -16.436308232   818.7355   2   7   0.0236   0.0683   0.1521  -0.0110   0.0492  -0.0341   4.00    1.0
2024/05/08 13:57:05.000   28.334995946  -16.436308289   818.7222   2   7   0.0236   0.0683   0.1521  -0.0110   0.0491  -0.0341   5.00    1.0
2024/05/08 13:57:06.000   28.334995947  -16.436308337   818.7107   2   7   0.0236   0.0683   0.1521  -0.0110   0.0491  -0.0341   6.00    1.0
2024/05/08 13:57:07.000   28.334995948  -16.436308379   818.7022   2   7   0.0236   0.0683   0.1520  -0.0110   0.0491  -0.0341   7.00    1.0
2024/05/08 13:57:08.000   28.334995950  -16.436308408   818.6961   2   7   0.0236   0.0683   0.1520  -0.0110   0.0491  -0.0341   8.00    1.1
2024/05/08 13:57:09.000   28.334995951  -16.436308434   818.6910   2   7   0.0236   0.0683   0.1520  -0.0110   0.0491  -0.0341   9.00    1.0
2024/05/08 13:57:10.000   28.334995952  -16.436308455   818.6864   2   7   0.0236   0.0683   0.1520  -0.0110   0.0491  -0.0341  10.00    1.0
2024/05/08 13:57:11.000   28.334995953  -16.436308474   818.6823   2   7   0.0236   0.0683   0.1520  -0.0110   0.0491  -0.0341  11.00    1.0
2024/05/08 13:57:12.000   28.334995954  -16.436308492   818.6786   2   7   0.0236   0.0683   0.1520  -0.0110   0.0490  -0.0341  12.00    1.0
2024/05/08 13:57:13.000   28.334995954  -16.436308504   818.6753   2   7   0.0236   0.0683   0.1520  -0.0110   0.0490  -0.0341  13.00    1.0
2024/05/08 13:57:14.000   28.334995954  -16.436308517   818.6724   2   7   0.0236   0.0683   0.1520  -0.0110   0.0490  -0.0341  14.00    1.0
2024/05/08 13:57:15.000   28.334995954  -16.436308529   818.6701   2   7   0.0236   0.0683   0.1520  -0.0110   0.0490  -0.0342 -15.00    1.0
