% program   : RTKPOST-EX 2.5.0
% inp file  : C:\Users\SallyHenry\Desktop\Sally Internship\GNSS gravi\DATA\Survey Rover Obs\GUI11.24o
% inp file  : C:\Users\SallyHenry\Desktop\Sally Internship\GNSS gravi\DATA\BaseStations\TN01\TN0100ESP_R_20241290000_01D_30S_MO.rnx
% inp file  : C:\Users\SallyHenry\Desktop\Sally Internship\GNSS gravi\DATA\BaseStations\TN01\TN0100ESP_R_20241290000_01D_MN.rnx
% inp file  : C:\Users\SallyHenry\Desktop\Sally Internship\GNSS gravi\DATA\aux_files\Survey\IGS0OPSFIN_20241290000_01D_15M_ORB.SP3
% inp file  : C:\Users\SallyHenry\Desktop\Sally Internship\GNSS gravi\DATA\aux_files\Survey\IGS0OPSFIN_20241290000_01D_30S_CLK.CLK
% obs start : 2024/05/08 11:21:40.0 GPST (week2313 300100.0s)
% obs end   : 2024/05/08 11:36:41.0 GPST (week2313 301001.0s)
% pos mode  : Static
% freqs     : L1+L2/E5b
% solution  : Combined-No Phase Reset
% elev mask : 15.0 deg
% dynamics  : on
% tidecorr  : solid
% ionos opt : Estimate TEC
% tropo opt : Estimate ZTD+Grad
% ephemeris : Precise
% navi sys  : GPS GLONASS Galileo QZSS BDS
% amb res   : Fix and Hold
% amb glo   : Fix and Hold
% amb bds   : on
% val thres : 3.0
% antenna1  :                       ( 0.0000  0.0000  1.8000)
% antenna2  :                       ( 0.0000  0.0000  0.0771)
% ref pos   :  28.477186930  -16.241151700    51.7531
%
% (lat/lon/height=WGS84/ellipsoidal,Q=1:fix,2:float,3:sbas,4:dgps,5:single,6:ppp,ns=# of satellites)
%  GPST                  latitude(deg) longitude(deg)  height(m)   Q  ns   sdn(m)   sde(m)   sdu(m)  sdne(m)  sdeu(m)  sdun(m) age(s)  ratio
2024/05/08 11:21:40.000   28.391231751  -16.391339662   674.2986   2   7   0.0198   0.0330   0.0783   0.0098  -0.0309  -0.0266 -20.00    0.0
2024/05/08 11:21:41.000   28.391231751  -16.391339664   674.2987   2   7   0.0198   0.0330   0.0783   0.0098  -0.0309  -0.0266 -19.00    0.0
2024/05/08 11:21:42.000   28.391231751  -16.391339665   674.2988   2   7   0.0198   0.0330   0.0783   0.0098  -0.0309  -0.0266 -18.00    0.0
2024/05/08 11:21:43.000   28.391231751  -16.391339666   674.2988   2   7   0.0198   0.0330   0.0783   0.0098  -0.0309  -0.0266 -17.00    0.0
2024/05/08 11:21:44.000   28.391231751  -16.391339666   674.2988   2   7   0.0198   0.0330   0.0783   0.0098  -0.0309  -0.0266 -16.00    0.0
2024/05/08 11:21:45.000   28.391231751  -16.391339667   674.2989   2   7   0.0198   0.0330   0.0783   0.0098  -0.0309  -0.0266 -15.00    0.0
2024/05/08 11:21:46.000   28.391231751  -16.391339668   674.2990   2   7   0.0198   0.0330   0.0783   0.0098  -0.0309  -0.0266 -14.00    0.0
2024/05/08 11:21:47.000   28.391231751  -16.391339669   674.2992   2   7   0.0198   0.0330   0.0783   0.0098  -0.0309  -0.0266 -13.00    0.0
2024/05/08 11:21:48.000   28.391231750  -16.391339670   674.2994   2   7   0.0198   0.0330   0.0783   0.0098  -0.0309  -0.0266 -12.00    0.0
2024/05/08 11:21:49.000   28.391231750  -16.391339670   674.2995   2   7   0.0198   0.0330   0.0783   0.0098  -0.0309  -0.0266 -11.00    0.0
2024/05/08 11:21:50.000   28.391231750  -16.391339671   674.2997   2   7   0.0198   0.0330   0.0783   0.0098  -0.0309  -0.0266 -10.00    0.0
2024/05/08 11:21:51.000   28.391231749  -16.391339672   674.3000   2   7   0.0198   0.0330   0.0784   0.0098  -0.0309  -0.0267  -9.00    0.0
2024/05/08 11:21:52.000   28.391231749  -16.391339673   674.3002   2   7   0.0198   0.0330   0.0784   0.0098  -0.0309  -0.0267  -8.00    0.0
2024/05/08 11:21:53.000   28.391231748  -16.391339675   674.3005   2   7   0.0198   0.0330   0.0784   0.0098  -0.0309  -0.0267  -7.00    0.0
2024/05/08 11:21:54.000   28.391231748  -16.391339676   674.3009   2   7   0.0198   0.0330   0.0784   0.0098  -0.0309  -0.0267  -6.00    0.0
2024/05/08 11:21:55.000   28.391231747  -16.391339678   674.3014   2   7   0.0198   0.0330   0.0785   0.0098  -0.0309  -0.0267  -5.00    0.0
2024/05/08 11:21:56.000   28.391231746  -16.391339679   674.3021   2   7   0.0198   0.0330   0.0785   0.0098  -0.0309  -0.0267  -4.00    0.0
2024/05/08 11:21:57.000   28.391231745  -16.391339681   674.3027   2   7   0.0199   0.0330   0.0786   0.0098  -0.0310  -0.0267  -3.00    0.0
2024/05/08 11:21:58.000   28.391231744  -16.391339686   674.3032   2   7   0.0199   0.0330   0.0787   0.0098  -0.0310  -0.0267  -2.00    0.0
2024/05/08 11:21:59.000   28.391231743  -16.391339689   674.3039   2   7   0.0199   0.0331   0.0788   0.0098  -0.0310  -0.0268  -1.00    0.0
2024/05/08 11:22:00.000   28.391231741  -16.391339693   674.3050   2   7   0.0199   0.0331   0.0789   0.0098  -0.0310  -0.0268   0.00    0.0
2024/05/08 11:22:01.000   28.391231738  -16.391339698   674.3072   2   7   0.0200   0.0331   0.0791   0.0099  -0.0311  -0.0269   1.00    0.0
2024/05/08 11:22:02.000   28.391231735  -16.391339706   674.3096   2   7   0.0200   0.0332   0.0792   0.0099  -0.0311  -0.0269   2.00    0.0
2024/05/08 11:22:03.000   28.391231733  -16.391339709   674.3106   2   7   0.0200   0.0332   0.0793   0.0099  -0.0311  -0.0270   3.00    0.0
2024/05/08 11:22:04.000   28.391231731  -16.391339712   674.3121   2   7   0.0200   0.0332   0.0794   0.0099  -0.0312  -0.0270   4.00    0.0
2024/05/08 11:22:05.000   28.391231729  -16.391339715   674.3131   2   7   0.0201   0.0332   0.0795   0.0099  -0.0312  -0.0270   5.00    0.0
2024/05/08 11:22:06.000   28.391231728  -16.391339717   674.3136   2   7   0.0201   0.0332   0.0795   0.0100  -0.0312  -0.0270   6.00    0.0
2024/05/08 11:22:07.000   28.391231727  -16.391339717   674.3136   2   7   0.0201   0.0332   0.0796   0.0100  -0.0312  -0.0270   7.00    0.0
2024/05/08 11:22:08.000   28.391231726  -16.391339720   674.3138   2   7   0.0201   0.0333   0.0796   0.0100  -0.0312  -0.0270   8.00    0.0
2024/05/08 11:22:09.000   28.391231726  -16.391339721   674.3139   2   7   0.0201   0.0333   0.0796   0.0100  -0.0312  -0.0271   9.00    0.0
2024/05/08 11:22:10.000   28.391231725  -16.391339722   674.3141   2   7   0.0201   0.0333   0.0797   0.0100  -0.0312  -0.0271  10.00    0.0
2024/05/08 11:22:11.000   28.391231725  -16.391339723   674.3140   2   7   0.0201   0.0333   0.0797   0.0100  -0.0312  -0.0271  11.00    0.0
2024/05/08 11:22:12.000   28.391231725  -16.391339724   674.3140   2   7   0.0201   0.0333   0.0797   0.0100  -0.0312  -0.0271  12.00    0.0
2024/05/08 11:22:13.000   28.391231724  -16.391339724   674.3140   2   7   0.0201   0.0333   0.0797   0.0100  -0.0312  -0.0271  13.00    0.0
2024/05/08 11:22:14.000   28.391231724  -16.391339725   674.3141   2   7   0.0201   0.0333   0.0797   0.0100  -0.0312  -0.0271  14.00    0.0
2024/05/08 11:22:15.000   28.391231723  -16.391339725   674.3141   2   7   0.0201   0.0333   0.0797   0.0100  -0.0312  -0.0271 -15.00    0.0
2024/05/08 11:22:16.000   28.391231723  -16.391339725   674.3141   2   7   0.0201   0.0333   0.0797   0.0100  -0.0312  -0.0271 -14.00    0.0
2024/05/08 11:22:17.000   28.391231723  -16.391339726   674.3141   2   7   0.0201   0.0333   0.0798   0.0100  -0.0312  -0.0271 -13.00    0.0
2024/05/08 11:22:18.000   28.391231723  -16.391339726   674.3141   2   7   0.0201   0.0333   0.0798   0.0100  -0.0312  -0.0271 -12.00    0.0
2024/05/08 11:22:19.000   28.391231722  -16.391339726   674.3142   2   7   0.0201   0.0333   0.0798   0.0100  -0.0312  -0.0271 -11.00    0.0
2024/05/08 11:22:20.000   28.391231722  -16.391339727   674.3142   2   7   0.0201   0.0333   0.0798   0.0100  -0.0312  -0.0271 -10.00    0.0
2024/05/08 11:22:21.000   28.391231721  -16.391339727   674.3142   2   7   0.0201   0.0333   0.0798   0.0100  -0.0312  -0.0271  -9.00    0.0
2024/05/08 11:22:22.000   28.391231721  -16.391339728   674.3142   2   7   0.0201   0.0333   0.0798   0.0100  -0.0312  -0.0271  -8.00    0.0
2024/05/08 11:22:23.000   28.391231719  -16.391339730   674.3144   2   7   0.0202   0.0333   0.0799   0.0100  -0.0312  -0.0271  -7.00    0.0
2024/05/08 11:22:24.000   28.391231719  -16.391339732   674.3146   2   7   0.0202   0.0333   0.0799   0.0100  -0.0312  -0.0271  -6.00    0.0
2024/05/08 11:22:25.000   28.391231718  -16.391339733   674.3147   2   7   0.0202   0.0333   0.0800   0.0100  -0.0312  -0.0271  -5.00    0.0
2024/05/08 11:22:26.000   28.391231717  -16.391339734   674.3149   2   7   0.0202   0.0333   0.0800   0.0100  -0.0312  -0.0271  -4.00    0.0
2024/05/08 11:22:27.000   28.391231715  -16.391339736   674.3155   2   7   0.0202   0.0333   0.0801   0.0100  -0.0313  -0.0271  -3.00    0.0
2024/05/08 11:22:28.000   28.391231714  -16.391339740   674.3164   2   7   0.0202   0.0333   0.0802   0.0100  -0.0313  -0.0272  -2.00    0.0
2024/05/08 11:22:29.000   28.391231712  -16.391339743   674.3169   2   7   0.0202   0.0334   0.0803   0.0100  -0.0313  -0.0272  -1.00    0.0
2024/05/08 11:22:30.000   28.391231711  -16.391339748   674.3179   2   7   0.0203   0.0334   0.0804   0.0100  -0.0313  -0.0273   0.00    0.0
2024/05/08 11:22:31.000   28.391231709  -16.391339752   674.3183   2   7   0.0203   0.0334   0.0805   0.0101  -0.0314  -0.0273   1.00    0.0
2024/05/08 11:22:32.000   28.391231708  -16.391339757   674.3188   2   7   0.0203   0.0335   0.0806   0.0101  -0.0314  -0.0273   2.00    0.0
2024/05/08 11:22:33.000   28.391231707  -16.391339759   674.3193   2   7   0.0204   0.0335   0.0808   0.0101  -0.0314  -0.0274   3.00    0.0
2024/05/08 11:22:34.000   28.391231706  -16.391339761   674.3192   2   7   0.0204   0.0335   0.0808   0.0101  -0.0315  -0.0274   4.00    0.0
2024/05/08 11:22:35.000   28.391231705  -16.391339763   674.3191   2   7   0.0204   0.0335   0.0809   0.0101  -0.0315  -0.0274   5.00    0.0
2024/05/08 11:22:36.000   28.391231703  -16.391339766   674.3186   2   7   0.0204   0.0336   0.0810   0.0102  -0.0315  -0.0275   6.00    0.0
2024/05/08 11:22:37.000   28.391231703  -16.391339767   674.3178   2   7   0.0204   0.0336   0.0810   0.0102  -0.0315  -0.0275   7.00    0.0
2024/05/08 11:22:38.000   28.391231702  -16.391339769   674.3169   2   7   0.0204   0.0336   0.0811   0.0102  -0.0315  -0.0275   8.00    0.0
2024/05/08 11:22:39.000   28.391231702  -16.391339770   674.3161   2   7   0.0204   0.0336   0.0811   0.0102  -0.0315  -0.0275   9.00    0.0
2024/05/08 11:22:40.000   28.391231701  -16.391339770   674.3155   2   7   0.0205   0.0336   0.0811   0.0102  -0.0315  -0.0275  10.00    0.0
2024/05/08 11:22:41.000   28.391231701  -16.391339770   674.3149   2   7   0.0205   0.0336   0.0812   0.0102  -0.0315  -0.0275  11.00    0.0
2024/05/08 11:22:42.000   28.391231700  -16.391339770   674.3142   2   7   0.0205   0.0336   0.0812   0.0102  -0.0315  -0.0275  12.00    0.0
2024/05/08 11:22:43.000   28.391231700  -16.391339770   674.3136   2   7   0.0205   0.0336   0.0812   0.0102  -0.0315  -0.0275  13.00    0.0
2024/05/08 11:22:44.000   28.391231700  -16.391339770   674.3131   2   7   0.0205   0.0336   0.0812   0.0102  -0.0315  -0.0275  14.00    0.0
2024/05/08 11:22:45.000   28.391231699  -16.391339771   674.3127   2   7   0.0205   0.0336   0.0812   0.0102  -0.0315  -0.0275 -15.00    0.0
2024/05/08 11:22:46.000   28.391231699  -16.391339772   674.3125   2   7   0.0205   0.0336   0.0812   0.0102  -0.0315  -0.0275 -14.00    0.0
2024/05/08 11:22:47.000   28.391231698  -16.391339774   674.3124   2   7   0.0205   0.0336   0.0812   0.0102  -0.0315  -0.0275 -13.00    0.0
2024/05/08 11:22:48.000   28.391231698  -16.391339775   674.3121   2   7   0.0205   0.0336   0.0812   0.0102  -0.0315  -0.0275 -12.00    0.0
2024/05/08 11:22:49.000   28.391231698  -16.391339776   674.3116   2   7   0.0205   0.0336   0.0813   0.0102  -0.0315  -0.0275 -11.00    0.0
2024/05/08 11:22:50.000   28.391231697  -16.391339777   674.3110   2   7   0.0205   0.0336   0.0813   0.0102  -0.0315  -0.0275 -10.00    0.0
2024/05/08 11:22:51.000   28.391231697  -16.391339778   674.3105   2   7   0.0205   0.0336   0.0813   0.0102  -0.0315  -0.0275  -9.00    0.0
2024/05/08 11:22:52.000   28.391231697  -16.391339780   674.3100   2   7   0.0205   0.0336   0.0813   0.0102  -0.0315  -0.0275  -8.00    0.0
2024/05/08 11:22:53.000   28.391231697  -16.391339781   674.3095   2   7   0.0205   0.0336   0.0813   0.0102  -0.0315  -0.0275  -7.00    0.0
2024/05/08 11:22:54.000   28.391231696  -16.391339784   674.3091   2   7   0.0205   0.0336   0.0814   0.0102  -0.0315  -0.0275  -6.00    0.0
2024/05/08 11:22:55.000   28.391231696  -16.391339786   674.3087   2   7   0.0205   0.0336   0.0814   0.0102  -0.0315  -0.0276  -5.00    0.0
2024/05/08 11:22:56.000   28.391231696  -16.391339788   674.3084   2   7   0.0205   0.0336   0.0815   0.0102  -0.0316  -0.0276  -4.00    0.0
2024/05/08 11:22:57.000   28.391231695  -16.391339791   674.3083   2   7   0.0205   0.0336   0.0815   0.0102  -0.0316  -0.0276  -3.00    0.0
2024/05/08 11:22:58.000   28.391231694  -16.391339793   674.3077   2   7   0.0206   0.0337   0.0816   0.0102  -0.0316  -0.0276  -2.00    0.0
2024/05/08 11:22:59.000   28.391231691  -16.391339799   674.3076   2   7   0.0206   0.0337   0.0817   0.0102  -0.0316  -0.0277  -1.00    0.0
2024/05/08 11:23:00.000   28.391231687  -16.391339808   674.3078   2   7   0.0206   0.0337   0.0819   0.0103  -0.0317  -0.0277   0.00    0.0
2024/05/08 11:23:01.000   28.391231683  -16.391339815   674.3084   2   7   0.0207   0.0338   0.0820   0.0103  -0.0317  -0.0277   1.00    0.0
2024/05/08 11:23:02.000   28.391231680  -16.391339822   674.3084   2   7   0.0207   0.0338   0.0821   0.0103  -0.0317  -0.0278   2.00    0.0
2024/05/08 11:23:03.000   28.391231676  -16.391339829   674.3089   2   7   0.0207   0.0338   0.0822   0.0103  -0.0318  -0.0278   3.00    0.0
2024/05/08 11:23:04.000   28.391231674  -16.391339835   674.3091   2   7   0.0207   0.0339   0.0823   0.0103  -0.0318  -0.0279   4.00    0.0
2024/05/08 11:23:05.000   28.391231674  -16.391339839   674.3088   2   7   0.0207   0.0339   0.0824   0.0103  -0.0318  -0.0279   5.00    0.0
2024/05/08 11:23:06.000   28.391231672  -16.391339842   674.3087   2   7   0.0208   0.0339   0.0824   0.0104  -0.0318  -0.0279   6.00    0.0
2024/05/08 11:23:07.000   28.391231671  -16.391339844   674.3085   2   7   0.0208   0.0339   0.0825   0.0104  -0.0318  -0.0279   7.00    0.0
2024/05/08 11:23:08.000   28.391231670  -16.391339846   674.3084   2   7   0.0208   0.0339   0.0825   0.0104  -0.0318  -0.0279   8.00    0.0
2024/05/08 11:23:09.000   28.391231670  -16.391339847   674.3084   2   7   0.0208   0.0339   0.0825   0.0104  -0.0318  -0.0279   9.00    0.0
2024/05/08 11:23:10.000   28.391231669  -16.391339849   674.3084   2   7   0.0208   0.0339   0.0826   0.0104  -0.0318  -0.0279  10.00    0.0
2024/05/08 11:23:11.000   28.391231669  -16.391339851   674.3085   2   7   0.0208   0.0339   0.0826   0.0104  -0.0318  -0.0279  11.00    0.0
2024/05/08 11:23:12.000   28.391231668  -16.391339853   674.3086   2   7   0.0208   0.0339   0.0826   0.0104  -0.0318  -0.0279  12.00    0.0
2024/05/08 11:23:13.000   28.391231668  -16.391339855   674.3087   2   7   0.0208   0.0339   0.0826   0.0104  -0.0318  -0.0279  13.00    0.0
2024/05/08 11:23:14.000   28.391231667  -16.391339856   674.3089   2   7   0.0208   0.0339   0.0826   0.0104  -0.0318  -0.0279  14.00    0.0
2024/05/08 11:23:15.000   28.391231666  -16.391339857   674.3092   2   7   0.0208   0.0339   0.0826   0.0104  -0.0318  -0.0279 -15.00    0.0
2024/05/08 11:23:16.000   28.391231665  -16.391339858   674.3095   2   7   0.0208   0.0339   0.0827   0.0104  -0.0318  -0.0279 -14.00    0.0
2024/05/08 11:23:17.000   28.391231665  -16.391339860   674.3097   2   7   0.0208   0.0339   0.0827   0.0104  -0.0318  -0.0279 -13.00    0.0
2024/05/08 11:23:18.000   28.391231664  -16.391339861   674.3101   2   7   0.0208   0.0339   0.0827   0.0104  -0.0318  -0.0279 -12.00    0.0
2024/05/08 11:23:19.000   28.391231663  -16.391339863   674.3104   2   7   0.0208   0.0339   0.0827   0.0104  -0.0318  -0.0280 -11.00    0.0
2024/05/08 11:23:20.000   28.391231661  -16.391339865   674.3108   2   7   0.0208   0.0339   0.0827   0.0104  -0.0318  -0.0280 -10.00    0.0
2024/05/08 11:23:21.000   28.391231660  -16.391339868   674.3113   2   7   0.0208   0.0339   0.0827   0.0104  -0.0318  -0.0280  -9.00    0.0
2024/05/08 11:23:22.000   28.391231659  -16.391339870   674.3119   2   7   0.0208   0.0339   0.0827   0.0104  -0.0318  -0.0280  -8.00    0.0
2024/05/08 11:23:23.000   28.391231658  -16.391339872   674.3126   2   7   0.0208   0.0339   0.0828   0.0104  -0.0318  -0.0280  -7.00    0.0
2024/05/08 11:23:24.000   28.391231656  -16.391339875   674.3132   2   7   0.0208   0.0339   0.0828   0.0104  -0.0319  -0.0280  -6.00    0.0
2024/05/08 11:23:25.000   28.391231656  -16.391339877   674.3133   2   7   0.0209   0.0340   0.0829   0.0104  -0.0319  -0.0280  -5.00    0.0
2024/05/08 11:23:26.000   28.391231655  -16.391339881   674.3139   2   7   0.0209   0.0340   0.0829   0.0104  -0.0319  -0.0280  -4.00    0.0
2024/05/08 11:23:27.000   28.391231654  -16.391339886   674.3150   2   7   0.0209   0.0340   0.0830   0.0104  -0.0319  -0.0280  -3.00    0.0
2024/05/08 11:23:28.000   28.391231652  -16.391339893   674.3166   2   7   0.0209   0.0340   0.0831   0.0104  -0.0319  -0.0281  -2.00    0.0
2024/05/08 11:23:29.000   28.391231649  -16.391339902   674.3179   2   7   0.0209   0.0340   0.0832   0.0104  -0.0319  -0.0281  -1.00    0.0
2024/05/08 11:23:30.000   28.391231648  -16.391339910   674.3189   2   7   0.0210   0.0341   0.0833   0.0104  -0.0320  -0.0281   0.00    0.0
2024/05/08 11:23:31.000   28.391231646  -16.391339919   674.3216   2   7   0.0210   0.0341   0.0834   0.0105  -0.0320  -0.0282   1.00    0.0
2024/05/08 11:23:32.000   28.391231642  -16.391339930   674.3247   2   7   0.0210   0.0341   0.0835   0.0105  -0.0320  -0.0282   2.00    0.0
2024/05/08 11:23:33.000   28.391231641  -16.391339938   674.3261   2   7   0.0210   0.0342   0.0836   0.0105  -0.0321  -0.0283   3.00    0.0
2024/05/08 11:23:34.000   28.391231640  -16.391339944   674.3275   2   7   0.0211   0.0342   0.0837   0.0105  -0.0321  -0.0283   4.00    0.0
2024/05/08 11:23:35.000   28.391231639  -16.391339948   674.3288   2   7   0.0211   0.0342   0.0838   0.0105  -0.0321  -0.0283   5.00    0.0
2024/05/08 11:23:36.000   28.391231638  -16.391339953   674.3298   2   7   0.0211   0.0342   0.0838   0.0105  -0.0321  -0.0283   6.00    0.0
2024/05/08 11:23:37.000   28.391231637  -16.391339956   674.3309   2   7   0.0211   0.0342   0.0839   0.0106  -0.0321  -0.0283   7.00    0.0
2024/05/08 11:23:38.000   28.391231636  -16.391339959   674.3318   2   7   0.0211   0.0342   0.0839   0.0106  -0.0321  -0.0283   8.00    0.0
2024/05/08 11:23:39.000   28.391231636  -16.391339962   674.3325   2   7   0.0211   0.0342   0.0839   0.0106  -0.0321  -0.0284   9.00    0.0
2024/05/08 11:23:40.000   28.391231635  -16.391339965   674.3331   2   7   0.0211   0.0343   0.0840   0.0106  -0.0321  -0.0284  10.00    0.0
2024/05/08 11:23:41.000   28.391231633  -16.391339967   674.3339   2   7   0.0211   0.0343   0.0840   0.0106  -0.0321  -0.0284  11.00    0.0
2024/05/08 11:23:42.000   28.391231632  -16.391339969   674.3347   2   7   0.0211   0.0343   0.0840   0.0106  -0.0321  -0.0284  12.00    0.0
2024/05/08 11:23:43.000   28.391231631  -16.391339970   674.3353   2   7   0.0211   0.0343   0.0840   0.0106  -0.0321  -0.0284  13.00    0.0
2024/05/08 11:23:44.000   28.391231630  -16.391339971   674.3360   2   7   0.0211   0.0343   0.0840   0.0106  -0.0321  -0.0284  14.00    0.0
2024/05/08 11:23:45.000   28.391231630  -16.391339973   674.3365   2   7   0.0211   0.0343   0.0840   0.0106  -0.0321  -0.0284 -15.00    0.0
2024/05/08 11:23:46.000   28.391231629  -16.391339974   674.3368   2   7   0.0211   0.0343   0.0840   0.0106  -0.0321  -0.0284 -14.00    0.0
2024/05/08 11:23:47.000   28.391231629  -16.391339975   674.3372   2   7   0.0211   0.0343   0.0840   0.0106  -0.0321  -0.0284 -13.00    0.0
2024/05/08 11:23:48.000   28.391231628  -16.391339976   674.3376   2   7   0.0212   0.0343   0.0841   0.0106  -0.0321  -0.0284 -12.00    0.0
2024/05/08 11:23:49.000   28.391231628  -16.391339977   674.3379   2   7   0.0212   0.0343   0.0841   0.0106  -0.0321  -0.0284 -11.00    0.0
2024/05/08 11:23:50.000   28.391231628  -16.391339979   674.3382   2   7   0.0212   0.0343   0.0841   0.0106  -0.0321  -0.0284 -10.00    0.0
2024/05/08 11:23:51.000   28.391231628  -16.391339980   674.3386   2   7   0.0212   0.0343   0.0841   0.0106  -0.0321  -0.0284  -9.00    0.0
2024/05/08 11:23:52.000   28.391231627  -16.391339980   674.3392   2   7   0.0212   0.0343   0.0841   0.0106  -0.0321  -0.0284  -8.00    0.0
2024/05/08 11:23:53.000   28.391231627  -16.391339982   674.3399   2   7   0.0212   0.0343   0.0841   0.0106  -0.0322  -0.0284  -7.00    0.0
2024/05/08 11:23:54.000   28.391231626  -16.391339984   674.3408   2   7   0.0212   0.0343   0.0842   0.0106  -0.0322  -0.0284  -6.00    0.0
2024/05/08 11:23:55.000   28.391231625  -16.391339986   674.3418   2   7   0.0212   0.0343   0.0842   0.0106  -0.0322  -0.0284  -5.00    0.0
2024/05/08 11:23:56.000   28.391231625  -16.391339988   674.3428   2   7   0.0212   0.0343   0.0843   0.0106  -0.0322  -0.0284  -4.00    0.0
2024/05/08 11:23:57.000   28.391231625  -16.391339991   674.3436   2   7   0.0212   0.0343   0.0843   0.0106  -0.0322  -0.0285  -3.00    0.0
2024/05/08 11:23:58.000   28.391231626  -16.391339992   674.3444   2   7   0.0212   0.0344   0.0844   0.0106  -0.0322  -0.0285  -2.00    0.0
2024/05/08 11:23:59.000   28.391231627  -16.391339992   674.3451   2   7   0.0213   0.0344   0.0845   0.0106  -0.0322  -0.0285  -1.00    0.0
2024/05/08 11:24:00.000   28.391231629  -16.391339994   674.3459   2   7   0.0213   0.0344   0.0846   0.0106  -0.0323  -0.0286   0.00    0.0
2024/05/08 11:24:01.000   28.391231630  -16.391339996   674.3470   2   7   0.0213   0.0344   0.0847   0.0107  -0.0323  -0.0286   1.00    0.0
2024/05/08 11:24:02.000   28.391231632  -16.391339998   674.3473   2   7   0.0213   0.0345   0.0848   0.0107  -0.0323  -0.0286   2.00    0.0
2024/05/08 11:24:03.000   28.391231635  -16.391339999   674.3473   2   7   0.0214   0.0345   0.0849   0.0107  -0.0323  -0.0287   3.00    0.0
2024/05/08 11:24:04.000   28.391231637  -16.391340001   674.3474   2   7   0.0214   0.0345   0.0850   0.0107  -0.0324  -0.0287   4.00    0.0
2024/05/08 11:24:05.000   28.391231639  -16.391340001   674.3469   2   7   0.0214   0.0345   0.0851   0.0107  -0.0324  -0.0287   5.00    0.0
2024/05/08 11:24:06.000   28.391231642  -16.391340002   674.3464   2   7   0.0214   0.0346   0.0851   0.0107  -0.0324  -0.0287   6.00    0.0
2024/05/08 11:24:07.000   28.391231645  -16.391340005   674.3463   2   7   0.0214   0.0346   0.0852   0.0107  -0.0324  -0.0288   7.00    0.0
2024/05/08 11:24:08.000   28.391231646  -16.391340006   674.3462   2   7   0.0214   0.0346   0.0852   0.0107  -0.0324  -0.0288   8.00    0.0
2024/05/08 11:24:09.000   28.391231648  -16.391340007   674.3461   2   7   0.0214   0.0346   0.0852   0.0107  -0.0324  -0.0288   9.00    0.0
2024/05/08 11:24:10.000   28.391231650  -16.391340009   674.3461   2   7   0.0215   0.0346   0.0853   0.0107  -0.0324  -0.0288  10.00    0.0
2024/05/08 11:24:11.000   28.391231651  -16.391340010   674.3461   2   7   0.0215   0.0346   0.0853   0.0107  -0.0324  -0.0288  11.00    0.0
2024/05/08 11:24:12.000   28.391231652  -16.391340010   674.3460   2   7   0.0215   0.0346   0.0853   0.0107  -0.0324  -0.0288  12.00    0.0
2024/05/08 11:24:13.000   28.391231654  -16.391340011   674.3459   2   7   0.0215   0.0346   0.0853   0.0107  -0.0324  -0.0288  13.00    0.0
2024/05/08 11:24:14.000   28.391231655  -16.391340011   674.3458   2   7   0.0215   0.0346   0.0853   0.0107  -0.0324  -0.0288  14.00    0.0
2024/05/08 11:24:15.000   28.391231656  -16.391340012   674.3458   2   7   0.0215   0.0346   0.0853   0.0107  -0.0324  -0.0288 -15.00    0.0
2024/05/08 11:24:16.000   28.391231656  -16.391340012   674.3457   2   7   0.0215   0.0346   0.0853   0.0107  -0.0324  -0.0288 -14.00    0.0
2024/05/08 11:24:17.000   28.391231657  -16.391340012   674.3456   2   7   0.0215   0.0346   0.0853   0.0107  -0.0324  -0.0288 -13.00    0.0
2024/05/08 11:24:18.000   28.391231659  -16.391340012   674.3454   2   7   0.0215   0.0346   0.0853   0.0107  -0.0324  -0.0288 -12.00    0.0
2024/05/08 11:24:19.000   28.391231660  -16.391340013   674.3455   2   7   0.0215   0.0346   0.0854   0.0107  -0.0324  -0.0288 -11.00    0.0
2024/05/08 11:24:20.000   28.391231662  -16.391340014   674.3454   2   7   0.0215   0.0346   0.0854   0.0107  -0.0324  -0.0288 -10.00    0.0
2024/05/08 11:24:21.000   28.391231663  -16.391340014   674.3454   2   7   0.0215   0.0346   0.0854   0.0107  -0.0324  -0.0288  -9.00    0.0
2024/05/08 11:24:22.000   28.391231665  -16.391340015   674.3451   2   7   0.0215   0.0346   0.0854   0.0107  -0.0324  -0.0288  -8.00    0.0
2024/05/08 11:24:23.000   28.391231667  -16.391340016   674.3451   2   7   0.0215   0.0346   0.0854   0.0107  -0.0324  -0.0288  -7.00    0.0
2024/05/08 11:24:24.000   28.391231669  -16.391340017   674.3452   2   7   0.0215   0.0346   0.0855   0.0107  -0.0324  -0.0288  -6.00    0.0
2024/05/08 11:24:25.000   28.391231672  -16.391340018   674.3455   2   7   0.0215   0.0346   0.0855   0.0107  -0.0324  -0.0288  -5.00    0.0
2024/05/08 11:24:26.000   28.391231675  -16.391340019   674.3458   2   7   0.0215   0.0346   0.0855   0.0108  -0.0325  -0.0289  -4.00    0.0
2024/05/08 11:24:27.000   28.391231680  -16.391340018   674.3456   2   7   0.0215   0.0347   0.0856   0.0108  -0.0325  -0.0289  -3.00    0.0
2024/05/08 11:24:28.000   28.391231685  -16.391340017   674.3452   2   7   0.0216   0.0347   0.0857   0.0108  -0.0325  -0.0289  -2.00    0.0
2024/05/08 11:24:29.000   28.391231691  -16.391340017   674.3452   2   7   0.0216   0.0347   0.0858   0.0108  -0.0325  -0.0289  -1.00    0.0
2024/05/08 11:24:30.000   28.391231698  -16.391340016   674.3459   2   7   0.0216   0.0347   0.0859   0.0108  -0.0325  -0.0290   0.00    0.0
2024/05/08 11:24:31.000   28.391231707  -16.391340012   674.3465   2   7   0.0216   0.0348   0.0860   0.0108  -0.0326  -0.0290   1.00    0.0
2024/05/08 11:24:32.000   28.391231716  -16.391340010   674.3463   2   7   0.0217   0.0348   0.0861   0.0109  -0.0326  -0.0291   2.00    0.0
2024/05/08 11:24:33.000   28.391231724  -16.391340009   674.3461   2   7   0.0217   0.0348   0.0862   0.0109  -0.0326  -0.0291   3.00    0.0
2024/05/08 11:24:34.000   28.391231728  -16.391340008   674.3464   2   7   0.0217   0.0348   0.0862   0.0109  -0.0326  -0.0291   4.00    0.0
2024/05/08 11:24:35.000   28.391231733  -16.391340007   674.3465   2   7   0.0217   0.0349   0.0863   0.0109  -0.0326  -0.0291   5.00    0.0
2024/05/08 11:24:36.000   28.391231737  -16.391340007   674.3469   2   7   0.0217   0.0349   0.0863   0.0109  -0.0326  -0.0292   6.00    0.0
2024/05/08 11:24:37.000   28.391231739  -16.391340008   674.3475   2   7   0.0217   0.0349   0.0864   0.0109  -0.0327  -0.0292   7.00    0.0
2024/05/08 11:24:38.000   28.391231741  -16.391340008   674.3482   2   7   0.0217   0.0349   0.0864   0.0109  -0.0327  -0.0292   8.00    0.0
2024/05/08 11:24:39.000   28.391231742  -16.391340008   674.3487   2   7   0.0218   0.0349   0.0864   0.0109  -0.0327  -0.0292   9.00    0.0
2024/05/08 11:24:40.000   28.391231743  -16.391340008   674.3492   2   7   0.0218   0.0349   0.0865   0.0109  -0.0327  -0.0292  10.00    0.0
2024/05/08 11:24:41.000   28.391231744  -16.391340008   674.3497   2   7   0.0218   0.0349   0.0865   0.0109  -0.0327  -0.0292  11.00    0.0
2024/05/08 11:24:42.000   28.391231745  -16.391340008   674.3501   2   7   0.0218   0.0349   0.0865   0.0109  -0.0327  -0.0292  12.00    1.1
2024/05/08 11:24:43.000   28.391231746  -16.391340009   674.3504   2   7   0.0218   0.0349   0.0865   0.0109  -0.0327  -0.0292  13.00    1.1
2024/05/08 11:24:44.000   28.391231747  -16.391340010   674.3507   2   7   0.0218   0.0349   0.0865   0.0109  -0.0327  -0.0292  14.00    1.0
2024/05/08 11:24:45.000   28.391231747  -16.391340010   674.3508   2   7   0.0218   0.0349   0.0865   0.0109  -0.0327  -0.0292 -15.00    1.5
2024/05/08 11:24:46.000   28.391231748  -16.391340010   674.3507   2   7   0.0218   0.0349   0.0865   0.0109  -0.0327  -0.0292 -14.00    1.0
2024/05/08 11:24:47.000   28.391231749  -16.391340010   674.3508   2   7   0.0218   0.0349   0.0865   0.0109  -0.0327  -0.0292 -13.00    1.1
2024/05/08 11:24:48.000   28.391231751  -16.391340010   674.3508   2   7   0.0218   0.0349   0.0865   0.0109  -0.0327  -0.0292 -12.00    1.2
2024/05/08 11:24:49.000   28.391231753  -16.391340010   674.3509   2   7   0.0218   0.0349   0.0865   0.0109  -0.0327  -0.0292 -11.00    1.0
2024/05/08 11:24:50.000   28.391231754  -16.391340010   674.3511   2   7   0.0218   0.0349   0.0866   0.0109  -0.0327  -0.0292 -10.00    1.0
2024/05/08 11:24:51.000   28.391231757  -16.391340011   674.3515   2   7   0.0218   0.0349   0.0866   0.0109  -0.0327  -0.0292  -9.00    1.0
2024/05/08 11:24:52.000   28.391231759  -16.391340011   674.3518   2   7   0.0218   0.0349   0.0866   0.0109  -0.0327  -0.0292  -8.00    1.5
2024/05/08 11:24:53.000   28.391231762  -16.391340012   674.3519   2   7   0.0218   0.0349   0.0866   0.0109  -0.0327  -0.0292  -7.00    1.0
2024/05/08 11:24:54.000   28.391231765  -16.391340012   674.3521   2   7   0.0218   0.0349   0.0866   0.0109  -0.0327  -0.0292  -6.00    1.0
2024/05/08 11:24:55.000   28.391231768  -16.391340011   674.3525   2   7   0.0218   0.0349   0.0867   0.0109  -0.0327  -0.0292  -5.00    1.1
2024/05/08 11:24:56.000   28.391231772  -16.391340011   674.3528   2   7   0.0218   0.0350   0.0867   0.0109  -0.0327  -0.0293  -4.00    1.1
2024/05/08 11:24:57.000   28.391231778  -16.391340010   674.3529   2   7   0.0218   0.0350   0.0868   0.0109  -0.0327  -0.0293  -3.00    1.1
2024/05/08 11:24:58.000   28.391231784  -16.391340007   674.3534   2   7   0.0219   0.0350   0.0868   0.0109  -0.0327  -0.0293  -2.00    1.0
2024/05/08 11:24:59.000   28.391231792  -16.391340004   674.3531   2   7   0.0219   0.0350   0.0869   0.0109  -0.0327  -0.0293  -1.00    1.3
2024/05/08 11:25:00.000   28.391231800  -16.391340002   674.3530   2   7   0.0219   0.0350   0.0870   0.0110  -0.0328  -0.0294   0.00    1.2
2024/05/08 11:25:01.000   28.391231808  -16.391340000   674.3533   2   7   0.0219   0.0351   0.0871   0.0110  -0.0328  -0.0294   1.00    1.2
2024/05/08 11:25:02.000   28.391231813  -16.391340001   674.3542   2   7   0.0219   0.0351   0.0872   0.0110  -0.0328  -0.0294   2.00    1.0
2024/05/08 11:25:03.000   28.391231817  -16.391340001   674.3553   2   7   0.0220   0.0351   0.0873   0.0110  -0.0328  -0.0295   3.00    1.0
2024/05/08 11:25:04.000   28.391231821  -16.391340001   674.3562   2   7   0.0220   0.0351   0.0873   0.0110  -0.0328  -0.0295   4.00    1.1
2024/05/08 11:25:05.000   28.391231824  -16.391340002   674.3571   2   7   0.0220   0.0352   0.0874   0.0110  -0.0329  -0.0295   5.00    1.1
2024/05/08 11:25:06.000   28.391231825  -16.391340003   674.3585   2   7   0.0220   0.0352   0.0874   0.0110  -0.0329  -0.0295   6.00    1.1
2024/05/08 11:25:07.000   28.391231825  -16.391340004   674.3602   2   7   0.0220   0.0352   0.0875   0.0110  -0.0329  -0.0295   7.00    1.0
2024/05/08 11:25:08.000   28.391231824  -16.391340005   674.3619   2   7   0.0220   0.0352   0.0875   0.0110  -0.0329  -0.0295   8.00    1.2
2024/05/08 11:25:09.000   28.391231823  -16.391340006   674.3635   2   7   0.0220   0.0352   0.0875   0.0110  -0.0329  -0.0296   9.00    1.1
2024/05/08 11:25:10.000   28.391231822  -16.391340008   674.3651   2   7   0.0220   0.0352   0.0875   0.0110  -0.0329  -0.0296  10.00    1.1
2024/05/08 11:25:11.000   28.391231820  -16.391340009   674.3667   2   7   0.0220   0.0352   0.0875   0.0110  -0.0329  -0.0296  11.00    1.0
2024/05/08 11:25:12.000   28.391231819  -16.391340010   674.3681   2   7   0.0220   0.0352   0.0876   0.0110  -0.0329  -0.0296  12.00    1.2
2024/05/08 11:25:13.000   28.391231817  -16.391340012   674.3694   2   7   0.0221   0.0352   0.0876   0.0110  -0.0329  -0.0296  13.00    1.1
2024/05/08 11:25:14.000   28.391231816  -16.391340013   674.3704   2   7   0.0221   0.0352   0.0876   0.0110  -0.0329  -0.0296  14.00    1.0
2024/05/08 11:25:15.000   28.391231816  -16.391340014   674.3712   2   7   0.0221   0.0352   0.0876   0.0110  -0.0329  -0.0296 -15.00    1.2
2024/05/08 11:25:16.000   28.391231815  -16.391340015   674.3718   2   7   0.0221   0.0352   0.0876   0.0110  -0.0329  -0.0296 -14.00    1.2
2024/05/08 11:25:17.000   28.391231815  -16.391340016   674.3723   2   7   0.0221   0.0352   0.0876   0.0110  -0.0329  -0.0296 -13.00    1.0
2024/05/08 11:25:18.000   28.391231816  -16.391340016   674.3727   2   7   0.0221   0.0352   0.0876   0.0110  -0.0329  -0.0296 -12.00    1.1
2024/05/08 11:25:19.000   28.391231816  -16.391340017   674.3730   2   7   0.0221   0.0352   0.0876   0.0110  -0.0329  -0.0296 -11.00    1.3
2024/05/08 11:25:20.000   28.391231818  -16.391340018   674.3732   2   7   0.0221   0.0352   0.0876   0.0110  -0.0329  -0.0296 -10.00    1.1
2024/05/08 11:25:21.000   28.391231819  -16.391340019   674.3732   2   7   0.0221   0.0352   0.0876   0.0110  -0.0329  -0.0296  -9.00    1.0
2024/05/08 11:25:22.000   28.391231822  -16.391340019   674.3732   2   7   0.0221   0.0352   0.0876   0.0110  -0.0329  -0.0296  -8.00    1.2
2024/05/08 11:25:23.000   28.391231824  -16.391340019   674.3733   2   7   0.0221   0.0352   0.0877   0.0110  -0.0329  -0.0296  -7.00    1.2
2024/05/08 11:25:24.000   28.391231828  -16.391340018   674.3731   2   7   0.0221   0.0352   0.0877   0.0111  -0.0329  -0.0296  -6.00    1.0
2024/05/08 11:25:25.000   28.391231832  -16.391340016   674.3727   2   7   0.0221   0.0352   0.0877   0.0111  -0.0329  -0.0296  -5.00    1.0
2024/05/08 11:25:26.000   28.391231838  -16.391340014   674.3717   2   7   0.0221   0.0352   0.0877   0.0111  -0.0329  -0.0296  -4.00    1.4
2024/05/08 11:25:27.000   28.391231845  -16.391340011   674.3705   2   7   0.0221   0.0353   0.0878   0.0111  -0.0329  -0.0296  -3.00    1.0
2024/05/08 11:25:28.000   28.391231852  -16.391340010   674.3695   2   7   0.0221   0.0353   0.0878   0.0111  -0.0329  -0.0297  -2.00    1.1
2024/05/08 11:25:29.000   28.391231860  -16.391340007   674.3684   2   7   0.0221   0.0353   0.0879   0.0111  -0.0329  -0.0297  -1.00    1.0
2024/05/08 11:25:30.000   28.391231869  -16.391340004   674.3667   2   7   0.0222   0.0353   0.0880   0.0111  -0.0330  -0.0297   0.00    1.3
2024/05/08 11:25:31.000   28.391231877  -16.391339999   674.3654   2   7   0.0222   0.0353   0.0881   0.0111  -0.0330  -0.0297   1.00    1.0
2024/05/08 11:25:32.000   28.391231883  -16.391339996   674.3649   2   7   0.0222   0.0354   0.0881   0.0111  -0.0330  -0.0298   2.00    1.1
2024/05/08 11:25:33.000   28.391231890  -16.391339993   674.3638   2   7   0.0222   0.0354   0.0882   0.0111  -0.0330  -0.0298   3.00    1.1
2024/05/08 11:25:34.000   28.391231895  -16.391339993   674.3632   2   7   0.0222   0.0354   0.0883   0.0112  -0.0330  -0.0298   4.00    1.0
2024/05/08 11:25:35.000   28.391231900  -16.391339993   674.3629   2   7   0.0223   0.0354   0.0883   0.0112  -0.0330  -0.0298   5.00    1.2
2024/05/08 11:25:36.000   28.391231903  -16.391339993   674.3628   2   7   0.0223   0.0354   0.0884   0.0112  -0.0330  -0.0299   6.00    1.1
2024/05/08 11:25:37.000   28.391231905  -16.391339993   674.3629   2   7   0.0223   0.0354   0.0884   0.0112  -0.0330  -0.0299   7.00    1.3
2024/05/08 11:25:38.000   28.391231907  -16.391339993   674.3631   2   7   0.0223   0.0355   0.0884   0.0112  -0.0330  -0.0299   8.00    1.1
2024/05/08 11:25:39.000   28.391231909  -16.391339992   674.3632   2   7   0.0223   0.0355   0.0884   0.0112  -0.0330  -0.0299   9.00    1.0
2024/05/08 11:25:40.000   28.391231910  -16.391339991   674.3634   2   7   0.0223   0.0355   0.0885   0.0112  -0.0330  -0.0299  10.00    1.3
2024/05/08 11:25:41.000   28.391231911  -16.391339991   674.3637   2   7   0.0223   0.0355   0.0885   0.0112  -0.0330  -0.0299  11.00    1.0
2024/05/08 11:25:42.000   28.391231911  -16.391339991   674.3640   2   7   0.0223   0.0355   0.0885   0.0112  -0.0330  -0.0299  12.00    1.2
2024/05/08 11:25:43.000   28.391231912  -16.391339991   674.3642   2   7   0.0223   0.0355   0.0885   0.0112  -0.0330  -0.0299  13.00    1.2
2024/05/08 11:25:44.000   28.391231912  -16.391339992   674.3645   2   7   0.0223   0.0355   0.0885   0.0112  -0.0330  -0.0299  14.00    1.3
2024/05/08 11:25:45.000   28.391231912  -16.391339993   674.3648   2   7   0.0223   0.0355   0.0885   0.0112  -0.0330  -0.0299 -15.00    1.1
2024/05/08 11:25:46.000   28.391231913  -16.391339993   674.3651   2   7   0.0223   0.0355   0.0885   0.0112  -0.0330  -0.0299 -14.00    1.1
2024/05/08 11:25:47.000   28.391231913  -16.391339993   674.3653   2   7   0.0223   0.0355   0.0885   0.0112  -0.0330  -0.0299 -13.00    1.3
2024/05/08 11:25:48.000   28.391231914  -16.391339994   674.3657   2   7   0.0223   0.0355   0.0885   0.0112  -0.0330  -0.0299 -12.00    1.0
2024/05/08 11:25:49.000   28.391231914  -16.391339994   674.3660   2   7   0.0223   0.0355   0.0885   0.0112  -0.0330  -0.0299 -11.00    1.2
2024/05/08 11:25:50.000   28.391231915  -16.391339994   674.3664   2   7   0.0223   0.0355   0.0885   0.0112  -0.0330  -0.0299 -10.00    1.2
2024/05/08 11:25:51.000   28.391231916  -16.391339995   674.3669   2   7   0.0223   0.0355   0.0885   0.0112  -0.0330  -0.0299  -9.00    1.3
2024/05/08 11:25:52.000   28.391231916  -16.391339996   674.3674   2   7   0.0223   0.0355   0.0885   0.0112  -0.0330  -0.0299  -8.00    1.1
2024/05/08 11:25:53.000   28.391231916  -16.391339997   674.3681   2   7   0.0223   0.0355   0.0886   0.0112  -0.0330  -0.0299  -7.00    1.1
2024/05/08 11:25:54.000   28.391231917  -16.391339998   674.3688   2   7   0.0223   0.0355   0.0886   0.0112  -0.0330  -0.0299  -6.00    1.4
2024/05/08 11:25:55.000   28.391231918  -16.391339999   674.3693   2   7   0.0223   0.0355   0.0886   0.0112  -0.0331  -0.0299  -5.00    1.0
2024/05/08 11:25:56.000   28.391231920  -16.391340001   674.3695   2   7   0.0223   0.0355   0.0886   0.0112  -0.0331  -0.0299  -4.00    1.2
2024/05/08 11:25:57.000   28.391231922  -16.391340002   674.3697   2   7   0.0224   0.0355   0.0886   0.0112  -0.0331  -0.0300  -3.00    1.2
2024/05/08 11:25:58.000   28.391231927  -16.391340002   674.3695   2   7   0.0224   0.0355   0.0887   0.0112  -0.0331  -0.0300  -2.00    1.3
2024/05/08 11:25:59.000   28.391231932  -16.391340001   674.3686   2   7   0.0224   0.0356   0.0887   0.0112  -0.0331  -0.0300  -1.00    1.1
2024/05/08 11:26:00.000   28.391231938  -16.391340000   674.3666   2   7   0.0224   0.0356   0.0888   0.0112  -0.0331  -0.0300   0.00    1.2
2024/05/08 11:26:01.000   28.391231945  -16.391340002   674.3645   2   7   0.0224   0.0356   0.0889   0.0112  -0.0331  -0.0300   1.00    1.0
2024/05/08 11:26:02.000   28.391231950  -16.391340006   674.3633   2   7   0.0224   0.0356   0.0889   0.0112  -0.0331  -0.0301   2.00    1.1
2024/05/08 11:26:03.000   28.391231956  -16.391340008   674.3619   2   7   0.0225   0.0356   0.0890   0.0112  -0.0331  -0.0301   3.00    1.0
2024/05/08 11:26:04.000   28.391231961  -16.391340010   674.3601   2   7   0.0225   0.0357   0.0891   0.0112  -0.0332  -0.0301   4.00    1.1
2024/05/08 11:26:05.000   28.391231967  -16.391340011   674.3587   2   7   0.0225   0.0357   0.0891   0.0112  -0.0332  -0.0301   5.00    1.2
2024/05/08 11:26:06.000   28.391231971  -16.391340012   674.3582   2   7   0.0225   0.0357   0.0891   0.0112  -0.0332  -0.0302   6.00    1.0
2024/05/08 11:26:07.000   28.391231974  -16.391340016   674.3581   2   7   0.0225   0.0357   0.0892   0.0112  -0.0332  -0.0302   7.00    1.1
2024/05/08 11:26:08.000   28.391231977  -16.391340018   674.3578   2   7   0.0225   0.0357   0.0892   0.0112  -0.0332  -0.0302   8.00    1.2
2024/05/08 11:26:09.000   28.391231980  -16.391340020   674.3575   2   7   0.0225   0.0357   0.0892   0.0113  -0.0332  -0.0302   9.00    1.0
2024/05/08 11:26:10.000   28.391231982  -16.391340021   674.3573   2   7   0.0225   0.0357   0.0892   0.0113  -0.0332  -0.0302  10.00    1.0
2024/05/08 11:26:11.000   28.391231983  -16.391340023   674.3571   2   7   0.0225   0.0357   0.0892   0.0112  -0.0332  -0.0302  11.00    1.0
2024/05/08 11:26:12.000   28.391231985  -16.391340024   674.3570   2   7   0.0225   0.0357   0.0892   0.0112  -0.0332  -0.0302  12.00    1.2
2024/05/08 11:26:13.000   28.391231986  -16.391340025   674.3570   2   7   0.0225   0.0357   0.0892   0.0112  -0.0332  -0.0302  13.00    1.0
2024/05/08 11:26:14.000   28.391231986  -16.391340026   674.3569   2   7   0.0225   0.0357   0.0892   0.0112  -0.0332  -0.0302  14.00    1.1
2024/05/08 11:26:15.000   28.391231987  -16.391340027   674.3570   2   7   0.0225   0.0357   0.0892   0.0112  -0.0332  -0.0302 -15.00    1.2
2024/05/08 11:26:16.000   28.391231988  -16.391340028   674.3571   2   7   0.0225   0.0357   0.0892   0.0112  -0.0332  -0.0302 -14.00    1.0
2024/05/08 11:26:17.000   28.391231988  -16.391340028   674.3572   2   7   0.0225   0.0357   0.0892   0.0112  -0.0332  -0.0302 -13.00    1.0
2024/05/08 11:26:18.000   28.391231989  -16.391340029   674.3573   2   7   0.0225   0.0357   0.0892   0.0112  -0.0332  -0.0302 -12.00    1.0
2024/05/08 11:26:19.000   28.391231990  -16.391340029   674.3573   2   7   0.0225   0.0357   0.0893   0.0112  -0.0332  -0.0302 -11.00    1.2
2024/05/08 11:26:20.000   28.391231991  -16.391340029   674.3572   2   7   0.0225   0.0357   0.0893   0.0112  -0.0332  -0.0302 -10.00    1.0
2024/05/08 11:26:21.000   28.391231992  -16.391340030   674.3570   2   7   0.0225   0.0357   0.0893   0.0112  -0.0332  -0.0302  -9.00    1.1
2024/05/08 11:26:22.000   28.391231994  -16.391340031   674.3567   2   7   0.0225   0.0357   0.0893   0.0112  -0.0332  -0.0302  -8.00    1.2
2024/05/08 11:26:23.000   28.391231996  -16.391340032   674.3561   2   7   0.0225   0.0357   0.0893   0.0112  -0.0332  -0.0302  -7.00    1.0
2024/05/08 11:26:24.000   28.391231998  -16.391340033   674.3550   2   7   0.0226   0.0357   0.0893   0.0112  -0.0332  -0.0302  -6.00    1.0
2024/05/08 11:26:25.000   28.391232000  -16.391340034   674.3538   2   7   0.0226   0.0357   0.0893   0.0112  -0.0332  -0.0302  -5.00    1.0
2024/05/08 11:26:26.000   28.391232003  -16.391340035   674.3526   2   7   0.0226   0.0357   0.0893   0.0112  -0.0332  -0.0302  -4.00    1.2
2024/05/08 11:26:27.000   28.391232006  -16.391340037   674.3513   2   7   0.0226   0.0357   0.0893   0.0112  -0.0332  -0.0302  -3.00    1.1
2024/05/08 11:26:28.000   28.391232009  -16.391340040   674.3503   2   7   0.0226   0.0358   0.0894   0.0113  -0.0332  -0.0302  -2.00    1.1
2024/05/08 11:26:29.000   28.391232013  -16.391340043   674.3485   2   7   0.0226   0.0358   0.0894   0.0113  -0.0332  -0.0303  -1.00    1.2
2024/05/08 11:26:30.000   28.391232017  -16.391340044   674.3459   2   7   0.0226   0.0358   0.0895   0.0113  -0.0332  -0.0303   0.00    1.0
2024/05/08 11:26:31.000   28.391232021  -16.391340045   674.3435   2   7   0.0226   0.0358   0.0895   0.0113  -0.0332  -0.0303   1.00    1.1
2024/05/08 11:26:32.000   28.391232025  -16.391340047   674.3417   2   7   0.0226   0.0358   0.0896   0.0113  -0.0332  -0.0303   2.00    1.2
2024/05/08 11:26:33.000   28.391232027  -16.391340050   674.3406   2   7   0.0227   0.0358   0.0896   0.0113  -0.0332  -0.0303   3.00    1.1
2024/05/08 11:26:34.000   28.391232029  -16.391340053   674.3398   2   7   0.0227   0.0359   0.0897   0.0113  -0.0332  -0.0304   4.00    1.2
2024/05/08 11:26:35.000   28.391232031  -16.391340055   674.3392   2   7   0.0227   0.0359   0.0897   0.0113  -0.0332  -0.0304   5.00    1.4
2024/05/08 11:26:36.000   28.391232032  -16.391340058   674.3389   2   7   0.0227   0.0359   0.0897   0.0113  -0.0332  -0.0304   6.00    1.0
2024/05/08 11:26:37.000   28.391232033  -16.391340060   674.3384   2   7   0.0227   0.0359   0.0897   0.0113  -0.0332  -0.0304   7.00    1.1
2024/05/08 11:26:38.000   28.391232034  -16.391340062   674.3379   2   7   0.0227   0.0359   0.0898   0.0113  -0.0333  -0.0304   8.00    1.2
2024/05/08 11:26:39.000   28.391232035  -16.391340064   674.3375   2   7   0.0227   0.0359   0.0898   0.0113  -0.0333  -0.0304   9.00    1.2
2024/05/08 11:26:40.000   28.391232036  -16.391340065   674.3371   2   7   0.0227   0.0359   0.0898   0.0113  -0.0333  -0.0304  10.00    1.0
2024/05/08 11:26:41.000   28.391232037  -16.391340066   674.3368   2   7   0.0227   0.0359   0.0898   0.0113  -0.0332  -0.0304  11.00    1.3
2024/05/08 11:26:42.001   28.391232038  -16.391340068   674.3367   2   7   0.0227   0.0359   0.0898   0.0113  -0.0332  -0.0304  12.00    1.3
2024/05/08 11:26:43.000   28.391232039  -16.391340070   674.3366   2   7   0.0227   0.0359   0.0898   0.0113  -0.0332  -0.0304  13.00    1.0
2024/05/08 11:26:44.000   28.391232039  -16.391340071   674.3364   2   7   0.0227   0.0359   0.0898   0.0113  -0.0332  -0.0304  14.00    1.1
2024/05/08 11:26:45.000   28.391232039  -16.391340072   674.3363   2   7   0.0227   0.0359   0.0898   0.0113  -0.0332  -0.0304 -15.00    1.2
2024/05/08 11:26:46.000   28.391232040  -16.391340074   674.3362   2   7   0.0227   0.0359   0.0898   0.0113  -0.0332  -0.0304 -14.00    1.3
2024/05/08 11:26:47.000   28.391232040  -16.391340075   674.3361   2   7   0.0227   0.0359   0.0898   0.0113  -0.0332  -0.0304 -13.00    1.0
2024/05/08 11:26:48.000   28.391232040  -16.391340076   674.3360   2   7   0.0227   0.0359   0.0898   0.0113  -0.0332  -0.0304 -12.00    1.3
2024/05/08 11:26:49.000   28.391232040  -16.391340078   674.3358   2   7   0.0227   0.0359   0.0898   0.0113  -0.0332  -0.0304 -11.00    1.2
2024/05/08 11:26:50.000   28.391232040  -16.391340080   674.3358   2   7   0.0227   0.0359   0.0898   0.0113  -0.0332  -0.0304 -10.00    1.0
2024/05/08 11:26:51.000   28.391232041  -16.391340082   674.3357   2   7   0.0227   0.0359   0.0898   0.0113  -0.0332  -0.0304  -9.00    1.1
2024/05/08 11:26:52.000   28.391232041  -16.391340085   674.3355   2   7   0.0227   0.0359   0.0898   0.0113  -0.0332  -0.0304  -8.00    1.2
2024/05/08 11:26:53.000   28.391232041  -16.391340086   674.3353   2   7   0.0227   0.0359   0.0898   0.0113  -0.0332  -0.0304  -7.00    1.3
2024/05/08 11:26:54.000   28.391232041  -16.391340089   674.3353   2   7   0.0227   0.0359   0.0898   0.0113  -0.0332  -0.0304  -6.00    1.0
2024/05/08 11:26:55.000   28.391232040  -16.391340093   674.3354   2   7   0.0227   0.0359   0.0898   0.0113  -0.0332  -0.0304  -5.00    1.2
2024/05/08 11:26:56.000   28.391232039  -16.391340097   674.3358   2   7   0.0227   0.0359   0.0898   0.0113  -0.0332  -0.0304  -4.00    1.2
2024/05/08 11:26:57.000   28.391232038  -16.391340101   674.3364   2   7   0.0227   0.0359   0.0898   0.0113  -0.0332  -0.0304  -3.00    1.0
2024/05/08 11:26:58.000   28.391232038  -16.391340105   674.3366   2   7   0.0227   0.0359   0.0899   0.0113  -0.0332  -0.0305  -2.00    1.0
2024/05/08 11:26:59.000   28.391232038  -16.391340110   674.3368   2   7   0.0228   0.0359   0.0899   0.0113  -0.0332  -0.0305  -1.00    1.1
2024/05/08 11:27:00.000   28.391232037  -16.391340121   674.3371   2   7   0.0228   0.0359   0.0899   0.0113  -0.0332  -0.0305   0.00    1.1
2024/05/08 11:27:01.000   28.391232034  -16.391340132   674.3371   2   7   0.0228   0.0360   0.0900   0.0113  -0.0333  -0.0305   1.00    1.1
2024/05/08 11:27:02.000   28.391232032  -16.391340140   674.3373   2   7   0.0228   0.0360   0.0900   0.0113  -0.0333  -0.0305   2.00    1.1
2024/05/08 11:27:03.000   28.391232031  -16.391340149   674.3376   2   7   0.0228   0.0360   0.0900   0.0113  -0.0333  -0.0305   3.00    1.2
2024/05/08 11:27:04.000   28.391232030  -16.391340157   674.3380   2   7   0.0228   0.0360   0.0901   0.0113  -0.0333  -0.0306   4.00    1.0
2024/05/08 11:27:05.000   28.391232029  -16.391340162   674.3383   2   7   0.0228   0.0360   0.0901   0.0113  -0.0333  -0.0306   5.00    1.2
2024/05/08 11:27:06.000   28.391232027  -16.391340166   674.3387   2   7   0.0228   0.0360   0.0901   0.0113  -0.0333  -0.0306   6.00    1.1
2024/05/08 11:27:07.000   28.391232026  -16.391340170   674.3388   2   7   0.0228   0.0360   0.0901   0.0113  -0.0333  -0.0306   7.00    1.0
2024/05/08 11:27:08.000   28.391232024  -16.391340173   674.3388   2   7   0.0228   0.0360   0.0901   0.0113  -0.0333  -0.0306   8.00    1.1
2024/05/08 11:27:09.000   28.391232023  -16.391340176   674.3387   2   7   0.0228   0.0360   0.0901   0.0113  -0.0333  -0.0306   9.00    1.0
2024/05/08 11:27:10.000   28.391232022  -16.391340178   674.3386   2   7   0.0228   0.0360   0.0901   0.0113  -0.0333  -0.0306  10.00    1.3
2024/05/08 11:27:11.000   28.391232021  -16.391340181   674.3386   2   7   0.0228   0.0360   0.0901   0.0113  -0.0333  -0.0306  11.00    1.1
2024/05/08 11:27:12.000   28.391232020  -16.391340183   674.3386   2   7   0.0228   0.0360   0.0901   0.0113  -0.0333  -0.0306  12.00    1.3
2024/05/08 11:27:13.000   28.391232019  -16.391340185   674.3386   2   7   0.0229   0.0360   0.0901   0.0113  -0.0333  -0.0306  13.00    1.1
2024/05/08 11:27:14.000   28.391232019  -16.391340185   674.3386   2   7   0.0229   0.0360   0.0901   0.0113  -0.0333  -0.0306  14.00    1.1
2024/05/08 11:27:15.000   28.391232019  -16.391340186   674.3384   2   7   0.0229   0.0360   0.0901   0.0113  -0.0333  -0.0306 -15.00    1.1
2024/05/08 11:27:16.000   28.391232018  -16.391340187   674.3383   2   7   0.0229   0.0360   0.0901   0.0113  -0.0333  -0.0306 -14.00    1.0
2024/05/08 11:27:17.000   28.391232017  -16.391340188   674.3385   2   7   0.0229   0.0360   0.0901   0.0113  -0.0333  -0.0306 -13.00    1.3
2024/05/08 11:27:18.000   28.391232016  -16.391340190   674.3386   2   7   0.0229   0.0360   0.0901   0.0113  -0.0333  -0.0306 -12.00    1.1
2024/05/08 11:27:19.000   28.391232015  -16.391340191   674.3386   2   7   0.0229   0.0360   0.0901   0.0113  -0.0333  -0.0306 -11.00    1.3
2024/05/08 11:27:20.000   28.391232014  -16.391340193   674.3386   2   7   0.0229   0.0360   0.0901   0.0113  -0.0332  -0.0306 -10.00    1.1
2024/05/08 11:27:21.000   28.391232013  -16.391340195   674.3387   2   7   0.0229   0.0360   0.0901   0.0113  -0.0332  -0.0306  -9.00    1.1
2024/05/08 11:27:22.000   28.391232012  -16.391340198   674.3385   2   7   0.0229   0.0360   0.0901   0.0113  -0.0332  -0.0306  -8.00    1.1
2024/05/08 11:27:23.000   28.391232011  -16.391340200   674.3385   2   7   0.0229   0.0360   0.0901   0.0113  -0.0332  -0.0306  -7.00    1.1
2024/05/08 11:27:24.000   28.391232010  -16.391340203   674.3387   2   7   0.0229   0.0360   0.0901   0.0113  -0.0332  -0.0306  -6.00    1.4
2024/05/08 11:27:25.000   28.391232008  -16.391340205   674.3386   2   7   0.0229   0.0360   0.0901   0.0113  -0.0332  -0.0306  -5.00    1.1
2024/05/08 11:27:26.000   28.391232006  -16.391340208   674.3384   2   7   0.0229   0.0360   0.0901   0.0113  -0.0332  -0.0306  -4.00    1.4
2024/05/08 11:27:27.000   28.391232001  -16.391340212   674.3384   2   7   0.0229   0.0360   0.0901   0.0113  -0.0332  -0.0306  -3.00    1.2
2024/05/08 11:27:28.000   28.391231996  -16.391340217   674.3391   2   7   0.0229   0.0360   0.0901   0.0113  -0.0332  -0.0306  -2.00    1.1
2024/05/08 11:27:29.000   28.391231989  -16.391340225   674.3405   2   7   0.0229   0.0361   0.0901   0.0113  -0.0332  -0.0306  -1.00    1.1
2024/05/08 11:27:30.000   28.391231981  -16.391340234   674.3422   2   7   0.0229   0.0361   0.0902   0.0113  -0.0332  -0.0306   0.00    1.0
2024/05/08 11:27:31.000   28.391231973  -16.391340240   674.3434   2   7   0.0229   0.0361   0.0902   0.0113  -0.0332  -0.0306   1.00    1.1
2024/05/08 11:27:32.000   28.391231963  -16.391340249   674.3452   2   7   0.0229   0.0361   0.0902   0.0113  -0.0332  -0.0307   2.00    1.1
2024/05/08 11:27:33.000   28.391231954  -16.391340256   674.3468   2   7   0.0229   0.0361   0.0902   0.0113  -0.0332  -0.0307   3.00    1.1
2024/05/08 11:27:34.000   28.391231947  -16.391340260   674.3482   2   7   0.0229   0.0361   0.0902   0.0113  -0.0332  -0.0307   4.00    1.3
2024/05/08 11:27:35.000   28.391231940  -16.391340265   674.3498   2   7   0.0229   0.0361   0.0902   0.0113  -0.0332  -0.0307   5.00    1.0
2024/05/08 11:27:36.000   28.391231933  -16.391340269   674.3513   2   7   0.0229   0.0361   0.0903   0.0113  -0.0332  -0.0307   6.00    1.0
2024/05/08 11:27:37.000   28.391231927  -16.391340271   674.3529   2   7   0.0229   0.0361   0.0903   0.0113  -0.0332  -0.0307   7.00    1.0
2024/05/08 11:27:38.000   28.391231921  -16.391340274   674.3544   2   7   0.0229   0.0361   0.0903   0.0113  -0.0332  -0.0307   8.00    1.0
2024/05/08 11:27:39.000   28.391231917  -16.391340277   674.3556   2   7   0.0229   0.0361   0.0903   0.0113  -0.0332  -0.0307   9.00    1.2
2024/05/08 11:27:40.000   28.391231913  -16.391340278   674.3565   2   7   0.0229   0.0361   0.0903   0.0113  -0.0332  -0.0307  10.00    1.2
2024/05/08 11:27:41.000   28.391231909  -16.391340280   674.3576   2   7   0.0229   0.0361   0.0903   0.0113  -0.0332  -0.0307  11.00    1.4
2024/05/08 11:27:42.000   28.391231905  -16.391340281   674.3585   2   7   0.0229   0.0361   0.0903   0.0113  -0.0332  -0.0307  12.00    1.1
2024/05/08 11:27:43.000   28.391231902  -16.391340283   674.3593   2   7   0.0229   0.0361   0.0903   0.0113  -0.0332  -0.0307  13.00    1.0
2024/05/08 11:27:44.000   28.391231899  -16.391340284   674.3602   2   7   0.0229   0.0361   0.0903   0.0113  -0.0332  -0.0307  14.00    1.0
2024/05/08 11:27:45.000   28.391231896  -16.391340286   674.3611   2   7   0.0229   0.0361   0.0903   0.0113  -0.0332  -0.0307 -15.00    1.0
2024/05/08 11:27:46.000   28.391231893  -16.391340287   674.3621   2   7   0.0229   0.0361   0.0903   0.0113  -0.0332  -0.0307 -14.00    1.2
2024/05/08 11:27:47.000   28.391231889  -16.391340289   674.3633   2   7   0.0229   0.0361   0.0903   0.0113  -0.0332  -0.0307 -13.00    1.1
2024/05/08 11:27:48.000   28.391231885  -16.391340290   674.3648   2   7   0.0229   0.0361   0.0903   0.0113  -0.0332  -0.0307 -12.00    1.4
2024/05/08 11:27:49.000   28.391231880  -16.391340292   674.3666   2   7   0.0229   0.0361   0.0903   0.0113  -0.0332  -0.0307 -11.00    1.2
2024/05/08 11:27:50.000   28.391231875  -16.391340293   674.3683   2   7   0.0229   0.0361   0.0903   0.0113  -0.0332  -0.0307 -10.00    1.0
2024/05/08 11:27:51.000   28.391231870  -16.391340295   674.3700   2   7   0.0229   0.0361   0.0902   0.0113  -0.0332  -0.0307  -9.00    1.0
2024/05/08 11:27:52.000   28.391231864  -16.391340297   674.3718   2   7   0.0229   0.0361   0.0902   0.0113  -0.0332  -0.0307  -8.00    1.1
2024/05/08 11:27:53.000   28.391231858  -16.391340299   674.3736   2   7   0.0229   0.0361   0.0902   0.0113  -0.0332  -0.0307  -7.00    1.2
2024/05/08 11:27:54.000   28.391231851  -16.391340301   674.3756   2   7   0.0229   0.0361   0.0902   0.0113  -0.0332  -0.0307  -6.00    1.1
2024/05/08 11:27:55.000   28.391231844  -16.391340304   674.3780   2   7   0.0229   0.0361   0.0902   0.0113  -0.0332  -0.0307  -5.00    1.5
2024/05/08 11:27:56.000   28.391231837  -16.391340309   674.3802   2   7   0.0229   0.0361   0.0902   0.0113  -0.0332  -0.0307  -4.00    1.3
2024/05/08 11:27:57.000   28.391231830  -16.391340315   674.3826   2   7   0.0229   0.0361   0.0902   0.0113  -0.0332  -0.0307  -3.00    1.1
2024/05/08 11:27:58.000   28.391231821  -16.391340322   674.3853   2   7   0.0229   0.0361   0.0902   0.0113  -0.0332  -0.0307  -2.00    1.1
2024/05/08 11:27:59.000   28.391231812  -16.391340329   674.3873   2   7   0.0229   0.0361   0.0902   0.0113  -0.0332  -0.0307  -1.00    1.1
2024/05/08 11:28:00.000   28.391231802  -16.391340336   674.3896   2   7   0.0229   0.0361   0.0902   0.0113  -0.0332  -0.0307   0.00    1.2
2024/05/08 11:28:01.000   28.391231793  -16.391340343   674.3920   2   7   0.0229   0.0361   0.0902   0.0113  -0.0332  -0.0307   1.00    1.1
2024/05/08 11:28:02.000   28.391231784  -16.391340349   674.3942   2   7   0.0230   0.0361   0.0902   0.0113  -0.0331  -0.0307   2.00    1.1
2024/05/08 11:28:03.000   28.391231775  -16.391340354   674.3965   2   7   0.0230   0.0361   0.0902   0.0113  -0.0331  -0.0307   3.00    1.1
2024/05/08 11:28:04.000   28.391231768  -16.391340360   674.3985   2   7   0.0230   0.0361   0.0902   0.0113  -0.0331  -0.0308   4.00    1.0
2024/05/08 11:28:05.000   28.391231763  -16.391340365   674.3995   2   7   0.0230   0.0361   0.0902   0.0113  -0.0331  -0.0308   5.00    1.1
2024/05/08 11:28:06.000   28.391231759  -16.391340368   674.4000   2   7   0.0230   0.0361   0.0902   0.0113  -0.0331  -0.0308   6.00    1.1
2024/05/08 11:28:07.000   28.391231756  -16.391340370   674.4003   2   7   0.0230   0.0361   0.0902   0.0113  -0.0331  -0.0308   7.00    1.2
2024/05/08 11:28:08.000   28.391231754  -16.391340371   674.4003   2   7   0.0230   0.0361   0.0902   0.0113  -0.0331  -0.0308   8.00    1.2
2024/05/08 11:28:09.000   28.391231752  -16.391340372   674.4003   2   7   0.0230   0.0361   0.0902   0.0113  -0.0331  -0.0308   9.00    1.3
2024/05/08 11:28:10.000   28.391231750  -16.391340373   674.4002   2   7   0.0230   0.0361   0.0902   0.0113  -0.0331  -0.0308  10.00    1.1
2024/05/08 11:28:11.000   28.391231749  -16.391340373   674.4002   2   7   0.0230   0.0361   0.0902   0.0113  -0.0331  -0.0308  11.00    1.1
2024/05/08 11:28:12.000   28.391231748  -16.391340373   674.4002   2   7   0.0230   0.0361   0.0902   0.0113  -0.0331  -0.0308  12.00    1.0
2024/05/08 11:28:13.000   28.391231747  -16.391340374   674.4001   2   7   0.0230   0.0361   0.0902   0.0113  -0.0331  -0.0308  13.00    1.1
2024/05/08 11:28:14.000   28.391231747  -16.391340374   674.4001   2   7   0.0230   0.0361   0.0902   0.0113  -0.0331  -0.0308  14.00    1.1
2024/05/08 11:28:15.000   28.391231746  -16.391340374   674.4001   2   7   0.0230   0.0361   0.0902   0.0112  -0.0331  -0.0308 -15.00    1.2
2024/05/08 11:28:16.000   28.391231745  -16.391340374   674.4001   2   7   0.0230   0.0361   0.0902   0.0112  -0.0331  -0.0308 -14.00    1.3
2024/05/08 11:28:17.000   28.391231744  -16.391340374   674.4003   2   7   0.0230   0.0361   0.0902   0.0112  -0.0331  -0.0308 -13.00    1.1
2024/05/08 11:28:18.000   28.391231743  -16.391340375   674.4004   2   7   0.0230   0.0361   0.0902   0.0112  -0.0331  -0.0308 -12.00    1.1
2024/05/08 11:28:19.000   28.391231741  -16.391340374   674.4005   2   7   0.0230   0.0361   0.0902   0.0112  -0.0331  -0.0308 -11.00    1.0
2024/05/08 11:28:20.000   28.391231740  -16.391340374   674.4006   2   7   0.0230   0.0361   0.0902   0.0112  -0.0331  -0.0308 -10.00    1.1
2024/05/08 11:28:21.000   28.391231738  -16.391340374   674.4007   2   7   0.0230   0.0361   0.0902   0.0112  -0.0331  -0.0308  -9.00    1.1
2024/05/08 11:28:22.000   28.391231736  -16.391340375   674.4010   2   7   0.0230   0.0361   0.0901   0.0112  -0.0331  -0.0308  -8.00    1.2
2024/05/08 11:28:23.000   28.391231733  -16.391340375   674.4012   2   7   0.0230   0.0361   0.0901   0.0112  -0.0331  -0.0308  -7.00    1.2
2024/05/08 11:28:24.000   28.391231730  -16.391340374   674.4013   2   7   0.0230   0.0361   0.0901   0.0112  -0.0331  -0.0308  -6.00    1.1
2024/05/08 11:28:25.000   28.391231725  -16.391340373   674.4016   2   7   0.0230   0.0361   0.0901   0.0112  -0.0331  -0.0308  -5.00    1.1
2024/05/08 11:28:26.000   28.391231719  -16.391340372   674.4025   2   7   0.0230   0.0361   0.0901   0.0112  -0.0331  -0.0308  -4.00    1.0
2024/05/08 11:28:27.000   28.391231713  -16.391340372   674.4035   2   7   0.0230   0.0361   0.0901   0.0112  -0.0331  -0.0308  -3.00    1.1
2024/05/08 11:28:28.000   28.391231706  -16.391340372   674.4044   2   7   0.0230   0.0361   0.0900   0.0112  -0.0330  -0.0307  -2.00    1.0
2024/05/08 11:28:29.000   28.391231697  -16.391340372   674.4053   2   7   0.0230   0.0361   0.0900   0.0112  -0.0330  -0.0307  -1.00    1.3
2024/05/08 11:28:30.000   28.391231686  -16.391340374   674.4064   2   7   0.0230   0.0361   0.0900   0.0112  -0.0330  -0.0307   0.00    1.2
