% program   : RTKPOST-EX 2.5.0
% inp file  : C:\Users\SallyHenry\Desktop\Sally Internship\GNSS gravi\DATA\Survey Rover Obs\GUI12.24o
% inp file  : C:\Users\SallyHenry\Desktop\Sally Internship\GNSS gravi\DATA\BaseStations\TN01\TN0100ESP_R_20241290000_01D_30S_MO.rnx
% inp file  : C:\Users\SallyHenry\Desktop\Sally Internship\GNSS gravi\DATA\BaseStations\TN01\TN0100ESP_R_20241290000_01D_MN.rnx
% inp file  : C:\Users\SallyHenry\Desktop\Sally Internship\GNSS gravi\DATA\aux_files\Survey\IGS0OPSFIN_20241290000_01D_15M_ORB.SP3
% inp file  : C:\Users\SallyHenry\Desktop\Sally Internship\GNSS gravi\DATA\aux_files\Survey\IGS0OPSFIN_20241290000_01D_30S_CLK.CLK
% obs start : 2024/05/08 12:04:24.0 GPST (week2313 302664.0s)
% obs end   : 2024/05/08 12:21:31.0 GPST (week2313 303691.0s)
% pos mode  : Static
% freqs     : L1+L2/E5b
% solution  : Combined-No Phase Reset
% elev mask : 15.0 deg
% dynamics  : on
% tidecorr  : solid
% ionos opt : Estimate TEC
% tropo opt : Estimate ZTD+Grad
% ephemeris : Precise
% navi sys  : GPS GLONASS Galileo QZSS BDS
% amb res   : Fix and Hold
% amb glo   : Fix and Hold
% amb bds   : on
% val thres : 3.0
% antenna1  :                       ( 0.0000  0.0000  1.8000)
% antenna2  :                       ( 0.0000  0.0000  0.0771)
% ref pos   :  28.477186930  -16.241151700    51.7531
%
% (lat/lon/height=WGS84/ellipsoidal,Q=1:fix,2:float,3:sbas,4:dgps,5:single,6:ppp,ns=# of satellites)
%  GPST                  latitude(deg) longitude(deg)  height(m)   Q  ns   sdn(m)   sde(m)   sdu(m)  sdne(m)  sdeu(m)  sdun(m) age(s)  ratio
2024/05/08 12:04:24.000   28.362956046  -16.393827309   405.0966   2   8   0.0225   0.0226   0.0889   0.0148  -0.0259  -0.0396  -6.00    0.0
2024/05/08 12:04:25.000   28.362956045  -16.393827312   405.0963   2   8   0.0225   0.0226   0.0889   0.0148  -0.0259  -0.0396  -5.00    0.0
2024/05/08 12:04:26.000   28.362956045  -16.393827315   405.0955   2   8   0.0225   0.0226   0.0890   0.0148  -0.0259  -0.0396  -4.00    0.0
2024/05/08 12:04:27.000   28.362956046  -16.393827318   405.0947   2   8   0.0225   0.0226   0.0890   0.0148  -0.0259  -0.0396  -3.00    0.0
2024/05/08 12:04:28.000   28.362956045  -16.393827323   405.0940   2   8   0.0225   0.0227   0.0891   0.0148  -0.0259  -0.0396  -2.00    0.0
2024/05/08 12:04:29.000   28.362956042  -16.393827330   405.0934   2   8   0.0226   0.0227   0.0892   0.0149  -0.0259  -0.0397  -1.00    0.0
2024/05/08 12:04:30.000   28.362956041  -16.393827336   405.0926   2   8   0.0226   0.0227   0.0893   0.0149  -0.0260  -0.0397   0.00    0.0
2024/05/08 12:04:31.000   28.362956041  -16.393827341   405.0915   2   8   0.0226   0.0227   0.0894   0.0149  -0.0260  -0.0398   1.00    0.0
2024/05/08 12:04:32.000   28.362956042  -16.393827347   405.0900   2   8   0.0226   0.0228   0.0895   0.0149  -0.0260  -0.0398   2.00    0.0
2024/05/08 12:04:33.000   28.362956043  -16.393827350   405.0890   2   8   0.0227   0.0228   0.0895   0.0149  -0.0260  -0.0398   3.00    0.0
2024/05/08 12:04:34.000   28.362956043  -16.393827354   405.0880   2   8   0.0227   0.0228   0.0896   0.0149  -0.0261  -0.0399   4.00    0.0
2024/05/08 12:04:35.000   28.362956044  -16.393827357   405.0870   2   8   0.0227   0.0228   0.0897   0.0149  -0.0261  -0.0399   5.00    0.0
2024/05/08 12:04:36.000   28.362956044  -16.393827360   405.0863   2   8   0.0227   0.0228   0.0897   0.0150  -0.0261  -0.0399   6.00    0.0
2024/05/08 12:04:37.000   28.362956044  -16.393827362   405.0856   2   8   0.0227   0.0228   0.0897   0.0150  -0.0261  -0.0399   7.00    0.0
2024/05/08 12:04:38.000   28.362956045  -16.393827364   405.0849   2   8   0.0227   0.0228   0.0898   0.0150  -0.0261  -0.0399   8.00    0.0
2024/05/08 12:04:39.000   28.362956046  -16.393827365   405.0842   2   8   0.0227   0.0228   0.0898   0.0150  -0.0261  -0.0399   9.00    0.0
2024/05/08 12:04:40.000   28.362956045  -16.393827367   405.0839   2   8   0.0227   0.0228   0.0898   0.0150  -0.0261  -0.0399  10.00    0.0
2024/05/08 12:04:41.000   28.362956045  -16.393827369   405.0837   2   8   0.0227   0.0228   0.0898   0.0150  -0.0261  -0.0399  11.00    0.0
2024/05/08 12:04:42.000   28.362956045  -16.393827370   405.0833   2   8   0.0227   0.0228   0.0898   0.0150  -0.0261  -0.0399  12.00    0.0
2024/05/08 12:04:43.000   28.362956046  -16.393827371   405.0830   2   8   0.0227   0.0228   0.0898   0.0150  -0.0261  -0.0399  13.00    0.0
2024/05/08 12:04:44.000   28.362956045  -16.393827372   405.0828   2   8   0.0227   0.0228   0.0899   0.0150  -0.0261  -0.0399  14.00    0.0
2024/05/08 12:04:45.000   28.362956046  -16.393827373   405.0826   2   8   0.0227   0.0228   0.0899   0.0150  -0.0261  -0.0399 -15.00    0.0
2024/05/08 12:04:46.000   28.362956045  -16.393827373   405.0826   2   8   0.0227   0.0228   0.0899   0.0150  -0.0261  -0.0399 -14.00    0.0
2024/05/08 12:04:47.000   28.362956045  -16.393827374   405.0826   2   8   0.0227   0.0228   0.0899   0.0149  -0.0261  -0.0399 -13.00    0.0
2024/05/08 12:04:48.000   28.362956045  -16.393827374   405.0825   2   8   0.0227   0.0228   0.0899   0.0149  -0.0261  -0.0399 -12.00    0.0
2024/05/08 12:04:49.000   28.362956045  -16.393827376   405.0824   2   8   0.0227   0.0228   0.0899   0.0149  -0.0261  -0.0399 -11.00    0.0
2024/05/08 12:04:50.000   28.362956044  -16.393827377   405.0823   2   8   0.0227   0.0228   0.0899   0.0149  -0.0261  -0.0399 -10.00    0.0
2024/05/08 12:04:51.000   28.362956044  -16.393827378   405.0823   2   8   0.0227   0.0228   0.0899   0.0149  -0.0261  -0.0399  -9.00    0.0
2024/05/08 12:04:52.000   28.362956043  -16.393827379   405.0821   2   8   0.0227   0.0228   0.0899   0.0149  -0.0261  -0.0400  -8.00    0.0
2024/05/08 12:04:53.000   28.362956043  -16.393827381   405.0819   2   8   0.0227   0.0228   0.0899   0.0149  -0.0261  -0.0400  -7.00    0.0
2024/05/08 12:04:54.000   28.362956042  -16.393827382   405.0817   2   8   0.0227   0.0228   0.0900   0.0149  -0.0261  -0.0400  -6.00    0.0
2024/05/08 12:04:55.000   28.362956042  -16.393827384   405.0813   2   8   0.0227   0.0228   0.0900   0.0150  -0.0261  -0.0400  -5.00    0.0
2024/05/08 12:04:56.000   28.362956042  -16.393827385   405.0807   2   8   0.0228   0.0229   0.0901   0.0150  -0.0261  -0.0400  -4.00    0.0
2024/05/08 12:04:57.000   28.362956043  -16.393827386   405.0798   2   8   0.0228   0.0229   0.0901   0.0150  -0.0261  -0.0400  -3.00    0.0
2024/05/08 12:04:58.000   28.362956043  -16.393827387   405.0791   2   8   0.0228   0.0229   0.0902   0.0150  -0.0261  -0.0401  -2.00    0.0
2024/05/08 12:04:59.000   28.362956044  -16.393827389   405.0782   2   8   0.0228   0.0229   0.0903   0.0150  -0.0262  -0.0401  -1.00    0.0
2024/05/08 12:05:00.000   28.362956043  -16.393827393   405.0779   2   8   0.0228   0.0229   0.0904   0.0150  -0.0262  -0.0401   0.00    0.0
2024/05/08 12:05:01.000   28.362956042  -16.393827397   405.0777   2   8   0.0229   0.0230   0.0905   0.0150  -0.0262  -0.0402   1.00    0.0
2024/05/08 12:05:02.000   28.362956042  -16.393827399   405.0773   2   8   0.0229   0.0230   0.0906   0.0150  -0.0263  -0.0402   2.00    0.0
2024/05/08 12:05:03.000   28.362956042  -16.393827402   405.0766   2   8   0.0229   0.0230   0.0906   0.0151  -0.0263  -0.0403   3.00    0.0
2024/05/08 12:05:04.000   28.362956041  -16.393827407   405.0763   2   8   0.0229   0.0230   0.0907   0.0151  -0.0263  -0.0403   4.00    0.0
2024/05/08 12:05:05.000   28.362956041  -16.393827410   405.0760   2   8   0.0229   0.0230   0.0908   0.0151  -0.0263  -0.0403   5.00    0.0
2024/05/08 12:05:06.000   28.362956040  -16.393827413   405.0762   2   8   0.0229   0.0230   0.0908   0.0151  -0.0263  -0.0403   6.00    0.0
2024/05/08 12:05:07.000   28.362956039  -16.393827416   405.0764   2   8   0.0230   0.0230   0.0909   0.0151  -0.0263  -0.0404   7.00    0.0
2024/05/08 12:05:08.000   28.362956038  -16.393827418   405.0764   2   8   0.0230   0.0231   0.0909   0.0151  -0.0263  -0.0404   8.00    0.0
2024/05/08 12:05:09.000   28.362956037  -16.393827420   405.0766   2   8   0.0230   0.0231   0.0909   0.0151  -0.0263  -0.0404   9.00    0.0
2024/05/08 12:05:10.000   28.362956036  -16.393827422   405.0770   2   8   0.0230   0.0231   0.0909   0.0151  -0.0263  -0.0404  10.00    0.0
2024/05/08 12:05:11.000   28.362956036  -16.393827425   405.0772   2   8   0.0230   0.0231   0.0910   0.0151  -0.0263  -0.0404  11.00    0.0
2024/05/08 12:05:12.000   28.362956035  -16.393827426   405.0776   2   8   0.0230   0.0231   0.0910   0.0151  -0.0263  -0.0404  12.00    0.0
2024/05/08 12:05:13.000   28.362956034  -16.393827428   405.0781   2   8   0.0230   0.0231   0.0910   0.0151  -0.0263  -0.0404  13.00    0.0
2024/05/08 12:05:14.000   28.362956033  -16.393827429   405.0785   2   8   0.0230   0.0231   0.0910   0.0151  -0.0263  -0.0404  14.00    0.0
2024/05/08 12:05:15.000   28.362956033  -16.393827431   405.0788   2   8   0.0230   0.0231   0.0910   0.0151  -0.0263  -0.0404 -15.00    0.0
2024/05/08 12:05:16.000   28.362956032  -16.393827432   405.0793   2   8   0.0230   0.0231   0.0910   0.0151  -0.0263  -0.0404 -14.00    0.0
2024/05/08 12:05:17.000   28.362956031  -16.393827434   405.0800   2   8   0.0230   0.0231   0.0910   0.0151  -0.0263  -0.0404 -13.00    0.0
2024/05/08 12:05:18.000   28.362956030  -16.393827436   405.0808   2   8   0.0230   0.0231   0.0910   0.0151  -0.0263  -0.0404 -12.00    0.0
2024/05/08 12:05:19.000   28.362956028  -16.393827437   405.0815   2   8   0.0230   0.0231   0.0910   0.0151  -0.0263  -0.0404 -11.00    0.0
2024/05/08 12:05:20.000   28.362956027  -16.393827440   405.0823   2   8   0.0230   0.0231   0.0910   0.0151  -0.0263  -0.0404 -10.00    0.0
2024/05/08 12:05:21.000   28.362956026  -16.393827441   405.0830   2   8   0.0230   0.0231   0.0911   0.0151  -0.0263  -0.0404  -9.00    0.0
2024/05/08 12:05:22.000   28.362956025  -16.393827443   405.0837   2   8   0.0230   0.0231   0.0911   0.0151  -0.0263  -0.0404  -8.00    0.0
2024/05/08 12:05:23.000   28.362956024  -16.393827445   405.0847   2   8   0.0230   0.0231   0.0911   0.0151  -0.0263  -0.0404  -7.00    0.0
2024/05/08 12:05:24.000   28.362956022  -16.393827448   405.0859   2   8   0.0230   0.0231   0.0911   0.0151  -0.0263  -0.0404  -6.00    0.0
2024/05/08 12:05:25.000   28.362956020  -16.393827450   405.0870   2   8   0.0230   0.0231   0.0912   0.0151  -0.0263  -0.0405  -5.00    0.0
2024/05/08 12:05:26.000   28.362956019  -16.393827453   405.0882   2   8   0.0230   0.0231   0.0912   0.0151  -0.0264  -0.0405  -4.00    0.0
2024/05/08 12:05:27.000   28.362956018  -16.393827455   405.0894   2   8   0.0230   0.0231   0.0913   0.0151  -0.0264  -0.0405  -3.00    0.0
2024/05/08 12:05:28.000   28.362956015  -16.393827460   405.0912   2   8   0.0230   0.0231   0.0913   0.0151  -0.0264  -0.0405  -2.00    0.0
2024/05/08 12:05:29.000   28.362956013  -16.393827465   405.0926   2   8   0.0231   0.0231   0.0914   0.0151  -0.0264  -0.0406  -1.00    0.0
2024/05/08 12:05:30.000   28.362956012  -16.393827470   405.0932   2   8   0.0231   0.0232   0.0915   0.0152  -0.0264  -0.0406   0.00    0.0
2024/05/08 12:05:31.000   28.362956009  -16.393827475   405.0946   2   8   0.0231   0.0232   0.0916   0.0152  -0.0265  -0.0407   1.00    0.0
2024/05/08 12:05:32.000   28.362956007  -16.393827481   405.0960   2   8   0.0231   0.0232   0.0917   0.0152  -0.0265  -0.0407   2.00    0.0
2024/05/08 12:05:33.000   28.362956005  -16.393827486   405.0966   2   8   0.0232   0.0232   0.0918   0.0152  -0.0265  -0.0407   3.00    0.0
2024/05/08 12:05:34.000   28.362956003  -16.393827490   405.0976   2   8   0.0232   0.0233   0.0919   0.0152  -0.0266  -0.0408   4.00    0.0
2024/05/08 12:05:35.000   28.362956002  -16.393827493   405.0980   2   8   0.0232   0.0233   0.0919   0.0152  -0.0266  -0.0408   5.00    0.0
2024/05/08 12:05:36.000   28.362956002  -16.393827495   405.0980   2   8   0.0232   0.0233   0.0920   0.0152  -0.0266  -0.0408   6.00    0.0
2024/05/08 12:05:37.000   28.362956001  -16.393827496   405.0984   2   8   0.0232   0.0233   0.0920   0.0152  -0.0266  -0.0408   7.00    0.0
2024/05/08 12:05:38.000   28.362956001  -16.393827497   405.0987   2   8   0.0232   0.0233   0.0921   0.0152  -0.0266  -0.0408   8.00    0.0
2024/05/08 12:05:39.000   28.362955999  -16.393827499   405.0992   2   8   0.0232   0.0233   0.0921   0.0152  -0.0266  -0.0408   9.00    0.0
2024/05/08 12:05:40.000   28.362955999  -16.393827500   405.0993   2   8   0.0232   0.0233   0.0921   0.0152  -0.0266  -0.0409  10.00    0.0
2024/05/08 12:05:41.000   28.362955999  -16.393827500   405.0995   2   8   0.0232   0.0233   0.0921   0.0152  -0.0266  -0.0409  11.00    0.0
2024/05/08 12:05:42.000   28.362955998  -16.393827501   405.0998   2   8   0.0232   0.0233   0.0921   0.0152  -0.0266  -0.0409  12.00    0.0
2024/05/08 12:05:43.000   28.362955998  -16.393827502   405.1001   2   8   0.0232   0.0233   0.0922   0.0152  -0.0266  -0.0409  13.00    0.0
2024/05/08 12:05:44.000   28.362955997  -16.393827503   405.1004   2   8   0.0232   0.0233   0.0922   0.0152  -0.0266  -0.0409  14.00    0.0
2024/05/08 12:05:45.000   28.362955997  -16.393827503   405.1006   2   8   0.0232   0.0233   0.0922   0.0152  -0.0266  -0.0409 -15.00    0.0
2024/05/08 12:05:46.000   28.362955996  -16.393827504   405.1010   2   8   0.0232   0.0233   0.0922   0.0152  -0.0266  -0.0409 -14.00    0.0
2024/05/08 12:05:47.000   28.362955996  -16.393827504   405.1012   2   8   0.0232   0.0233   0.0922   0.0152  -0.0266  -0.0409 -13.00    0.0
2024/05/08 12:05:48.000   28.362955995  -16.393827505   405.1015   2   8   0.0232   0.0233   0.0922   0.0152  -0.0266  -0.0409 -12.00    0.0
2024/05/08 12:05:49.000   28.362955995  -16.393827505   405.1018   2   8   0.0232   0.0233   0.0922   0.0152  -0.0266  -0.0409 -11.00    0.0
2024/05/08 12:05:50.000   28.362955994  -16.393827505   405.1022   2   8   0.0232   0.0233   0.0922   0.0152  -0.0266  -0.0409 -10.00    0.0
2024/05/08 12:05:51.000   28.362955994  -16.393827505   405.1023   2   8   0.0233   0.0233   0.0922   0.0152  -0.0266  -0.0409  -9.00    0.0
2024/05/08 12:05:52.000   28.362955994  -16.393827506   405.1027   2   8   0.0233   0.0233   0.0922   0.0152  -0.0266  -0.0409  -8.00    0.0
2024/05/08 12:05:53.000   28.362955993  -16.393827507   405.1031   2   8   0.0233   0.0233   0.0923   0.0152  -0.0266  -0.0409  -7.00    0.0
2024/05/08 12:05:54.000   28.362955992  -16.393827507   405.1035   2   8   0.0233   0.0233   0.0923   0.0152  -0.0266  -0.0409  -6.00    0.0
2024/05/08 12:05:55.000   28.362955991  -16.393827508   405.1039   2   8   0.0233   0.0233   0.0923   0.0152  -0.0266  -0.0409  -5.00    0.0
2024/05/08 12:05:56.000   28.362955989  -16.393827509   405.1044   2   8   0.0233   0.0233   0.0924   0.0153  -0.0266  -0.0410  -4.00    0.0
2024/05/08 12:05:57.000   28.362955988  -16.393827510   405.1052   2   8   0.0233   0.0234   0.0924   0.0153  -0.0266  -0.0410  -3.00    0.0
2024/05/08 12:05:58.000   28.362955985  -16.393827511   405.1058   2   8   0.0233   0.0234   0.0925   0.0153  -0.0267  -0.0410  -2.00    0.0
2024/05/08 12:05:59.000   28.362955984  -16.393827511   405.1061   2   8   0.0233   0.0234   0.0926   0.0153  -0.0267  -0.0410  -1.00    0.0
2024/05/08 12:06:00.000   28.362955984  -16.393827510   405.1057   2   8   0.0234   0.0234   0.0927   0.0153  -0.0267  -0.0411   0.00    0.0
2024/05/08 12:06:01.000   28.362955985  -16.393827507   405.1051   2   8   0.0234   0.0234   0.0928   0.0153  -0.0267  -0.0411   1.00    0.0
2024/05/08 12:06:02.000   28.362955987  -16.393827505   405.1044   2   8   0.0234   0.0235   0.0929   0.0153  -0.0268  -0.0412   2.00    0.0
2024/05/08 12:06:03.000   28.362955989  -16.393827502   405.1039   2   8   0.0234   0.0235   0.0930   0.0154  -0.0268  -0.0412   3.00    0.0
2024/05/08 12:06:04.000   28.362955991  -16.393827500   405.1034   2   8   0.0235   0.0235   0.0930   0.0154  -0.0268  -0.0412   4.00    0.0
2024/05/08 12:06:05.000   28.362955993  -16.393827498   405.1031   2   8   0.0235   0.0235   0.0931   0.0154  -0.0268  -0.0413   5.00    0.0
2024/05/08 12:06:06.000   28.362955995  -16.393827497   405.1029   2   8   0.0235   0.0235   0.0931   0.0154  -0.0268  -0.0413   6.00    0.0
2024/05/08 12:06:07.000   28.362955996  -16.393827496   405.1026   2   8   0.0235   0.0235   0.0932   0.0154  -0.0268  -0.0413   7.00    0.0
2024/05/08 12:06:08.000   28.362955997  -16.393827496   405.1024   2   8   0.0235   0.0235   0.0932   0.0154  -0.0269  -0.0413   8.00    0.0
2024/05/08 12:06:09.000   28.362955998  -16.393827496   405.1024   2   8   0.0235   0.0235   0.0932   0.0154  -0.0269  -0.0413   9.00    0.0
2024/05/08 12:06:10.000   28.362955999  -16.393827496   405.1023   2   8   0.0235   0.0236   0.0933   0.0154  -0.0269  -0.0413  10.00    0.0
2024/05/08 12:06:11.000   28.362955999  -16.393827496   405.1023   2   8   0.0235   0.0236   0.0933   0.0154  -0.0269  -0.0413  11.00    0.0
2024/05/08 12:06:12.000   28.362955999  -16.393827496   405.1024   2   8   0.0235   0.0236   0.0933   0.0154  -0.0269  -0.0413  12.00    0.0
2024/05/08 12:06:13.000   28.362956000  -16.393827496   405.1023   2   8   0.0235   0.0236   0.0933   0.0154  -0.0269  -0.0413  13.00    0.0
2024/05/08 12:06:14.000   28.362956000  -16.393827496   405.1023   2   8   0.0235   0.0236   0.0933   0.0154  -0.0269  -0.0413  14.00    0.0
2024/05/08 12:06:15.000   28.362956000  -16.393827496   405.1023   2   8   0.0235   0.0236   0.0933   0.0154  -0.0269  -0.0413 -15.00    0.0
2024/05/08 12:06:16.000   28.362956001  -16.393827496   405.1022   2   8   0.0235   0.0236   0.0933   0.0154  -0.0269  -0.0413 -14.00    0.0
2024/05/08 12:06:17.000   28.362956002  -16.393827496   405.1020   2   8   0.0235   0.0236   0.0933   0.0154  -0.0269  -0.0414 -13.00    0.0
2024/05/08 12:06:18.000   28.362956003  -16.393827496   405.1017   2   8   0.0235   0.0236   0.0933   0.0154  -0.0269  -0.0414 -12.00    0.0
2024/05/08 12:06:19.000   28.362956004  -16.393827495   405.1013   2   8   0.0235   0.0236   0.0934   0.0154  -0.0269  -0.0414 -11.00    0.0
2024/05/08 12:06:20.000   28.362956005  -16.393827495   405.1009   2   8   0.0235   0.0236   0.0934   0.0154  -0.0269  -0.0414 -10.00    0.0
2024/05/08 12:06:21.000   28.362956007  -16.393827495   405.1004   2   8   0.0235   0.0236   0.0934   0.0154  -0.0269  -0.0414  -9.00    0.0
2024/05/08 12:06:22.000   28.362956008  -16.393827494   405.0998   2   8   0.0235   0.0236   0.0934   0.0154  -0.0269  -0.0414  -8.00    0.0
2024/05/08 12:06:23.000   28.362956010  -16.393827493   405.0988   2   8   0.0235   0.0236   0.0934   0.0154  -0.0269  -0.0414  -7.00    0.0
2024/05/08 12:06:24.000   28.362956012  -16.393827492   405.0979   2   8   0.0235   0.0236   0.0935   0.0154  -0.0269  -0.0414  -6.00    0.0
2024/05/08 12:06:25.000   28.362956013  -16.393827491   405.0973   2   8   0.0235   0.0236   0.0935   0.0154  -0.0269  -0.0414  -5.00    0.0
2024/05/08 12:06:26.000   28.362956014  -16.393827490   405.0967   2   8   0.0236   0.0236   0.0935   0.0154  -0.0269  -0.0414  -4.00    0.0
2024/05/08 12:06:27.000   28.362956016  -16.393827489   405.0958   2   8   0.0236   0.0236   0.0936   0.0154  -0.0269  -0.0414  -3.00    0.0
2024/05/08 12:06:28.000   28.362956017  -16.393827487   405.0947   2   8   0.0236   0.0236   0.0937   0.0154  -0.0269  -0.0415  -2.00    0.0
2024/05/08 12:06:29.000   28.362956020  -16.393827485   405.0929   2   8   0.0236   0.0236   0.0937   0.0154  -0.0269  -0.0415  -1.00    0.0
2024/05/08 12:06:30.000   28.362956021  -16.393827485   405.0917   2   8   0.0236   0.0237   0.0938   0.0155  -0.0270  -0.0416   0.00    0.0
2024/05/08 12:06:31.000   28.362956022  -16.393827487   405.0905   2   8   0.0237   0.0237   0.0939   0.0155  -0.0270  -0.0416   1.00    0.0
2024/05/08 12:06:32.000   28.362956024  -16.393827487   405.0892   2   8   0.0237   0.0237   0.0940   0.0155  -0.0270  -0.0416   2.00    0.0
2024/05/08 12:06:33.000   28.362956026  -16.393827487   405.0881   2   8   0.0237   0.0237   0.0941   0.0155  -0.0271  -0.0417   3.00    0.0
2024/05/08 12:06:34.000   28.362956028  -16.393827486   405.0872   2   8   0.0237   0.0238   0.0942   0.0155  -0.0271  -0.0417   4.00    0.0
2024/05/08 12:06:35.000   28.362956030  -16.393827488   405.0862   2   8   0.0237   0.0238   0.0942   0.0155  -0.0271  -0.0417   5.00    0.0
2024/05/08 12:06:36.000   28.362956031  -16.393827487   405.0859   2   8   0.0237   0.0238   0.0943   0.0155  -0.0271  -0.0418   6.00    0.0
2024/05/08 12:06:37.000   28.362956033  -16.393827487   405.0853   2   8   0.0238   0.0238   0.0943   0.0155  -0.0271  -0.0418   7.00    0.0
2024/05/08 12:06:38.000   28.362956034  -16.393827488   405.0849   2   8   0.0238   0.0238   0.0943   0.0155  -0.0271  -0.0418   8.00    0.0
2024/05/08 12:06:39.000   28.362956034  -16.393827488   405.0848   2   8   0.0238   0.0238   0.0944   0.0155  -0.0271  -0.0418   9.00    0.0
2024/05/08 12:06:40.000   28.362956035  -16.393827488   405.0847   2   8   0.0238   0.0238   0.0944   0.0155  -0.0271  -0.0418  10.00    0.0
2024/05/08 12:06:41.000   28.362956035  -16.393827488   405.0845   2   8   0.0238   0.0238   0.0944   0.0155  -0.0271  -0.0418  11.00    0.0
2024/05/08 12:06:42.000   28.362956036  -16.393827488   405.0844   2   8   0.0238   0.0238   0.0944   0.0155  -0.0271  -0.0418  12.00    0.0
2024/05/08 12:06:43.000   28.362956037  -16.393827487   405.0841   2   8   0.0238   0.0238   0.0944   0.0155  -0.0271  -0.0418  13.00    0.0
2024/05/08 12:06:44.000   28.362956038  -16.393827487   405.0839   2   8   0.0238   0.0238   0.0944   0.0155  -0.0271  -0.0418  14.00    0.0
2024/05/08 12:06:45.000   28.362956038  -16.393827487   405.0838   2   8   0.0238   0.0238   0.0944   0.0155  -0.0271  -0.0418 -15.00    0.0
2024/05/08 12:06:46.000   28.362956039  -16.393827487   405.0837   2   8   0.0238   0.0238   0.0945   0.0155  -0.0271  -0.0418 -14.00    0.0
2024/05/08 12:06:47.000   28.362956039  -16.393827486   405.0836   2   8   0.0238   0.0238   0.0945   0.0155  -0.0271  -0.0418 -13.00    0.0
2024/05/08 12:06:48.000   28.362956040  -16.393827486   405.0833   2   8   0.0238   0.0238   0.0945   0.0155  -0.0271  -0.0418 -12.00    0.0
2024/05/08 12:06:49.000   28.362956041  -16.393827486   405.0830   2   8   0.0238   0.0238   0.0945   0.0155  -0.0271  -0.0418 -11.00    0.0
2024/05/08 12:06:50.000   28.362956041  -16.393827485   405.0828   2   8   0.0238   0.0238   0.0945   0.0155  -0.0271  -0.0418 -10.00    0.0
2024/05/08 12:06:51.000   28.362956042  -16.393827485   405.0824   2   8   0.0238   0.0238   0.0945   0.0155  -0.0271  -0.0418  -9.00    0.0
2024/05/08 12:06:52.000   28.362956043  -16.393827485   405.0820   2   8   0.0238   0.0238   0.0945   0.0155  -0.0271  -0.0418  -8.00    0.0
2024/05/08 12:06:53.000   28.362956043  -16.393827484   405.0818   2   8   0.0238   0.0238   0.0945   0.0155  -0.0271  -0.0418  -7.00    0.0
2024/05/08 12:06:54.000   28.362956042  -16.393827484   405.0818   2   8   0.0238   0.0238   0.0946   0.0155  -0.0271  -0.0419  -6.00    0.0
2024/05/08 12:06:55.000   28.362956043  -16.393827484   405.0814   2   8   0.0238   0.0238   0.0946   0.0156  -0.0271  -0.0419  -5.00    0.0
2024/05/08 12:06:56.000   28.362956045  -16.393827484   405.0809   2   8   0.0238   0.0238   0.0946   0.0156  -0.0271  -0.0419  -4.00    0.0
2024/05/08 12:06:57.000   28.362956045  -16.393827484   405.0801   2   8   0.0238   0.0239   0.0947   0.0156  -0.0272  -0.0419  -3.00    0.0
2024/05/08 12:06:58.000   28.362956047  -16.393827484   405.0785   2   8   0.0239   0.0239   0.0948   0.0156  -0.0272  -0.0419  -2.00    0.0
2024/05/08 12:06:59.000   28.362956049  -16.393827484   405.0768   2   8   0.0239   0.0239   0.0948   0.0156  -0.0272  -0.0420  -1.00    0.0
2024/05/08 12:07:00.000   28.362956051  -16.393827483   405.0754   2   8   0.0239   0.0239   0.0949   0.0156  -0.0272  -0.0420   0.00    0.0
2024/05/08 12:07:01.000   28.362956053  -16.393827483   405.0742   2   8   0.0239   0.0239   0.0950   0.0156  -0.0272  -0.0421   1.00    0.0
2024/05/08 12:07:02.000   28.362956054  -16.393827483   405.0724   2   8   0.0239   0.0240   0.0951   0.0156  -0.0273  -0.0421   2.00    0.0
2024/05/08 12:07:03.000   28.362956055  -16.393827482   405.0710   2   8   0.0240   0.0240   0.0952   0.0156  -0.0273  -0.0421   3.00    0.0
2024/05/08 12:07:04.000   28.362956056  -16.393827481   405.0697   2   8   0.0240   0.0240   0.0953   0.0157  -0.0273  -0.0422   4.00    0.0
2024/05/08 12:07:05.000   28.362956056  -16.393827480   405.0686   2   8   0.0240   0.0240   0.0953   0.0157  -0.0273  -0.0422   5.00    0.0
2024/05/08 12:07:06.000   28.362956057  -16.393827480   405.0678   2   8   0.0240   0.0240   0.0954   0.0157  -0.0273  -0.0422   6.00    0.0
2024/05/08 12:07:07.000   28.362956058  -16.393827478   405.0666   2   8   0.0240   0.0240   0.0954   0.0157  -0.0273  -0.0422   7.00    0.0
2024/05/08 12:07:08.000   28.362956060  -16.393827477   405.0655   2   8   0.0240   0.0240   0.0954   0.0157  -0.0273  -0.0422   8.00    0.0
2024/05/08 12:07:09.000   28.362956061  -16.393827477   405.0647   2   8   0.0240   0.0240   0.0954   0.0157  -0.0274  -0.0422   9.00    0.0
2024/05/08 12:07:10.000   28.362956062  -16.393827476   405.0642   2   8   0.0240   0.0240   0.0955   0.0157  -0.0274  -0.0422  10.00    0.0
2024/05/08 12:07:11.000   28.362956062  -16.393827475   405.0636   2   8   0.0240   0.0240   0.0955   0.0157  -0.0274  -0.0423  11.00    0.0
2024/05/08 12:07:12.000   28.362956063  -16.393827475   405.0632   2   8   0.0240   0.0240   0.0955   0.0157  -0.0274  -0.0423  12.00    0.0
2024/05/08 12:07:13.000   28.362956064  -16.393827474   405.0628   2   8   0.0240   0.0240   0.0955   0.0157  -0.0274  -0.0423  13.00    0.0
2024/05/08 12:07:14.000   28.362956064  -16.393827474   405.0624   2   8   0.0240   0.0240   0.0955   0.0157  -0.0274  -0.0423  14.00    0.0
2024/05/08 12:07:15.000   28.362956065  -16.393827473   405.0621   2   8   0.0240   0.0240   0.0955   0.0157  -0.0274  -0.0423 -15.00    0.0
2024/05/08 12:07:16.000   28.362956066  -16.393827473   405.0617   2   8   0.0240   0.0241   0.0955   0.0157  -0.0274  -0.0423 -14.00    0.0
2024/05/08 12:07:17.000   28.362956067  -16.393827471   405.0611   2   8   0.0240   0.0241   0.0955   0.0157  -0.0274  -0.0423 -13.00    0.0
2024/05/08 12:07:18.000   28.362956068  -16.393827471   405.0606   2   8   0.0240   0.0241   0.0955   0.0157  -0.0274  -0.0423 -12.00    0.0
2024/05/08 12:07:19.000   28.362956069  -16.393827470   405.0601   2   8   0.0240   0.0241   0.0955   0.0157  -0.0274  -0.0423 -11.00    0.0
2024/05/08 12:07:20.000   28.362956069  -16.393827470   405.0598   2   8   0.0240   0.0241   0.0956   0.0157  -0.0274  -0.0423 -10.00    0.0
2024/05/08 12:07:21.000   28.362956070  -16.393827469   405.0596   2   8   0.0240   0.0241   0.0956   0.0157  -0.0274  -0.0423  -9.00    0.0
2024/05/08 12:07:22.000   28.362956070  -16.393827468   405.0593   2   8   0.0241   0.0241   0.0956   0.0157  -0.0274  -0.0423  -8.00    0.0
2024/05/08 12:07:23.000   28.362956071  -16.393827467   405.0589   2   8   0.0241   0.0241   0.0956   0.0157  -0.0274  -0.0423  -7.00    0.0
2024/05/08 12:07:24.000   28.362956072  -16.393827466   405.0585   2   8   0.0241   0.0241   0.0956   0.0157  -0.0274  -0.0423  -6.00    0.0
2024/05/08 12:07:25.000   28.362956072  -16.393827465   405.0582   2   8   0.0241   0.0241   0.0957   0.0157  -0.0274  -0.0423  -5.00    0.0
2024/05/08 12:07:26.000   28.362956073  -16.393827464   405.0578   2   8   0.0241   0.0241   0.0957   0.0157  -0.0274  -0.0423  -4.00    0.0
2024/05/08 12:07:27.000   28.362956074  -16.393827461   405.0576   2   8   0.0241   0.0241   0.0958   0.0157  -0.0274  -0.0424  -3.00    0.0
2024/05/08 12:07:28.000   28.362956075  -16.393827458   405.0573   2   8   0.0241   0.0241   0.0958   0.0157  -0.0274  -0.0424  -2.00    0.0
2024/05/08 12:07:29.000   28.362956076  -16.393827456   405.0569   2   8   0.0241   0.0241   0.0959   0.0157  -0.0274  -0.0424  -1.00    0.0
2024/05/08 12:07:30.000   28.362956079  -16.393827450   405.0558   2   8   0.0241   0.0242   0.0960   0.0157  -0.0274  -0.0424   0.00    0.0
2024/05/08 12:07:31.000   28.362956080  -16.393827446   405.0553   2   8   0.0242   0.0242   0.0960   0.0158  -0.0275  -0.0425   1.00    1.0
2024/05/08 12:07:32.000   28.362956079  -16.393827442   405.0555   2   8   0.0242   0.0242   0.0961   0.0158  -0.0275  -0.0425   2.00    1.3
2024/05/08 12:07:33.000   28.362956079  -16.393827442   405.0555   2   8   0.0242   0.0242   0.0962   0.0158  -0.0275  -0.0426   3.00    1.1
2024/05/08 12:07:34.000   28.362956078  -16.393827441   405.0557   2   8   0.0242   0.0242   0.0963   0.0158  -0.0275  -0.0426   4.00    1.1
2024/05/08 12:07:35.000   28.362956076  -16.393827441   405.0563   2   8   0.0242   0.0242   0.0963   0.0158  -0.0275  -0.0426   5.00    1.0
2024/05/08 12:07:36.000   28.362956075  -16.393827442   405.0566   2   8   0.0243   0.0243   0.0964   0.0158  -0.0275  -0.0426   6.00    1.1
2024/05/08 12:07:37.000   28.362956074  -16.393827441   405.0564   2   8   0.0243   0.0243   0.0964   0.0158  -0.0276  -0.0426   7.00    1.0
2024/05/08 12:07:38.000   28.362956073  -16.393827440   405.0564   2   8   0.0243   0.0243   0.0964   0.0158  -0.0276  -0.0426   8.00    1.2
2024/05/08 12:07:39.000   28.362956073  -16.393827439   405.0563   2   8   0.0243   0.0243   0.0965   0.0158  -0.0276  -0.0427   9.00    1.0
2024/05/08 12:07:40.000   28.362956073  -16.393827439   405.0562   2   8   0.0243   0.0243   0.0965   0.0158  -0.0276  -0.0427  10.00    1.1
2024/05/08 12:07:41.000   28.362956073  -16.393827438   405.0560   2   8   0.0243   0.0243   0.0965   0.0158  -0.0276  -0.0427  11.00    1.0
2024/05/08 12:07:42.000   28.362956072  -16.393827437   405.0558   2   8   0.0243   0.0243   0.0965   0.0158  -0.0276  -0.0427  12.00    1.0
2024/05/08 12:07:43.000   28.362956072  -16.393827437   405.0556   2   8   0.0243   0.0243   0.0965   0.0158  -0.0276  -0.0427  13.00    1.0
2024/05/08 12:07:44.000   28.362956072  -16.393827436   405.0553   2   8   0.0243   0.0243   0.0965   0.0158  -0.0276  -0.0427  14.00    1.1
2024/05/08 12:07:45.000   28.362956072  -16.393827436   405.0553   2   8   0.0243   0.0243   0.0965   0.0158  -0.0276  -0.0427 -15.00    1.0
2024/05/08 12:07:46.000   28.362956072  -16.393827436   405.0551   2   8   0.0243   0.0243   0.0965   0.0158  -0.0276  -0.0427 -14.00    1.1
2024/05/08 12:07:47.000   28.362956072  -16.393827436   405.0550   2   8   0.0243   0.0243   0.0965   0.0158  -0.0276  -0.0427 -13.00    1.0
2024/05/08 12:07:48.000   28.362956072  -16.393827435   405.0549   2   8   0.0243   0.0243   0.0965   0.0158  -0.0276  -0.0427 -12.00    1.0
2024/05/08 12:07:49.000   28.362956072  -16.393827435   405.0548   2   8   0.0243   0.0243   0.0965   0.0158  -0.0276  -0.0427 -11.00    1.0
2024/05/08 12:07:50.000   28.362956071  -16.393827434   405.0546   2   8   0.0243   0.0243   0.0966   0.0158  -0.0276  -0.0427 -10.00    1.0
2024/05/08 12:07:51.000   28.362956071  -16.393827434   405.0544   2   8   0.0243   0.0243   0.0966   0.0158  -0.0276  -0.0427  -9.00    1.1
2024/05/08 12:07:52.000   28.362956070  -16.393827434   405.0543   2   8   0.0243   0.0243   0.0966   0.0158  -0.0276  -0.0427  -8.00    1.0
2024/05/08 12:07:53.000   28.362956070  -16.393827433   405.0542   2   8   0.0243   0.0243   0.0966   0.0158  -0.0276  -0.0427  -7.00    1.1
2024/05/08 12:07:54.000   28.362956070  -16.393827431   405.0540   2   8   0.0243   0.0243   0.0966   0.0158  -0.0276  -0.0427  -6.00    1.1
2024/05/08 12:07:55.000   28.362956071  -16.393827429   405.0532   2   8   0.0243   0.0243   0.0967   0.0158  -0.0276  -0.0427  -5.00    1.0
2024/05/08 12:07:56.000   28.362956071  -16.393827428   405.0525   2   8   0.0243   0.0243   0.0967   0.0158  -0.0276  -0.0427  -4.00    1.1
2024/05/08 12:07:57.000   28.362956072  -16.393827425   405.0519   2   8   0.0243   0.0243   0.0967   0.0158  -0.0276  -0.0428  -3.00    1.0
2024/05/08 12:07:58.000   28.362956073  -16.393827420   405.0512   2   8   0.0243   0.0243   0.0968   0.0158  -0.0276  -0.0428  -2.00    1.0
2024/05/08 12:07:59.000   28.362956074  -16.393827415   405.0509   2   8   0.0244   0.0244   0.0969   0.0158  -0.0276  -0.0428  -1.00    1.1
2024/05/08 12:08:00.000   28.362956076  -16.393827412   405.0506   2   8   0.0244   0.0244   0.0969   0.0159  -0.0276  -0.0429   0.00    1.1
2024/05/08 12:08:01.000   28.362956077  -16.393827408   405.0506   2   8   0.0244   0.0244   0.0970   0.0159  -0.0277  -0.0429   1.00    1.0
2024/05/08 12:08:02.000   28.362956076  -16.393827406   405.0512   2   8   0.0244   0.0244   0.0971   0.0159  -0.0277  -0.0429   2.00    1.0
2024/05/08 12:08:03.000   28.362956076  -16.393827403   405.0518   2   8   0.0244   0.0244   0.0972   0.0159  -0.0277  -0.0429   3.00    1.1
2024/05/08 12:08:04.000   28.362956076  -16.393827402   405.0521   2   8   0.0245   0.0244   0.0972   0.0159  -0.0277  -0.0430   4.00    1.1
2024/05/08 12:08:05.000   28.362956075  -16.393827400   405.0520   2   8   0.0245   0.0245   0.0973   0.0159  -0.0277  -0.0430   5.00    1.0
2024/05/08 12:08:06.000   28.362956074  -16.393827400   405.0522   2   8   0.0245   0.0245   0.0973   0.0159  -0.0277  -0.0430   6.00    1.1
2024/05/08 12:08:07.000   28.362956074  -16.393827399   405.0525   2   8   0.0245   0.0245   0.0973   0.0159  -0.0277  -0.0430   7.00    1.2
2024/05/08 12:08:08.000   28.362956073  -16.393827399   405.0528   2   8   0.0245   0.0245   0.0974   0.0159  -0.0277  -0.0430   8.00    1.3
2024/05/08 12:08:09.000   28.362956073  -16.393827399   405.0531   2   8   0.0245   0.0245   0.0974   0.0159  -0.0277  -0.0430   9.00    1.1
2024/05/08 12:08:10.000   28.362956072  -16.393827398   405.0532   2   8   0.0245   0.0245   0.0974   0.0159  -0.0277  -0.0431  10.00    1.1
2024/05/08 12:08:11.000   28.362956072  -16.393827398   405.0533   2   8   0.0245   0.0245   0.0974   0.0159  -0.0277  -0.0431  11.00    1.1
2024/05/08 12:08:12.000   28.362956072  -16.393827397   405.0532   2   8   0.0245   0.0245   0.0974   0.0159  -0.0277  -0.0431  12.00    1.0
2024/05/08 12:08:13.000   28.362956072  -16.393827397   405.0532   2   8   0.0245   0.0245   0.0974   0.0159  -0.0277  -0.0431  13.00    1.1
2024/05/08 12:08:14.000   28.362956071  -16.393827397   405.0534   2   8   0.0245   0.0245   0.0974   0.0159  -0.0277  -0.0431  14.00    1.1
2024/05/08 12:08:15.000   28.362956071  -16.393827398   405.0535   2   8   0.0245   0.0245   0.0974   0.0159  -0.0277  -0.0431 -15.00    1.2
2024/05/08 12:08:16.000   28.362956070  -16.393827397   405.0537   2   8   0.0245   0.0245   0.0974   0.0159  -0.0277  -0.0431 -14.00    1.3
2024/05/08 12:08:17.000   28.362956069  -16.393827397   405.0538   2   8   0.0245   0.0245   0.0975   0.0159  -0.0277  -0.0431 -13.00    1.1
2024/05/08 12:08:18.000   28.362956069  -16.393827397   405.0541   2   8   0.0245   0.0245   0.0975   0.0159  -0.0277  -0.0431 -12.00    1.1
2024/05/08 12:08:19.000   28.362956068  -16.393827397   405.0544   2   8   0.0245   0.0245   0.0975   0.0159  -0.0277  -0.0431 -11.00    1.1
2024/05/08 12:08:20.000   28.362956067  -16.393827396   405.0547   2   8   0.0245   0.0245   0.0975   0.0159  -0.0277  -0.0431 -10.00    1.1
2024/05/08 12:08:21.000   28.362956066  -16.393827396   405.0550   2   8   0.0245   0.0245   0.0975   0.0159  -0.0277  -0.0431  -9.00    1.1
2024/05/08 12:08:22.000   28.362956066  -16.393827395   405.0552   2   8   0.0245   0.0245   0.0975   0.0159  -0.0277  -0.0431  -8.00    1.0
2024/05/08 12:08:23.000   28.362956065  -16.393827393   405.0554   2   8   0.0245   0.0245   0.0975   0.0159  -0.0277  -0.0431  -7.00    1.2
2024/05/08 12:08:24.000   28.362956066  -16.393827391   405.0555   2   8   0.0245   0.0245   0.0975   0.0159  -0.0277  -0.0431  -6.00    1.2
2024/05/08 12:08:25.000   28.362956066  -16.393827388   405.0556   2   8   0.0245   0.0245   0.0976   0.0159  -0.0278  -0.0431  -5.00    1.1
2024/05/08 12:08:26.000   28.362956066  -16.393827385   405.0558   2   8   0.0245   0.0245   0.0976   0.0159  -0.0278  -0.0431  -4.00    1.3
2024/05/08 12:08:27.000   28.362956065  -16.393827380   405.0563   2   8   0.0245   0.0245   0.0976   0.0159  -0.0278  -0.0431  -3.00    1.1
2024/05/08 12:08:28.000   28.362956066  -16.393827374   405.0564   2   8   0.0246   0.0246   0.0977   0.0159  -0.0278  -0.0432  -2.00    1.3
2024/05/08 12:08:29.000   28.362956067  -16.393827368   405.0567   2   8   0.0246   0.0246   0.0977   0.0160  -0.0278  -0.0432  -1.00    1.1
2024/05/08 12:08:30.000   28.362956068  -16.393827361   405.0577   2   8   0.0246   0.0246   0.0978   0.0160  -0.0278  -0.0432   0.00    1.0
2024/05/08 12:08:31.000   28.362956066  -16.393827355   405.0590   2   8   0.0246   0.0246   0.0979   0.0160  -0.0278  -0.0432   1.00    1.1
2024/05/08 12:08:32.000   28.362956064  -16.393827351   405.0599   2   8   0.0246   0.0246   0.0979   0.0160  -0.0278  -0.0433   2.00    1.2
2024/05/08 12:08:33.000   28.362956063  -16.393827347   405.0606   2   8   0.0246   0.0246   0.0980   0.0160  -0.0279  -0.0433   3.00    1.1
2024/05/08 12:08:34.000   28.362956064  -16.393827341   405.0609   2   8   0.0247   0.0246   0.0981   0.0160  -0.0279  -0.0433   4.00    1.5
2024/05/08 12:08:35.000   28.362956065  -16.393827337   405.0613   2   8   0.0247   0.0247   0.0981   0.0160  -0.0279  -0.0433   5.00    1.1
2024/05/08 12:08:36.000   28.362956065  -16.393827334   405.0614   2   8   0.0247   0.0247   0.0981   0.0160  -0.0279  -0.0434   6.00    1.3
2024/05/08 12:08:37.000   28.362956066  -16.393827331   405.0613   2   8   0.0247   0.0247   0.0982   0.0160  -0.0279  -0.0434   7.00    1.1
2024/05/08 12:08:38.000   28.362956067  -16.393827328   405.0613   2   8   0.0247   0.0247   0.0982   0.0160  -0.0279  -0.0434   8.00    1.1
2024/05/08 12:08:39.000   28.362956068  -16.393827326   405.0612   2   8   0.0247   0.0247   0.0982   0.0160  -0.0279  -0.0434   9.00    1.1
2024/05/08 12:08:40.000   28.362956069  -16.393827324   405.0612   2   8   0.0247   0.0247   0.0982   0.0160  -0.0279  -0.0434  10.00    1.2
2024/05/08 12:08:41.000   28.362956069  -16.393827322   405.0613   2   8   0.0247   0.0247   0.0982   0.0160  -0.0279  -0.0434  11.00    1.1
2024/05/08 12:08:42.000   28.362956070  -16.393827321   405.0614   2   8   0.0247   0.0247   0.0982   0.0160  -0.0279  -0.0434  12.00    1.5
2024/05/08 12:08:43.000   28.362956071  -16.393827319   405.0615   2   8   0.0247   0.0247   0.0983   0.0160  -0.0279  -0.0434  13.00    1.1
2024/05/08 12:08:44.000   28.362956071  -16.393827318   405.0616   2   8   0.0247   0.0247   0.0983   0.0160  -0.0279  -0.0434  14.00    1.3
2024/05/08 12:08:45.000   28.362956071  -16.393827317   405.0617   2   8   0.0247   0.0247   0.0983   0.0160  -0.0279  -0.0434 -15.00    1.1
2024/05/08 12:08:46.000   28.362956072  -16.393827316   405.0619   2   8   0.0247   0.0247   0.0983   0.0160  -0.0279  -0.0434 -14.00    1.1
2024/05/08 12:08:47.000   28.362956072  -16.393827315   405.0620   2   8   0.0247   0.0247   0.0983   0.0160  -0.0279  -0.0434 -13.00    1.0
2024/05/08 12:08:48.000   28.362956073  -16.393827314   405.0622   2   8   0.0247   0.0247   0.0983   0.0160  -0.0279  -0.0434 -12.00    1.2
2024/05/08 12:08:49.000   28.362956073  -16.393827313   405.0624   2   8   0.0247   0.0247   0.0983   0.0160  -0.0279  -0.0434 -11.00    1.1
2024/05/08 12:08:50.000   28.362956073  -16.393827311   405.0628   2   8   0.0247   0.0247   0.0983   0.0160  -0.0279  -0.0434 -10.00    1.5
2024/05/08 12:08:51.000   28.362956073  -16.393827310   405.0633   2   8   0.0247   0.0247   0.0983   0.0160  -0.0279  -0.0434  -9.00    1.1
2024/05/08 12:08:52.000   28.362956073  -16.393827308   405.0639   2   8   0.0247   0.0247   0.0983   0.0160  -0.0279  -0.0434  -8.00    1.3
2024/05/08 12:08:53.000   28.362956073  -16.393827306   405.0646   2   8   0.0247   0.0247   0.0983   0.0160  -0.0279  -0.0434  -7.00    1.0
2024/05/08 12:08:54.000   28.362956072  -16.393827303   405.0655   2   8   0.0247   0.0247   0.0983   0.0160  -0.0279  -0.0434  -6.00    1.1
2024/05/08 12:08:55.000   28.362956071  -16.393827301   405.0667   2   8   0.0247   0.0247   0.0984   0.0160  -0.0279  -0.0434  -5.00    1.0
2024/05/08 12:08:56.000   28.362956069  -16.393827299   405.0684   2   8   0.0247   0.0247   0.0984   0.0160  -0.0279  -0.0434  -4.00    1.1
2024/05/08 12:08:57.000   28.362956066  -16.393827296   405.0706   2   8   0.0247   0.0247   0.0984   0.0160  -0.0279  -0.0435  -3.00    1.1
2024/05/08 12:08:58.000   28.362956064  -16.393827291   405.0727   2   8   0.0248   0.0247   0.0985   0.0160  -0.0279  -0.0435  -2.00    1.5
2024/05/08 12:08:59.000   28.362956062  -16.393827286   405.0749   2   8   0.0248   0.0248   0.0985   0.0160  -0.0279  -0.0435  -1.00    1.1
2024/05/08 12:09:00.000   28.362956061  -16.393827280   405.0771   2   8   0.0248   0.0248   0.0986   0.0161  -0.0279  -0.0435   0.00    1.4
2024/05/08 12:09:01.000   28.362956062  -16.393827273   405.0787   2   8   0.0248   0.0248   0.0986   0.0161  -0.0280  -0.0435   1.00    1.3
2024/05/08 12:09:02.000   28.362956064  -16.393827264   405.0797   2   8   0.0248   0.0248   0.0987   0.0161  -0.0280  -0.0436   2.00    1.1
2024/05/08 12:09:03.000   28.362956066  -16.393827256   405.0802   2   8   0.0248   0.0248   0.0987   0.0161  -0.0280  -0.0436   3.00    1.1
2024/05/08 12:09:04.000   28.362956068  -16.393827250   405.0804   2   8   0.0248   0.0248   0.0988   0.0161  -0.0280  -0.0436   4.00    1.2
2024/05/08 12:09:05.000   28.362956069  -16.393827244   405.0809   2   8   0.0248   0.0248   0.0988   0.0161  -0.0280  -0.0436   5.00    1.0
2024/05/08 12:09:06.000   28.362956070  -16.393827239   405.0812   2   8   0.0249   0.0248   0.0989   0.0161  -0.0280  -0.0436   6.00    1.4
2024/05/08 12:09:07.000   28.362956072  -16.393827234   405.0813   2   8   0.0249   0.0249   0.0989   0.0161  -0.0280  -0.0437   7.00    1.1
2024/05/08 12:09:08.000   28.362956073  -16.393827230   405.0815   2   8   0.0249   0.0249   0.0989   0.0161  -0.0280  -0.0437   8.00    1.2
2024/05/08 12:09:09.000   28.362956073  -16.393827226   405.0816   2   8   0.0249   0.0249   0.0989   0.0161  -0.0280  -0.0437   9.00    1.0
2024/05/08 12:09:10.000   28.362956074  -16.393827223   405.0816   2   8   0.0249   0.0249   0.0989   0.0161  -0.0280  -0.0437  10.00    1.1
2024/05/08 12:09:11.000   28.362956075  -16.393827220   405.0815   2   8   0.0249   0.0249   0.0989   0.0161  -0.0280  -0.0437  11.00    1.1
2024/05/08 12:09:12.000   28.362956075  -16.393827218   405.0814   2   8   0.0249   0.0249   0.0990   0.0161  -0.0280  -0.0437  12.00    1.0
2024/05/08 12:09:13.000   28.362956076  -16.393827216   405.0813   2   8   0.0249   0.0249   0.0990   0.0161  -0.0280  -0.0437  13.00    1.0
2024/05/08 12:09:14.000   28.362956076  -16.393827214   405.0814   2   8   0.0249   0.0249   0.0990   0.0161  -0.0280  -0.0437  14.00    1.4
2024/05/08 12:09:15.000   28.362956077  -16.393827213   405.0814   2   8   0.0249   0.0249   0.0990   0.0161  -0.0280  -0.0437 -15.00    1.1
2024/05/08 12:09:16.000   28.362956077  -16.393827212   405.0814   2   8   0.0249   0.0249   0.0990   0.0161  -0.0280  -0.0437 -14.00    1.3
2024/05/08 12:09:17.000   28.362956077  -16.393827210   405.0814   2   8   0.0249   0.0249   0.0990   0.0161  -0.0280  -0.0437 -13.00    1.0
2024/05/08 12:09:18.000   28.362956077  -16.393827208   405.0816   2   8   0.0249   0.0249   0.0990   0.0161  -0.0280  -0.0437 -12.00    1.1
2024/05/08 12:09:19.000   28.362956077  -16.393827206   405.0818   2   8   0.0249   0.0249   0.0990   0.0161  -0.0280  -0.0437 -11.00    1.1
2024/05/08 12:09:20.000   28.362956077  -16.393827204   405.0822   2   8   0.0249   0.0249   0.0990   0.0161  -0.0280  -0.0437 -10.00    1.1
2024/05/08 12:09:21.000   28.362956076  -16.393827201   405.0829   2   8   0.0249   0.0249   0.0990   0.0161  -0.0280  -0.0437  -9.00    1.0
2024/05/08 12:09:22.000   28.362956076  -16.393827199   405.0837   2   8   0.0249   0.0249   0.0990   0.0161  -0.0280  -0.0437  -8.00    1.3
2024/05/08 12:09:23.000   28.362956075  -16.393827195   405.0847   2   8   0.0249   0.0249   0.0990   0.0161  -0.0280  -0.0437  -7.00    1.0
2024/05/08 12:09:24.000   28.362956074  -16.393827191   405.0858   2   8   0.0249   0.0249   0.0990   0.0161  -0.0280  -0.0437  -6.00    1.2
2024/05/08 12:09:25.000   28.362956073  -16.393827186   405.0874   2   8   0.0249   0.0249   0.0990   0.0161  -0.0280  -0.0437  -5.00    1.0
2024/05/08 12:09:26.000   28.362956071  -16.393827181   405.0896   2   8   0.0249   0.0249   0.0991   0.0161  -0.0280  -0.0437  -4.00    1.1
2024/05/08 12:09:27.000   28.362956069  -16.393827175   405.0923   2   8   0.0249   0.0249   0.0991   0.0161  -0.0280  -0.0437  -3.00    1.2
2024/05/08 12:09:28.000   28.362956067  -16.393827166   405.0953   2   8   0.0249   0.0249   0.0991   0.0161  -0.0280  -0.0437  -2.00    1.5
2024/05/08 12:09:29.000   28.362956066  -16.393827157   405.0982   2   8   0.0249   0.0249   0.0992   0.0161  -0.0280  -0.0438  -1.00    1.0
2024/05/08 12:09:30.000   28.362956064  -16.393827147   405.1012   2   8   0.0249   0.0249   0.0992   0.0161  -0.0280  -0.0438   0.00    1.2
2024/05/08 12:09:31.000   28.362956061  -16.393827139   405.1046   2   8   0.0250   0.0249   0.0993   0.0161  -0.0280  -0.0438   1.00    1.0
2024/05/08 12:09:32.000   28.362956059  -16.393827131   405.1079   2   8   0.0250   0.0250   0.0993   0.0161  -0.0281  -0.0438   2.00    1.1
2024/05/08 12:09:33.000   28.362956056  -16.393827122   405.1104   2   8   0.0250   0.0250   0.0994   0.0161  -0.0281  -0.0438   3.00    1.0
2024/05/08 12:09:34.000   28.362956053  -16.393827115   405.1122   2   8   0.0250   0.0250   0.0994   0.0162  -0.0281  -0.0439   4.00    1.0
2024/05/08 12:09:35.000   28.362956052  -16.393827110   405.1138   2   8   0.0250   0.0250   0.0994   0.0162  -0.0281  -0.0439   5.00    1.0
2024/05/08 12:09:36.000   28.362956050  -16.393827105   405.1156   2   8   0.0250   0.0250   0.0995   0.0162  -0.0281  -0.0439   6.00    1.7
2024/05/08 12:09:37.000   28.362956048  -16.393827102   405.1169   2   8   0.0250   0.0250   0.0995   0.0162  -0.0281  -0.0439   7.00    1.3
2024/05/08 12:09:38.000   28.362956046  -16.393827099   405.1178   2   8   0.0250   0.0250   0.0995   0.0162  -0.0281  -0.0439   8.00    1.2
2024/05/08 12:09:39.000   28.362956045  -16.393827096   405.1188   2   8   0.0250   0.0250   0.0995   0.0162  -0.0281  -0.0439   9.00    1.1
2024/05/08 12:09:40.000   28.362956043  -16.393827093   405.1196   2   8   0.0250   0.0250   0.0995   0.0162  -0.0281  -0.0439  10.00    1.5
2024/05/08 12:09:41.000   28.362956042  -16.393827091   405.1202   2   8   0.0250   0.0250   0.0995   0.0162  -0.0281  -0.0439  11.00    1.2
2024/05/08 12:09:42.000   28.362956041  -16.393827089   405.1209   2   8   0.0250   0.0250   0.0995   0.0162  -0.0281  -0.0439  12.00    1.1
2024/05/08 12:09:43.000   28.362956039  -16.393827088   405.1215   2   8   0.0250   0.0250   0.0995   0.0162  -0.0281  -0.0439  13.00    1.6
2024/05/08 12:09:44.000   28.362956038  -16.393827087   405.1221   2   8   0.0250   0.0250   0.0995   0.0162  -0.0281  -0.0439  14.00    1.4
2024/05/08 12:09:45.000   28.362956037  -16.393827087   405.1226   2   8   0.0250   0.0250   0.0995   0.0162  -0.0281  -0.0439 -15.00    1.3
2024/05/08 12:09:46.000   28.362956036  -16.393827086   405.1231   2   8   0.0250   0.0250   0.0995   0.0162  -0.0281  -0.0439 -14.00    1.1
2024/05/08 12:09:47.000   28.362956035  -16.393827086   405.1237   2   8   0.0250   0.0250   0.0995   0.0162  -0.0281  -0.0439 -13.00    1.5
2024/05/08 12:09:48.000   28.362956033  -16.393827085   405.1244   2   8   0.0250   0.0250   0.0995   0.0162  -0.0281  -0.0439 -12.00    1.0
2024/05/08 12:09:49.000   28.362956032  -16.393827084   405.1251   2   8   0.0250   0.0250   0.0995   0.0162  -0.0281  -0.0439 -11.00    1.1
2024/05/08 12:09:50.000   28.362956030  -16.393827083   405.1258   2   8   0.0250   0.0250   0.0996   0.0162  -0.0281  -0.0439 -10.00    1.0
2024/05/08 12:09:51.000   28.362956029  -16.393827082   405.1265   2   8   0.0250   0.0250   0.0996   0.0162  -0.0281  -0.0439  -9.00    1.7
2024/05/08 12:09:52.000   28.362956028  -16.393827080   405.1273   2   8   0.0250   0.0250   0.0996   0.0162  -0.0281  -0.0439  -8.00    1.4
2024/05/08 12:09:53.000   28.362956026  -16.393827079   405.1283   2   8   0.0250   0.0250   0.0996   0.0162  -0.0281  -0.0439  -7.00    1.4
2024/05/08 12:09:54.000   28.362956024  -16.393827077   405.1295   2   8   0.0250   0.0250   0.0996   0.0162  -0.0281  -0.0439  -6.00    1.1
2024/05/08 12:09:55.000   28.362956022  -16.393827074   405.1309   2   8   0.0250   0.0250   0.0996   0.0162  -0.0281  -0.0439  -5.00    1.5
2024/05/08 12:09:56.000   28.362956020  -16.393827071   405.1322   2   8   0.0250   0.0250   0.0996   0.0162  -0.0281  -0.0439  -4.00    1.2
2024/05/08 12:09:57.000   28.362956019  -16.393827067   405.1333   2   8   0.0250   0.0250   0.0996   0.0162  -0.0281  -0.0439  -3.00    1.3
2024/05/08 12:09:58.000   28.362956016  -16.393827064   405.1350   2   8   0.0250   0.0250   0.0996   0.0162  -0.0281  -0.0439  -2.00    1.6
2024/05/08 12:09:59.000   28.362956014  -16.393827062   405.1369   2   8   0.0251   0.0251   0.0997   0.0162  -0.0281  -0.0440  -1.00    1.5
2024/05/08 12:10:00.000   28.362956010  -16.393827059   405.1393   2   8   0.0251   0.0251   0.0997   0.0162  -0.0281  -0.0440   0.00    1.6
2024/05/08 12:10:01.000   28.362956008  -16.393827055   405.1415   2   8   0.0251   0.0251   0.0998   0.0162  -0.0281  -0.0440   1.00    1.0
2024/05/08 12:10:02.000   28.362956005  -16.393827051   405.1437   2   8   0.0251   0.0251   0.0998   0.0162  -0.0281  -0.0440   2.00    1.5
2024/05/08 12:10:03.000   28.362956002  -16.393827046   405.1457   2   8   0.0251   0.0251   0.0998   0.0162  -0.0281  -0.0440   3.00    1.0
2024/05/08 12:10:04.000   28.362956001  -16.393827040   405.1474   2   8   0.0251   0.0251   0.0999   0.0162  -0.0281  -0.0440   4.00    1.1
2024/05/08 12:10:05.000   28.362955999  -16.393827037   405.1485   2   8   0.0251   0.0251   0.0999   0.0162  -0.0281  -0.0440   5.00    1.1
2024/05/08 12:10:06.000   28.362955998  -16.393827034   405.1495   2   8   0.0251   0.0251   0.0999   0.0162  -0.0281  -0.0441   6.00    1.8
2024/05/08 12:10:07.000   28.362955996  -16.393827033   405.1505   2   8   0.0251   0.0251   0.0999   0.0162  -0.0281  -0.0441   7.00    1.5
2024/05/08 12:10:08.000   28.362955995  -16.393827031   405.1511   2   8   0.0251   0.0251   0.0999   0.0162  -0.0281  -0.0441   8.00    1.8
2024/05/08 12:10:09.000   28.362955994  -16.393827030   405.1516   2   8   0.0251   0.0251   0.1000   0.0162  -0.0281  -0.0441   9.00    1.1
2024/05/08 12:10:10.000   28.362955994  -16.393827029   405.1520   2   8   0.0251   0.0251   0.1000   0.0162  -0.0281  -0.0441  10.00    1.6
2024/05/08 12:10:11.000   28.362955993  -16.393827028   405.1524   2   8   0.0251   0.0251   0.1000   0.0162  -0.0281  -0.0441  11.00    1.2
2024/05/08 12:10:12.000   28.362955992  -16.393827028   405.1527   2   8   0.0251   0.0251   0.1000   0.0162  -0.0281  -0.0441  12.00    1.4
2024/05/08 12:10:13.000   28.362955992  -16.393827027   405.1529   2   8   0.0251   0.0251   0.1000   0.0162  -0.0281  -0.0441  13.00    1.6
2024/05/08 12:10:14.000   28.362955992  -16.393827026   405.1531   2   8   0.0251   0.0251   0.1000   0.0162  -0.0281  -0.0441  14.00    1.6
2024/05/08 12:10:15.000   28.362955991  -16.393827026   405.1533   2   8   0.0251   0.0251   0.1000   0.0162  -0.0281  -0.0441 -15.00    1.8
2024/05/08 12:10:16.000   28.362955991  -16.393827026   405.1536   2   8   0.0251   0.0251   0.1000   0.0162  -0.0281  -0.0441 -14.00    1.2
2024/05/08 12:10:17.000   28.362955991  -16.393827025   405.1538   2   8   0.0251   0.0251   0.1000   0.0162  -0.0281  -0.0441 -13.00    1.6
2024/05/08 12:10:18.000   28.362955990  -16.393827024   405.1541   2   8   0.0251   0.0251   0.1000   0.0162  -0.0281  -0.0441 -12.00    1.0
2024/05/08 12:10:19.000   28.362955991  -16.393827024   405.1543   2   8   0.0251   0.0251   0.1000   0.0162  -0.0281  -0.0441 -11.00    1.0
2024/05/08 12:10:20.000   28.362955990  -16.393827023   405.1547   2   8   0.0251   0.0251   0.1000   0.0162  -0.0281  -0.0441 -10.00    1.1
2024/05/08 12:10:21.000   28.362955990  -16.393827022   405.1551   2   8   0.0251   0.0251   0.1000   0.0162  -0.0281  -0.0441  -9.00    1.7
2024/05/08 12:10:22.000   28.362955990  -16.393827020   405.1554   2   8   0.0251   0.0251   0.1000   0.0162  -0.0281  -0.0441  -8.00    1.6
2024/05/08 12:10:23.000   28.362955989  -16.393827019   405.1557   2   8   0.0251   0.0251   0.1000   0.0162  -0.0281  -0.0441  -7.00    1.8
2024/05/08 12:10:24.000   28.362955989  -16.393827018   405.1560   2   8   0.0251   0.0251   0.1000   0.0162  -0.0281  -0.0441  -6.00    1.2
2024/05/08 12:10:25.000   28.362955988  -16.393827016   405.1565   2   8   0.0251   0.0251   0.1000   0.0162  -0.0281  -0.0441  -5.00    1.6
2024/05/08 12:10:26.000   28.362955987  -16.393827015   405.1571   2   8   0.0251   0.0251   0.1000   0.0162  -0.0281  -0.0441  -4.00    1.2
2024/05/08 12:10:27.000   28.362955984  -16.393827014   405.1576   2   8   0.0251   0.0251   0.1000   0.0162  -0.0281  -0.0441  -3.00    1.4
2024/05/08 12:10:28.000   28.362955982  -16.393827013   405.1579   2   8   0.0251   0.0252   0.1000   0.0162  -0.0281  -0.0441  -2.00    1.6
2024/05/08 12:10:29.000   28.362955981  -16.393827011   405.1582   2   8   0.0251   0.0252   0.1001   0.0162  -0.0281  -0.0441  -1.00    1.6
2024/05/08 12:10:30.000   28.362955981  -16.393827007   405.1586   2   8   0.0252   0.0252   0.1001   0.0162  -0.0281  -0.0441   0.00    1.8
2024/05/08 12:10:31.000   28.362955981  -16.393827002   405.1591   2   8   0.0252   0.0252   0.1001   0.0162  -0.0281  -0.0441   1.00    1.0
2024/05/08 12:10:32.000   28.362955981  -16.393826999   405.1599   2   8   0.0252   0.0252   0.1001   0.0162  -0.0281  -0.0441   2.00    1.3
2024/05/08 12:10:33.000   28.362955979  -16.393826997   405.1609   2   8   0.0252   0.0252   0.1002   0.0162  -0.0281  -0.0441   3.00    1.0
2024/05/08 12:10:34.000   28.362955977  -16.393826994   405.1617   2   8   0.0252   0.0252   0.1002   0.0162  -0.0282  -0.0441   4.00    1.0
2024/05/08 12:10:35.000   28.362955975  -16.393826994   405.1621   2   8   0.0252   0.0252   0.1002   0.0162  -0.0282  -0.0442   5.00    1.2
2024/05/08 12:10:36.000   28.362955973  -16.393826994   405.1622   2   8   0.0252   0.0252   0.1002   0.0162  -0.0282  -0.0442   6.00    1.7
2024/05/08 12:10:37.000   28.362955971  -16.393826993   405.1625   2   8   0.0252   0.0252   0.1002   0.0162  -0.0282  -0.0442   7.00    1.0
2024/05/08 12:10:38.000   28.362955968  -16.393826993   405.1626   2   8   0.0252   0.0252   0.1002   0.0162  -0.0282  -0.0442   8.00    1.2
2024/05/08 12:10:39.000   28.362955965  -16.393826994   405.1629   2   8   0.0252   0.0252   0.1002   0.0162  -0.0282  -0.0442   9.00    1.2
2024/05/08 12:10:40.000   28.362955962  -16.393826995   405.1633   2   8   0.0252   0.0252   0.1003   0.0162  -0.0282  -0.0442  10.00    1.0
2024/05/08 12:10:41.000   28.362955959  -16.393826996   405.1636   2   8   0.0252   0.0252   0.1003   0.0162  -0.0282  -0.0442  11.00    1.1
2024/05/08 12:10:42.000   28.362955957  -16.393826997   405.1638   2   8   0.0252   0.0252   0.1003   0.0162  -0.0282  -0.0442  12.00    1.0
2024/05/08 12:10:43.000   28.362955955  -16.393826998   405.1640   2   8   0.0252   0.0252   0.1003   0.0162  -0.0282  -0.0442  13.00    1.2
2024/05/08 12:10:44.000   28.362955954  -16.393826998   405.1642   2   8   0.0252   0.0252   0.1003   0.0162  -0.0282  -0.0442  14.00    1.6
2024/05/08 12:10:45.000   28.362955953  -16.393826999   405.1643   2   8   0.0252   0.0252   0.1003   0.0162  -0.0282  -0.0442 -15.00    1.1
2024/05/08 12:10:46.000   28.362955954  -16.393826998   405.1643   2   8   0.0252   0.0252   0.1003   0.0162  -0.0281  -0.0442 -14.00    1.2
2024/05/08 12:10:47.000   28.362955955  -16.393826998   405.1641   2   8   0.0252   0.0252   0.1003   0.0162  -0.0281  -0.0442 -13.00    1.2
2024/05/08 12:10:48.000   28.362955956  -16.393826997   405.1637   2   8   0.0252   0.0252   0.1003   0.0162  -0.0281  -0.0442 -12.00    1.1
2024/05/08 12:10:49.000   28.362955957  -16.393826996   405.1634   2   8   0.0252   0.0252   0.1003   0.0162  -0.0281  -0.0442 -11.00    1.1
2024/05/08 12:10:50.000   28.362955960  -16.393826995   405.1629   2   8   0.0252   0.0252   0.1003   0.0162  -0.0281  -0.0442 -10.00    1.0
2024/05/08 12:10:51.000   28.362955962  -16.393826993   405.1623   2   8   0.0252   0.0252   0.1003   0.0162  -0.0281  -0.0442  -9.00    1.2
2024/05/08 12:10:52.000   28.362955965  -16.393826992   405.1617   2   8   0.0252   0.0252   0.1003   0.0162  -0.0281  -0.0442  -8.00    1.6
2024/05/08 12:10:53.000   28.362955968  -16.393826991   405.1609   2   8   0.0252   0.0252   0.1003   0.0162  -0.0281  -0.0442  -7.00    1.0
2024/05/08 12:10:54.000   28.362955971  -16.393826990   405.1600   2   8   0.0252   0.0252   0.1003   0.0162  -0.0281  -0.0442  -6.00    1.3
2024/05/08 12:10:55.000   28.362955974  -16.393826989   405.1591   2   8   0.0252   0.0252   0.1003   0.0162  -0.0281  -0.0442  -5.00    1.1
2024/05/08 12:10:56.000   28.362955977  -16.393826986   405.1580   2   8   0.0252   0.0252   0.1003   0.0162  -0.0281  -0.0442  -4.00    1.1
2024/05/08 12:10:57.000   28.362955980  -16.393826985   405.1571   2   8   0.0252   0.0252   0.1003   0.0162  -0.0281  -0.0442  -3.00    1.0
2024/05/08 12:10:58.000   28.362955983  -16.393826984   405.1564   2   8   0.0252   0.0252   0.1003   0.0162  -0.0281  -0.0442  -2.00    1.1
2024/05/08 12:10:59.000   28.362955985  -16.393826983   405.1556   2   8   0.0252   0.0252   0.1003   0.0162  -0.0281  -0.0442  -1.00    1.2
2024/05/08 12:11:00.000   28.362955985  -16.393826981   405.1548   2   8   0.0252   0.0252   0.1003   0.0162  -0.0281  -0.0442   0.00    1.5
2024/05/08 12:11:01.000   28.362955986  -16.393826981   405.1545   2   8   0.0252   0.0252   0.1003   0.0162  -0.0281  -0.0442   1.00    1.0
2024/05/08 12:11:02.000   28.362955988  -16.393826981   405.1540   2   8   0.0252   0.0252   0.1003   0.0162  -0.0281  -0.0442   2.00    1.5
2024/05/08 12:11:03.000   28.362955990  -16.393826981   405.1536   2   8   0.0252   0.0253   0.1003   0.0162  -0.0281  -0.0442   3.00    1.1
2024/05/08 12:11:04.000   28.362955991  -16.393826981   405.1535   2   8   0.0252   0.0253   0.1004   0.0162  -0.0281  -0.0442   4.00    1.0
2024/05/08 12:11:05.000   28.362955992  -16.393826980   405.1536   2   8   0.0252   0.0253   0.1004   0.0162  -0.0281  -0.0442   5.00    1.0
2024/05/08 12:11:06.000   28.362955992  -16.393826979   405.1539   2   8   0.0252   0.0253   0.1004   0.0162  -0.0281  -0.0442   6.00    1.1
2024/05/08 12:11:07.000   28.362955993  -16.393826979   405.1543   2   8   0.0252   0.0253   0.1004   0.0162  -0.0281  -0.0442   7.00    1.1
2024/05/08 12:11:08.000   28.362955992  -16.393826980   405.1548   2   8   0.0252   0.0253   0.1004   0.0162  -0.0281  -0.0442   8.00    1.5
2024/05/08 12:11:09.000   28.362955993  -16.393826980   405.1552   2   8   0.0252   0.0253   0.1004   0.0162  -0.0281  -0.0442   9.00    1.1
2024/05/08 12:11:10.000   28.362955993  -16.393826980   405.1554   2   8   0.0252   0.0253   0.1004   0.0162  -0.0281  -0.0442  10.00    1.5
2024/05/08 12:11:11.000   28.362955994  -16.393826981   405.1557   2   8   0.0252   0.0253   0.1004   0.0162  -0.0281  -0.0442  11.00    1.2
2024/05/08 12:11:12.000   28.362955994  -16.393826981   405.1560   2   8   0.0252   0.0253   0.1004   0.0162  -0.0281  -0.0442  12.00    1.0
2024/05/08 12:11:13.000   28.362955995  -16.393826982   405.1562   2   8   0.0252   0.0253   0.1004   0.0162  -0.0281  -0.0442  13.00    1.1
2024/05/08 12:11:14.000   28.362955995  -16.393826982   405.1565   2   8   0.0252   0.0253   0.1004   0.0162  -0.0281  -0.0442  14.00    1.2
