% program   : RTKPOST-EX 2.5.0
% inp file  : C:\Users\SallyHenry\Desktop\Sally Internship\GNSS gravi\DATA\Survey Rover Obs\GUI13.24o
% inp file  : C:\Users\SallyHenry\Desktop\Sally Internship\GNSS gravi\DATA\BaseStations\TN01\TN0100ESP_R_20241290000_01D_30S_MO.rnx
% inp file  : C:\Users\SallyHenry\Desktop\Sally Internship\GNSS gravi\DATA\BaseStations\TN01\TN0100ESP_R_20241290000_01D_MN.rnx
% inp file  : C:\Users\SallyHenry\Desktop\Sally Internship\GNSS gravi\DATA\aux_files\Survey\IGS0OPSFIN_20241290000_01D_15M_ORB.SP3
% inp file  : C:\Users\SallyHenry\Desktop\Sally Internship\GNSS gravi\DATA\aux_files\Survey\IGS0OPSFIN_20241290000_01D_30S_CLK.CLK
% obs start : 2024/05/08 12:45:55.0 GPST (week2313 305155.0s)
% obs end   : 2024/05/08 13:00:55.0 GPST (week2313 306055.0s)
% pos mode  : Static
% freqs     : L1+L2/E5b
% solution  : Combined-No Phase Reset
% elev mask : 15.0 deg
% dynamics  : on
% tidecorr  : solid
% ionos opt : Estimate TEC
% tropo opt : Estimate ZTD+Grad
% ephemeris : Precise
% navi sys  : GPS GLONASS Galileo QZSS BDS
% amb res   : Fix and Hold
% amb glo   : Fix and Hold
% amb bds   : on
% val thres : 3.0
% antenna1  :                       ( 0.0000  0.0000  1.8000)
% antenna2  :                       ( 0.0000  0.0000  0.0771)
% ref pos   :  28.477186930  -16.241151700    51.7531
%
% (lat/lon/height=WGS84/ellipsoidal,Q=1:fix,2:float,3:sbas,4:dgps,5:single,6:ppp,ns=# of satellites)
%  GPST                  latitude(deg) longitude(deg)  height(m)   Q  ns   sdn(m)   sde(m)   sdu(m)  sdne(m)  sdeu(m)  sdun(m) age(s)  ratio
2024/05/08 12:45:55.000   28.372738670  -16.407560182   761.1842   2   7   0.0341   0.0495   0.1983   0.0376  -0.0873  -0.0748  -5.00    0.0
2024/05/08 12:45:57.000   28.372738670  -16.407560190   761.1850   2   7   0.0340   0.0495   0.1981   0.0376  -0.0872  -0.0747  -3.00    0.0
2024/05/08 12:45:58.000   28.372738673  -16.407560201   761.1855   2   7   0.0340   0.0494   0.1979   0.0375  -0.0870  -0.0746  -2.00    0.0
2024/05/08 12:45:59.000   28.372738678  -16.407560212   761.1830   2   7   0.0340   0.0494   0.1978   0.0375  -0.0869  -0.0745  -1.00    0.0
2024/05/08 12:46:00.000   28.372738683  -16.407560225   761.1800   2   7   0.0340   0.0494   0.1977   0.0374  -0.0868  -0.0745   0.00    0.0
2024/05/08 12:46:01.000   28.372738681  -16.407560250   761.1828   2   7   0.0339   0.0493   0.1976   0.0374  -0.0867  -0.0744   1.00    0.0
2024/05/08 12:46:02.000   28.372738682  -16.407560270   761.1834   2   7   0.0339   0.0493   0.1975   0.0373  -0.0866  -0.0743   2.00    0.0
2024/05/08 12:46:03.000   28.372738683  -16.407560288   761.1839   2   7   0.0339   0.0492   0.1974   0.0373  -0.0865  -0.0743   3.00    0.0
2024/05/08 12:46:04.000   28.372738681  -16.407560306   761.1855   2   7   0.0339   0.0492   0.1973   0.0373  -0.0864  -0.0742   4.00    0.0
2024/05/08 12:46:05.000   28.372738677  -16.407560324   761.1882   2   7   0.0339   0.0492   0.1972   0.0372  -0.0863  -0.0741   5.00    0.0
2024/05/08 12:46:06.000   28.372738674  -16.407560338   761.1902   2   7   0.0338   0.0491   0.1971   0.0372  -0.0862  -0.0740   6.00    0.0
2024/05/08 12:46:07.000   28.372738670  -16.407560352   761.1926   2   7   0.0338   0.0491   0.1970   0.0371  -0.0861  -0.0740   7.00    0.0
2024/05/08 12:46:08.000   28.372738665  -16.407560364   761.1955   2   7   0.0338   0.0490   0.1968   0.0371  -0.0860  -0.0739   8.00    0.0
2024/05/08 12:46:09.000   28.372738661  -16.407560375   761.1981   2   7   0.0338   0.0490   0.1967   0.0371  -0.0859  -0.0738   9.00    0.0
2024/05/08 12:46:10.000   28.372738656  -16.407560385   761.2007   2   7   0.0337   0.0489   0.1966   0.0370  -0.0858  -0.0738  10.00    0.0
2024/05/08 12:46:11.000   28.372738652  -16.407560395   761.2037   2   7   0.0337   0.0489   0.1964   0.0370  -0.0857  -0.0737  11.00    0.0
2024/05/08 12:46:12.000   28.372738646  -16.407560406   761.2068   2   7   0.0337   0.0488   0.1963   0.0369  -0.0856  -0.0736  12.00    0.0
2024/05/08 12:46:13.000   28.372738641  -16.407560416   761.2101   2   7   0.0336   0.0488   0.1961   0.0369  -0.0855  -0.0735  13.00    0.0
2024/05/08 12:46:14.000   28.372738636  -16.407560425   761.2130   2   7   0.0336   0.0488   0.1960   0.0369  -0.0854  -0.0735  14.00    0.0
2024/05/08 12:46:15.000   28.372738631  -16.407560434   761.2157   2   7   0.0336   0.0487   0.1959   0.0368  -0.0853  -0.0734 -15.00    0.0
2024/05/08 12:46:16.000   28.372738627  -16.407560440   761.2180   2   7   0.0336   0.0487   0.1957   0.0368  -0.0852  -0.0733 -14.00    0.0
2024/05/08 12:46:17.000   28.372738623  -16.407560448   761.2206   2   7   0.0335   0.0486   0.1956   0.0367  -0.0852  -0.0733 -13.00    0.0
2024/05/08 12:46:18.000   28.372738618  -16.407560456   761.2235   2   7   0.0335   0.0486   0.1955   0.0367  -0.0851  -0.0732 -12.00    0.0
2024/05/08 12:46:19.000   28.372738613  -16.407560466   761.2272   2   7   0.0335   0.0485   0.1954   0.0367  -0.0850  -0.0731 -11.00    0.0
2024/05/08 12:46:20.000   28.372738607  -16.407560477   761.2312   2   7   0.0335   0.0485   0.1952   0.0366  -0.0849  -0.0731 -10.00    0.0
2024/05/08 12:46:21.000   28.372738600  -16.407560490   761.2358   2   7   0.0334   0.0485   0.1951   0.0366  -0.0848  -0.0730  -9.00    0.0
2024/05/08 12:46:22.000   28.372738594  -16.407560504   761.2403   2   7   0.0334   0.0484   0.1950   0.0366  -0.0847  -0.0730  -8.00    0.0
2024/05/08 12:46:23.000   28.372738590  -16.407560513   761.2433   2   7   0.0334   0.0484   0.1949   0.0365  -0.0847  -0.0729  -7.00    0.0
2024/05/08 12:46:24.000   28.372738586  -16.407560525   761.2469   2   7   0.0334   0.0483   0.1948   0.0365  -0.0846  -0.0728  -6.00    0.0
2024/05/08 12:46:25.000   28.372738583  -16.407560537   761.2506   2   7   0.0334   0.0483   0.1947   0.0365  -0.0845  -0.0728  -5.00    0.0
2024/05/08 12:46:26.000   28.372738579  -16.407560551   761.2553   2   7   0.0334   0.0483   0.1946   0.0364  -0.0844  -0.0727  -4.00    0.0
2024/05/08 12:46:27.000   28.372738575  -16.407560567   761.2594   2   7   0.0333   0.0482   0.1946   0.0364  -0.0843  -0.0727  -3.00    0.0
2024/05/08 12:46:28.000   28.372738571  -16.407560584   761.2635   2   7   0.0333   0.0482   0.1945   0.0364  -0.0843  -0.0726  -2.00    0.0
2024/05/08 12:46:29.000   28.372738569  -16.407560601   761.2673   2   7   0.0333   0.0482   0.1945   0.0364  -0.0842  -0.0726  -1.00    0.0
2024/05/08 12:46:30.000   28.372738561  -16.407560630   761.2747   2   7   0.0333   0.0482   0.1945   0.0363  -0.0842  -0.0726   0.00    0.0
2024/05/08 12:46:31.000   28.372738557  -16.407560653   761.2782   2   7   0.0333   0.0482   0.1945   0.0363  -0.0841  -0.0725   1.00    0.0
2024/05/08 12:46:32.000   28.372738555  -16.407560674   761.2808   2   7   0.0333   0.0482   0.1945   0.0363  -0.0840  -0.0725   2.00    0.0
2024/05/08 12:46:33.000   28.372738553  -16.407560695   761.2838   2   7   0.0333   0.0481   0.1945   0.0363  -0.0840  -0.0725   3.00    0.0
2024/05/08 12:46:34.000   28.372738551  -16.407560715   761.2869   2   7   0.0333   0.0481   0.1945   0.0362  -0.0839  -0.0724   4.00    0.0
2024/05/08 12:46:35.000   28.372738547  -16.407560735   761.2921   2   7   0.0333   0.0481   0.1944   0.0362  -0.0839  -0.0724   5.00    0.0
2024/05/08 12:46:36.000   28.372738544  -16.407560750   761.2959   2   7   0.0333   0.0481   0.1944   0.0362  -0.0838  -0.0724   6.00    0.0
2024/05/08 12:46:37.000   28.372738540  -16.407560764   761.2991   2   7   0.0332   0.0480   0.1943   0.0362  -0.0837  -0.0723   7.00    0.0
2024/05/08 12:46:38.000   28.372738536  -16.407560775   761.3020   2   7   0.0332   0.0480   0.1942   0.0361  -0.0837  -0.0723   8.00    0.0
2024/05/08 12:46:39.000   28.372738533  -16.407560787   761.3046   2   7   0.0332   0.0480   0.1942   0.0361  -0.0836  -0.0722   9.00    0.0
2024/05/08 12:46:40.000   28.372738528  -16.407560798   761.3075   2   7   0.0332   0.0479   0.1941   0.0361  -0.0835  -0.0722  10.00    0.0
2024/05/08 12:46:41.000   28.372738524  -16.407560808   761.3104   2   7   0.0332   0.0479   0.1940   0.0361  -0.0835  -0.0721  11.00    0.0
2024/05/08 12:46:42.000   28.372738520  -16.407560816   761.3128   2   7   0.0332   0.0479   0.1939   0.0360  -0.0834  -0.0721  12.00    0.0
2024/05/08 12:46:43.000   28.372738516  -16.407560824   761.3151   2   7   0.0331   0.0479   0.1939   0.0360  -0.0833  -0.0720  13.00    0.0
2024/05/08 12:46:44.000   28.372738513  -16.407560832   761.3171   2   7   0.0331   0.0478   0.1938   0.0360  -0.0833  -0.0720  14.00    0.0
2024/05/08 12:46:45.000   28.372738509  -16.407560839   761.3193   2   7   0.0331   0.0478   0.1937   0.0360  -0.0832  -0.0720 -15.00    0.0
2024/05/08 12:46:46.000   28.372738505  -16.407560847   761.3217   2   7   0.0331   0.0478   0.1936   0.0359  -0.0832  -0.0719 -14.00    0.0
2024/05/08 12:46:47.000   28.372738500  -16.407560855   761.3245   2   7   0.0331   0.0477   0.1935   0.0359  -0.0831  -0.0719 -13.00    0.0
2024/05/08 12:46:48.000   28.372738496  -16.407560863   761.3268   2   7   0.0331   0.0477   0.1935   0.0359  -0.0830  -0.0718 -12.00    0.0
2024/05/08 12:46:49.000   28.372738493  -16.407560870   761.3291   2   7   0.0330   0.0477   0.1934   0.0358  -0.0830  -0.0718 -11.00    0.0
2024/05/08 12:46:50.000   28.372738490  -16.407560876   761.3309   2   7   0.0330   0.0476   0.1933   0.0358  -0.0829  -0.0717 -10.00    0.0
2024/05/08 12:46:51.000   28.372738488  -16.407560881   761.3325   2   7   0.0330   0.0476   0.1932   0.0358  -0.0829  -0.0717  -9.00    0.0
2024/05/08 12:46:52.000   28.372738486  -16.407560887   761.3338   2   7   0.0330   0.0476   0.1932   0.0358  -0.0828  -0.0717  -8.00    0.0
2024/05/08 12:46:53.000   28.372738485  -16.407560892   761.3350   2   7   0.0330   0.0476   0.1931   0.0357  -0.0827  -0.0716  -7.00    0.0
2024/05/08 12:46:54.000   28.372738484  -16.407560899   761.3365   2   7   0.0330   0.0475   0.1930   0.0357  -0.0827  -0.0716  -6.00    0.0
2024/05/08 12:46:55.000   28.372738483  -16.407560906   761.3374   2   7   0.0330   0.0475   0.1930   0.0357  -0.0826  -0.0715  -5.00    0.0
2024/05/08 12:46:56.000   28.372738484  -16.407560913   761.3368   2   7   0.0330   0.0475   0.1929   0.0357  -0.0826  -0.0715  -4.00    0.0
2024/05/08 12:46:57.000   28.372738485  -16.407560922   761.3373   2   7   0.0329   0.0475   0.1929   0.0357  -0.0825  -0.0715  -3.00    0.0
2024/05/08 12:46:58.000   28.372738486  -16.407560933   761.3374   2   7   0.0329   0.0475   0.1929   0.0356  -0.0825  -0.0714  -2.00    0.0
2024/05/08 12:46:59.000   28.372738489  -16.407560942   761.3374   2   7   0.0329   0.0474   0.1929   0.0356  -0.0824  -0.0714  -1.00    0.0
2024/05/08 12:47:00.000   28.372738489  -16.407560956   761.3393   2   7   0.0329   0.0474   0.1930   0.0356  -0.0824  -0.0714   0.00    0.0
2024/05/08 12:47:01.000   28.372738491  -16.407560969   761.3402   2   7   0.0329   0.0474   0.1930   0.0356  -0.0823  -0.0714   1.00    0.0
2024/05/08 12:47:02.000   28.372738493  -16.407560984   761.3412   2   7   0.0329   0.0474   0.1930   0.0356  -0.0823  -0.0714   2.00    0.0
2024/05/08 12:47:03.000   28.372738494  -16.407560994   761.3421   2   7   0.0329   0.0474   0.1930   0.0356  -0.0822  -0.0713   3.00    0.0
2024/05/08 12:47:04.000   28.372738497  -16.407561001   761.3429   2   7   0.0329   0.0474   0.1930   0.0355  -0.0822  -0.0713   4.00    0.0
2024/05/08 12:47:05.000   28.372738498  -16.407561007   761.3433   2   7   0.0329   0.0474   0.1930   0.0355  -0.0822  -0.0713   5.00    0.0
2024/05/08 12:47:06.000   28.372738500  -16.407561012   761.3440   2   7   0.0329   0.0474   0.1930   0.0355  -0.0821  -0.0712   6.00    0.0
2024/05/08 12:47:07.000   28.372738499  -16.407561018   761.3456   2   7   0.0329   0.0473   0.1929   0.0355  -0.0821  -0.0712   7.00    0.0
2024/05/08 12:47:08.000   28.372738499  -16.407561023   761.3467   2   7   0.0329   0.0473   0.1929   0.0355  -0.0820  -0.0712   8.00    0.0
2024/05/08 12:47:09.000   28.372738500  -16.407561027   761.3477   2   7   0.0329   0.0473   0.1929   0.0354  -0.0820  -0.0712   9.00    0.0
2024/05/08 12:47:10.000   28.372738500  -16.407561032   761.3487   2   7   0.0329   0.0473   0.1928   0.0354  -0.0819  -0.0711  10.00    0.0
2024/05/08 12:47:11.000   28.372738499  -16.407561036   761.3500   2   7   0.0329   0.0473   0.1928   0.0354  -0.0819  -0.0711  11.00    0.0
2024/05/08 12:47:12.000   28.372738498  -16.407561041   761.3521   2   7   0.0329   0.0472   0.1927   0.0354  -0.0818  -0.0711  12.00    0.0
2024/05/08 12:47:13.000   28.372738496  -16.407561046   761.3538   2   7   0.0328   0.0472   0.1927   0.0354  -0.0818  -0.0710  13.00    0.0
2024/05/08 12:47:14.000   28.372738495  -16.407561051   761.3552   2   7   0.0328   0.0472   0.1926   0.0353  -0.0817  -0.0710  14.00    0.0
2024/05/08 12:47:15.000   28.372738494  -16.407561053   761.3563   2   7   0.0328   0.0472   0.1925   0.0353  -0.0817  -0.0710 -15.00    0.0
2024/05/08 12:47:16.000   28.372738493  -16.407561056   761.3574   2   7   0.0328   0.0471   0.1925   0.0353  -0.0816  -0.0709 -14.00    0.0
2024/05/08 12:47:17.000   28.372738492  -16.407561058   761.3583   2   7   0.0328   0.0471   0.1924   0.0353  -0.0816  -0.0709 -13.00    0.0
2024/05/08 12:47:18.000   28.372738492  -16.407561061   761.3591   2   7   0.0328   0.0471   0.1924   0.0353  -0.0815  -0.0709 -12.00    0.0
2024/05/08 12:47:19.000   28.372738490  -16.407561066   761.3611   2   7   0.0328   0.0471   0.1923   0.0352  -0.0815  -0.0708 -11.00    0.0
2024/05/08 12:47:20.000   28.372738489  -16.407561070   761.3628   2   7   0.0328   0.0470   0.1923   0.0352  -0.0815  -0.0708 -10.00    0.0
2024/05/08 12:47:21.000   28.372738489  -16.407561072   761.3642   2   7   0.0327   0.0470   0.1922   0.0352  -0.0814  -0.0708  -9.00    0.0
2024/05/08 12:47:22.000   28.372738489  -16.407561074   761.3650   2   7   0.0327   0.0470   0.1922   0.0352  -0.0814  -0.0707  -8.00    0.0
2024/05/08 12:47:23.000   28.372738489  -16.407561077   761.3661   2   7   0.0327   0.0470   0.1921   0.0352  -0.0813  -0.0707  -7.00    0.0
2024/05/08 12:47:24.000   28.372738490  -16.407561079   761.3672   2   7   0.0327   0.0470   0.1921   0.0351  -0.0813  -0.0707  -6.00    0.0
2024/05/08 12:47:25.000   28.372738491  -16.407561083   761.3690   2   7   0.0327   0.0470   0.1920   0.0351  -0.0812  -0.0706  -5.00    0.0
2024/05/08 12:47:26.000   28.372738492  -16.407561088   761.3706   2   7   0.0327   0.0469   0.1920   0.0351  -0.0812  -0.0706  -4.00    0.0
2024/05/08 12:47:27.000   28.372738493  -16.407561096   761.3725   2   7   0.0327   0.0469   0.1920   0.0351  -0.0811  -0.0706  -3.00    0.0
2024/05/08 12:47:28.000   28.372738495  -16.407561105   761.3747   2   7   0.0327   0.0469   0.1920   0.0351  -0.0811  -0.0706  -2.00    0.0
2024/05/08 12:47:29.000   28.372738497  -16.407561113   761.3770   2   7   0.0327   0.0469   0.1920   0.0351  -0.0811  -0.0706  -1.00    0.0
2024/05/08 12:47:30.000   28.372738499  -16.407561120   761.3782   2   7   0.0327   0.0469   0.1921   0.0351  -0.0810  -0.0705   0.00    0.0
2024/05/08 12:47:31.000   28.372738498  -16.407561138   761.3842   2   7   0.0327   0.0469   0.1921   0.0350  -0.0810  -0.0705   1.00    0.0
2024/05/08 12:47:32.000   28.372738498  -16.407561150   761.3880   2   7   0.0327   0.0469   0.1921   0.0350  -0.0809  -0.0705   2.00    0.0
2024/05/08 12:47:33.000   28.372738500  -16.407561162   761.3912   2   7   0.0327   0.0469   0.1922   0.0350  -0.0809  -0.0705   3.00    0.0
2024/05/08 12:47:34.000   28.372738501  -16.407561175   761.3951   2   7   0.0327   0.0469   0.1922   0.0350  -0.0809  -0.0705   4.00    0.0
2024/05/08 12:47:35.000   28.372738500  -16.407561183   761.3981   2   7   0.0327   0.0469   0.1922   0.0350  -0.0808  -0.0705   5.00    0.0
2024/05/08 12:47:36.000   28.372738499  -16.407561191   761.4002   2   7   0.0327   0.0468   0.1922   0.0350  -0.0808  -0.0704   6.00    0.0
2024/05/08 12:47:37.000   28.372738499  -16.407561196   761.4016   2   7   0.0327   0.0468   0.1922   0.0350  -0.0808  -0.0704   7.00    0.0
2024/05/08 12:47:38.000   28.372738498  -16.407561202   761.4033   2   7   0.0327   0.0468   0.1922   0.0349  -0.0807  -0.0704   8.00    0.0
2024/05/08 12:47:39.000   28.372738496  -16.407561206   761.4049   2   7   0.0327   0.0468   0.1921   0.0349  -0.0807  -0.0704   9.00    0.0
2024/05/08 12:47:40.000   28.372738496  -16.407561209   761.4057   2   7   0.0327   0.0468   0.1921   0.0349  -0.0807  -0.0703  10.00    0.0
2024/05/08 12:47:41.000   28.372738495  -16.407561213   761.4070   2   7   0.0327   0.0468   0.1921   0.0349  -0.0806  -0.0703  11.00    0.0
2024/05/08 12:47:42.000   28.372738493  -16.407561218   761.4084   2   7   0.0326   0.0467   0.1920   0.0349  -0.0806  -0.0703  12.00    0.0
2024/05/08 12:47:43.000   28.372738492  -16.407561222   761.4096   2   7   0.0326   0.0467   0.1920   0.0349  -0.0805  -0.0703  13.00    0.0
2024/05/08 12:47:44.000   28.372738491  -16.407561225   761.4106   2   7   0.0326   0.0467   0.1919   0.0348  -0.0805  -0.0702  14.00    0.0
2024/05/08 12:47:45.000   28.372738489  -16.407561228   761.4117   2   7   0.0326   0.0467   0.1919   0.0348  -0.0805  -0.0702 -15.00    0.0
2024/05/08 12:47:46.000   28.372738487  -16.407561231   761.4130   2   7   0.0326   0.0467   0.1919   0.0348  -0.0804  -0.0702 -14.00    0.0
2024/05/08 12:47:47.000   28.372738486  -16.407561234   761.4139   2   7   0.0326   0.0467   0.1918   0.0348  -0.0804  -0.0702 -13.00    0.0
2024/05/08 12:47:48.000   28.372738485  -16.407561237   761.4151   2   7   0.0326   0.0466   0.1918   0.0348  -0.0804  -0.0701 -12.00    0.0
2024/05/08 12:47:49.000   28.372738484  -16.407561240   761.4164   2   7   0.0326   0.0466   0.1917   0.0348  -0.0803  -0.0701 -11.00    0.0
2024/05/08 12:47:50.000   28.372738482  -16.407561244   761.4180   2   7   0.0326   0.0466   0.1917   0.0347  -0.0803  -0.0701 -10.00    0.0
2024/05/08 12:47:51.000   28.372738480  -16.407561247   761.4195   2   7   0.0326   0.0466   0.1917   0.0347  -0.0802  -0.0701  -9.00    0.0
2024/05/08 12:47:52.000   28.372738478  -16.407561252   761.4219   2   7   0.0326   0.0466   0.1916   0.0347  -0.0802  -0.0700  -8.00    0.0
2024/05/08 12:47:53.000   28.372738477  -16.407561256   761.4235   2   7   0.0326   0.0466   0.1916   0.0347  -0.0802  -0.0700  -7.00    0.0
2024/05/08 12:47:54.000   28.372738476  -16.407561261   761.4259   2   7   0.0325   0.0465   0.1916   0.0347  -0.0801  -0.0700  -6.00    0.0
2024/05/08 12:47:55.000   28.372738473  -16.407561266   761.4292   2   7   0.0325   0.0465   0.1915   0.0347  -0.0801  -0.0700  -5.00    0.0
2024/05/08 12:47:56.000   28.372738469  -16.407561274   761.4336   2   7   0.0325   0.0465   0.1915   0.0347  -0.0801  -0.0699  -4.00    0.0
2024/05/08 12:47:57.000   28.372738464  -16.407561284   761.4395   2   7   0.0325   0.0465   0.1915   0.0346  -0.0800  -0.0699  -3.00    0.0
2024/05/08 12:47:58.000   28.372738459  -16.407561293   761.4461   2   7   0.0325   0.0465   0.1915   0.0346  -0.0800  -0.0699  -2.00    0.0
2024/05/08 12:47:59.000   28.372738454  -16.407561302   761.4525   2   7   0.0325   0.0465   0.1915   0.0346  -0.0800  -0.0699  -1.00    0.0
2024/05/08 12:48:00.000   28.372738447  -16.407561315   761.4626   2   7   0.0325   0.0465   0.1916   0.0346  -0.0799  -0.0699   0.00    0.0
2024/05/08 12:48:01.000   28.372738441  -16.407561322   761.4705   2   7   0.0325   0.0465   0.1916   0.0346  -0.0799  -0.0699   1.00    0.0
2024/05/08 12:48:02.000   28.372738436  -16.407561331   761.4781   2   7   0.0325   0.0465   0.1917   0.0346  -0.0799  -0.0699   2.00    0.0
2024/05/08 12:48:03.000   28.372738432  -16.407561338   761.4859   2   7   0.0326   0.0465   0.1917   0.0346  -0.0798  -0.0699   3.00    0.0
2024/05/08 12:48:04.000   28.372738428  -16.407561343   761.4913   2   7   0.0326   0.0465   0.1917   0.0346  -0.0798  -0.0698   4.00    0.0
2024/05/08 12:48:05.000   28.372738426  -16.407561349   761.4953   2   7   0.0326   0.0465   0.1917   0.0346  -0.0798  -0.0698   5.00    0.0
2024/05/08 12:48:06.000   28.372738424  -16.407561356   761.4981   2   7   0.0325   0.0465   0.1917   0.0345  -0.0797  -0.0698   6.00    0.0
2024/05/08 12:48:07.000   28.372738421  -16.407561361   761.5010   2   7   0.0325   0.0465   0.1917   0.0345  -0.0797  -0.0698   7.00    0.0
2024/05/08 12:48:08.000   28.372738419  -16.407561366   761.5033   2   7   0.0325   0.0464   0.1917   0.0345  -0.0797  -0.0698   8.00    0.0
2024/05/08 12:48:09.000   28.372738416  -16.407561372   761.5058   2   7   0.0325   0.0464   0.1917   0.0345  -0.0797  -0.0698   9.00    0.0
2024/05/08 12:48:10.000   28.372738413  -16.407561375   761.5079   2   7   0.0325   0.0464   0.1917   0.0345  -0.0796  -0.0697  10.00    0.0
2024/05/08 12:48:11.000   28.372738411  -16.407561379   761.5097   2   7   0.0325   0.0464   0.1916   0.0345  -0.0796  -0.0697  11.00    0.0
2024/05/08 12:48:12.000   28.372738410  -16.407561381   761.5111   2   7   0.0325   0.0464   0.1916   0.0345  -0.0796  -0.0697  12.00    0.0
2024/05/08 12:48:13.000   28.372738408  -16.407561383   761.5122   2   7   0.0325   0.0464   0.1916   0.0345  -0.0795  -0.0697  13.00    0.0
2024/05/08 12:48:14.000   28.372738406  -16.407561387   761.5141   2   7   0.0325   0.0464   0.1916   0.0344  -0.0795  -0.0697  14.00    0.0
2024/05/08 12:48:15.000   28.372738404  -16.407561389   761.5152   2   7   0.0325   0.0463   0.1915   0.0344  -0.0795  -0.0696 -15.00    0.0
2024/05/08 12:48:16.000   28.372738403  -16.407561390   761.5161   2   7   0.0325   0.0463   0.1915   0.0344  -0.0794  -0.0696 -14.00    0.0
2024/05/08 12:48:17.000   28.372738402  -16.407561391   761.5169   2   7   0.0325   0.0463   0.1914   0.0344  -0.0794  -0.0696 -13.00    0.0
2024/05/08 12:48:18.000   28.372738400  -16.407561393   761.5180   2   7   0.0325   0.0463   0.1914   0.0344  -0.0794  -0.0696 -12.00    0.0
2024/05/08 12:48:19.000   28.372738398  -16.407561396   761.5194   2   7   0.0325   0.0463   0.1914   0.0344  -0.0794  -0.0696 -11.00    0.0
2024/05/08 12:48:20.000   28.372738396  -16.407561398   761.5204   2   7   0.0325   0.0463   0.1914   0.0344  -0.0793  -0.0695 -10.00    0.0
2024/05/08 12:48:21.000   28.372738393  -16.407561400   761.5212   2   7   0.0325   0.0463   0.1913   0.0344  -0.0793  -0.0695  -9.00    0.0
2024/05/08 12:48:22.000   28.372738391  -16.407561401   761.5221   2   7   0.0324   0.0463   0.1913   0.0343  -0.0793  -0.0695  -8.00    0.0
2024/05/08 12:48:23.000   28.372738388  -16.407561403   761.5237   2   7   0.0324   0.0462   0.1913   0.0343  -0.0792  -0.0695  -7.00    0.0
2024/05/08 12:48:24.000   28.372738384  -16.407561405   761.5254   2   7   0.0324   0.0462   0.1912   0.0343  -0.0792  -0.0695  -6.00    0.0
2024/05/08 12:48:25.000   28.372738378  -16.407561406   761.5279   2   7   0.0324   0.0462   0.1912   0.0343  -0.0792  -0.0694  -5.00    0.0
2024/05/08 12:48:26.000   28.372738371  -16.407561408   761.5301   2   7   0.0324   0.0462   0.1912   0.0343  -0.0791  -0.0694  -4.00    0.0
2024/05/08 12:48:27.000   28.372738364  -16.407561409   761.5334   2   7   0.0324   0.0462   0.1912   0.0343  -0.0791  -0.0694  -3.00    0.0
2024/05/08 12:48:28.000   28.372738354  -16.407561410   761.5381   2   7   0.0324   0.0462   0.1912   0.0343  -0.0791  -0.0694  -2.00    0.0
2024/05/08 12:48:29.000   28.372738342  -16.407561414   761.5430   2   7   0.0324   0.0462   0.1912   0.0343  -0.0790  -0.0694  -1.00    0.0
2024/05/08 12:48:30.000   28.372738331  -16.407561414   761.5464   2   7   0.0324   0.0462   0.1913   0.0343  -0.0790  -0.0694   0.00    0.0
2024/05/08 12:48:31.000   28.372738319  -16.407561416   761.5504   2   7   0.0324   0.0462   0.1913   0.0342  -0.0790  -0.0694   1.00    0.0
2024/05/08 12:48:32.000   28.372738309  -16.407561414   761.5537   2   7   0.0325   0.0462   0.1913   0.0342  -0.0790  -0.0693   2.00    0.0
2024/05/08 12:48:33.000   28.372738298  -16.407561414   761.5581   2   7   0.0325   0.0462   0.1913   0.0342  -0.0789  -0.0693   3.00    0.0
2024/05/08 12:48:34.000   28.372738289  -16.407561416   761.5624   2   7   0.0325   0.0462   0.1914   0.0342  -0.0789  -0.0693   4.00    0.0
2024/05/08 12:48:35.000   28.372738281  -16.407561418   761.5663   2   7   0.0325   0.0462   0.1914   0.0342  -0.0789  -0.0693   5.00    0.0
2024/05/08 12:48:36.000   28.372738276  -16.407561418   761.5692   2   7   0.0325   0.0462   0.1914   0.0342  -0.0789  -0.0693   6.00    0.0
2024/05/08 12:48:37.000   28.372738271  -16.407561419   761.5717   2   7   0.0325   0.0462   0.1914   0.0342  -0.0788  -0.0693   7.00    0.0
2024/05/08 12:48:38.000   28.372738267  -16.407561420   761.5742   2   7   0.0325   0.0462   0.1914   0.0342  -0.0788  -0.0693   8.00    0.0
2024/05/08 12:48:39.000   28.372738264  -16.407561421   761.5762   2   7   0.0325   0.0461   0.1914   0.0342  -0.0788  -0.0693   9.00    0.0
2024/05/08 12:48:40.000   28.372738260  -16.407561422   761.5783   2   7   0.0324   0.0461   0.1914   0.0342  -0.0788  -0.0693  10.00    0.0
2024/05/08 12:48:41.000   28.372738257  -16.407561423   761.5802   2   7   0.0324   0.0461   0.1913   0.0342  -0.0787  -0.0692  11.00    0.0
2024/05/08 12:48:42.000   28.372738254  -16.407561425   761.5821   2   7   0.0324   0.0461   0.1913   0.0341  -0.0787  -0.0692  12.00    0.0
2024/05/08 12:48:43.000   28.372738251  -16.407561427   761.5839   2   7   0.0324   0.0461   0.1913   0.0341  -0.0787  -0.0692  13.00    0.0
2024/05/08 12:48:44.000   28.372738248  -16.407561429   761.5856   2   7   0.0324   0.0461   0.1913   0.0341  -0.0787  -0.0692  14.00    0.0
2024/05/08 12:48:45.000   28.372738245  -16.407561431   761.5871   2   7   0.0324   0.0461   0.1912   0.0341  -0.0786  -0.0692 -15.00    0.0
2024/05/08 12:48:46.000   28.372738242  -16.407561434   761.5890   2   7   0.0324   0.0461   0.1912   0.0341  -0.0786  -0.0692 -14.00    0.0
2024/05/08 12:48:47.000   28.372738239  -16.407561436   761.5904   2   7   0.0324   0.0461   0.1912   0.0341  -0.0786  -0.0691 -13.00    0.0
2024/05/08 12:48:48.000   28.372738236  -16.407561438   761.5920   2   7   0.0324   0.0460   0.1912   0.0341  -0.0786  -0.0691 -12.00    0.0
2024/05/08 12:48:49.000   28.372738233  -16.407561439   761.5936   2   7   0.0324   0.0460   0.1911   0.0341  -0.0785  -0.0691 -11.00    0.0
2024/05/08 12:48:50.000   28.372738231  -16.407561440   761.5951   2   7   0.0324   0.0460   0.1911   0.0341  -0.0785  -0.0691 -10.00    0.0
2024/05/08 12:48:51.000   28.372738228  -16.407561441   761.5970   2   7   0.0324   0.0460   0.1911   0.0340  -0.0785  -0.0691  -9.00    0.0
2024/05/08 12:48:52.000   28.372738225  -16.407561441   761.5988   2   7   0.0324   0.0460   0.1910   0.0340  -0.0785  -0.0690  -8.00    0.0
2024/05/08 12:48:53.000   28.372738221  -16.407561441   761.6006   2   7   0.0324   0.0460   0.1910   0.0340  -0.0784  -0.0690  -7.00    0.0
2024/05/08 12:48:54.000   28.372738218  -16.407561440   761.6024   2   7   0.0324   0.0460   0.1910   0.0340  -0.0784  -0.0690  -6.00    0.0
2024/05/08 12:48:55.000   28.372738212  -16.407561440   761.6052   2   7   0.0324   0.0460   0.1910   0.0340  -0.0784  -0.0690  -5.00    0.0
2024/05/08 12:48:56.000   28.372738204  -16.407561440   761.6079   2   7   0.0324   0.0460   0.1910   0.0340  -0.0783  -0.0690  -4.00    0.0
2024/05/08 12:48:57.000   28.372738195  -16.407561440   761.6109   2   7   0.0324   0.0460   0.1909   0.0340  -0.0783  -0.0690  -3.00    0.0
2024/05/08 12:48:58.000   28.372738184  -16.407561443   761.6151   2   7   0.0324   0.0460   0.1909   0.0340  -0.0783  -0.0690  -2.00    0.0
2024/05/08 12:48:59.000   28.372738173  -16.407561442   761.6175   2   7   0.0324   0.0460   0.1909   0.0340  -0.0783  -0.0689  -1.00    0.0
2024/05/08 12:49:00.000   28.372738160  -16.407561440   761.6196   2   7   0.0324   0.0460   0.1910   0.0340  -0.0782  -0.0689   0.00    0.0
2024/05/08 12:49:01.000   28.372738144  -16.407561443   761.6246   2   7   0.0324   0.0460   0.1910   0.0340  -0.0782  -0.0689   1.00    0.0
2024/05/08 12:49:02.000   28.372738128  -16.407561446   761.6298   2   7   0.0324   0.0460   0.1910   0.0339  -0.0782  -0.0689   2.00    0.0
2024/05/08 12:49:03.000   28.372738114  -16.407561449   761.6331   2   7   0.0324   0.0460   0.1911   0.0339  -0.0782  -0.0689   3.00    0.0
2024/05/08 12:49:04.000   28.372738103  -16.407561451   761.6359   2   7   0.0324   0.0460   0.1911   0.0339  -0.0781  -0.0689   4.00    0.0
2024/05/08 12:49:05.000   28.372738094  -16.407561452   761.6382   2   7   0.0324   0.0459   0.1911   0.0339  -0.0781  -0.0689   5.00    0.0
2024/05/08 12:49:06.000   28.372738087  -16.407561453   761.6405   2   7   0.0324   0.0459   0.1911   0.0339  -0.0781  -0.0689   6.00    0.0
2024/05/08 12:49:07.000   28.372738081  -16.407561453   761.6421   2   7   0.0324   0.0459   0.1911   0.0339  -0.0781  -0.0689   7.00    0.0
2024/05/08 12:49:08.000   28.372738077  -16.407561452   761.6430   2   7   0.0324   0.0459   0.1911   0.0339  -0.0781  -0.0689   8.00    0.0
2024/05/08 12:49:09.000   28.372738073  -16.407561452   761.6443   2   7   0.0324   0.0459   0.1911   0.0339  -0.0780  -0.0689   9.00    0.0
2024/05/08 12:49:10.000   28.372738070  -16.407561452   761.6455   2   7   0.0324   0.0459   0.1911   0.0339  -0.0780  -0.0688  10.00    0.0
2024/05/08 12:49:11.000   28.372738067  -16.407561451   761.6464   2   7   0.0324   0.0459   0.1911   0.0339  -0.0780  -0.0688  11.00    0.0
2024/05/08 12:49:12.000   28.372738066  -16.407561450   761.6470   2   7   0.0324   0.0459   0.1911   0.0339  -0.0780  -0.0688  12.00    0.0
2024/05/08 12:49:13.000   28.372738063  -16.407561449   761.6480   2   7   0.0324   0.0459   0.1911   0.0339  -0.0780  -0.0688  13.00    0.0
2024/05/08 12:49:14.000   28.372738062  -16.407561449   761.6486   2   7   0.0324   0.0459   0.1910   0.0339  -0.0779  -0.0688  14.00    0.0
2024/05/08 12:49:15.000   28.372738060  -16.407561449   761.6494   2   7   0.0324   0.0459   0.1910   0.0338  -0.0779  -0.0688 -15.00    0.0
2024/05/08 12:49:16.000   28.372738059  -16.407561449   761.6502   2   7   0.0324   0.0459   0.1910   0.0338  -0.0779  -0.0688 -14.00    0.0
2024/05/08 12:49:17.000   28.372738057  -16.407561448   761.6508   2   7   0.0324   0.0458   0.1910   0.0338  -0.0779  -0.0687 -13.00    0.0
2024/05/08 12:49:18.000   28.372738055  -16.407561448   761.6514   2   7   0.0324   0.0458   0.1909   0.0338  -0.0779  -0.0687 -12.00    0.0
2024/05/08 12:49:19.000   28.372738053  -16.407561448   761.6523   2   7   0.0324   0.0458   0.1909   0.0338  -0.0778  -0.0687 -11.00    0.0
2024/05/08 12:49:20.000   28.372738050  -16.407561448   761.6537   2   7   0.0324   0.0458   0.1909   0.0338  -0.0778  -0.0687 -10.00    0.0
2024/05/08 12:49:21.000   28.372738048  -16.407561446   761.6547   2   7   0.0323   0.0458   0.1909   0.0338  -0.0778  -0.0687  -9.00    0.0
2024/05/08 12:49:22.000   28.372738044  -16.407561445   761.6565   2   7   0.0323   0.0458   0.1908   0.0338  -0.0778  -0.0687  -8.00    0.0
2024/05/08 12:49:23.000   28.372738040  -16.407561443   761.6587   2   7   0.0323   0.0458   0.1908   0.0338  -0.0777  -0.0687  -7.00    0.0
2024/05/08 12:49:24.000   28.372738034  -16.407561443   761.6614   2   7   0.0323   0.0458   0.1908   0.0338  -0.0777  -0.0686  -6.00    0.0
2024/05/08 12:49:25.000   28.372738026  -16.407561443   761.6645   2   7   0.0323   0.0458   0.1908   0.0338  -0.0777  -0.0686  -5.00    0.0
2024/05/08 12:49:26.000   28.372738018  -16.407561444   761.6689   2   7   0.0323   0.0458   0.1908   0.0337  -0.0777  -0.0686  -4.00    0.0
2024/05/08 12:49:27.000   28.372738008  -16.407561444   761.6731   2   7   0.0323   0.0458   0.1907   0.0337  -0.0776  -0.0686  -3.00    0.0
2024/05/08 12:49:28.000   28.372737994  -16.407561442   761.6775   2   7   0.0323   0.0458   0.1907   0.0337  -0.0776  -0.0686  -2.00    0.0
2024/05/08 12:49:29.000   28.372737977  -16.407561441   761.6824   2   7   0.0323   0.0458   0.1907   0.0337  -0.0776  -0.0686  -1.00    0.0
2024/05/08 12:49:30.000   28.372737959  -16.407561440   761.6876   2   7   0.0323   0.0458   0.1908   0.0337  -0.0776  -0.0686   0.00    0.0
2024/05/08 12:49:31.000   28.372737940  -16.407561443   761.6942   2   7   0.0324   0.0458   0.1908   0.0337  -0.0775  -0.0686   1.00    0.0
2024/05/08 12:49:32.000   28.372737921  -16.407561447   761.7013   2   7   0.0324   0.0458   0.1908   0.0337  -0.0775  -0.0686   2.00    0.0
2024/05/08 12:49:33.000   28.372737904  -16.407561449   761.7053   2   7   0.0324   0.0458   0.1908   0.0337  -0.0775  -0.0686   3.00    0.0
2024/05/08 12:49:34.000   28.372737891  -16.407561451   761.7085   2   7   0.0324   0.0458   0.1909   0.0337  -0.0775  -0.0685   4.00    0.0
2024/05/08 12:49:35.000   28.372737880  -16.407561452   761.7112   2   7   0.0324   0.0458   0.1909   0.0337  -0.0775  -0.0685   5.00    0.0
2024/05/08 12:49:36.000   28.372737870  -16.407561452   761.7136   2   7   0.0324   0.0458   0.1909   0.0337  -0.0775  -0.0685   6.00    0.0
2024/05/08 12:49:37.000   28.372737862  -16.407561453   761.7159   2   7   0.0324   0.0458   0.1909   0.0337  -0.0774  -0.0685   7.00    0.0
2024/05/08 12:49:38.000   28.372737855  -16.407561453   761.7176   2   7   0.0324   0.0457   0.1909   0.0337  -0.0774  -0.0685   8.00    0.0
2024/05/08 12:49:39.000   28.372737850  -16.407561453   761.7191   2   7   0.0324   0.0457   0.1909   0.0337  -0.0774  -0.0685   9.00    0.0
2024/05/08 12:49:40.000   28.372737845  -16.407561454   761.7207   2   7   0.0324   0.0457   0.1909   0.0337  -0.0774  -0.0685  10.00    0.0
2024/05/08 12:49:41.000   28.372737842  -16.407561453   761.7216   2   7   0.0324   0.0457   0.1909   0.0336  -0.0774  -0.0685  11.00    0.0
2024/05/08 12:49:42.000   28.372737838  -16.407561452   761.7222   2   7   0.0324   0.0457   0.1908   0.0336  -0.0773  -0.0685  12.00    0.0
2024/05/08 12:49:43.000   28.372737835  -16.407561451   761.7229   2   7   0.0324   0.0457   0.1908   0.0336  -0.0773  -0.0685  13.00    0.0
2024/05/08 12:49:44.000   28.372737833  -16.407561451   761.7237   2   7   0.0324   0.0457   0.1908   0.0336  -0.0773  -0.0685  14.00    0.0
2024/05/08 12:49:45.000   28.372737831  -16.407561450   761.7243   2   7   0.0323   0.0457   0.1908   0.0336  -0.0773  -0.0684 -15.00    0.0
2024/05/08 12:49:46.000   28.372737829  -16.407561450   761.7247   2   7   0.0323   0.0457   0.1908   0.0336  -0.0773  -0.0684 -14.00    0.0
2024/05/08 12:49:47.000   28.372737827  -16.407561449   761.7252   2   7   0.0323   0.0457   0.1908   0.0336  -0.0773  -0.0684 -13.00    0.0
2024/05/08 12:49:48.000   28.372737823  -16.407561449   761.7262   2   7   0.0323   0.0457   0.1907   0.0336  -0.0772  -0.0684 -12.00    0.0
2024/05/08 12:49:49.000   28.372737820  -16.407561449   761.7273   2   7   0.0323   0.0457   0.1907   0.0336  -0.0772  -0.0684 -11.00    0.0
2024/05/08 12:49:50.000   28.372737816  -16.407561448   761.7284   2   7   0.0323   0.0457   0.1907   0.0336  -0.0772  -0.0684 -10.00    0.0
2024/05/08 12:49:51.000   28.372737811  -16.407561447   761.7293   2   7   0.0323   0.0456   0.1907   0.0336  -0.0772  -0.0684  -9.00    0.0
2024/05/08 12:49:52.000   28.372737806  -16.407561447   761.7304   2   7   0.0323   0.0456   0.1907   0.0336  -0.0772  -0.0684  -8.00    0.0
2024/05/08 12:49:53.000   28.372737799  -16.407561447   761.7320   2   7   0.0323   0.0456   0.1906   0.0336  -0.0771  -0.0683  -7.00    0.0
2024/05/08 12:49:54.000   28.372737791  -16.407561447   761.7342   2   7   0.0323   0.0456   0.1906   0.0335  -0.0771  -0.0683  -6.00    0.0
2024/05/08 12:49:55.000   28.372737781  -16.407561447   761.7369   2   7   0.0323   0.0456   0.1906   0.0335  -0.0771  -0.0683  -5.00    0.0
2024/05/08 12:49:56.000   28.372737770  -16.407561447   761.7399   2   7   0.0323   0.0456   0.1906   0.0335  -0.0771  -0.0683  -4.00    0.0
2024/05/08 12:49:57.000   28.372737755  -16.407561446   761.7443   2   7   0.0323   0.0456   0.1905   0.0335  -0.0771  -0.0683  -3.00    0.0
2024/05/08 12:49:58.000   28.372737735  -16.407561445   761.7505   2   7   0.0323   0.0456   0.1905   0.0335  -0.0770  -0.0683  -2.00    0.0
2024/05/08 12:49:59.000   28.372737712  -16.407561444   761.7578   2   7   0.0323   0.0456   0.1905   0.0335  -0.0770  -0.0683  -1.00    0.0
2024/05/08 12:50:00.000   28.372737688  -16.407561441   761.7636   2   7   0.0323   0.0456   0.1906   0.0335  -0.0770  -0.0683   0.00    0.0
2024/05/08 12:50:01.000   28.372737662  -16.407561442   761.7715   2   7   0.0323   0.0456   0.1906   0.0335  -0.0770  -0.0683   1.00    0.0
2024/05/08 12:50:02.000   28.372737638  -16.407561440   761.7792   2   7   0.0323   0.0456   0.1906   0.0335  -0.0769  -0.0682   2.00    0.0
2024/05/08 12:50:03.000   28.372737615  -16.407561440   761.7863   2   7   0.0323   0.0456   0.1906   0.0335  -0.0769  -0.0682   3.00    0.0
2024/05/08 12:50:04.000   28.372737598  -16.407561439   761.7914   2   7   0.0323   0.0456   0.1906   0.0335  -0.0769  -0.0682   4.00    0.0
2024/05/08 12:50:05.000   28.372737584  -16.407561438   761.7962   2   7   0.0323   0.0456   0.1906   0.0335  -0.0769  -0.0682   5.00    0.0
2024/05/08 12:50:06.000   28.372737572  -16.407561436   761.7997   2   7   0.0323   0.0456   0.1906   0.0335  -0.0769  -0.0682   6.00    0.0
2024/05/08 12:50:07.000   28.372737564  -16.407561433   761.8021   2   7   0.0323   0.0456   0.1906   0.0335  -0.0769  -0.0682   7.00    0.0
2024/05/08 12:50:08.000   28.372737556  -16.407561431   761.8044   2   7   0.0323   0.0456   0.1906   0.0335  -0.0769  -0.0682   8.00    0.0
2024/05/08 12:50:09.000   28.372737550  -16.407561430   761.8065   2   7   0.0323   0.0456   0.1906   0.0335  -0.0768  -0.0682   9.00    0.0
2024/05/08 12:50:10.000   28.372737545  -16.407561428   761.8082   2   7   0.0323   0.0456   0.1906   0.0334  -0.0768  -0.0682  10.00    0.0
2024/05/08 12:50:11.000   28.372737541  -16.407561428   761.8098   2   7   0.0323   0.0456   0.1906   0.0334  -0.0768  -0.0682  11.00    0.0
2024/05/08 12:50:12.000   28.372737537  -16.407561427   761.8110   2   7   0.0323   0.0456   0.1906   0.0334  -0.0768  -0.0682  12.00    0.0
2024/05/08 12:50:13.000   28.372737533  -16.407561427   761.8122   2   7   0.0323   0.0456   0.1906   0.0334  -0.0768  -0.0682  13.00    0.0
2024/05/08 12:50:14.000   28.372737530  -16.407561427   761.8130   2   7   0.0323   0.0455   0.1906   0.0334  -0.0768  -0.0682  14.00    0.0
2024/05/08 12:50:15.000   28.372737528  -16.407561427   761.8137   2   7   0.0323   0.0455   0.1906   0.0334  -0.0767  -0.0681 -15.00    0.0
2024/05/08 12:50:16.000   28.372737525  -16.407561426   761.8145   2   7   0.0323   0.0455   0.1905   0.0334  -0.0767  -0.0681 -14.00    0.0
2024/05/08 12:50:17.000   28.372737522  -16.407561427   761.8157   2   7   0.0323   0.0455   0.1905   0.0334  -0.0767  -0.0681 -13.00    0.0
2024/05/08 12:50:18.000   28.372737518  -16.407561427   761.8171   2   7   0.0323   0.0455   0.1905   0.0334  -0.0767  -0.0681 -12.00    0.0
2024/05/08 12:50:19.000   28.372737514  -16.407561428   761.8188   2   7   0.0323   0.0455   0.1905   0.0334  -0.0767  -0.0681 -11.00    0.0
2024/05/08 12:50:20.000   28.372737510  -16.407561427   761.8206   2   7   0.0323   0.0455   0.1905   0.0334  -0.0767  -0.0681 -10.00    0.0
2024/05/08 12:50:21.000   28.372737504  -16.407561427   761.8230   2   7   0.0323   0.0455   0.1905   0.0334  -0.0766  -0.0681  -9.00    0.0
2024/05/08 12:50:22.000   28.372737498  -16.407561427   761.8261   2   7   0.0323   0.0455   0.1904   0.0334  -0.0766  -0.0681  -8.00    0.0
2024/05/08 12:50:23.000   28.372737490  -16.407561428   761.8301   2   7   0.0323   0.0455   0.1904   0.0334  -0.0766  -0.0681  -7.00    0.0
2024/05/08 12:50:24.000   28.372737483  -16.407561427   761.8341   2   7   0.0323   0.0455   0.1904   0.0334  -0.0766  -0.0680  -6.00    0.0
2024/05/08 12:50:25.000   28.372737474  -16.407561426   761.8391   2   7   0.0323   0.0455   0.1904   0.0333  -0.0766  -0.0680  -5.00    0.0
2024/05/08 12:50:26.000   28.372737462  -16.407561423   761.8438   2   7   0.0323   0.0455   0.1903   0.0333  -0.0766  -0.0680  -4.00    0.0
2024/05/08 12:50:27.000   28.372737448  -16.407561421   761.8505   2   7   0.0323   0.0455   0.1903   0.0333  -0.0765  -0.0680  -3.00    0.0
2024/05/08 12:50:28.000   28.372737431  -16.407561418   761.8574   2   7   0.0323   0.0455   0.1903   0.0333  -0.0765  -0.0680  -2.00    0.0
2024/05/08 12:50:29.000   28.372737412  -16.407561415   761.8665   2   7   0.0323   0.0455   0.1903   0.0333  -0.0765  -0.0680  -1.00    1.0
2024/05/08 12:50:30.000   28.372737391  -16.407561411   761.8771   2   7   0.0323   0.0455   0.1903   0.0333  -0.0765  -0.0680   0.00    1.0
2024/05/08 12:50:31.000   28.372737371  -16.407561406   761.8877   2   7   0.0323   0.0455   0.1903   0.0333  -0.0765  -0.0680   1.00    1.0
2024/05/08 12:50:32.000   28.372737353  -16.407561399   761.8966   2   7   0.0323   0.0455   0.1903   0.0333  -0.0764  -0.0680   2.00    1.0
2024/05/08 12:50:33.000   28.372737337  -16.407561395   761.9056   2   7   0.0323   0.0454   0.1903   0.0333  -0.0764  -0.0680   3.00    1.0
2024/05/08 12:50:34.000   28.372737323  -16.407561394   761.9134   2   7   0.0323   0.0454   0.1903   0.0333  -0.0764  -0.0680   4.00    1.0
2024/05/08 12:50:35.000   28.372737311  -16.407561393   761.9201   2   7   0.0323   0.0454   0.1903   0.0333  -0.0764  -0.0680   5.00    1.0
2024/05/08 12:50:36.000   28.372737302  -16.407561391   761.9250   2   7   0.0323   0.0454   0.1903   0.0333  -0.0764  -0.0679   6.00    1.0
2024/05/08 12:50:37.000   28.372737294  -16.407561390   761.9289   2   7   0.0323   0.0454   0.1903   0.0333  -0.0764  -0.0679   7.00    1.0
2024/05/08 12:50:38.000   28.372737289  -16.407561390   761.9321   2   7   0.0323   0.0454   0.1903   0.0333  -0.0764  -0.0679   8.00    1.0
2024/05/08 12:50:39.000   28.372737284  -16.407561391   761.9351   2   7   0.0323   0.0454   0.1903   0.0333  -0.0763  -0.0679   9.00    1.0
2024/05/08 12:50:40.000   28.372737279  -16.407561392   761.9377   2   7   0.0323   0.0454   0.1903   0.0333  -0.0763  -0.0679  10.00    1.0
2024/05/08 12:50:41.000   28.372737275  -16.407561392   761.9401   2   7   0.0323   0.0454   0.1903   0.0333  -0.0763  -0.0679  11.00    1.0
2024/05/08 12:50:42.000   28.372737271  -16.407561393   761.9423   2   7   0.0323   0.0454   0.1903   0.0332  -0.0763  -0.0679  12.00    1.0
2024/05/08 12:50:43.000   28.372737268  -16.407561395   761.9444   2   7   0.0323   0.0454   0.1903   0.0332  -0.0763  -0.0679  13.00    1.0
2024/05/08 12:50:44.000   28.372737264  -16.407561397   761.9462   2   7   0.0323   0.0454   0.1903   0.0332  -0.0763  -0.0679  14.00    1.0
2024/05/08 12:50:45.000   28.372737262  -16.407561398   761.9475   2   7   0.0323   0.0454   0.1903   0.0332  -0.0763  -0.0679 -15.00    1.0
2024/05/08 12:50:46.000   28.372737258  -16.407561401   761.9492   2   7   0.0323   0.0454   0.1903   0.0332  -0.0762  -0.0679 -14.00    1.0
2024/05/08 12:50:47.000   28.372737256  -16.407561402   761.9505   2   7   0.0323   0.0454   0.1902   0.0332  -0.0762  -0.0679 -13.00    1.0
2024/05/08 12:50:48.000   28.372737252  -16.407561404   761.9523   2   7   0.0323   0.0454   0.1902   0.0332  -0.0762  -0.0679 -12.00    1.0
2024/05/08 12:50:49.000   28.372737250  -16.407561405   761.9535   2   7   0.0323   0.0454   0.1902   0.0332  -0.0762  -0.0678 -11.00    1.0
2024/05/08 12:50:50.000   28.372737247  -16.407561407   761.9555   2   7   0.0323   0.0454   0.1902   0.0332  -0.0762  -0.0678 -10.00    1.0
2024/05/08 12:50:51.000   28.372737244  -16.407561407   761.9572   2   7   0.0323   0.0454   0.1902   0.0332  -0.0762  -0.0678  -9.00    1.0
2024/05/08 12:50:52.000   28.372737240  -16.407561408   761.9596   2   7   0.0323   0.0454   0.1902   0.0332  -0.0762  -0.0678  -8.00    1.0
2024/05/08 12:50:53.000   28.372737236  -16.407561408   761.9620   2   7   0.0323   0.0453   0.1901   0.0332  -0.0761  -0.0678  -7.00    1.0
2024/05/08 12:50:54.000   28.372737232  -16.407561408   761.9655   2   7   0.0323   0.0453   0.1901   0.0332  -0.0761  -0.0678  -6.00    1.0
2024/05/08 12:50:55.000   28.372737225  -16.407561410   761.9703   2   7   0.0323   0.0453   0.1901   0.0332  -0.0761  -0.0678  -5.00    1.0
2024/05/08 12:50:56.000   28.372737219  -16.407561410   761.9755   2   7   0.0323   0.0453   0.1901   0.0332  -0.0761  -0.0678  -4.00    1.0
2024/05/08 12:50:57.000   28.372737213  -16.407561409   761.9812   2   7   0.0323   0.0453   0.1900   0.0332  -0.0761  -0.0678  -3.00    1.0
2024/05/08 12:50:58.000   28.372737204  -16.407561410   761.9897   2   7   0.0323   0.0453   0.1900   0.0332  -0.0760  -0.0677  -2.00    1.0
2024/05/08 12:50:59.000   28.372737197  -16.407561409   761.9973   2   7   0.0323   0.0453   0.1900   0.0331  -0.0760  -0.0677  -1.00    1.0
2024/05/08 12:51:00.000   28.372737191  -16.407561405   762.0036   2   7   0.0323   0.0453   0.1900   0.0331  -0.0760  -0.0677   0.00    1.0
2024/05/08 12:51:01.000   28.372737186  -16.407561400   762.0108   2   7   0.0323   0.0453   0.1900   0.0331  -0.0760  -0.0677   1.00    1.0
2024/05/08 12:51:02.000   28.372737180  -16.407561398   762.0187   2   7   0.0323   0.0453   0.1900   0.0331  -0.0760  -0.0677   2.00    1.0
2024/05/08 12:51:03.000   28.372737172  -16.407561398   762.0263   2   7   0.0323   0.0453   0.1900   0.0331  -0.0760  -0.0677   3.00    1.0
2024/05/08 12:51:04.000   28.372737168  -16.407561396   762.0314   2   7   0.0323   0.0453   0.1900   0.0331  -0.0759  -0.0677   4.00    1.0
2024/05/08 12:51:05.000   28.372737163  -16.407561395   762.0363   2   7   0.0323   0.0453   0.1900   0.0331  -0.0759  -0.0677   5.00    1.0
2024/05/08 12:51:06.000   28.372737159  -16.407561395   762.0411   2   7   0.0323   0.0453   0.1900   0.0331  -0.0759  -0.0677   6.00    1.0
2024/05/08 12:51:07.000   28.372737155  -16.407561396   762.0452   2   7   0.0323   0.0453   0.1900   0.0331  -0.0759  -0.0677   7.00    1.0
2024/05/08 12:51:08.000   28.372737151  -16.407561397   762.0480   2   7   0.0323   0.0453   0.1900   0.0331  -0.0759  -0.0677   8.00    1.0
2024/05/08 12:51:09.000   28.372737148  -16.407561397   762.0503   2   7   0.0323   0.0453   0.1900   0.0331  -0.0759  -0.0677   9.00    1.0
2024/05/08 12:51:10.000   28.372737145  -16.407561398   762.0524   2   7   0.0323   0.0453   0.1900   0.0331  -0.0759  -0.0677  10.00    1.1
2024/05/08 12:51:11.000   28.372737143  -16.407561399   762.0541   2   7   0.0323   0.0453   0.1900   0.0331  -0.0759  -0.0677  11.00    1.0
2024/05/08 12:51:12.000   28.372737141  -16.407561400   762.0555   2   7   0.0323   0.0453   0.1899   0.0331  -0.0759  -0.0676  12.00    1.0
2024/05/08 12:51:13.000   28.372737139  -16.407561401   762.0563   2   7   0.0323   0.0453   0.1899   0.0331  -0.0758  -0.0676  13.00    1.0
2024/05/08 12:51:14.000   28.372737137  -16.407561403   762.0575   2   7   0.0323   0.0453   0.1899   0.0331  -0.0758  -0.0676  14.00    1.0
2024/05/08 12:51:15.000   28.372737136  -16.407561404   762.0584   2   7   0.0323   0.0453   0.1899   0.0331  -0.0758  -0.0676 -15.00    1.0
2024/05/08 12:51:16.000   28.372737135  -16.407561404   762.0588   2   7   0.0323   0.0453   0.1899   0.0331  -0.0758  -0.0676 -14.00    1.0
2024/05/08 12:51:17.000   28.372737134  -16.407561404   762.0590   2   7   0.0323   0.0452   0.1899   0.0331  -0.0758  -0.0676 -13.00    1.1
2024/05/08 12:51:18.000   28.372737133  -16.407561404   762.0595   2   7   0.0323   0.0452   0.1899   0.0331  -0.0758  -0.0676 -12.00    1.0
2024/05/08 12:51:19.000   28.372737132  -16.407561404   762.0602   2   7   0.0323   0.0452   0.1899   0.0330  -0.0758  -0.0676 -11.00    1.0
2024/05/08 12:51:20.000   28.372737130  -16.407561404   762.0613   2   7   0.0323   0.0452   0.1898   0.0330  -0.0758  -0.0676 -10.00    1.0
2024/05/08 12:51:21.000   28.372737128  -16.407561405   762.0624   2   7   0.0323   0.0452   0.1898   0.0330  -0.0757  -0.0676  -9.00    1.0
2024/05/08 12:51:22.000   28.372737127  -16.407561404   762.0635   2   7   0.0323   0.0452   0.1898   0.0330  -0.0757  -0.0676  -8.00    1.0
2024/05/08 12:51:23.000   28.372737125  -16.407561404   762.0651   2   7   0.0323   0.0452   0.1898   0.0330  -0.0757  -0.0676  -7.00    1.0
2024/05/08 12:51:24.000   28.372737125  -16.407561403   762.0666   2   7   0.0323   0.0452   0.1898   0.0330  -0.0757  -0.0675  -6.00    1.1
2024/05/08 12:51:25.000   28.372737122  -16.407561403   762.0689   2   7   0.0322   0.0452   0.1897   0.0330  -0.0757  -0.0675  -5.00    1.0
2024/05/08 12:51:26.000   28.372737120  -16.407561403   762.0716   2   7   0.0322   0.0452   0.1897   0.0330  -0.0757  -0.0675  -4.00    1.0
2024/05/08 12:51:27.000   28.372737118  -16.407561402   762.0752   2   7   0.0322   0.0452   0.1897   0.0330  -0.0757  -0.0675  -3.00    1.0
2024/05/08 12:51:28.000   28.372737115  -16.407561401   762.0808   2   7   0.0322   0.0452   0.1896   0.0330  -0.0756  -0.0675  -2.00    1.0
2024/05/08 12:51:29.000   28.372737114  -16.407561398   762.0874   2   7   0.0322   0.0452   0.1896   0.0330  -0.0756  -0.0675  -1.00    1.0
2024/05/08 12:51:30.000   28.372737114  -16.407561395   762.0941   2   7   0.0322   0.0452   0.1896   0.0330  -0.0756  -0.0675   0.00    1.0
2024/05/08 12:51:31.000   28.372737114  -16.407561392   762.1004   2   7   0.0322   0.0452   0.1896   0.0330  -0.0756  -0.0675   1.00    1.0
2024/05/08 12:51:32.000   28.372737114  -16.407561390   762.1055   2   7   0.0322   0.0452   0.1896   0.0330  -0.0756  -0.0675   2.00    1.0
2024/05/08 12:51:33.000   28.372737113  -16.407561388   762.1097   2   7   0.0323   0.0452   0.1896   0.0330  -0.0756  -0.0675   3.00    1.0
2024/05/08 12:51:34.000   28.372737113  -16.407561385   762.1127   2   7   0.0323   0.0452   0.1896   0.0330  -0.0756  -0.0675   4.00    1.0
2024/05/08 12:51:35.000   28.372737112  -16.407561383   762.1161   2   7   0.0323   0.0452   0.1896   0.0330  -0.0755  -0.0675   5.00    1.0
2024/05/08 12:51:36.000   28.372737111  -16.407561383   762.1189   2   7   0.0323   0.0452   0.1896   0.0330  -0.0755  -0.0675   6.00    1.0
2024/05/08 12:51:37.000   28.372737111  -16.407561382   762.1203   2   7   0.0323   0.0452   0.1896   0.0330  -0.0755  -0.0675   7.00    1.0
2024/05/08 12:51:38.000   28.372737112  -16.407561379   762.1211   2   7   0.0323   0.0452   0.1896   0.0330  -0.0755  -0.0674   8.00    1.0
2024/05/08 12:51:39.000   28.372737113  -16.407561377   762.1222   2   7   0.0323   0.0451   0.1896   0.0330  -0.0755  -0.0674   9.00    1.0
2024/05/08 12:51:40.000   28.372737114  -16.407561374   762.1229   2   7   0.0322   0.0451   0.1896   0.0329  -0.0755  -0.0674  10.00    1.0
2024/05/08 12:51:41.000   28.372737115  -16.407561372   762.1236   2   7   0.0322   0.0451   0.1896   0.0329  -0.0755  -0.0674  11.00    1.0
2024/05/08 12:51:42.000   28.372737115  -16.407561370   762.1242   2   7   0.0322   0.0451   0.1896   0.0329  -0.0755  -0.0674  12.00    1.0
2024/05/08 12:51:43.000   28.372737116  -16.407561368   762.1248   2   7   0.0322   0.0451   0.1896   0.0329  -0.0755  -0.0674  13.00    1.0
2024/05/08 12:51:44.000   28.372737117  -16.407561366   762.1254   2   7   0.0322   0.0451   0.1895   0.0329  -0.0755  -0.0674  14.00    1.0
2024/05/08 12:51:45.000   28.372737117  -16.407561364   762.1262   2   7   0.0322   0.0451   0.1895   0.0329  -0.0754  -0.0674 -15.00    1.1
2024/05/08 12:51:46.000   28.372737118  -16.407561363   762.1269   2   7   0.0322   0.0451   0.1895   0.0329  -0.0754  -0.0674 -14.00    1.0
2024/05/08 12:51:47.000   28.372737118  -16.407561361   762.1276   2   7   0.0322   0.0451   0.1895   0.0329  -0.0754  -0.0674 -13.00    1.0
2024/05/08 12:51:48.000   28.372737119  -16.407561361   762.1282   2   7   0.0322   0.0451   0.1895   0.0329  -0.0754  -0.0674 -12.00    1.0
2024/05/08 12:51:49.000   28.372737119  -16.407561359   762.1289   2   7   0.0322   0.0451   0.1895   0.0329  -0.0754  -0.0674 -11.00    1.0
2024/05/08 12:51:50.000   28.372737120  -16.407561357   762.1295   2   7   0.0322   0.0451   0.1895   0.0329  -0.0754  -0.0674 -10.00    1.0
2024/05/08 12:51:51.000   28.372737121  -16.407561354   762.1302   2   7   0.0322   0.0451   0.1895   0.0329  -0.0754  -0.0674  -9.00    1.0
2024/05/08 12:51:52.000   28.372737122  -16.407561353   762.1316   2   7   0.0322   0.0451   0.1894   0.0329  -0.0754  -0.0674  -8.00    1.1
2024/05/08 12:51:53.000   28.372737123  -16.407561351   762.1330   2   7   0.0322   0.0451   0.1894   0.0329  -0.0754  -0.0674  -7.00    1.0
2024/05/08 12:51:54.000   28.372737123  -16.407561350   762.1352   2   7   0.0322   0.0451   0.1894   0.0329  -0.0753  -0.0673  -6.00    1.0
2024/05/08 12:51:55.000   28.372737124  -16.407561349   762.1381   2   7   0.0322   0.0451   0.1894   0.0329  -0.0753  -0.0673  -5.00    1.0
2024/05/08 12:51:56.000   28.372737126  -16.407561346   762.1406   2   7   0.0322   0.0451   0.1893   0.0329  -0.0753  -0.0673  -4.00    1.0
2024/05/08 12:51:57.000   28.372737128  -16.407561345   762.1441   2   7   0.0322   0.0451   0.1893   0.0329  -0.0753  -0.0673  -3.00    1.0
2024/05/08 12:51:58.000   28.372737129  -16.407561343   762.1483   2   7   0.0322   0.0450   0.1893   0.0329  -0.0753  -0.0673  -2.00    1.0
2024/05/08 12:51:59.000   28.372737133  -16.407561340   762.1525   2   7   0.0322   0.0450   0.1892   0.0329  -0.0753  -0.0673  -1.00    1.1
2024/05/08 12:52:00.000   28.372737140  -16.407561333   762.1534   2   7   0.0322   0.0450   0.1893   0.0329  -0.0753  -0.0673   0.00    1.0
2024/05/08 12:52:01.000   28.372737144  -16.407561333   762.1599   2   7   0.0322   0.0450   0.1892   0.0329  -0.0753  -0.0673   1.00    1.0
2024/05/08 12:52:02.000   28.372737147  -16.407561330   762.1653   2   7   0.0322   0.0450   0.1892   0.0328  -0.0752  -0.0673   2.00    1.0
2024/05/08 12:52:03.000   28.372737149  -16.407561327   762.1709   2   7   0.0322   0.0450   0.1892   0.0328  -0.0752  -0.0673   3.00    1.0
2024/05/08 12:52:04.000   28.372737149  -16.407561324   762.1758   2   7   0.0322   0.0450   0.1892   0.0328  -0.0752  -0.0673   4.00    1.0
2024/05/08 12:52:05.000   28.372737151  -16.407561321   762.1793   2   7   0.0322   0.0450   0.1892   0.0328  -0.0752  -0.0673   5.00    1.0
2024/05/08 12:52:06.000   28.372737151  -16.407561319   762.1829   2   7   0.0322   0.0450   0.1892   0.0328  -0.0752  -0.0673   6.00    1.1
2024/05/08 12:52:07.000   28.372737152  -16.407561317   762.1853   2   7   0.0322   0.0450   0.1892   0.0328  -0.0752  -0.0673   7.00    1.0
2024/05/08 12:52:08.000   28.372737153  -16.407561315   762.1876   2   7   0.0322   0.0450   0.1892   0.0328  -0.0752  -0.0672   8.00    1.0
2024/05/08 12:52:09.000   28.372737153  -16.407561313   762.1900   2   7   0.0322   0.0450   0.1892   0.0328  -0.0752  -0.0672   9.00    1.0
2024/05/08 12:52:10.000   28.372737154  -16.407561312   762.1919   2   7   0.0322   0.0450   0.1891   0.0328  -0.0752  -0.0672  10.00    1.0
2024/05/08 12:52:11.000   28.372737154  -16.407561310   762.1934   2   7   0.0322   0.0450   0.1891   0.0328  -0.0752  -0.0672  11.00    1.0
2024/05/08 12:52:12.000   28.372737153  -16.407561310   762.1957   2   7   0.0322   0.0450   0.1891   0.0328  -0.0752  -0.0672  12.00    1.0
2024/05/08 12:52:13.000   28.372737153  -16.407561309   762.1974   2   7   0.0322   0.0450   0.1891   0.0328  -0.0751  -0.0672  13.00    1.1
2024/05/08 12:52:14.000   28.372737153  -16.407561308   762.1988   2   7   0.0322   0.0450   0.1891   0.0328  -0.0751  -0.0672  14.00    1.0
2024/05/08 12:52:15.000   28.372737152  -16.407561308   762.2005   2   7   0.0322   0.0450   0.1891   0.0328  -0.0751  -0.0672 -15.00    1.0
2024/05/08 12:52:16.000   28.372737151  -16.407561308   762.2022   2   7   0.0322   0.0450   0.1891   0.0328  -0.0751  -0.0672 -14.00    1.0
2024/05/08 12:52:17.000   28.372737151  -16.407561307   762.2039   2   7   0.0322   0.0450   0.1891   0.0328  -0.0751  -0.0672 -13.00    1.0
2024/05/08 12:52:18.000   28.372737150  -16.407561308   762.2062   2   7   0.0322   0.0450   0.1891   0.0328  -0.0751  -0.0672 -12.00    1.0
2024/05/08 12:52:19.000   28.372737149  -16.407561308   762.2082   2   7   0.0322   0.0450   0.1891   0.0328  -0.0751  -0.0672 -11.00    1.0
2024/05/08 12:52:20.000   28.372737149  -16.407561308   762.2104   2   7   0.0322   0.0450   0.1891   0.0328  -0.0751  -0.0672 -10.00    1.1
2024/05/08 12:52:21.000   28.372737150  -16.407561307   762.2124   2   7   0.0322   0.0450   0.1891   0.0328  -0.0751  -0.0672  -9.00    1.0
2024/05/08 12:52:22.000   28.372737150  -16.407561307   762.2153   2   7   0.0322   0.0449   0.1890   0.0328  -0.0751  -0.0672  -8.00    1.0
2024/05/08 12:52:23.000   28.372737151  -16.407561306   762.2181   2   7   0.0322   0.0449   0.1890   0.0328  -0.0751  -0.0672  -7.00    1.0
2024/05/08 12:52:24.000   28.372737155  -16.407561303   762.2196   2   7   0.0322   0.0449   0.1890   0.0328  -0.0750  -0.0672  -6.00    1.0
2024/05/08 12:52:25.000   28.372737160  -16.407561298   762.2199   2   7   0.0322   0.0449   0.1890   0.0328  -0.0750  -0.0672  -5.00    1.0
2024/05/08 12:52:26.000   28.372737165  -16.407561294   762.2224   2   6   0.0322   0.0449   0.1890   0.0328  -0.0750  -0.0671  -4.00    1.1
2024/05/08 12:52:27.000   28.372737172  -16.407561290   762.2233   2   6   0.0322   0.0449   0.1889   0.0327  -0.0750  -0.0671  -3.00    1.1
2024/05/08 12:52:28.000   28.372737180  -16.407561283   762.2236   2   6   0.0322   0.0449   0.1889   0.0327  -0.0750  -0.0671  -2.00    1.0
2024/05/08 12:52:29.000   28.372737189  -16.407561276   762.2241   2   6   0.0322   0.0449   0.1888   0.0327  -0.0750  -0.0671  -1.00    1.1
2024/05/08 12:52:30.000   28.372737200  -16.407561267   762.2230   2   6   0.0322   0.0449   0.1889   0.0327  -0.0750  -0.0671   0.00    1.0
2024/05/08 12:52:31.000   28.372737208  -16.407561264   762.2232   2   6   0.0321   0.0449   0.1888   0.0327  -0.0750  -0.0671   1.00    1.1
2024/05/08 12:52:32.000   28.372737216  -16.407561260   762.2230   2   6   0.0321   0.0449   0.1887   0.0327  -0.0750  -0.0671   2.00    1.3
2024/05/08 12:52:33.000   28.372737223  -16.407561257   762.2236   2   6   0.0321   0.0449   0.1887   0.0327  -0.0750  -0.0671   3.00    1.1
2024/05/08 12:52:34.000   28.372737228  -16.407561255   762.2232   2   6   0.0321   0.0449   0.1887   0.0327  -0.0750  -0.0671   4.00    1.1
2024/05/08 12:52:35.000   28.372737232  -16.407561254   762.2223   2   6   0.0321   0.0449   0.1887   0.0327  -0.0750  -0.0671   5.00    1.1
2024/05/08 12:52:36.000   28.372737235  -16.407561254   762.2220   2   6   0.0321   0.0449   0.1887   0.0327  -0.0749  -0.0671   6.00    1.1
2024/05/08 12:52:37.000   28.372737238  -16.407561254   762.2215   2   6   0.0321   0.0449   0.1887   0.0327  -0.0749  -0.0671   7.00    1.1
2024/05/08 12:52:38.000   28.372737240  -16.407561254   762.2210   2   6   0.0321   0.0449   0.1887   0.0327  -0.0749  -0.0671   8.00    1.1
2024/05/08 12:52:39.000   28.372737242  -16.407561254   762.2203   2   6   0.0321   0.0449   0.1887   0.0327  -0.0749  -0.0671   9.00    1.1
2024/05/08 12:52:40.000   28.372737243  -16.407561254   762.2197   2   6   0.0321   0.0449   0.1886   0.0327  -0.0749  -0.0671  10.00    1.1
2024/05/08 12:52:41.000   28.372737244  -16.407561255   762.2193   2   6   0.0321   0.0449   0.1886   0.0327  -0.0749  -0.0671  11.00    1.1
2024/05/08 12:52:42.000   28.372737246  -16.407561255   762.2189   2   6   0.0321   0.0449   0.1886   0.0327  -0.0749  -0.0670  12.00    1.1
2024/05/08 12:52:43.000   28.372737247  -16.407561254   762.2185   2   6   0.0321   0.0448   0.1886   0.0327  -0.0749  -0.0670  13.00    1.1
2024/05/08 12:52:44.000   28.372737248  -16.407561254   762.2181   2   6   0.0321   0.0448   0.1886   0.0327  -0.0749  -0.0670  14.00    1.4
2024/05/08 12:52:45.000   28.372737249  -16.407561254   762.2178   2   6   0.0321   0.0448   0.1886   0.0327  -0.0749  -0.0670 -15.00    1.1
2024/05/08 12:52:46.000   28.372737251  -16.407561253   762.2174   2   6   0.0321   0.0448   0.1886   0.0327  -0.0749  -0.0670 -14.00    1.1
