% program   : RTKPOST-EX 2.5.0
% inp file  : C:\Users\SallyHenry\Desktop\Sally Internship\GNSS gravi\DATA\Survey Rover Obs\GUI26.24o
% inp file  : C:\Users\SallyHenry\Desktop\Sally Internship\GNSS gravi\DATA\BaseStations\IZAN\IZAN00ESP_R_20241550000_01D_30S_MO.rnx
% inp file  : C:\Users\SallyHenry\Desktop\Sally Internship\GNSS gravi\DATA\BaseStations\IZAN\IZAN00ESP_R_20241550000_01D_MN.rnx
% inp file  : C:\Users\SallyHenry\Desktop\Sally Internship\GNSS gravi\DATA\aux_files\Survey\IGS0OPSFIN_20241550000_01D_15M_ORB.SP3
% inp file  : C:\Users\SallyHenry\Desktop\Sally Internship\GNSS gravi\DATA\aux_files\Survey\IGS0OPSFIN_20241550000_01D_30S_CLK.CLK
% obs start : 2024/06/03 15:10:22.0 GPST (week2317 141022.0s)
% obs end   : 2024/06/03 15:25:23.0 GPST (week2317 141923.0s)
% pos mode  : Static
% freqs     : L1+L2/E5b
% solution  : Combined-No Phase Reset
% elev mask : 15.0 deg
% dynamics  : on
% tidecorr  : solid
% ionos opt : Estimate TEC
% tropo opt : Estimate ZTD+Grad
% ephemeris : Precise
% navi sys  : GPS GLONASS Galileo QZSS BDS
% amb res   : Fix and Hold
% amb glo   : Fix and Hold
% amb bds   : on
% val thres : 3.0
% antenna1  :                       ( 0.0000  0.0000  1.8000)
% antenna2  :                       ( 0.0000  0.0000  0.0000)
% ref pos   :  28.308069410  -16.499677180  2417.4044
%
% (lat/lon/height=WGS84/ellipsoidal,Q=1:fix,2:float,3:sbas,4:dgps,5:single,6:ppp,ns=# of satellites)
%  GPST                  latitude(deg) longitude(deg)  height(m)   Q  ns   sdn(m)   sde(m)   sdu(m)  sdne(m)  sdeu(m)  sdun(m) age(s)  ratio
2024/06/03 15:10:22.000   28.292891540  -16.432250121  1119.6577   1   9   0.0015   0.0011   0.0196   0.0003   0.0031  -0.0028  -8.00   27.4
2024/06/03 15:10:23.000   28.292891540  -16.432250122  1119.6576   1   9   0.0015   0.0011   0.0196   0.0003   0.0031  -0.0028  -7.00   27.4
2024/06/03 15:10:24.000   28.292891541  -16.432250122  1119.6576   1   9   0.0015   0.0011   0.0196   0.0003   0.0031  -0.0028  -6.00   28.2
2024/06/03 15:10:25.000   28.292891541  -16.432250122  1119.6574   1   9   0.0015   0.0011   0.0196   0.0003   0.0031  -0.0028  -5.00   28.5
2024/06/03 15:10:26.000   28.292891542  -16.432250122  1119.6572   1   9   0.0015   0.0011   0.0196   0.0003   0.0031  -0.0028  -4.00   29.0
2024/06/03 15:10:27.000   28.292891542  -16.432250123  1119.6568   1   9   0.0015   0.0011   0.0197   0.0003   0.0031  -0.0028  -3.00   26.2
2024/06/03 15:10:28.000   28.292891542  -16.432250123  1119.6564   1   9   0.0015   0.0011   0.0197   0.0003   0.0031  -0.0028  -2.00   19.2
2024/06/03 15:10:29.000   28.292891542  -16.432250123  1119.6561   1   9   0.0015   0.0011   0.0198   0.0003   0.0031  -0.0028  -1.00   11.3
2024/06/03 15:10:30.000   28.292891535  -16.432250122  1119.6628   1   9   0.0015   0.0011   0.0197   0.0003   0.0031  -0.0027   0.00   35.4
2024/06/03 15:10:31.000   28.292891535  -16.432250122  1119.6622   1   9   0.0015   0.0011   0.0198   0.0003   0.0031  -0.0027   1.00   35.7
2024/06/03 15:10:32.000   28.292891536  -16.432250122  1119.6619   1   9   0.0015   0.0011   0.0198   0.0003   0.0031  -0.0027   2.00   35.6
2024/06/03 15:10:33.000   28.292891536  -16.432250122  1119.6616   1   9   0.0015   0.0012   0.0199   0.0003   0.0031  -0.0027   3.00   35.4
2024/06/03 15:10:34.000   28.292891536  -16.432250122  1119.6612   1   9   0.0015   0.0012   0.0199   0.0003   0.0031  -0.0027   4.00   35.2
2024/06/03 15:10:35.000   28.292891537  -16.432250122  1119.6610   1   9   0.0015   0.0012   0.0199   0.0003   0.0031  -0.0027   5.00   34.8
2024/06/03 15:10:36.000   28.292891537  -16.432250122  1119.6607   1   9   0.0015   0.0012   0.0200   0.0003   0.0031  -0.0027   6.00   34.1
2024/06/03 15:10:37.000   28.292891537  -16.432250122  1119.6603   1   9   0.0015   0.0012   0.0200   0.0003   0.0031  -0.0027   7.00   33.4
2024/06/03 15:10:38.001   28.292891537  -16.432250122  1119.6601   1   9   0.0015   0.0012   0.0200   0.0003   0.0032  -0.0027   8.00   32.8
2024/06/03 15:10:39.000   28.292891537  -16.432250122  1119.6599   1   9   0.0015   0.0012   0.0200   0.0003   0.0032  -0.0027   9.00   32.2
2024/06/03 15:10:40.000   28.292891537  -16.432250122  1119.6597   1   9   0.0015   0.0012   0.0200   0.0003   0.0032  -0.0027  10.00   31.5
2024/06/03 15:10:41.000   28.292891537  -16.432250122  1119.6595   1   9   0.0015   0.0012   0.0200   0.0003   0.0032  -0.0027  11.00   30.9
2024/06/03 15:10:42.000   28.292891538  -16.432250122  1119.6594   1   9   0.0015   0.0012   0.0200   0.0003   0.0032  -0.0027  12.00   30.2
2024/06/03 15:10:43.000   28.292891538  -16.432250123  1119.6593   1   9   0.0015   0.0012   0.0200   0.0003   0.0032  -0.0028  13.00   29.6
2024/06/03 15:10:44.000   28.292891538  -16.432250123  1119.6592   1   9   0.0015   0.0012   0.0200   0.0003   0.0032  -0.0028  14.00   29.1
2024/06/03 15:10:45.000   28.292891538  -16.432250123  1119.6591   1   9   0.0015   0.0012   0.0200   0.0003   0.0032  -0.0028  15.00   28.4
2024/06/03 15:10:46.000   28.292891538  -16.432250123  1119.6590   1   9   0.0015   0.0012   0.0200   0.0003   0.0032  -0.0028 -14.00   27.7
2024/06/03 15:10:47.000   28.292891538  -16.432250123  1119.6589   1   9   0.0015   0.0012   0.0200   0.0003   0.0032  -0.0028 -13.00   27.1
2024/06/03 15:10:48.000   28.292891538  -16.432250123  1119.6588   1   9   0.0015   0.0012   0.0200   0.0003   0.0032  -0.0028 -12.00   26.4
2024/06/03 15:10:49.000   28.292891539  -16.432250122  1119.6587   1   9   0.0015   0.0012   0.0200   0.0003   0.0032  -0.0028 -11.00   25.5
2024/06/03 15:10:50.000   28.292891539  -16.432250122  1119.6585   1   9   0.0015   0.0012   0.0200   0.0003   0.0032  -0.0028 -10.00   24.5
2024/06/03 15:10:51.000   28.292891539  -16.432250123  1119.6583   1   9   0.0015   0.0012   0.0201   0.0003   0.0032  -0.0028  -9.00   23.7
2024/06/03 15:10:52.000   28.292891539  -16.432250123  1119.6581   1   9   0.0015   0.0012   0.0201   0.0003   0.0032  -0.0028  -8.00   22.5
2024/06/03 15:10:53.000   28.292891539  -16.432250123  1119.6577   1   9   0.0015   0.0012   0.0201   0.0003   0.0032  -0.0028  -7.00   20.7
2024/06/03 15:10:54.000   28.292891539  -16.432250123  1119.6575   1   9   0.0015   0.0012   0.0201   0.0003   0.0032  -0.0028  -6.00   19.4
2024/06/03 15:10:55.000   28.292891540  -16.432250123  1119.6572   1   9   0.0015   0.0012   0.0201   0.0003   0.0032  -0.0028  -5.00   18.0
2024/06/03 15:10:56.000   28.292891540  -16.432250122  1119.6568   1   9   0.0015   0.0012   0.0201   0.0003   0.0032  -0.0028  -4.00   16.0
2024/06/03 15:10:57.000   28.292891541  -16.432250122  1119.6564   1   9   0.0015   0.0012   0.0202   0.0003   0.0032  -0.0028  -3.00   14.6
2024/06/03 15:10:58.000   28.292891543  -16.432250121  1119.6561   1   9   0.0015   0.0012   0.0202   0.0003   0.0032  -0.0028  -2.00   12.9
2024/06/03 15:10:59.000   28.292891544  -16.432250121  1119.6557   1   9   0.0015   0.0012   0.0203   0.0003   0.0032  -0.0028  -1.00    8.8
2024/06/03 15:11:00.000   28.292891539  -16.432250120  1119.6609   1   9   0.0015   0.0012   0.0202   0.0003   0.0032  -0.0027   0.00   47.8
2024/06/03 15:11:01.000   28.292891540  -16.432250120  1119.6607   1   9   0.0015   0.0012   0.0203   0.0003   0.0032  -0.0027   1.00   47.8
2024/06/03 15:11:02.000   28.292891541  -16.432250120  1119.6603   1   9   0.0015   0.0012   0.0203   0.0003   0.0032  -0.0027   2.00   47.9
2024/06/03 15:11:03.000   28.292891542  -16.432250120  1119.6599   1   9   0.0015   0.0012   0.0204   0.0003   0.0032  -0.0027   3.00   47.4
2024/06/03 15:11:04.000   28.292891542  -16.432250120  1119.6596   1   9   0.0015   0.0012   0.0204   0.0003   0.0032  -0.0027   4.00   46.5
2024/06/03 15:11:05.000   28.292891542  -16.432250120  1119.6594   1   9   0.0015   0.0012   0.0204   0.0003   0.0032  -0.0027   5.00   46.3
2024/06/03 15:11:06.000   28.292891543  -16.432250120  1119.6593   1   9   0.0015   0.0012   0.0205   0.0003   0.0032  -0.0027   6.00   46.3
2024/06/03 15:11:07.000   28.292891543  -16.432250120  1119.6592   1   9   0.0015   0.0012   0.0205   0.0003   0.0032  -0.0027   7.00   46.2
2024/06/03 15:11:08.000   28.292891544  -16.432250120  1119.6591   1   9   0.0015   0.0012   0.0205   0.0003   0.0032  -0.0027   8.00   45.9
2024/06/03 15:11:09.000   28.292891544  -16.432250120  1119.6589   1   9   0.0015   0.0012   0.0205   0.0003   0.0032  -0.0027   9.00   45.4
2024/06/03 15:11:10.000   28.292891544  -16.432250120  1119.6587   1   9   0.0015   0.0012   0.0205   0.0003   0.0032  -0.0027  10.00   44.8
2024/06/03 15:11:11.000   28.292891545  -16.432250120  1119.6586   1   9   0.0015   0.0012   0.0205   0.0003   0.0032  -0.0027  11.00   43.9
2024/06/03 15:11:12.000   28.292891545  -16.432250120  1119.6586   1   9   0.0015   0.0012   0.0205   0.0003   0.0032  -0.0027  12.00   43.3
2024/06/03 15:11:13.000   28.292891545  -16.432250120  1119.6586   1   9   0.0015   0.0012   0.0205   0.0003   0.0032  -0.0027  13.00   42.6
2024/06/03 15:11:14.000   28.292891545  -16.432250120  1119.6585   1   9   0.0015   0.0012   0.0205   0.0003   0.0032  -0.0027  14.00   41.8
2024/06/03 15:11:15.000   28.292891545  -16.432250120  1119.6585   1   9   0.0015   0.0012   0.0205   0.0003   0.0032  -0.0027  15.00   41.0
2024/06/03 15:11:16.000   28.292891545  -16.432250120  1119.6584   1   9   0.0015   0.0012   0.0205   0.0003   0.0032  -0.0027 -14.00   40.1
2024/06/03 15:11:17.000   28.292891545  -16.432250120  1119.6584   1   9   0.0015   0.0012   0.0205   0.0003   0.0032  -0.0027 -13.00   39.0
2024/06/03 15:11:18.000   28.292891545  -16.432250120  1119.6584   1   9   0.0015   0.0012   0.0205   0.0003   0.0032  -0.0027 -12.00   37.7
2024/06/03 15:11:19.000   28.292891545  -16.432250120  1119.6583   1   9   0.0015   0.0012   0.0205   0.0003   0.0032  -0.0027 -11.00   36.4
2024/06/03 15:11:20.000   28.292891545  -16.432250120  1119.6582   1   9   0.0015   0.0012   0.0205   0.0003   0.0032  -0.0027 -10.00   35.8
2024/06/03 15:11:21.000   28.292891545  -16.432250120  1119.6581   1   9   0.0015   0.0012   0.0205   0.0003   0.0033  -0.0027  -9.00   35.0
2024/06/03 15:11:22.000   28.292891546  -16.432250120  1119.6580   1   9   0.0015   0.0012   0.0206   0.0003   0.0033  -0.0027  -8.00   34.3
2024/06/03 15:11:23.000   28.292891546  -16.432250120  1119.6579   1   9   0.0015   0.0012   0.0206   0.0003   0.0033  -0.0027  -7.00   33.1
2024/06/03 15:11:24.000   28.292891546  -16.432250120  1119.6578   1   9   0.0015   0.0012   0.0206   0.0003   0.0033  -0.0028  -6.00   31.6
2024/06/03 15:11:25.000   28.292891546  -16.432250120  1119.6576   1   9   0.0015   0.0012   0.0206   0.0003   0.0033  -0.0028  -5.00   30.1
2024/06/03 15:11:26.000   28.292891547  -16.432250120  1119.6574   1   9   0.0015   0.0012   0.0206   0.0003   0.0033  -0.0028  -4.00   29.3
2024/06/03 15:11:27.000   28.292891547  -16.432250120  1119.6574   1   9   0.0015   0.0012   0.0207   0.0003   0.0033  -0.0028  -3.00   26.3
2024/06/03 15:11:28.000   28.292891548  -16.432250120  1119.6572   1   9   0.0015   0.0012   0.0207   0.0003   0.0033  -0.0028  -2.00   20.2
2024/06/03 15:11:29.000   28.292891548  -16.432250119  1119.6569   1   9   0.0015   0.0012   0.0207   0.0003   0.0033  -0.0028  -1.00   11.3
2024/06/03 15:11:30.000   28.292891543  -16.432250118  1119.6609   1   9   0.0015   0.0012   0.0207   0.0003   0.0033  -0.0027   0.00   51.9
2024/06/03 15:11:31.000   28.292891543  -16.432250118  1119.6609   1   9   0.0015   0.0012   0.0208   0.0003   0.0033  -0.0027   1.00   51.1
2024/06/03 15:11:32.000   28.292891543  -16.432250118  1119.6609   1   9   0.0015   0.0012   0.0208   0.0003   0.0033  -0.0027   2.00   50.2
2024/06/03 15:11:33.000   28.292891543  -16.432250118  1119.6609   1   9   0.0015   0.0012   0.0209   0.0003   0.0033  -0.0027   3.00   49.0
2024/06/03 15:11:34.000   28.292891543  -16.432250118  1119.6610   1   9   0.0015   0.0012   0.0209   0.0003   0.0033  -0.0027   4.00   47.9
2024/06/03 15:11:35.000   28.292891543  -16.432250118  1119.6610   1   9   0.0015   0.0012   0.0209   0.0003   0.0033  -0.0027   5.00   46.7
2024/06/03 15:11:36.000   28.292891543  -16.432250117  1119.6610   1   9   0.0015   0.0012   0.0209   0.0003   0.0033  -0.0027   6.00   45.4
2024/06/03 15:11:37.000   28.292891543  -16.432250117  1119.6611   1   9   0.0015   0.0012   0.0210   0.0003   0.0033  -0.0027   7.00   44.4
2024/06/03 15:11:38.000   28.292891543  -16.432250117  1119.6610   1   9   0.0015   0.0012   0.0210   0.0003   0.0033  -0.0027   8.00   43.6
2024/06/03 15:11:39.000   28.292891543  -16.432250117  1119.6610   1   9   0.0015   0.0012   0.0210   0.0003   0.0033  -0.0027   9.00   42.7
2024/06/03 15:11:40.000   28.292891543  -16.432250117  1119.6611   1   9   0.0015   0.0012   0.0210   0.0003   0.0033  -0.0027  10.00   42.1
2024/06/03 15:11:41.000   28.292891544  -16.432250117  1119.6611   1   9   0.0015   0.0012   0.0210   0.0003   0.0033  -0.0027  11.00   41.4
2024/06/03 15:11:42.000   28.292891544  -16.432250117  1119.6611   1   9   0.0015   0.0012   0.0210   0.0003   0.0033  -0.0027  12.00   40.5
2024/06/03 15:11:43.000   28.292891544  -16.432250117  1119.6611   1   9   0.0015   0.0012   0.0210   0.0003   0.0033  -0.0027  13.00   39.6
2024/06/03 15:11:44.000   28.292891544  -16.432250117  1119.6611   1   9   0.0015   0.0012   0.0210   0.0003   0.0033  -0.0027  14.00   38.9
2024/06/03 15:11:45.000   28.292891544  -16.432250117  1119.6612   1   9   0.0015   0.0012   0.0210   0.0003   0.0033  -0.0027  15.00   38.0
2024/06/03 15:11:46.000   28.292891544  -16.432250117  1119.6612   1   9   0.0015   0.0012   0.0210   0.0003   0.0033  -0.0027 -14.00   37.1
2024/06/03 15:11:47.000   28.292891544  -16.432250117  1119.6613   1   9   0.0015   0.0012   0.0210   0.0003   0.0033  -0.0027 -13.00   36.3
2024/06/03 15:11:48.000   28.292891544  -16.432250117  1119.6613   1   9   0.0015   0.0012   0.0210   0.0003   0.0033  -0.0027 -12.00   35.6
2024/06/03 15:11:49.000   28.292891544  -16.432250117  1119.6614   1   9   0.0015   0.0012   0.0210   0.0003   0.0033  -0.0027 -11.00   34.9
2024/06/03 15:11:50.000   28.292891544  -16.432250117  1119.6615   1   9   0.0015   0.0012   0.0210   0.0003   0.0033  -0.0027 -10.00   34.2
2024/06/03 15:11:51.000   28.292891544  -16.432250117  1119.6615   1   9   0.0015   0.0012   0.0210   0.0003   0.0033  -0.0027  -9.00   33.4
2024/06/03 15:11:52.000   28.292891544  -16.432250117  1119.6615   1   9   0.0015   0.0012   0.0210   0.0003   0.0033  -0.0027  -8.00   32.3
2024/06/03 15:11:53.000   28.292891544  -16.432250117  1119.6616   1   9   0.0015   0.0012   0.0211   0.0003   0.0033  -0.0027  -7.00   31.7
2024/06/03 15:11:54.000   28.292891545  -16.432250117  1119.6617   1   9   0.0015   0.0012   0.0211   0.0004   0.0033  -0.0027  -6.00   31.1
2024/06/03 15:11:55.000   28.292891545  -16.432250117  1119.6617   1   9   0.0015   0.0012   0.0211   0.0004   0.0033  -0.0027  -5.00   30.5
2024/06/03 15:11:56.000   28.292891545  -16.432250117  1119.6617   1   9   0.0015   0.0012   0.0211   0.0004   0.0034  -0.0027  -4.00   28.3
2024/06/03 15:11:57.000   28.292891545  -16.432250117  1119.6618   1   9   0.0015   0.0012   0.0211   0.0004   0.0034  -0.0028  -3.00   25.6
2024/06/03 15:11:58.000   28.292891546  -16.432250117  1119.6621   1   9   0.0015   0.0012   0.0212   0.0004   0.0034  -0.0028  -2.00   19.0
2024/06/03 15:11:59.000   28.292891546  -16.432250117  1119.6622   1   9   0.0015   0.0012   0.0212   0.0004   0.0034  -0.0028  -1.00   10.2
2024/06/03 15:12:00.000   28.292891541  -16.432250116  1119.6669   1   9   0.0015   0.0012   0.0212   0.0004   0.0034  -0.0027   0.00   48.4
2024/06/03 15:12:01.000   28.292891541  -16.432250116  1119.6670   1   9   0.0015   0.0012   0.0212   0.0004   0.0034  -0.0027   1.00   48.1
2024/06/03 15:12:02.000   28.292891541  -16.432250116  1119.6669   1   9   0.0015   0.0012   0.0213   0.0004   0.0034  -0.0027   2.00   47.7
2024/06/03 15:12:03.000   28.292891541  -16.432250116  1119.6669   1   9   0.0015   0.0012   0.0213   0.0004   0.0034  -0.0027   3.00   47.3
2024/06/03 15:12:04.000   28.292891541  -16.432250117  1119.6667   1   9   0.0015   0.0012   0.0214   0.0004   0.0034  -0.0027   4.00   47.2
2024/06/03 15:12:05.000   28.292891542  -16.432250117  1119.6666   1   9   0.0015   0.0012   0.0214   0.0004   0.0034  -0.0027   5.00   46.8
2024/06/03 15:12:06.000   28.292891542  -16.432250117  1119.6665   1   9   0.0015   0.0012   0.0214   0.0004   0.0034  -0.0027   6.00   46.3
2024/06/03 15:12:07.000   28.292891542  -16.432250117  1119.6663   1   9   0.0015   0.0012   0.0215   0.0004   0.0034  -0.0027   7.00   45.7
2024/06/03 15:12:08.000   28.292891542  -16.432250117  1119.6661   1   9   0.0015   0.0012   0.0215   0.0004   0.0034  -0.0027   8.00   45.0
2024/06/03 15:12:09.000   28.292891542  -16.432250117  1119.6660   1   9   0.0015   0.0012   0.0215   0.0004   0.0034  -0.0027   9.00   44.4
2024/06/03 15:12:10.000   28.292891537  -16.432250112  1119.6784   1   9   0.0014   0.0011   0.0207   0.0003   0.0034  -0.0026  10.00    3.7
2024/06/03 15:12:11.000   28.292891537  -16.432250112  1119.6787   1   9   0.0014   0.0011   0.0207   0.0003   0.0034  -0.0026  11.00    3.7
2024/06/03 15:12:12.000   28.292891537  -16.432250112  1119.6788   1   9   0.0014   0.0011   0.0207   0.0003   0.0034  -0.0026  12.00    3.8
2024/06/03 15:12:13.000   28.292891537  -16.432250112  1119.6789   1   9   0.0014   0.0011   0.0207   0.0003   0.0034  -0.0026  13.00    3.8
2024/06/03 15:12:14.000   28.292891537  -16.432250112  1119.6790   1   9   0.0014   0.0011   0.0207   0.0003   0.0034  -0.0026  14.00    3.8
2024/06/03 15:12:15.000   28.292891537  -16.432250112  1119.6790   1   9   0.0014   0.0011   0.0207   0.0003   0.0034  -0.0026 -15.00    3.8
2024/06/03 15:12:16.000   28.292891537  -16.432250112  1119.6792   1   9   0.0014   0.0011   0.0207   0.0003   0.0034  -0.0026 -14.00    3.8
2024/06/03 15:12:17.000   28.292891537  -16.432250112  1119.6793   1   9   0.0014   0.0011   0.0207   0.0003   0.0034  -0.0026 -13.00    3.8
2024/06/03 15:12:18.000   28.292891537  -16.432250111  1119.6794   1   9   0.0014   0.0011   0.0207   0.0003   0.0034  -0.0026 -12.00    3.9
2024/06/03 15:12:19.000   28.292891537  -16.432250111  1119.6795   1   9   0.0014   0.0011   0.0207   0.0003   0.0034  -0.0026 -11.00    3.9
2024/06/03 15:12:20.000   28.292891537  -16.432250111  1119.6794   1   9   0.0014   0.0011   0.0207   0.0003   0.0034  -0.0026 -10.00    4.0
2024/06/03 15:12:21.000   28.292891537  -16.432250111  1119.6796   1   9   0.0014   0.0011   0.0207   0.0003   0.0034  -0.0026  -9.00    4.1
2024/06/03 15:12:22.000   28.292891537  -16.432250111  1119.6798   1   9   0.0014   0.0011   0.0207   0.0003   0.0034  -0.0026  -8.00    4.2
2024/06/03 15:12:23.000   28.292891537  -16.432250111  1119.6803   1   9   0.0014   0.0011   0.0207   0.0003   0.0034  -0.0026  -7.00    4.3
2024/06/03 15:12:24.000   28.292891537  -16.432250111  1119.6808   1   9   0.0014   0.0011   0.0207   0.0003   0.0034  -0.0026  -6.00    4.4
2024/06/03 15:12:25.000   28.292891537  -16.432250111  1119.6815   1   9   0.0014   0.0011   0.0207   0.0003   0.0034  -0.0026  -5.00    4.5
2024/06/03 15:12:26.000   28.292891537  -16.432250110  1119.6822   1   9   0.0014   0.0011   0.0206   0.0003   0.0034  -0.0026  -4.00    3.1
2024/06/03 15:12:27.000   28.292891537  -16.432250110  1119.6831   1   9   0.0014   0.0011   0.0206   0.0003   0.0034  -0.0026  -3.00    3.0
2024/06/03 15:12:28.000   28.292891537  -16.432250110  1119.6837   1   9   0.0014   0.0011   0.0206   0.0003   0.0034  -0.0026  -2.00    3.0
2024/06/03 15:12:29.000   28.292891536  -16.432250110  1119.6846   1   9   0.0014   0.0011   0.0207   0.0003   0.0034  -0.0026  -1.00    3.0
2024/06/03 15:12:30.000   28.292891528  -16.432250114  1119.6760   1   9   0.0014   0.0011   0.0193   0.0002   0.0031  -0.0028   0.00    5.3
2024/06/03 15:12:31.000   28.292891539  -16.432250122  1119.6599   1   9   0.0014   0.0011   0.0187   0.0003   0.0029  -0.0026   1.00    5.1
2024/06/03 15:12:32.000   28.292891539  -16.432250121  1119.6598   1   9   0.0014   0.0011   0.0187   0.0003   0.0029  -0.0026   2.00    7.2
2024/06/03 15:12:33.000   28.292891538  -16.432250121  1119.6600   1   9   0.0014   0.0011   0.0187   0.0003   0.0029  -0.0026   3.00    8.4
2024/06/03 15:12:34.000   28.292891538  -16.432250121  1119.6601   1   9   0.0014   0.0011   0.0187   0.0003   0.0029  -0.0026   4.00    9.9
2024/06/03 15:12:35.000   28.292891538  -16.432250121  1119.6601   1   9   0.0014   0.0011   0.0187   0.0003   0.0029  -0.0026   5.00   10.8
2024/06/03 15:12:36.000   28.292891538  -16.432250121  1119.6601   1   9   0.0014   0.0011   0.0187   0.0003   0.0029  -0.0026   6.00   12.1
2024/06/03 15:12:37.000   28.292891538  -16.432250121  1119.6600   1   9   0.0014   0.0011   0.0187   0.0003   0.0029  -0.0026   7.00   13.7
2024/06/03 15:12:38.000   28.292891538  -16.432250121  1119.6601   1   9   0.0014   0.0011   0.0187   0.0003   0.0029  -0.0026   8.00   15.2
2024/06/03 15:12:39.000   28.292891538  -16.432250121  1119.6602   1   9   0.0014   0.0011   0.0187   0.0003   0.0029  -0.0026   9.00   16.4
2024/06/03 15:12:40.000   28.292891538  -16.432250121  1119.6602   1   9   0.0014   0.0011   0.0187   0.0003   0.0029  -0.0026  10.00   17.5
2024/06/03 15:12:41.000   28.292891538  -16.432250121  1119.6602   1   9   0.0014   0.0011   0.0187   0.0003   0.0029  -0.0026  11.00   18.8
2024/06/03 15:12:42.000   28.292891538  -16.432250121  1119.6603   1   9   0.0014   0.0011   0.0187   0.0003   0.0029  -0.0026  12.00   20.2
2024/06/03 15:12:43.000   28.292891538  -16.432250121  1119.6603   1   9   0.0014   0.0011   0.0187   0.0003   0.0029  -0.0026  13.00   21.3
2024/06/03 15:12:44.000   28.292891538  -16.432250121  1119.6604   1   9   0.0014   0.0011   0.0187   0.0003   0.0029  -0.0026  14.00   22.5
2024/06/03 15:12:45.000   28.292891538  -16.432250121  1119.6603   1   9   0.0014   0.0011   0.0187   0.0003   0.0029  -0.0026 -15.00   24.0
2024/06/03 15:12:46.000   28.292891538  -16.432250121  1119.6603   1   9   0.0014   0.0011   0.0187   0.0003   0.0029  -0.0026 -14.00   25.7
2024/06/03 15:12:47.000   28.292891538  -16.432250121  1119.6603   1   9   0.0014   0.0011   0.0187   0.0003   0.0029  -0.0026 -13.00   27.3
2024/06/03 15:12:48.000   28.292891538  -16.432250121  1119.6603   1   9   0.0014   0.0011   0.0187   0.0003   0.0029  -0.0026 -12.00   28.9
2024/06/03 15:12:49.000   28.292891538  -16.432250121  1119.6603   1   9   0.0014   0.0011   0.0187   0.0003   0.0029  -0.0026 -11.00   30.8
2024/06/03 15:12:50.000   28.292891538  -16.432250121  1119.6602   1   9   0.0014   0.0011   0.0187   0.0003   0.0029  -0.0026 -10.00   32.4
2024/06/03 15:12:51.000   28.292891538  -16.432250121  1119.6602   1   9   0.0014   0.0011   0.0187   0.0003   0.0029  -0.0026  -9.00   34.2
2024/06/03 15:12:52.000   28.292891538  -16.432250121  1119.6603   1   9   0.0014   0.0011   0.0187   0.0003   0.0028  -0.0026  -8.00   35.3
2024/06/03 15:12:53.000   28.292891538  -16.432250121  1119.6603   1   9   0.0014   0.0011   0.0187   0.0003   0.0028  -0.0026  -7.00   35.8
2024/06/03 15:12:54.000   28.292891538  -16.432250121  1119.6603   1   9   0.0014   0.0011   0.0187   0.0003   0.0028  -0.0026  -6.00   36.1
2024/06/03 15:12:55.000   28.292891537  -16.432250121  1119.6603   1   9   0.0014   0.0011   0.0187   0.0003   0.0028  -0.0026  -5.00   35.9
2024/06/03 15:12:56.000   28.292891538  -16.432250121  1119.6604   1   9   0.0014   0.0011   0.0187   0.0003   0.0028  -0.0026  -4.00   36.6
2024/06/03 15:12:57.000   28.292891537  -16.432250121  1119.6605   1   9   0.0014   0.0011   0.0187   0.0003   0.0028  -0.0026  -3.00   35.7
2024/06/03 15:12:58.000   28.292891537  -16.432250121  1119.6604   1   9   0.0014   0.0010   0.0186   0.0003   0.0028  -0.0026  -2.00   35.0
2024/06/03 15:12:59.000   28.292891537  -16.432250121  1119.6605   1   9   0.0014   0.0010   0.0186   0.0003   0.0028  -0.0026  -1.00   33.2
2024/06/03 15:13:00.000   28.292891532  -16.432250120  1119.6642   1   9   0.0013   0.0010   0.0186   0.0003   0.0028  -0.0026   0.00   32.2
2024/06/03 15:13:01.000   28.292891538  -16.432250121  1119.6597   1   9   0.0013   0.0010   0.0186   0.0003   0.0028  -0.0026   1.00   21.1
2024/06/03 15:13:02.000   28.292891538  -16.432250121  1119.6597   1   9   0.0013   0.0010   0.0186   0.0003   0.0028  -0.0026   2.00   33.6
2024/06/03 15:13:03.000   28.292891538  -16.432250121  1119.6599   1   9   0.0013   0.0010   0.0186   0.0003   0.0028  -0.0026   3.00   36.3
2024/06/03 15:13:04.000   28.292891538  -16.432250121  1119.6599   1   9   0.0013   0.0010   0.0186   0.0003   0.0028  -0.0026   4.00   37.8
2024/06/03 15:13:05.000   28.292891538  -16.432250121  1119.6600   1   9   0.0013   0.0010   0.0186   0.0003   0.0028  -0.0026   5.00   38.7
2024/06/03 15:13:06.000   28.292891538  -16.432250121  1119.6600   1   9   0.0013   0.0010   0.0186   0.0003   0.0028  -0.0026   6.00   40.1
2024/06/03 15:13:07.000   28.292891538  -16.432250121  1119.6599   1   9   0.0013   0.0010   0.0186   0.0003   0.0028  -0.0026   7.00   41.1
2024/06/03 15:13:08.000   28.292891538  -16.432250121  1119.6600   1   9   0.0013   0.0010   0.0186   0.0003   0.0028  -0.0026   8.00   41.7
2024/06/03 15:13:09.000   28.292891538  -16.432250120  1119.6600   1   9   0.0013   0.0010   0.0186   0.0003   0.0028  -0.0026   9.00   42.0
2024/06/03 15:13:10.000   28.292891538  -16.432250121  1119.6601   1   9   0.0013   0.0010   0.0186   0.0003   0.0028  -0.0026  10.00   42.8
2024/06/03 15:13:11.000   28.292891538  -16.432250121  1119.6600   1   9   0.0013   0.0010   0.0186   0.0003   0.0028  -0.0026  11.00   43.6
2024/06/03 15:13:12.000   28.292891538  -16.432250121  1119.6600   1   9   0.0013   0.0010   0.0186   0.0003   0.0028  -0.0026  12.00   44.4
2024/06/03 15:13:13.000   28.292891538  -16.432250121  1119.6600   1   9   0.0013   0.0010   0.0186   0.0003   0.0028  -0.0026  13.00   44.9
2024/06/03 15:13:14.000   28.292891538  -16.432250121  1119.6600   1   9   0.0013   0.0010   0.0186   0.0003   0.0028  -0.0026  14.00   45.7
2024/06/03 15:13:15.000   28.292891538  -16.432250121  1119.6599   1   9   0.0013   0.0010   0.0186   0.0003   0.0028  -0.0026 -15.00   46.7
2024/06/03 15:13:16.000   28.292891538  -16.432250121  1119.6599   1   9   0.0013   0.0010   0.0186   0.0003   0.0028  -0.0026 -14.00   47.8
2024/06/03 15:13:17.000   28.292891538  -16.432250121  1119.6600   1   9   0.0013   0.0010   0.0186   0.0003   0.0028  -0.0026 -13.00   48.8
2024/06/03 15:13:18.000   28.292891538  -16.432250121  1119.6600   1   9   0.0013   0.0010   0.0186   0.0003   0.0028  -0.0026 -12.00   49.6
2024/06/03 15:13:19.000   28.292891538  -16.432250121  1119.6600   1   9   0.0013   0.0010   0.0186   0.0003   0.0028  -0.0026 -11.00   50.1
2024/06/03 15:13:20.000   28.292891538  -16.432250121  1119.6600   1   9   0.0013   0.0010   0.0186   0.0003   0.0028  -0.0026 -10.00   50.2
2024/06/03 15:13:21.000   28.292891538  -16.432250121  1119.6600   1   9   0.0013   0.0010   0.0186   0.0003   0.0028  -0.0026  -9.00   50.4
2024/06/03 15:13:22.000   28.292891538  -16.432250120  1119.6600   1   9   0.0013   0.0010   0.0186   0.0003   0.0028  -0.0026  -8.00   50.4
2024/06/03 15:13:23.000   28.292891538  -16.432250120  1119.6600   1   9   0.0013   0.0010   0.0186   0.0003   0.0028  -0.0026  -7.00   50.3
2024/06/03 15:13:24.000   28.292891538  -16.432250120  1119.6601   1   9   0.0013   0.0010   0.0186   0.0003   0.0028  -0.0026  -6.00   49.7
2024/06/03 15:13:25.000   28.292891538  -16.432250120  1119.6601   1   9   0.0013   0.0010   0.0186   0.0003   0.0028  -0.0026  -5.00   49.4
2024/06/03 15:13:26.000   28.292891538  -16.432250120  1119.6602   1   9   0.0013   0.0010   0.0186   0.0003   0.0028  -0.0026  -4.00   49.6
2024/06/03 15:13:27.000   28.292891538  -16.432250120  1119.6601   1   9   0.0013   0.0010   0.0186   0.0003   0.0028  -0.0026  -3.00   49.1
2024/06/03 15:13:28.000   28.292891538  -16.432250120  1119.6600   1   9   0.0013   0.0010   0.0185   0.0003   0.0028  -0.0026  -2.00   49.1
2024/06/03 15:13:29.000   28.292891537  -16.432250119  1119.6603   1   9   0.0013   0.0010   0.0185   0.0003   0.0028  -0.0026  -1.00   48.1
2024/06/03 15:13:30.000   28.292891534  -16.432250119  1119.6626   1   9   0.0013   0.0010   0.0185   0.0003   0.0028  -0.0025   0.00   47.3
2024/06/03 15:13:31.000   28.292891540  -16.432250120  1119.6589   1   9   0.0013   0.0010   0.0185   0.0003   0.0028  -0.0026   1.00   17.1
2024/06/03 15:13:32.000   28.292891540  -16.432250120  1119.6591   1   9   0.0013   0.0010   0.0185   0.0003   0.0028  -0.0026   2.00   29.0
2024/06/03 15:13:33.000   28.292891540  -16.432250120  1119.6593   1   9   0.0013   0.0010   0.0185   0.0003   0.0028  -0.0026   3.00   35.2
2024/06/03 15:13:34.000   28.292891539  -16.432250120  1119.6594   1   9   0.0013   0.0010   0.0185   0.0003   0.0028  -0.0026   4.00   38.7
2024/06/03 15:13:35.000   28.292891539  -16.432250120  1119.6595   1   9   0.0013   0.0010   0.0185   0.0003   0.0028  -0.0026   5.00   39.5
2024/06/03 15:13:36.000   28.292891540  -16.432250120  1119.6595   1   9   0.0013   0.0010   0.0185   0.0003   0.0028  -0.0026   6.00   40.3
2024/06/03 15:13:37.000   28.292891540  -16.432250121  1119.6594   1   9   0.0013   0.0010   0.0185   0.0003   0.0028  -0.0026   7.00   41.4
2024/06/03 15:13:38.000   28.292891540  -16.432250121  1119.6594   1   9   0.0013   0.0010   0.0185   0.0003   0.0028  -0.0026   8.00   42.4
2024/06/03 15:13:39.000   28.292891539  -16.432250121  1119.6593   1   9   0.0013   0.0010   0.0185   0.0003   0.0028  -0.0026   9.00   43.2
2024/06/03 15:13:40.000   28.292891539  -16.432250120  1119.6594   1   9   0.0013   0.0010   0.0185   0.0003   0.0028  -0.0026  10.00   43.8
2024/06/03 15:13:41.000   28.292891539  -16.432250121  1119.6594   1   9   0.0013   0.0010   0.0185   0.0003   0.0028  -0.0026  11.00   44.6
2024/06/03 15:13:42.000   28.292891539  -16.432250120  1119.6594   1   9   0.0013   0.0010   0.0185   0.0003   0.0028  -0.0026  12.00   45.2
2024/06/03 15:13:43.000   28.292891539  -16.432250120  1119.6594   1   9   0.0013   0.0010   0.0185   0.0003   0.0028  -0.0026  13.00   46.0
2024/06/03 15:13:44.000   28.292891539  -16.432250120  1119.6594   1   9   0.0013   0.0010   0.0185   0.0003   0.0028  -0.0026  14.00   46.8
2024/06/03 15:13:45.000   28.292891539  -16.432250120  1119.6594   1   9   0.0013   0.0010   0.0185   0.0003   0.0028  -0.0026 -15.00   47.8
2024/06/03 15:13:46.000   28.292891539  -16.432250120  1119.6595   1   9   0.0013   0.0010   0.0185   0.0003   0.0028  -0.0026 -14.00   48.5
2024/06/03 15:13:47.000   28.292891539  -16.432250120  1119.6595   1   9   0.0013   0.0010   0.0185   0.0003   0.0028  -0.0026 -13.00   49.3
2024/06/03 15:13:48.000   28.292891539  -16.432250120  1119.6596   1   9   0.0013   0.0010   0.0185   0.0003   0.0028  -0.0026 -12.00   50.3
2024/06/03 15:13:49.000   28.292891539  -16.432250120  1119.6596   1   9   0.0013   0.0010   0.0185   0.0003   0.0028  -0.0026 -11.00   51.2
2024/06/03 15:13:50.000   28.292891539  -16.432250120  1119.6596   1   9   0.0013   0.0010   0.0185   0.0003   0.0028  -0.0026 -10.00   51.8
2024/06/03 15:13:51.000   28.292891539  -16.432250120  1119.6596   1   9   0.0013   0.0010   0.0185   0.0003   0.0028  -0.0026  -9.00   52.0
2024/06/03 15:13:52.000   28.292891539  -16.432250120  1119.6597   1   9   0.0013   0.0010   0.0185   0.0003   0.0028  -0.0026  -8.00   52.2
2024/06/03 15:13:53.000   28.292891539  -16.432250120  1119.6597   1   9   0.0013   0.0010   0.0185   0.0003   0.0028  -0.0026  -7.00   51.9
2024/06/03 15:13:54.000   28.292891539  -16.432250120  1119.6598   1   9   0.0013   0.0010   0.0185   0.0003   0.0028  -0.0026  -6.00   52.0
2024/06/03 15:13:55.000   28.292891539  -16.432250120  1119.6598   1   9   0.0013   0.0010   0.0185   0.0003   0.0028  -0.0026  -5.00   52.7
2024/06/03 15:13:56.000   28.292891539  -16.432250120  1119.6596   1   9   0.0013   0.0010   0.0185   0.0003   0.0028  -0.0026  -4.00   53.7
2024/06/03 15:13:57.000   28.292891539  -16.432250120  1119.6597   1   9   0.0013   0.0010   0.0185   0.0003   0.0028  -0.0026  -3.00   53.4
2024/06/03 15:13:58.000   28.292891538  -16.432250120  1119.6599   1   9   0.0013   0.0010   0.0185   0.0003   0.0028  -0.0026  -2.00   51.8
2024/06/03 15:13:59.000   28.292891538  -16.432250120  1119.6600   1   9   0.0013   0.0010   0.0185   0.0003   0.0028  -0.0026  -1.00   49.4
2024/06/03 15:14:00.000   28.292891535  -16.432250120  1119.6621   1   9   0.0013   0.0010   0.0184   0.0003   0.0028  -0.0025   0.00   48.4
2024/06/03 15:14:01.000   28.292891535  -16.432250125  1119.6569   1   9   0.0014   0.0011   0.0185   0.0004   0.0028  -0.0025   1.00   14.7
2024/06/03 15:14:02.000   28.292891535  -16.432250125  1119.6571   1   9   0.0014   0.0011   0.0185   0.0004   0.0028  -0.0025   2.00   26.5
2024/06/03 15:14:03.000   28.292891535  -16.432250125  1119.6569   1   9   0.0014   0.0011   0.0185   0.0004   0.0028  -0.0025   3.00   33.3
2024/06/03 15:14:04.000   28.292891535  -16.432250125  1119.6567   1   9   0.0014   0.0011   0.0185   0.0004   0.0028  -0.0025   4.00   37.3
2024/06/03 15:14:05.000   28.292891535  -16.432250125  1119.6564   1   9   0.0014   0.0011   0.0185   0.0004   0.0028  -0.0025   5.00   40.2
2024/06/03 15:14:06.000   28.292891535  -16.432250125  1119.6563   1   9   0.0014   0.0010   0.0185   0.0004   0.0028  -0.0025   6.00   42.0
2024/06/03 15:14:07.000   28.292891535  -16.432250125  1119.6562   1   9   0.0014   0.0010   0.0185   0.0004   0.0028  -0.0025   7.00   43.5
2024/06/03 15:14:08.000   28.292891535  -16.432250125  1119.6561   1   9   0.0014   0.0010   0.0185   0.0004   0.0028  -0.0025   8.00   45.3
2024/06/03 15:14:09.000   28.292891535  -16.432250125  1119.6561   1   9   0.0014   0.0010   0.0185   0.0004   0.0028  -0.0025   9.00   46.9
2024/06/03 15:14:10.000   28.292891535  -16.432250125  1119.6560   1   9   0.0014   0.0010   0.0185   0.0004   0.0028  -0.0025  10.00   48.3
2024/06/03 15:14:11.000   28.292891535  -16.432250125  1119.6560   1   9   0.0013   0.0010   0.0185   0.0004   0.0028  -0.0025  11.00   49.8
2024/06/03 15:14:12.000   28.292891535  -16.432250125  1119.6559   1   9   0.0013   0.0010   0.0185   0.0004   0.0028  -0.0025  12.00   51.3
2024/06/03 15:14:13.000   28.292891535  -16.432250125  1119.6559   1   9   0.0013   0.0010   0.0185   0.0004   0.0028  -0.0025  13.00   52.5
2024/06/03 15:14:14.000   28.292891535  -16.432250125  1119.6559   1   9   0.0013   0.0010   0.0185   0.0004   0.0028  -0.0025  14.00   53.7
2024/06/03 15:14:15.000   28.292891535  -16.432250125  1119.6559   1   9   0.0013   0.0010   0.0185   0.0004   0.0028  -0.0025 -15.00   54.9
2024/06/03 15:14:16.000   28.292891535  -16.432250125  1119.6560   1   9   0.0013   0.0010   0.0185   0.0004   0.0028  -0.0025 -14.00   56.3
2024/06/03 15:14:17.000   28.292891535  -16.432250125  1119.6559   1   9   0.0013   0.0010   0.0185   0.0004   0.0028  -0.0025 -13.00   57.7
2024/06/03 15:14:18.000   28.292891535  -16.432250125  1119.6559   1   9   0.0013   0.0010   0.0185   0.0004   0.0028  -0.0025 -12.00   58.8
2024/06/03 15:14:19.000   28.292891535  -16.432250125  1119.6559   1   9   0.0013   0.0010   0.0185   0.0004   0.0028  -0.0025 -11.00   60.2
2024/06/03 15:14:20.000   28.292891535  -16.432250125  1119.6559   1   9   0.0013   0.0010   0.0185   0.0004   0.0028  -0.0025 -10.00   61.6
2024/06/03 15:14:21.000   28.292891535  -16.432250125  1119.6559   1   9   0.0013   0.0010   0.0185   0.0004   0.0028  -0.0025  -9.00   63.1
2024/06/03 15:14:22.000   28.292891535  -16.432250125  1119.6558   1   9   0.0013   0.0010   0.0185   0.0004   0.0028  -0.0025  -8.00   65.0
2024/06/03 15:14:23.000   28.292891535  -16.432250125  1119.6558   1   9   0.0013   0.0010   0.0185   0.0004   0.0028  -0.0025  -7.00   66.6
2024/06/03 15:14:24.000   28.292891535  -16.432250125  1119.6557   1   9   0.0013   0.0010   0.0185   0.0004   0.0028  -0.0025  -6.00   68.2
2024/06/03 15:14:25.000   28.292891535  -16.432250125  1119.6558   1   9   0.0013   0.0010   0.0185   0.0004   0.0028  -0.0025  -5.00   69.3
2024/06/03 15:14:26.000   28.292891534  -16.432250125  1119.6558   1   9   0.0013   0.0010   0.0184   0.0004   0.0028  -0.0025  -4.00   70.2
2024/06/03 15:14:27.000   28.292891534  -16.432250125  1119.6558   1   9   0.0013   0.0010   0.0184   0.0004   0.0028  -0.0025  -3.00   71.3
2024/06/03 15:14:28.000   28.292891534  -16.432250125  1119.6560   1   9   0.0013   0.0010   0.0184   0.0004   0.0028  -0.0025  -2.00   72.2
2024/06/03 15:14:29.000   28.292891535  -16.432250125  1119.6560   1   9   0.0013   0.0010   0.0184   0.0004   0.0028  -0.0025  -1.00   73.5
2024/06/03 15:14:30.000   28.292891532  -16.432250125  1119.6576   1   9   0.0013   0.0010   0.0184   0.0004   0.0028  -0.0024   0.00   74.9
2024/06/03 15:14:31.000   28.292891535  -16.432250125  1119.6556   1   9   0.0013   0.0010   0.0184   0.0004   0.0028  -0.0025   1.00   17.2
2024/06/03 15:14:32.000   28.292891535  -16.432250125  1119.6553   1   9   0.0013   0.0010   0.0184   0.0004   0.0028  -0.0025   2.00   29.6
2024/06/03 15:14:33.000   28.292891535  -16.432250125  1119.6552   1   9   0.0013   0.0010   0.0184   0.0004   0.0028  -0.0025   3.00   39.0
2024/06/03 15:14:34.000   28.292891535  -16.432250125  1119.6551   1   9   0.0013   0.0010   0.0184   0.0004   0.0028  -0.0025   4.00   43.5
2024/06/03 15:14:35.000   28.292891535  -16.432250125  1119.6550   1   9   0.0013   0.0010   0.0184   0.0004   0.0028  -0.0025   5.00   46.4
2024/06/03 15:14:36.000   28.292891535  -16.432250125  1119.6548   1   9   0.0013   0.0010   0.0184   0.0004   0.0028  -0.0025   6.00   48.7
2024/06/03 15:14:37.000   28.292891535  -16.432250125  1119.6547   1   9   0.0013   0.0010   0.0184   0.0004   0.0028  -0.0025   7.00   50.3
2024/06/03 15:14:38.000   28.292891535  -16.432250125  1119.6546   1   9   0.0013   0.0010   0.0184   0.0004   0.0028  -0.0025   8.00   52.0
2024/06/03 15:14:39.000   28.292891535  -16.432250125  1119.6545   1   9   0.0013   0.0010   0.0184   0.0004   0.0028  -0.0025   9.00   53.6
2024/06/03 15:14:40.000   28.292891535  -16.432250125  1119.6545   1   9   0.0013   0.0010   0.0184   0.0004   0.0028  -0.0025  10.00   54.8
2024/06/03 15:14:41.000   28.292891535  -16.432250124  1119.6545   1   9   0.0013   0.0010   0.0184   0.0004   0.0028  -0.0025  11.00   55.7
2024/06/03 15:14:42.000   28.292891535  -16.432250125  1119.6545   1   9   0.0013   0.0010   0.0184   0.0004   0.0028  -0.0025  12.00   56.2
2024/06/03 15:14:43.000   28.292891535  -16.432250125  1119.6545   1   9   0.0013   0.0010   0.0184   0.0004   0.0028  -0.0025  13.00   57.5
2024/06/03 15:14:44.000   28.292891535  -16.432250125  1119.6545   1   9   0.0013   0.0010   0.0184   0.0004   0.0028  -0.0025  14.00   58.8
2024/06/03 15:14:45.000   28.292891535  -16.432250125  1119.6545   1   9   0.0013   0.0010   0.0184   0.0004   0.0028  -0.0025 -15.00   60.1
2024/06/03 15:14:46.000   28.292891535  -16.432250124  1119.6545   1   9   0.0013   0.0010   0.0184   0.0004   0.0028  -0.0025 -14.00   61.1
2024/06/03 15:14:47.000   28.292891535  -16.432250125  1119.6545   1   9   0.0013   0.0010   0.0184   0.0004   0.0028  -0.0025 -13.00   61.9
2024/06/03 15:14:48.000   28.292891535  -16.432250125  1119.6545   1   9   0.0013   0.0010   0.0184   0.0004   0.0028  -0.0025 -12.00   63.1
2024/06/03 15:14:49.000   28.292891535  -16.432250124  1119.6544   1   9   0.0013   0.0010   0.0184   0.0004   0.0028  -0.0025 -11.00   64.1
2024/06/03 15:14:50.000   28.292891535  -16.432250124  1119.6544   1   9   0.0013   0.0010   0.0184   0.0004   0.0028  -0.0025 -10.00   65.2
2024/06/03 15:14:51.000   28.292891535  -16.432250124  1119.6544   1   9   0.0013   0.0010   0.0184   0.0004   0.0028  -0.0025  -9.00   66.4
2024/06/03 15:14:52.000   28.292891535  -16.432250125  1119.6543   1   9   0.0013   0.0010   0.0184   0.0004   0.0028  -0.0025  -8.00   67.7
2024/06/03 15:14:53.000   28.292891535  -16.432250125  1119.6544   1   9   0.0013   0.0010   0.0184   0.0004   0.0028  -0.0025  -7.00   68.6
2024/06/03 15:14:54.000   28.292891535  -16.432250125  1119.6542   1   9   0.0013   0.0010   0.0184   0.0004   0.0028  -0.0025  -6.00   69.9
2024/06/03 15:14:55.000   28.292891535  -16.432250125  1119.6541   1   9   0.0013   0.0010   0.0184   0.0004   0.0028  -0.0025  -5.00   71.5
2024/06/03 15:14:56.000   28.292891535  -16.432250125  1119.6541   1   9   0.0013   0.0010   0.0184   0.0004   0.0028  -0.0025  -4.00   72.0
2024/06/03 15:14:57.000   28.292891535  -16.432250125  1119.6540   1   9   0.0013   0.0010   0.0184   0.0004   0.0028  -0.0025  -3.00   72.3
2024/06/03 15:14:58.000   28.292891535  -16.432250124  1119.6540   1   9   0.0013   0.0010   0.0184   0.0004   0.0028  -0.0025  -2.00   72.1
2024/06/03 15:14:59.000   28.292891535  -16.432250124  1119.6540   1   9   0.0013   0.0010   0.0184   0.0004   0.0028  -0.0025  -1.00   72.2
2024/06/03 15:15:00.000   28.292891533  -16.432250124  1119.6553   1   9   0.0013   0.0010   0.0183   0.0004   0.0028  -0.0024   0.00   73.2
2024/06/03 15:15:01.000   28.292891536  -16.432250125  1119.6536   1   9   0.0013   0.0010   0.0184   0.0004   0.0028  -0.0025   1.00   14.2
2024/06/03 15:15:02.000   28.292891536  -16.432250125  1119.6532   1   9   0.0013   0.0010   0.0184   0.0004   0.0028  -0.0025   2.00   24.4
2024/06/03 15:15:03.000   28.292891537  -16.432250124  1119.6535   1   9   0.0013   0.0010   0.0184   0.0004   0.0028  -0.0025   3.00   33.0
2024/06/03 15:15:04.000   28.292891536  -16.432250125  1119.6535   1   9   0.0013   0.0010   0.0184   0.0004   0.0028  -0.0025   4.00   37.1
2024/06/03 15:15:05.000   28.292891536  -16.432250125  1119.6532   1   9   0.0013   0.0010   0.0184   0.0004   0.0028  -0.0025   5.00   40.9
2024/06/03 15:15:06.000   28.292891536  -16.432250125  1119.6530   1   9   0.0013   0.0010   0.0184   0.0004   0.0028  -0.0025   6.00   42.9
2024/06/03 15:15:07.000   28.292891536  -16.432250125  1119.6528   1   9   0.0013   0.0010   0.0184   0.0004   0.0028  -0.0025   7.00   45.1
2024/06/03 15:15:08.000   28.292891536  -16.432250125  1119.6527   1   9   0.0013   0.0010   0.0184   0.0004   0.0028  -0.0025   8.00   46.5
2024/06/03 15:15:09.000   28.292891536  -16.432250125  1119.6527   1   9   0.0013   0.0010   0.0184   0.0004   0.0028  -0.0025   9.00   48.0
2024/06/03 15:15:10.000   28.292891536  -16.432250125  1119.6527   1   9   0.0013   0.0010   0.0184   0.0004   0.0028  -0.0025  10.00   49.4
2024/06/03 15:15:11.000   28.292891536  -16.432250125  1119.6527   1   9   0.0013   0.0010   0.0184   0.0004   0.0028  -0.0025  11.00   50.8
2024/06/03 15:15:12.000   28.292891536  -16.432250125  1119.6526   1   9   0.0013   0.0010   0.0184   0.0004   0.0028  -0.0025  12.00   52.3
2024/06/03 15:15:13.000   28.292891536  -16.432250125  1119.6526   1   9   0.0013   0.0010   0.0184   0.0004   0.0028  -0.0025  13.00   53.6
2024/06/03 15:15:14.000   28.292891536  -16.432250125  1119.6525   1   9   0.0013   0.0010   0.0184   0.0004   0.0028  -0.0025  14.00   54.8
2024/06/03 15:15:15.000   28.292891536  -16.432250125  1119.6525   1   9   0.0013   0.0010   0.0184   0.0004   0.0028  -0.0025 -15.00   56.0
2024/06/03 15:15:16.000   28.292891536  -16.432250125  1119.6525   1   9   0.0013   0.0010   0.0184   0.0004   0.0028  -0.0025 -14.00   57.3
2024/06/03 15:15:17.000   28.292891536  -16.432250125  1119.6525   1   9   0.0013   0.0010   0.0184   0.0004   0.0028  -0.0025 -13.00   58.3
2024/06/03 15:15:18.000   28.292891536  -16.432250124  1119.6525   1   9   0.0013   0.0010   0.0184   0.0004   0.0028  -0.0025 -12.00   59.3
2024/06/03 15:15:19.000   28.292891536  -16.432250124  1119.6525   1   9   0.0013   0.0010   0.0184   0.0004   0.0028  -0.0025 -11.00   60.3
2024/06/03 15:15:20.000   28.292891536  -16.432250124  1119.6526   1   9   0.0013   0.0010   0.0184   0.0004   0.0028  -0.0025 -10.00   61.4
2024/06/03 15:15:21.000   28.292891536  -16.432250124  1119.6525   1   9   0.0013   0.0010   0.0184   0.0004   0.0028  -0.0025  -9.00   62.4
2024/06/03 15:15:22.000   28.292891536  -16.432250124  1119.6525   1   9   0.0013   0.0010   0.0184   0.0004   0.0028  -0.0025  -8.00   63.3
2024/06/03 15:15:23.000   28.292891536  -16.432250124  1119.6526   1   9   0.0013   0.0010   0.0183   0.0004   0.0028  -0.0025  -7.00   64.1
2024/06/03 15:15:24.000   28.292891536  -16.432250124  1119.6526   1   9   0.0013   0.0010   0.0183   0.0004   0.0028  -0.0025  -6.00   64.9
2024/06/03 15:15:25.000   28.292891536  -16.432250124  1119.6526   1   9   0.0013   0.0010   0.0183   0.0004   0.0028  -0.0025  -5.00   65.4
2024/06/03 15:15:26.000   28.292891536  -16.432250124  1119.6526   1   9   0.0013   0.0010   0.0183   0.0004   0.0028  -0.0025  -4.00   66.2
2024/06/03 15:15:27.000   28.292891536  -16.432250124  1119.6527   1   9   0.0013   0.0010   0.0183   0.0004   0.0028  -0.0025  -3.00   66.3
2024/06/03 15:15:28.000   28.292891535  -16.432250124  1119.6530   1   9   0.0013   0.0010   0.0183   0.0004   0.0028  -0.0025  -2.00   66.3
2024/06/03 15:15:29.000   28.292891535  -16.432250124  1119.6532   1   9   0.0013   0.0010   0.0183   0.0004   0.0028  -0.0025  -1.00   67.1
2024/06/03 15:15:30.000   28.292891535  -16.432250124  1119.6536   1   9   0.0013   0.0010   0.0183   0.0004   0.0028  -0.0024   0.00   68.3
2024/06/03 15:15:31.000   28.292891538  -16.432250124  1119.6523   1   9   0.0013   0.0010   0.0183   0.0004   0.0028  -0.0025   1.00   13.1
2024/06/03 15:15:32.000   28.292891538  -16.432250124  1119.6522   1   9   0.0013   0.0010   0.0183   0.0004   0.0028  -0.0025   2.00   24.8
2024/06/03 15:15:33.000   28.292891538  -16.432250124  1119.6521   1   9   0.0013   0.0010   0.0183   0.0004   0.0028  -0.0025   3.00   33.0
2024/06/03 15:15:34.000   28.292891538  -16.432250124  1119.6519   1   9   0.0013   0.0010   0.0183   0.0004   0.0028  -0.0025   4.00   36.1
2024/06/03 15:15:35.000   28.292891538  -16.432250124  1119.6518   1   9   0.0013   0.0010   0.0183   0.0004   0.0028  -0.0025   5.00   38.8
2024/06/03 15:15:36.000   28.292891538  -16.432250124  1119.6518   1   9   0.0013   0.0010   0.0183   0.0004   0.0028  -0.0025   6.00   41.4
2024/06/03 15:15:37.000   28.292891538  -16.432250124  1119.6517   1   9   0.0013   0.0010   0.0183   0.0004   0.0028  -0.0025   7.00   43.1
2024/06/03 15:15:38.000   28.292891538  -16.432250124  1119.6517   1   9   0.0013   0.0010   0.0183   0.0004   0.0028  -0.0025   8.00   44.8
2024/06/03 15:15:39.000   28.292891538  -16.432250124  1119.6516   1   9   0.0013   0.0010   0.0183   0.0004   0.0028  -0.0025   9.00   46.2
2024/06/03 15:15:40.000   28.292891538  -16.432250124  1119.6516   1   9   0.0013   0.0010   0.0183   0.0004   0.0028  -0.0025  10.00   47.7
2024/06/03 15:15:41.000   28.292891538  -16.432250124  1119.6516   1   9   0.0013   0.0010   0.0183   0.0004   0.0028  -0.0025  11.00   49.3
2024/06/03 15:15:42.000   28.292891538  -16.432250123  1119.6517   1   9   0.0013   0.0010   0.0183   0.0004   0.0028  -0.0025  12.00   50.5
2024/06/03 15:15:43.000   28.292891538  -16.432250124  1119.6517   1   9   0.0013   0.0010   0.0183   0.0004   0.0028  -0.0025  13.00   51.8
2024/06/03 15:15:44.000   28.292891538  -16.432250124  1119.6517   1   9   0.0013   0.0010   0.0183   0.0004   0.0028  -0.0025  14.00   53.2
2024/06/03 15:15:45.000   28.292891538  -16.432250124  1119.6517   1   9   0.0013   0.0010   0.0183   0.0004   0.0028  -0.0025 -15.00   54.5
2024/06/03 15:15:46.000   28.292891538  -16.432250124  1119.6517   1   9   0.0013   0.0010   0.0183   0.0004   0.0028  -0.0025 -14.00   55.9
2024/06/03 15:15:47.000   28.292891538  -16.432250124  1119.6517   1   9   0.0013   0.0010   0.0183   0.0004   0.0028  -0.0025 -13.00   57.4
2024/06/03 15:15:48.000   28.292891538  -16.432250123  1119.6517   1   9   0.0013   0.0010   0.0183   0.0004   0.0028  -0.0025 -12.00   58.9
2024/06/03 15:15:49.000   28.292891538  -16.432250124  1119.6516   1   9   0.0013   0.0010   0.0183   0.0004   0.0028  -0.0025 -11.00   60.4
2024/06/03 15:15:50.000   28.292891538  -16.432250123  1119.6517   1   9   0.0013   0.0010   0.0183   0.0004   0.0028  -0.0025 -10.00   61.9
2024/06/03 15:15:51.000   28.292891538  -16.432250123  1119.6518   1   9   0.0013   0.0010   0.0183   0.0004   0.0028  -0.0025  -9.00   63.4
2024/06/03 15:15:52.000   28.292891538  -16.432250124  1119.6518   1   9   0.0013   0.0010   0.0183   0.0004   0.0028  -0.0025  -8.00   65.4
2024/06/03 15:15:53.000   28.292891538  -16.432250124  1119.6518   1   9   0.0013   0.0010   0.0183   0.0004   0.0028  -0.0025  -7.00   67.5
2024/06/03 15:15:54.000   28.292891538  -16.432250124  1119.6518   1   9   0.0013   0.0010   0.0183   0.0004   0.0028  -0.0025  -6.00   69.5
2024/06/03 15:15:55.000   28.292891538  -16.432250123  1119.6517   1   9   0.0013   0.0010   0.0183   0.0004   0.0028  -0.0025  -5.00   71.5
2024/06/03 15:15:56.000   28.292891538  -16.432250123  1119.6517   1   9   0.0013   0.0010   0.0183   0.0004   0.0028  -0.0025  -4.00   73.5
2024/06/03 15:15:57.000   28.292891538  -16.432250123  1119.6518   1   9   0.0013   0.0010   0.0183   0.0004   0.0028  -0.0025  -3.00   75.3
2024/06/03 15:15:58.000   28.292891538  -16.432250124  1119.6519   1   9   0.0013   0.0010   0.0183   0.0004   0.0028  -0.0025  -2.00   77.5
2024/06/03 15:15:59.000   28.292891538  -16.432250124  1119.6518   1   9   0.0013   0.0010   0.0183   0.0004   0.0028  -0.0025  -1.00   80.7
2024/06/03 15:16:00.000   28.292891538  -16.432250123  1119.6521   1   9   0.0013   0.0010   0.0183   0.0004   0.0028  -0.0024   0.00   83.5
2024/06/03 15:16:01.000   28.292891539  -16.432250123  1119.6513   1   9   0.0013   0.0010   0.0183   0.0004   0.0028  -0.0024   1.00   15.1
2024/06/03 15:16:02.000   28.292891539  -16.432250123  1119.6514   1   9   0.0013   0.0010   0.0183   0.0004   0.0028  -0.0024   2.00   28.8
2024/06/03 15:16:03.000   28.292891540  -16.432250123  1119.6516   1   9   0.0013   0.0010   0.0183   0.0004   0.0028  -0.0024   3.00   42.7
2024/06/03 15:16:04.000   28.292891540  -16.432250123  1119.6517   1   9   0.0013   0.0010   0.0183   0.0004   0.0028  -0.0024   4.00   50.7
2024/06/03 15:16:05.000   28.292891540  -16.432250123  1119.6516   1   9   0.0013   0.0010   0.0183   0.0004   0.0028  -0.0024   5.00   56.4
2024/06/03 15:16:06.000   28.292891540  -16.432250123  1119.6516   1   9   0.0013   0.0010   0.0183   0.0004   0.0028  -0.0024   6.00   59.7
2024/06/03 15:16:07.000   28.292891540  -16.432250123  1119.6516   1   9   0.0013   0.0010   0.0183   0.0004   0.0028  -0.0024   7.00   61.6
2024/06/03 15:16:08.000   28.292891539  -16.432250123  1119.6515   1   9   0.0013   0.0010   0.0183   0.0004   0.0028  -0.0024   8.00   65.2
2024/06/03 15:16:09.000   28.292891540  -16.432250123  1119.6514   1   9   0.0013   0.0010   0.0183   0.0004   0.0028  -0.0024   9.00   68.7
2024/06/03 15:16:10.000   28.292891540  -16.432250123  1119.6513   1   9   0.0013   0.0010   0.0183   0.0004   0.0028  -0.0024  10.00   71.3
2024/06/03 15:16:11.000   28.292891540  -16.432250123  1119.6513   1   9   0.0013   0.0010   0.0183   0.0004   0.0028  -0.0024  11.00   73.6
2024/06/03 15:16:12.000   28.292891540  -16.432250123  1119.6512   1   9   0.0013   0.0010   0.0183   0.0004   0.0028  -0.0024  12.00   75.7
2024/06/03 15:16:13.000   28.292891540  -16.432250123  1119.6513   1   9   0.0013   0.0010   0.0183   0.0004   0.0028  -0.0024  13.00   77.5
2024/06/03 15:16:14.000   28.292891540  -16.432250123  1119.6513   1   9   0.0013   0.0010   0.0183   0.0004   0.0028  -0.0024  14.00   79.4
2024/06/03 15:16:15.000   28.292891540  -16.432250123  1119.6512   1   9   0.0013   0.0010   0.0183   0.0004   0.0028  -0.0024 -15.00   81.4
2024/06/03 15:16:16.000   28.292891540  -16.432250123  1119.6512   1   9   0.0013   0.0010   0.0183   0.0004   0.0028  -0.0024 -14.00   83.5
2024/06/03 15:16:17.000   28.292891540  -16.432250123  1119.6512   1   9   0.0013   0.0010   0.0183   0.0004   0.0028  -0.0024 -13.00   85.0
2024/06/03 15:16:18.000   28.292891540  -16.432250123  1119.6512   1   9   0.0013   0.0010   0.0183   0.0004   0.0028  -0.0024 -12.00   86.2
2024/06/03 15:16:19.000   28.292891540  -16.432250123  1119.6513   1   9   0.0013   0.0010   0.0183   0.0004   0.0028  -0.0024 -11.00   88.0
2024/06/03 15:16:20.000   28.292891540  -16.432250123  1119.6513   1   9   0.0013   0.0010   0.0183   0.0004   0.0028  -0.0024 -10.00   89.9
2024/06/03 15:16:21.000   28.292891540  -16.432250123  1119.6512   1   9   0.0013   0.0010   0.0183   0.0004   0.0028  -0.0024  -9.00   91.6
2024/06/03 15:16:22.000   28.292891540  -16.432250123  1119.6512   1   9   0.0013   0.0010   0.0183   0.0004   0.0028  -0.0024  -8.00   93.4
2024/06/03 15:16:23.000   28.292891540  -16.432250123  1119.6512   1   9   0.0013   0.0010   0.0183   0.0004   0.0028  -0.0024  -7.00   95.2
2024/06/03 15:16:24.000   28.292891540  -16.432250123  1119.6512   1   9   0.0013   0.0010   0.0183   0.0004   0.0028  -0.0024  -6.00   97.5
2024/06/03 15:16:25.000   28.292891540  -16.432250122  1119.6513   1   9   0.0013   0.0010   0.0183   0.0004   0.0028  -0.0024  -5.00   98.9
2024/06/03 15:16:26.000   28.292891540  -16.432250122  1119.6512   1   9   0.0013   0.0010   0.0183   0.0004   0.0028  -0.0024  -4.00  100.0
2024/06/03 15:16:27.000   28.292891540  -16.432250122  1119.6515   1   9   0.0013   0.0010   0.0183   0.0004   0.0028  -0.0024  -3.00  101.3
2024/06/03 15:16:28.000   28.292891540  -16.432250122  1119.6516   1   9   0.0013   0.0010   0.0183   0.0004   0.0028  -0.0024  -2.00  102.4
2024/06/03 15:16:29.000   28.292891540  -16.432250122  1119.6515   1   9   0.0013   0.0010   0.0183   0.0004   0.0028  -0.0024  -1.00  103.9
2024/06/03 15:16:30.000   28.292891541  -16.432250121  1119.6514   1   9   0.0013   0.0010   0.0183   0.0004   0.0028  -0.0024   0.00  105.1
2024/06/03 15:16:31.000   28.292891541  -16.432250122  1119.6511   1   9   0.0013   0.0010   0.0183   0.0004   0.0028  -0.0024   1.00   22.3
2024/06/03 15:16:32.000   28.292891541  -16.432250122  1119.6511   1   9   0.0013   0.0010   0.0183   0.0004   0.0028  -0.0024   2.00   40.1
2024/06/03 15:16:33.000   28.292891541  -16.432250122  1119.6513   1   9   0.0013   0.0010   0.0183   0.0004   0.0028  -0.0024   3.00   54.4
2024/06/03 15:16:34.000   28.292891541  -16.432250122  1119.6512   1   9   0.0013   0.0010   0.0183   0.0004   0.0028  -0.0024   4.00   61.9
2024/06/03 15:16:35.000   28.292891541  -16.432250122  1119.6512   1   9   0.0013   0.0010   0.0183   0.0004   0.0028  -0.0024   5.00   66.4
2024/06/03 15:16:36.000   28.292891541  -16.432250122  1119.6512   1   9   0.0013   0.0010   0.0183   0.0004   0.0028  -0.0024   6.00   67.6
2024/06/03 15:16:37.000   28.292891541  -16.432250122  1119.6512   1   9   0.0013   0.0010   0.0183   0.0004   0.0028  -0.0024   7.00   68.8
2024/06/03 15:16:38.000   28.292891541  -16.432250122  1119.6512   1   9   0.0013   0.0010   0.0183   0.0004   0.0028  -0.0024   8.00   69.9
2024/06/03 15:16:39.000   28.292891541  -16.432250122  1119.6513   1   9   0.0013   0.0010   0.0183   0.0004   0.0028  -0.0024   9.00   71.6
2024/06/03 15:16:40.000   28.292891541  -16.432250122  1119.6512   1   9   0.0013   0.0010   0.0183   0.0004   0.0028  -0.0024  10.00   72.6
2024/06/03 15:16:41.000   28.292891541  -16.432250122  1119.6513   1   9   0.0013   0.0010   0.0183   0.0004   0.0028  -0.0024  11.00   74.8
2024/06/03 15:16:42.000   28.292891541  -16.432250122  1119.6512   1   9   0.0013   0.0010   0.0183   0.0004   0.0028  -0.0024  12.00   76.0
2024/06/03 15:16:43.000   28.292891541  -16.432250122  1119.6513   1   9   0.0013   0.0010   0.0183   0.0004   0.0028  -0.0024  13.00   77.0
2024/06/03 15:16:44.000   28.292891541  -16.432250122  1119.6513   1   9   0.0013   0.0010   0.0183   0.0004   0.0028  -0.0024  14.00   78.1
2024/06/03 15:16:45.000   28.292891541  -16.432250122  1119.6513   1   9   0.0013   0.0010   0.0183   0.0004   0.0028  -0.0024 -15.00   79.6
2024/06/03 15:16:46.000   28.292891541  -16.432250122  1119.6513   1   9   0.0013   0.0010   0.0183   0.0004   0.0028  -0.0024 -14.00   81.1
2024/06/03 15:16:47.000   28.292891541  -16.432250122  1119.6513   1   9   0.0013   0.0010   0.0183   0.0004   0.0028  -0.0024 -13.00   82.6
2024/06/03 15:16:48.000   28.292891541  -16.432250122  1119.6513   1   9   0.0013   0.0010   0.0183   0.0004   0.0028  -0.0024 -12.00   84.4
2024/06/03 15:16:49.000   28.292891541  -16.432250122  1119.6513   1   9   0.0013   0.0010   0.0183   0.0004   0.0028  -0.0024 -11.00   85.4
2024/06/03 15:16:50.000   28.292891541  -16.432250122  1119.6513   1   9   0.0013   0.0010   0.0183   0.0004   0.0028  -0.0024 -10.00   86.8
2024/06/03 15:16:51.000   28.292891541  -16.432250122  1119.6513   1   9   0.0013   0.0010   0.0183   0.0004   0.0028  -0.0024  -9.00   87.9
2024/06/03 15:16:52.000   28.292891541  -16.432250121  1119.6513   1   9   0.0013   0.0010   0.0183   0.0004   0.0028  -0.0024  -8.00   89.0
2024/06/03 15:16:53.000   28.292891541  -16.432250121  1119.6513   1   9   0.0013   0.0010   0.0183   0.0004   0.0028  -0.0024  -7.00   88.9
2024/06/03 15:16:54.000   28.292891541  -16.432250121  1119.6514   1   9   0.0013   0.0010   0.0183   0.0004   0.0028  -0.0024  -6.00   88.0
2024/06/03 15:16:55.000   28.292891542  -16.432250121  1119.6515   1   9   0.0013   0.0010   0.0183   0.0004   0.0028  -0.0024  -5.00   86.8
2024/06/03 15:16:56.000   28.292891541  -16.432250121  1119.6516   1   9   0.0013   0.0010   0.0183   0.0004   0.0028  -0.0024  -4.00   85.8
2024/06/03 15:16:57.000   28.292891541  -16.432250121  1119.6517   1   9   0.0013   0.0010   0.0183   0.0004   0.0028  -0.0024  -3.00   86.2
2024/06/03 15:16:58.000   28.292891541  -16.432250122  1119.6516   1   9   0.0013   0.0010   0.0183   0.0004   0.0028  -0.0024  -2.00   87.8
2024/06/03 15:16:59.000   28.292891541  -16.432250121  1119.6516   1   9   0.0013   0.0010   0.0183   0.0004   0.0028  -0.0024  -1.00   88.7
2024/06/03 15:17:00.000   28.292891541  -16.432250121  1119.6518   1   9   0.0013   0.0010   0.0183   0.0004   0.0028  -0.0024   0.00   90.4
2024/06/03 15:17:01.000   28.292891541  -16.432250122  1119.6516   1   9   0.0013   0.0010   0.0183   0.0004   0.0028  -0.0024   1.00   22.6
2024/06/03 15:17:02.000   28.292891540  -16.432250122  1119.6517   1   9   0.0013   0.0010   0.0183   0.0004   0.0028  -0.0024   2.00   39.3
2024/06/03 15:17:03.000   28.292891540  -16.432250122  1119.6517   1   9   0.0013   0.0010   0.0183   0.0004   0.0028  -0.0024   3.00   53.8
2024/06/03 15:17:04.000   28.292891540  -16.432250122  1119.6517   1   9   0.0013   0.0010   0.0183   0.0004   0.0028  -0.0024   4.00   59.5
2024/06/03 15:17:05.000   28.292891540  -16.432250122  1119.6516   1   9   0.0013   0.0010   0.0183   0.0004   0.0028  -0.0024   5.00   66.7
2024/06/03 15:17:06.000   28.292891541  -16.432250122  1119.6516   1   9   0.0013   0.0010   0.0183   0.0004   0.0028  -0.0024   6.00   68.5
2024/06/03 15:17:07.000   28.292891541  -16.432250122  1119.6515   1   9   0.0013   0.0010   0.0183   0.0004   0.0028  -0.0024   7.00   69.5
2024/06/03 15:17:08.000   28.292891540  -16.432250122  1119.6515   1   9   0.0013   0.0010   0.0183   0.0004   0.0028  -0.0024   8.00   71.3
2024/06/03 15:17:09.000   28.292891541  -16.432250122  1119.6515   1   9   0.0013   0.0010   0.0183   0.0004   0.0028  -0.0024   9.00   72.6
2024/06/03 15:17:10.000   28.292891541  -16.432250122  1119.6514   1   9   0.0013   0.0010   0.0183   0.0004   0.0028  -0.0024  10.00   73.9
2024/06/03 15:17:11.000   28.292891541  -16.432250122  1119.6514   1   9   0.0013   0.0010   0.0183   0.0004   0.0028  -0.0024  11.00   76.2
2024/06/03 15:17:12.000   28.292891541  -16.432250122  1119.6514   1   9   0.0013   0.0010   0.0183   0.0004   0.0028  -0.0024  12.00   77.4
