% program   : RTKPOST-EX 2.5.0
% inp file  : C:\Users\SallyHenry\Desktop\Sally Internship\GNSS gravi\DATA\Survey Rover Obs\GUI20.24o
% inp file  : C:\Users\SallyHenry\Desktop\Sally Internship\GNSS gravi\DATA\BaseStations\IZAN\IZAN00ESP_R_20241550000_01D_30S_MO.rnx
% inp file  : C:\Users\SallyHenry\Desktop\Sally Internship\GNSS gravi\DATA\BaseStations\IZAN\IZAN00ESP_R_20241550000_01D_MN.rnx
% inp file  : C:\Users\SallyHenry\Desktop\Sally Internship\GNSS gravi\DATA\aux_files\Survey\IGS0OPSFIN_20241550000_01D_15M_ORB.SP3
% inp file  : C:\Users\SallyHenry\Desktop\Sally Internship\GNSS gravi\DATA\aux_files\Survey\IGS0OPSFIN_20241550000_01D_30S_CLK.CLK
% obs start : 2024/06/03 12:01:19.0 GPST (week2317 129679.0s)
% obs end   : 2024/06/03 12:16:24.0 GPST (week2317 130584.0s)
% pos mode  : Static
% freqs     : L1+L2/E5b
% solution  : Combined-No Phase Reset
% elev mask : 15.0 deg
% dynamics  : on
% tidecorr  : solid
% ionos opt : Estimate TEC
% tropo opt : Estimate ZTD+Grad
% ephemeris : Precise
% navi sys  : GPS GLONASS Galileo QZSS BDS
% amb res   : Fix and Hold
% amb glo   : Fix and Hold
% amb bds   : on
% val thres : 3.0
% antenna1  :                       ( 0.0000  0.0000  1.8000)
% antenna2  :                       ( 0.0000  0.0000  0.0000)
% ref pos   :  28.308069410  -16.499677180  2417.4044
%
% (lat/lon/height=WGS84/ellipsoidal,Q=1:fix,2:float,3:sbas,4:dgps,5:single,6:ppp,ns=# of satellites)
%  GPST                  latitude(deg) longitude(deg)  height(m)   Q  ns   sdn(m)   sde(m)   sdu(m)  sdne(m)  sdeu(m)  sdun(m) age(s)  ratio
2024/06/03 12:01:19.000   28.304769382  -16.501544230  2380.9320   1   7   0.0014   0.0012   0.0116  -0.0008   0.0024  -0.0026 -11.00   47.1
2024/06/03 12:01:20.000   28.304769382  -16.501544230  2380.9325   1   7   0.0014   0.0012   0.0116  -0.0008   0.0024  -0.0026 -10.00   45.6
2024/06/03 12:01:21.000   28.304769381  -16.501544230  2380.9329   1   7   0.0014   0.0012   0.0116  -0.0008   0.0024  -0.0026  -9.00   44.1
2024/06/03 12:01:22.000   28.304769381  -16.501544230  2380.9333   1   7   0.0014   0.0012   0.0116  -0.0008   0.0024  -0.0026  -8.00   41.8
2024/06/03 12:01:23.000   28.304769381  -16.501544231  2380.9337   1   7   0.0014   0.0012   0.0116  -0.0008   0.0024  -0.0026  -7.00   39.0
2024/06/03 12:01:24.000   28.304769381  -16.501544231  2380.9341   1   7   0.0014   0.0012   0.0116  -0.0008   0.0024  -0.0026  -6.00   36.2
2024/06/03 12:01:25.000   28.304769381  -16.501544231  2380.9342   1   7   0.0014   0.0012   0.0117  -0.0008   0.0024  -0.0026  -5.00   32.7
2024/06/03 12:01:26.000   28.304769381  -16.501544231  2380.9344   1   7   0.0014   0.0012   0.0117  -0.0008   0.0024  -0.0026  -4.00   28.4
2024/06/03 12:01:27.000   28.304769381  -16.501544231  2380.9346   1   7   0.0014   0.0012   0.0117  -0.0008   0.0024  -0.0026  -3.00   23.0
2024/06/03 12:01:28.000   28.304769381  -16.501544232  2380.9349   1   7   0.0014   0.0012   0.0117  -0.0008   0.0024  -0.0026  -2.00   16.7
2024/06/03 12:01:29.000   28.304769380  -16.501544232  2380.9353   1   7   0.0014   0.0012   0.0117  -0.0008   0.0024  -0.0026  -1.00    9.1
2024/06/03 12:01:30.000   28.304769381  -16.501544232  2380.9362   1   7   0.0014   0.0012   0.0117  -0.0008   0.0025  -0.0027   0.00   94.1
2024/06/03 12:01:31.000   28.304769381  -16.501544233  2380.9362   1   7   0.0014   0.0012   0.0117  -0.0008   0.0025  -0.0027   1.00   87.1
2024/06/03 12:01:32.000   28.304769381  -16.501544233  2380.9361   1   7   0.0014   0.0012   0.0117  -0.0008   0.0025  -0.0027   2.00   80.9
2024/06/03 12:01:33.000   28.304769381  -16.501544233  2380.9361   1   7   0.0014   0.0012   0.0117  -0.0008   0.0025  -0.0027   3.00   75.1
2024/06/03 12:01:34.000   28.304769381  -16.501544233  2380.9360   1   7   0.0014   0.0012   0.0117  -0.0008   0.0025  -0.0027   4.00   71.1
2024/06/03 12:01:35.000   28.304769381  -16.501544233  2380.9361   1   7   0.0014   0.0012   0.0117  -0.0008   0.0025  -0.0027   5.00   66.6
2024/06/03 12:01:36.000   28.304769381  -16.501544234  2380.9360   1   7   0.0014   0.0012   0.0117  -0.0008   0.0025  -0.0027   6.00   63.0
2024/06/03 12:01:37.000   28.304769381  -16.501544234  2380.9360   1   7   0.0014   0.0012   0.0117  -0.0008   0.0025  -0.0027   7.00   60.0
2024/06/03 12:01:38.000   28.304769381  -16.501544234  2380.9362   1   7   0.0014   0.0012   0.0117  -0.0008   0.0025  -0.0027   8.00   57.8
2024/06/03 12:01:39.000   28.304769381  -16.501544234  2380.9363   1   7   0.0014   0.0012   0.0117  -0.0008   0.0025  -0.0027   9.00   55.8
2024/06/03 12:01:40.000   28.304769381  -16.501544234  2380.9364   1   7   0.0014   0.0012   0.0117  -0.0008   0.0025  -0.0027  10.00   53.7
2024/06/03 12:01:41.000   28.304769381  -16.501544234  2380.9364   1   7   0.0014   0.0012   0.0117  -0.0008   0.0025  -0.0027  11.00   52.1
2024/06/03 12:01:42.000   28.304769381  -16.501544234  2380.9364   1   7   0.0014   0.0012   0.0117  -0.0008   0.0025  -0.0027  12.00   50.8
2024/06/03 12:01:43.000   28.304769381  -16.501544234  2380.9365   1   7   0.0014   0.0012   0.0117  -0.0008   0.0025  -0.0027  13.00   49.6
2024/06/03 12:01:44.000   28.304769381  -16.501544234  2380.9366   1   7   0.0014   0.0012   0.0117  -0.0008   0.0025  -0.0027  14.00   48.5
2024/06/03 12:01:45.000   28.304769381  -16.501544234  2380.9366   1   7   0.0014   0.0012   0.0117  -0.0008   0.0025  -0.0027  15.00   47.5
2024/06/03 12:01:46.000   28.304769381  -16.501544234  2380.9366   1   7   0.0014   0.0012   0.0117  -0.0008   0.0025  -0.0027 -14.00   46.8
2024/06/03 12:01:47.000   28.304769381  -16.501544234  2380.9366   1   7   0.0014   0.0012   0.0117  -0.0008   0.0025  -0.0027 -13.00   46.0
2024/06/03 12:01:48.000   28.304769380  -16.501544234  2380.9367   1   7   0.0014   0.0012   0.0117  -0.0008   0.0025  -0.0027 -12.00   44.9
2024/06/03 12:01:49.000   28.304769380  -16.501544234  2380.9369   1   7   0.0014   0.0012   0.0117  -0.0008   0.0025  -0.0027 -11.00   43.8
2024/06/03 12:01:50.000   28.304769380  -16.501544234  2380.9369   1   7   0.0014   0.0012   0.0117  -0.0008   0.0024  -0.0027 -10.00   42.4
2024/06/03 12:01:51.000   28.304769380  -16.501544234  2380.9369   1   7   0.0014   0.0012   0.0117  -0.0008   0.0024  -0.0027  -9.00   40.7
2024/06/03 12:01:52.000   28.304769380  -16.501544234  2380.9368   1   7   0.0014   0.0012   0.0117  -0.0008   0.0024  -0.0027  -8.00   38.8
2024/06/03 12:01:53.000   28.304769380  -16.501544234  2380.9368   1   7   0.0014   0.0012   0.0117  -0.0008   0.0024  -0.0027  -7.00   36.4
2024/06/03 12:01:54.000   28.304769380  -16.501544234  2380.9371   1   7   0.0014   0.0012   0.0118  -0.0008   0.0024  -0.0027  -6.00   33.4
2024/06/03 12:01:55.000   28.304769380  -16.501544234  2380.9372   1   7   0.0014   0.0012   0.0118  -0.0008   0.0024  -0.0027  -5.00   30.1
2024/06/03 12:01:56.000   28.304769380  -16.501544234  2380.9372   1   7   0.0014   0.0012   0.0118  -0.0008   0.0024  -0.0027  -4.00   25.8
2024/06/03 12:01:57.000   28.304769380  -16.501544234  2380.9372   1   7   0.0014   0.0012   0.0118  -0.0008   0.0024  -0.0027  -3.00   21.2
2024/06/03 12:01:58.000   28.304769380  -16.501544235  2380.9374   1   7   0.0014   0.0012   0.0118  -0.0008   0.0024  -0.0027  -2.00   15.0
2024/06/03 12:01:59.000   28.304769380  -16.501544235  2380.9375   1   7   0.0014   0.0012   0.0118  -0.0008   0.0024  -0.0027  -1.00    8.3
2024/06/03 12:02:00.000   28.304769377  -16.501544234  2380.9366   1   7   0.0014   0.0012   0.0118  -0.0008   0.0025  -0.0027   0.00   86.1
2024/06/03 12:02:01.000   28.304769377  -16.501544234  2380.9369   1   7   0.0014   0.0012   0.0118  -0.0008   0.0025  -0.0027   1.00   79.9
2024/06/03 12:02:02.000   28.304769377  -16.501544234  2380.9370   1   7   0.0014   0.0012   0.0118  -0.0008   0.0025  -0.0027   2.00   73.5
2024/06/03 12:02:03.000   28.304769377  -16.501544234  2380.9372   1   7   0.0014   0.0012   0.0118  -0.0008   0.0025  -0.0027   3.00   67.2
2024/06/03 12:02:04.000   28.304769377  -16.501544234  2380.9371   1   7   0.0014   0.0012   0.0118  -0.0008   0.0025  -0.0027   4.00   61.3
2024/06/03 12:02:05.000   28.304769377  -16.501544234  2380.9370   1   7   0.0014   0.0012   0.0118  -0.0008   0.0025  -0.0027   5.00   55.9
2024/06/03 12:02:06.000   28.304769377  -16.501544234  2380.9367   1   7   0.0014   0.0012   0.0118  -0.0008   0.0025  -0.0027   6.00   50.8
2024/06/03 12:02:07.000   28.304769377  -16.501544234  2380.9365   1   7   0.0014   0.0012   0.0118  -0.0008   0.0025  -0.0027   7.00   46.9
2024/06/03 12:02:08.000   28.304769377  -16.501544234  2380.9366   1   7   0.0014   0.0012   0.0119  -0.0008   0.0025  -0.0027   8.00   43.5
2024/06/03 12:02:09.000   28.304769376  -16.501544234  2380.9368   1   7   0.0014   0.0012   0.0119  -0.0008   0.0025  -0.0027   9.00   40.7
2024/06/03 12:02:10.000   28.304769376  -16.501544234  2380.9369   1   7   0.0014   0.0012   0.0119  -0.0008   0.0025  -0.0027  10.00   38.3
2024/06/03 12:02:11.000   28.304769376  -16.501544234  2380.9368   1   7   0.0014   0.0012   0.0119  -0.0008   0.0025  -0.0027  11.00   36.2
2024/06/03 12:02:12.000   28.304769376  -16.501544234  2380.9368   1   7   0.0014   0.0012   0.0119  -0.0008   0.0025  -0.0027  12.00   34.6
2024/06/03 12:02:13.000   28.304769376  -16.501544234  2380.9368   1   7   0.0014   0.0012   0.0119  -0.0008   0.0025  -0.0027  13.00   33.3
2024/06/03 12:02:14.000   28.304769376  -16.501544234  2380.9368   1   7   0.0014   0.0012   0.0119  -0.0008   0.0025  -0.0027  14.00   32.0
2024/06/03 12:02:15.000   28.304769376  -16.501544234  2380.9369   1   7   0.0014   0.0012   0.0119  -0.0008   0.0025  -0.0027  15.00   30.9
2024/06/03 12:02:16.000   28.304769376  -16.501544234  2380.9371   1   7   0.0014   0.0012   0.0119  -0.0008   0.0025  -0.0027 -14.00   29.9
2024/06/03 12:02:17.000   28.304769376  -16.501544234  2380.9371   1   7   0.0014   0.0012   0.0118  -0.0008   0.0025  -0.0027 -13.00   28.9
2024/06/03 12:02:18.000   28.304769376  -16.501544234  2380.9371   1   7   0.0014   0.0012   0.0118  -0.0008   0.0025  -0.0027 -12.00   27.9
2024/06/03 12:02:19.000   28.304769377  -16.501544234  2380.9364   1   7   0.0014   0.0012   0.0118  -0.0008   0.0025  -0.0027 -11.00   27.8
2024/06/03 12:02:20.000   28.304769378  -16.501544234  2380.9356   1   7   0.0014   0.0012   0.0118  -0.0008   0.0025  -0.0027 -10.00   27.0
2024/06/03 12:02:21.000   28.304769378  -16.501544234  2380.9350   1   7   0.0014   0.0012   0.0118  -0.0008   0.0025  -0.0027  -9.00   26.3
2024/06/03 12:02:22.000   28.304769379  -16.501544235  2380.9340   1   7   0.0014   0.0012   0.0119  -0.0008   0.0025  -0.0027  -8.00   27.3
2024/06/03 12:02:23.000   28.304769380  -16.501544235  2380.9334   1   7   0.0014   0.0012   0.0119  -0.0008   0.0025  -0.0027  -7.00   27.9
2024/06/03 12:02:24.000   28.304769381  -16.501544235  2380.9335   1   7   0.0014   0.0012   0.0119  -0.0008   0.0025  -0.0027  -6.00   27.4
2024/06/03 12:02:25.000   28.304769381  -16.501544235  2380.9338   1   7   0.0014   0.0012   0.0119  -0.0008   0.0025  -0.0027  -5.00   25.8
2024/06/03 12:02:26.000   28.304769381  -16.501544236  2380.9342   1   7   0.0014   0.0012   0.0119  -0.0008   0.0025  -0.0027  -4.00   23.0
2024/06/03 12:02:27.000   28.304769381  -16.501544236  2380.9342   1   7   0.0014   0.0012   0.0119  -0.0008   0.0025  -0.0027  -3.00   19.2
2024/06/03 12:02:28.000   28.304769381  -16.501544236  2380.9346   1   7   0.0014   0.0012   0.0119  -0.0008   0.0025  -0.0027  -2.00   14.6
2024/06/03 12:02:29.000   28.304769382  -16.501544236  2380.9345   1   7   0.0014   0.0012   0.0119  -0.0008   0.0025  -0.0027  -1.00    8.3
2024/06/03 12:02:30.000   28.304769378  -16.501544235  2380.9340   1   7   0.0014   0.0012   0.0119  -0.0008   0.0025  -0.0028   0.00  166.3
2024/06/03 12:02:31.000   28.304769378  -16.501544236  2380.9341   1   7   0.0014   0.0012   0.0119  -0.0008   0.0025  -0.0028   1.00  162.4
2024/06/03 12:02:32.000   28.304769378  -16.501544236  2380.9343   1   7   0.0014   0.0012   0.0119  -0.0008   0.0025  -0.0028   2.00  157.3
2024/06/03 12:02:33.000   28.304769378  -16.501544237  2380.9347   1   7   0.0014   0.0012   0.0119  -0.0008   0.0025  -0.0028   3.00  152.6
2024/06/03 12:02:34.000   28.304769378  -16.501544237  2380.9352   1   7   0.0014   0.0012   0.0119  -0.0008   0.0025  -0.0028   4.00  148.4
2024/06/03 12:02:35.000   28.304769377  -16.501544237  2380.9357   1   7   0.0014   0.0012   0.0119  -0.0008   0.0025  -0.0028   5.00  144.7
2024/06/03 12:02:36.000   28.304769377  -16.501544237  2380.9361   1   7   0.0014   0.0012   0.0119  -0.0008   0.0025  -0.0028   6.00  141.6
2024/06/03 12:02:37.000   28.304769377  -16.501544237  2380.9360   1   7   0.0014   0.0012   0.0119  -0.0008   0.0025  -0.0028   7.00  139.2
2024/06/03 12:02:38.000   28.304769377  -16.501544237  2380.9359   1   7   0.0014   0.0012   0.0119  -0.0008   0.0025  -0.0028   8.00  137.2
2024/06/03 12:02:39.000   28.304769377  -16.501544237  2380.9359   1   7   0.0014   0.0012   0.0119  -0.0008   0.0025  -0.0028   9.00  135.4
2024/06/03 12:02:40.000   28.304769377  -16.501544237  2380.9360   1   7   0.0014   0.0012   0.0119  -0.0008   0.0025  -0.0028  10.00  133.7
2024/06/03 12:02:41.000   28.304769377  -16.501544237  2380.9362   1   7   0.0014   0.0012   0.0119  -0.0008   0.0025  -0.0028  11.00  132.1
2024/06/03 12:02:42.000   28.304769377  -16.501544237  2380.9362   1   7   0.0014   0.0012   0.0119  -0.0008   0.0025  -0.0028  12.00  130.9
2024/06/03 12:02:43.000   28.304769377  -16.501544237  2380.9364   1   7   0.0014   0.0012   0.0119  -0.0008   0.0025  -0.0028  13.00  129.6
2024/06/03 12:02:44.000   28.304769377  -16.501544237  2380.9365   1   7   0.0014   0.0012   0.0119  -0.0008   0.0025  -0.0028  14.00  128.4
2024/06/03 12:02:45.000   28.304769377  -16.501544237  2380.9367   1   7   0.0014   0.0012   0.0119  -0.0008   0.0025  -0.0028  15.00  127.3
2024/06/03 12:02:46.000   28.304769377  -16.501544237  2380.9368   1   7   0.0014   0.0012   0.0119  -0.0008   0.0025  -0.0028 -14.00  126.3
2024/06/03 12:02:47.000   28.304769377  -16.501544237  2380.9370   1   7   0.0014   0.0012   0.0119  -0.0008   0.0025  -0.0028 -13.00  125.3
2024/06/03 12:02:48.000   28.304769377  -16.501544237  2380.9371   1   7   0.0014   0.0012   0.0119  -0.0008   0.0025  -0.0028 -12.00  124.2
2024/06/03 12:02:49.000   28.304769376  -16.501544237  2380.9372   1   7   0.0014   0.0012   0.0119  -0.0008   0.0025  -0.0028 -11.00  122.9
2024/06/03 12:02:50.000   28.304769376  -16.501544238  2380.9373   1   7   0.0014   0.0012   0.0119  -0.0008   0.0025  -0.0028 -10.00  121.7
2024/06/03 12:02:51.000   28.304769376  -16.501544238  2380.9375   1   7   0.0014   0.0012   0.0119  -0.0008   0.0025  -0.0028  -9.00  120.2
2024/06/03 12:02:52.000   28.304769376  -16.501544235  2380.9284   1   7   0.0012   0.0011   0.0107  -0.0007   0.0022  -0.0024  -8.00    5.5
2024/06/03 12:02:53.000   28.304769376  -16.501544236  2380.9286   1   7   0.0012   0.0011   0.0107  -0.0007   0.0022  -0.0024  -7.00    5.6
2024/06/03 12:02:54.000   28.304769376  -16.501544235  2380.9294   1   7   0.0012   0.0011   0.0107  -0.0007   0.0022  -0.0024  -6.00    5.6
2024/06/03 12:02:55.000   28.304769376  -16.501544236  2380.9300   1   7   0.0012   0.0011   0.0107  -0.0007   0.0022  -0.0024  -5.00    5.6
2024/06/03 12:02:56.000   28.304769375  -16.501544236  2380.9301   1   7   0.0012   0.0011   0.0107  -0.0007   0.0022  -0.0024  -4.00    5.7
2024/06/03 12:02:57.000   28.304769375  -16.501544236  2380.9306   1   7   0.0012   0.0011   0.0107  -0.0007   0.0022  -0.0024  -3.00    5.7
2024/06/03 12:02:58.000   28.304769375  -16.501544236  2380.9307   1   7   0.0012   0.0011   0.0107  -0.0007   0.0022  -0.0024  -2.00    5.9
2024/06/03 12:02:59.000   28.304769375  -16.501544236  2380.9303   1   7   0.0012   0.0011   0.0107  -0.0007   0.0022  -0.0024  -1.00    6.1
2024/06/03 12:03:00.000   28.304769376  -16.501544236  2380.9308   1   7   0.0012   0.0011   0.0107  -0.0007   0.0022  -0.0024   0.00    6.3
2024/06/03 12:03:01.000   28.304769377  -16.501544237  2380.9317   1   7   0.0013   0.0011   0.0107  -0.0007   0.0022  -0.0023   1.00    4.8
2024/06/03 12:03:02.000   28.304769377  -16.501544237  2380.9321   1   7   0.0013   0.0011   0.0107  -0.0007   0.0022  -0.0024   2.00    5.0
2024/06/03 12:03:03.000   28.304769377  -16.501544237  2380.9327   1   7   0.0013   0.0011   0.0107  -0.0007   0.0022  -0.0024   3.00    5.1
2024/06/03 12:03:04.000   28.304769377  -16.501544237  2380.9334   1   7   0.0013   0.0011   0.0107  -0.0007   0.0022  -0.0024   4.00    5.3
2024/06/03 12:03:05.000   28.304769376  -16.501544237  2380.9339   1   7   0.0013   0.0011   0.0107  -0.0007   0.0022  -0.0024   5.00    5.4
2024/06/03 12:03:06.000   28.304769376  -16.501544237  2380.9344   1   7   0.0013   0.0011   0.0107  -0.0007   0.0022  -0.0024   6.00    5.6
2024/06/03 12:03:07.000   28.304769376  -16.501544237  2380.9345   1   7   0.0013   0.0011   0.0107  -0.0007   0.0022  -0.0024   7.00    5.7
2024/06/03 12:03:08.000   28.304769376  -16.501544237  2380.9346   1   7   0.0013   0.0011   0.0107  -0.0007   0.0022  -0.0024   8.00    5.7
2024/06/03 12:03:09.000   28.304769376  -16.501544237  2380.9347   1   7   0.0013   0.0011   0.0107  -0.0007   0.0022  -0.0024   9.00    5.8
2024/06/03 12:03:10.000   28.304769376  -16.501544237  2380.9348   1   7   0.0013   0.0011   0.0107  -0.0007   0.0022  -0.0024  10.00    5.8
2024/06/03 12:03:11.000   28.304769376  -16.501544237  2380.9347   1   7   0.0013   0.0011   0.0107  -0.0007   0.0022  -0.0024  11.00    5.9
2024/06/03 12:03:12.000   28.304769376  -16.501544237  2380.9346   1   7   0.0013   0.0011   0.0107  -0.0007   0.0022  -0.0024  12.00    8.7
2024/06/03 12:03:13.000   28.304769376  -16.501544237  2380.9346   1   7   0.0013   0.0011   0.0107  -0.0007   0.0022  -0.0024  13.00    9.1
2024/06/03 12:03:14.000   28.304769376  -16.501544237  2380.9347   1   7   0.0013   0.0011   0.0107  -0.0007   0.0022  -0.0024  14.00    9.6
2024/06/03 12:03:15.000   28.304769376  -16.501544237  2380.9347   1   7   0.0013   0.0011   0.0106  -0.0007   0.0022  -0.0024 -15.00   10.0
2024/06/03 12:03:16.000   28.304769376  -16.501544237  2380.9347   1   7   0.0013   0.0011   0.0106  -0.0007   0.0022  -0.0024 -14.00   10.5
2024/06/03 12:03:17.000   28.304769376  -16.501544237  2380.9348   1   7   0.0013   0.0011   0.0106  -0.0007   0.0022  -0.0024 -13.00   11.0
2024/06/03 12:03:18.000   28.304769375  -16.501544237  2380.9350   1   7   0.0013   0.0011   0.0106  -0.0007   0.0022  -0.0024 -12.00   11.4
2024/06/03 12:03:19.000   28.304769375  -16.501544236  2380.9351   1   7   0.0013   0.0011   0.0106  -0.0007   0.0022  -0.0024 -11.00   11.9
2024/06/03 12:03:20.000   28.304769375  -16.501544236  2380.9355   1   7   0.0013   0.0011   0.0106  -0.0007   0.0022  -0.0024 -10.00   12.3
2024/06/03 12:03:21.000   28.304769375  -16.501544236  2380.9356   1   7   0.0013   0.0011   0.0106  -0.0007   0.0022  -0.0024  -9.00   12.8
2024/06/03 12:03:22.000   28.304769375  -16.501544236  2380.9356   1   7   0.0013   0.0011   0.0106  -0.0007   0.0022  -0.0024  -8.00   13.3
2024/06/03 12:03:23.000   28.304769375  -16.501544236  2380.9355   1   7   0.0013   0.0011   0.0106  -0.0007   0.0022  -0.0024  -7.00   13.8
2024/06/03 12:03:24.000   28.304769375  -16.501544236  2380.9355   1   7   0.0012   0.0011   0.0106  -0.0007   0.0022  -0.0024  -6.00   14.3
2024/06/03 12:03:25.000   28.304769375  -16.501544237  2380.9351   1   7   0.0012   0.0011   0.0106  -0.0007   0.0022  -0.0024  -5.00   14.8
2024/06/03 12:03:26.000   28.304769375  -16.501544236  2380.9347   1   7   0.0012   0.0011   0.0106  -0.0007   0.0022  -0.0024  -4.00   15.4
2024/06/03 12:03:27.000   28.304769374  -16.501544236  2380.9349   1   7   0.0012   0.0011   0.0106  -0.0007   0.0022  -0.0024  -3.00   15.9
2024/06/03 12:03:28.000   28.304769374  -16.501544236  2380.9351   1   7   0.0012   0.0011   0.0106  -0.0007   0.0022  -0.0024  -2.00   16.3
2024/06/03 12:03:29.000   28.304769374  -16.501544236  2380.9348   1   7   0.0012   0.0011   0.0106  -0.0007   0.0022  -0.0024  -1.00   16.9
2024/06/03 12:03:30.000   28.304769373  -16.501544236  2380.9348   1   7   0.0012   0.0010   0.0106  -0.0007   0.0022  -0.0024   0.00   17.3
2024/06/03 12:03:31.000   28.304769374  -16.501544236  2380.9352   1   7   0.0013   0.0011   0.0106  -0.0007   0.0022  -0.0023   1.00    7.4
2024/06/03 12:03:32.000   28.304769375  -16.501544237  2380.9355   1   7   0.0013   0.0011   0.0106  -0.0007   0.0022  -0.0023   2.00   12.6
2024/06/03 12:03:33.000   28.304769374  -16.501544236  2380.9364   1   7   0.0013   0.0011   0.0106  -0.0007   0.0022  -0.0023   3.00   15.7
2024/06/03 12:03:34.000   28.304769374  -16.501544237  2380.9372   1   7   0.0013   0.0011   0.0106  -0.0007   0.0022  -0.0023   4.00   16.1
2024/06/03 12:03:35.000   28.304769374  -16.501544237  2380.9374   1   7   0.0013   0.0011   0.0106  -0.0007   0.0022  -0.0023   5.00   16.8
2024/06/03 12:03:36.000   28.304769374  -16.501544237  2380.9375   1   7   0.0013   0.0010   0.0106  -0.0007   0.0022  -0.0023   6.00   17.4
2024/06/03 12:03:37.000   28.304769374  -16.501544237  2380.9374   1   7   0.0013   0.0010   0.0106  -0.0007   0.0022  -0.0023   7.00   17.9
2024/06/03 12:03:38.000   28.304769373  -16.501544237  2380.9376   1   7   0.0013   0.0010   0.0106  -0.0007   0.0022  -0.0023   8.00   18.5
2024/06/03 12:03:39.000   28.304769373  -16.501544237  2380.9378   1   7   0.0013   0.0010   0.0106  -0.0007   0.0022  -0.0023   9.00   19.0
2024/06/03 12:03:40.000   28.304769373  -16.501544237  2380.9378   1   7   0.0012   0.0010   0.0106  -0.0007   0.0022  -0.0023  10.00   19.5
2024/06/03 12:03:41.000   28.304769373  -16.501544237  2380.9378   1   7   0.0012   0.0010   0.0106  -0.0007   0.0022  -0.0023  11.00   19.9
2024/06/03 12:03:42.000   28.304769373  -16.501544237  2380.9378   1   7   0.0012   0.0010   0.0106  -0.0007   0.0022  -0.0023  12.00   20.4
2024/06/03 12:03:43.000   28.304769373  -16.501544237  2380.9378   1   7   0.0012   0.0010   0.0106  -0.0007   0.0022  -0.0023  13.00   20.8
2024/06/03 12:03:44.000   28.304769373  -16.501544237  2380.9378   1   7   0.0012   0.0010   0.0106  -0.0007   0.0022  -0.0023  14.00   21.3
2024/06/03 12:03:45.000   28.304769373  -16.501544237  2380.9379   1   7   0.0012   0.0010   0.0106  -0.0007   0.0022  -0.0023 -15.00   21.7
2024/06/03 12:03:46.000   28.304769373  -16.501544237  2380.9380   1   7   0.0012   0.0010   0.0106  -0.0007   0.0022  -0.0023 -14.00   22.1
2024/06/03 12:03:47.000   28.304769373  -16.501544236  2380.9380   1   7   0.0012   0.0010   0.0106  -0.0007   0.0022  -0.0023 -13.00   22.6
2024/06/03 12:03:48.000   28.304769372  -16.501544236  2380.9381   1   7   0.0012   0.0010   0.0106  -0.0007   0.0022  -0.0023 -12.00   23.0
2024/06/03 12:03:49.000   28.304769372  -16.501544236  2380.9381   1   7   0.0012   0.0010   0.0106  -0.0007   0.0022  -0.0023 -11.00   23.5
2024/06/03 12:03:50.000   28.304769372  -16.501544236  2380.9380   1   7   0.0012   0.0010   0.0106  -0.0007   0.0022  -0.0023 -10.00   24.0
2024/06/03 12:03:51.000   28.304769372  -16.501544236  2380.9381   1   7   0.0012   0.0010   0.0106  -0.0007   0.0022  -0.0023  -9.00   24.4
2024/06/03 12:03:52.000   28.304769372  -16.501544236  2380.9381   1   7   0.0012   0.0010   0.0106  -0.0007   0.0022  -0.0023  -8.00   24.8
2024/06/03 12:03:53.000   28.304769372  -16.501544236  2380.9382   1   7   0.0012   0.0010   0.0106  -0.0007   0.0022  -0.0023  -7.00   25.2
2024/06/03 12:03:54.000   28.304769372  -16.501544236  2380.9384   1   7   0.0012   0.0010   0.0106  -0.0007   0.0022  -0.0023  -6.00   25.6
2024/06/03 12:03:55.000   28.304769372  -16.501544236  2380.9388   1   7   0.0012   0.0010   0.0106  -0.0007   0.0022  -0.0023  -5.00   26.0
2024/06/03 12:03:56.000   28.304769372  -16.501544236  2380.9391   1   7   0.0012   0.0010   0.0106  -0.0007   0.0022  -0.0024  -4.00   26.2
2024/06/03 12:03:57.000   28.304769372  -16.501544236  2380.9393   1   7   0.0012   0.0010   0.0106  -0.0007   0.0022  -0.0024  -3.00   26.7
2024/06/03 12:03:58.000   28.304769372  -16.501544236  2380.9392   1   7   0.0012   0.0010   0.0106  -0.0007   0.0022  -0.0024  -2.00   27.1
2024/06/03 12:03:59.000   28.304769371  -16.501544236  2380.9394   1   7   0.0012   0.0010   0.0106  -0.0007   0.0022  -0.0024  -1.00   27.5
2024/06/03 12:04:00.000   28.304769371  -16.501544236  2380.9396   1   7   0.0012   0.0010   0.0106  -0.0007   0.0022  -0.0024   0.00   27.9
2024/06/03 12:04:01.000   28.304769371  -16.501544236  2380.9393   1   7   0.0013   0.0010   0.0106  -0.0007   0.0021  -0.0023   1.00    7.2
2024/06/03 12:04:02.000   28.304769371  -16.501544236  2380.9396   1   7   0.0013   0.0010   0.0106  -0.0007   0.0022  -0.0023   2.00   12.3
2024/06/03 12:04:03.000   28.304769371  -16.501544236  2380.9400   1   7   0.0013   0.0010   0.0106  -0.0007   0.0022  -0.0023   3.00   16.4
2024/06/03 12:04:04.000   28.304769371  -16.501544236  2380.9400   1   7   0.0012   0.0010   0.0106  -0.0007   0.0022  -0.0023   4.00   19.9
2024/06/03 12:04:05.000   28.304769371  -16.501544237  2380.9395   1   7   0.0012   0.0010   0.0106  -0.0007   0.0022  -0.0023   5.00   22.9
2024/06/03 12:04:06.000   28.304769372  -16.501544237  2380.9392   1   7   0.0012   0.0010   0.0106  -0.0007   0.0022  -0.0023   6.00   25.3
2024/06/03 12:04:07.000   28.304769372  -16.501544237  2380.9389   1   7   0.0012   0.0010   0.0106  -0.0007   0.0022  -0.0023   7.00   27.4
2024/06/03 12:04:08.000   28.304769372  -16.501544237  2380.9386   1   7   0.0012   0.0010   0.0106  -0.0007   0.0022  -0.0023   8.00   29.3
2024/06/03 12:04:09.000   28.304769373  -16.501544237  2380.9383   1   7   0.0012   0.0010   0.0106  -0.0007   0.0022  -0.0023   9.00   29.8
2024/06/03 12:04:10.000   28.304769373  -16.501544237  2380.9381   1   7   0.0012   0.0010   0.0106  -0.0007   0.0022  -0.0023  10.00   30.2
2024/06/03 12:04:11.000   28.304769373  -16.501544237  2380.9380   1   7   0.0012   0.0010   0.0106  -0.0007   0.0022  -0.0023  11.00   30.6
2024/06/03 12:04:12.000   28.304769373  -16.501544237  2380.9379   1   7   0.0012   0.0010   0.0106  -0.0007   0.0021  -0.0023  12.00   30.9
2024/06/03 12:04:13.000   28.304769373  -16.501544237  2380.9378   1   7   0.0012   0.0010   0.0106  -0.0007   0.0021  -0.0023  13.00   31.3
2024/06/03 12:04:14.000   28.304769374  -16.501544238  2380.9375   1   7   0.0012   0.0010   0.0106  -0.0007   0.0021  -0.0023  14.00   31.8
2024/06/03 12:04:15.000   28.304769374  -16.501544238  2380.9373   1   7   0.0012   0.0010   0.0106  -0.0007   0.0021  -0.0023 -15.00   32.2
2024/06/03 12:04:16.000   28.304769374  -16.501544237  2380.9372   1   7   0.0012   0.0010   0.0106  -0.0007   0.0021  -0.0023 -14.00   32.7
2024/06/03 12:04:17.000   28.304769373  -16.501544238  2380.9372   1   7   0.0012   0.0010   0.0106  -0.0007   0.0021  -0.0023 -13.00   33.1
2024/06/03 12:04:18.000   28.304769373  -16.501544237  2380.9372   1   7   0.0012   0.0010   0.0106  -0.0007   0.0021  -0.0023 -12.00   33.5
2024/06/03 12:04:19.000   28.304769373  -16.501544237  2380.9371   1   7   0.0012   0.0010   0.0105  -0.0007   0.0021  -0.0023 -11.00   34.0
2024/06/03 12:04:20.000   28.304769373  -16.501544238  2380.9370   1   7   0.0012   0.0010   0.0105  -0.0007   0.0021  -0.0023 -10.00   34.4
2024/06/03 12:04:21.000   28.304769373  -16.501544238  2380.9368   1   7   0.0012   0.0010   0.0105  -0.0007   0.0021  -0.0023  -9.00   34.8
2024/06/03 12:04:22.000   28.304769373  -16.501544238  2380.9366   1   7   0.0012   0.0010   0.0105  -0.0007   0.0021  -0.0023  -8.00   35.3
2024/06/03 12:04:23.000   28.304769373  -16.501544238  2380.9365   1   7   0.0012   0.0010   0.0105  -0.0007   0.0021  -0.0023  -7.00   35.7
2024/06/03 12:04:24.000   28.304769374  -16.501544238  2380.9363   1   7   0.0012   0.0010   0.0105  -0.0007   0.0021  -0.0023  -6.00   36.0
2024/06/03 12:04:25.000   28.304769373  -16.501544238  2380.9362   1   7   0.0012   0.0010   0.0105  -0.0007   0.0021  -0.0023  -5.00   36.3
2024/06/03 12:04:26.000   28.304769373  -16.501544238  2380.9361   1   7   0.0012   0.0010   0.0105  -0.0007   0.0021  -0.0023  -4.00   36.7
2024/06/03 12:04:27.000   28.304769373  -16.501544238  2380.9359   1   7   0.0012   0.0010   0.0105  -0.0007   0.0021  -0.0023  -3.00   37.0
2024/06/03 12:04:28.000   28.304769373  -16.501544238  2380.9359   1   7   0.0012   0.0010   0.0105  -0.0007   0.0021  -0.0023  -2.00   37.3
2024/06/03 12:04:29.000   28.304769373  -16.501544238  2380.9356   1   7   0.0012   0.0010   0.0105  -0.0007   0.0021  -0.0023  -1.00   37.7
2024/06/03 12:04:30.000   28.304769372  -16.501544238  2380.9352   1   7   0.0012   0.0010   0.0105  -0.0007   0.0021  -0.0024   0.00   37.9
2024/06/03 12:04:31.000   28.304769372  -16.501544238  2380.9347   1   7   0.0012   0.0010   0.0105  -0.0007   0.0021  -0.0023   1.00    7.0
2024/06/03 12:04:32.000   28.304769373  -16.501544238  2380.9346   1   7   0.0012   0.0010   0.0105  -0.0007   0.0021  -0.0023   2.00   11.7
2024/06/03 12:04:33.000   28.304769374  -16.501544239  2380.9347   1   7   0.0012   0.0010   0.0105  -0.0007   0.0021  -0.0023   3.00   15.3
2024/06/03 12:04:34.000   28.304769374  -16.501544239  2380.9347   1   7   0.0012   0.0010   0.0105  -0.0007   0.0021  -0.0023   4.00   18.5
2024/06/03 12:04:35.000   28.304769375  -16.501544239  2380.9347   1   7   0.0012   0.0010   0.0105  -0.0007   0.0021  -0.0023   5.00   21.0
2024/06/03 12:04:36.000   28.304769374  -16.501544239  2380.9347   1   7   0.0012   0.0010   0.0105  -0.0007   0.0021  -0.0023   6.00   23.2
2024/06/03 12:04:37.000   28.304769375  -16.501544239  2380.9346   1   7   0.0012   0.0010   0.0105  -0.0007   0.0021  -0.0023   7.00   25.2
2024/06/03 12:04:38.000   28.304769375  -16.501544239  2380.9346   1   7   0.0012   0.0010   0.0105  -0.0007   0.0021  -0.0023   8.00   26.8
2024/06/03 12:04:39.000   28.304769375  -16.501544239  2380.9345   1   7   0.0012   0.0010   0.0105  -0.0007   0.0021  -0.0023   9.00   28.2
2024/06/03 12:04:40.000   28.304769375  -16.501544239  2380.9345   1   7   0.0012   0.0010   0.0105  -0.0007   0.0021  -0.0023  10.00   29.3
2024/06/03 12:04:41.000   28.304769375  -16.501544239  2380.9345   1   7   0.0012   0.0010   0.0105  -0.0007   0.0021  -0.0023  11.00   30.4
2024/06/03 12:04:42.000   28.304769375  -16.501544239  2380.9345   1   7   0.0012   0.0010   0.0105  -0.0007   0.0021  -0.0023  12.00   31.4
2024/06/03 12:04:43.000   28.304769375  -16.501544239  2380.9345   1   7   0.0012   0.0010   0.0105  -0.0007   0.0021  -0.0023  13.00   32.3
2024/06/03 12:04:44.000   28.304769375  -16.501544239  2380.9346   1   7   0.0012   0.0010   0.0105  -0.0007   0.0021  -0.0023  14.00   33.2
2024/06/03 12:04:45.000   28.304769374  -16.501544239  2380.9348   1   7   0.0012   0.0010   0.0105  -0.0007   0.0021  -0.0023 -15.00   33.9
2024/06/03 12:04:46.000   28.304769374  -16.501544239  2380.9348   1   7   0.0012   0.0010   0.0105  -0.0007   0.0021  -0.0023 -14.00   34.9
2024/06/03 12:04:47.000   28.304769374  -16.501544239  2380.9347   1   7   0.0012   0.0010   0.0105  -0.0007   0.0021  -0.0023 -13.00   35.9
2024/06/03 12:04:48.000   28.304769374  -16.501544239  2380.9347   1   7   0.0012   0.0010   0.0105  -0.0007   0.0021  -0.0023 -12.00   36.8
2024/06/03 12:04:49.000   28.304769374  -16.501544239  2380.9347   1   7   0.0012   0.0010   0.0105  -0.0007   0.0021  -0.0023 -11.00   38.0
2024/06/03 12:04:50.000   28.304769374  -16.501544239  2380.9346   1   7   0.0012   0.0010   0.0105  -0.0007   0.0021  -0.0023 -10.00   39.5
2024/06/03 12:04:51.000   28.304769373  -16.501544239  2380.9343   1   7   0.0012   0.0010   0.0105  -0.0007   0.0021  -0.0023  -9.00   41.2
2024/06/03 12:04:52.000   28.304769373  -16.501544239  2380.9341   1   7   0.0012   0.0010   0.0105  -0.0007   0.0021  -0.0023  -8.00   42.8
2024/06/03 12:04:53.000   28.304769373  -16.501544239  2380.9341   1   7   0.0012   0.0010   0.0105  -0.0007   0.0021  -0.0023  -7.00   43.0
2024/06/03 12:04:54.000   28.304769373  -16.501544239  2380.9340   1   7   0.0012   0.0010   0.0105  -0.0007   0.0021  -0.0023  -6.00   43.2
2024/06/03 12:04:55.000   28.304769373  -16.501544239  2380.9339   1   7   0.0012   0.0010   0.0105  -0.0007   0.0021  -0.0024  -5.00   43.4
2024/06/03 12:04:56.000   28.304769373  -16.501544239  2380.9339   1   7   0.0012   0.0010   0.0105  -0.0007   0.0021  -0.0024  -4.00   43.6
2024/06/03 12:04:57.000   28.304769373  -16.501544239  2380.9338   1   7   0.0012   0.0010   0.0105  -0.0007   0.0021  -0.0024  -3.00   43.7
2024/06/03 12:04:58.000   28.304769373  -16.501544239  2380.9336   1   7   0.0012   0.0010   0.0105  -0.0007   0.0021  -0.0024  -2.00   43.9
2024/06/03 12:04:59.000   28.304769374  -16.501544239  2380.9334   1   7   0.0012   0.0010   0.0105  -0.0007   0.0021  -0.0024  -1.00   43.9
2024/06/03 12:05:00.000   28.304769374  -16.501544240  2380.9332   1   7   0.0012   0.0010   0.0105  -0.0007   0.0021  -0.0024   0.00   43.8
2024/06/03 12:05:01.000   28.304769374  -16.501544240  2380.9330   1   7   0.0012   0.0010   0.0105  -0.0007   0.0021  -0.0023   1.00    6.3
2024/06/03 12:05:02.000   28.304769374  -16.501544240  2380.9333   1   7   0.0012   0.0010   0.0105  -0.0007   0.0021  -0.0023   2.00   10.9
2024/06/03 12:05:03.000   28.304769374  -16.501544240  2380.9332   1   7   0.0012   0.0010   0.0105  -0.0007   0.0021  -0.0023   3.00   14.8
2024/06/03 12:05:04.000   28.304769374  -16.501544240  2380.9334   1   7   0.0012   0.0010   0.0105  -0.0007   0.0021  -0.0023   4.00   17.8
2024/06/03 12:05:05.000   28.304769374  -16.501544240  2380.9337   1   7   0.0012   0.0010   0.0105  -0.0007   0.0021  -0.0023   5.00   20.3
2024/06/03 12:05:06.000   28.304769373  -16.501544240  2380.9336   1   7   0.0012   0.0010   0.0105  -0.0007   0.0021  -0.0023   6.00   22.5
2024/06/03 12:05:07.000   28.304769373  -16.501544240  2380.9332   1   7   0.0012   0.0010   0.0105  -0.0007   0.0021  -0.0023   7.00   24.5
2024/06/03 12:05:08.000   28.304769373  -16.501544240  2380.9329   1   7   0.0012   0.0010   0.0105  -0.0007   0.0021  -0.0023   8.00   26.1
2024/06/03 12:05:09.000   28.304769373  -16.501544240  2380.9328   1   7   0.0012   0.0010   0.0105  -0.0007   0.0021  -0.0023   9.00   27.4
2024/06/03 12:05:10.000   28.304769374  -16.501544240  2380.9328   1   7   0.0012   0.0010   0.0105  -0.0007   0.0021  -0.0023  10.00   28.5
2024/06/03 12:05:11.000   28.304769374  -16.501544240  2380.9328   1   7   0.0012   0.0010   0.0105  -0.0007   0.0021  -0.0023  11.00   29.5
2024/06/03 12:05:12.000   28.304769374  -16.501544240  2380.9328   1   7   0.0012   0.0010   0.0105  -0.0007   0.0021  -0.0023  12.00   30.3
2024/06/03 12:05:13.000   28.304769374  -16.501544240  2380.9328   1   7   0.0012   0.0010   0.0105  -0.0007   0.0021  -0.0023  13.00   31.1
2024/06/03 12:05:14.000   28.304769374  -16.501544240  2380.9326   1   7   0.0012   0.0010   0.0105  -0.0007   0.0021  -0.0023  14.00   31.9
2024/06/03 12:05:15.000   28.304769374  -16.501544240  2380.9325   1   7   0.0012   0.0010   0.0105  -0.0007   0.0021  -0.0023 -15.00   32.6
2024/06/03 12:05:16.000   28.304769374  -16.501544240  2380.9324   1   7   0.0012   0.0010   0.0105  -0.0007   0.0021  -0.0023 -14.00   33.3
2024/06/03 12:05:17.000   28.304769374  -16.501544240  2380.9324   1   7   0.0012   0.0010   0.0105  -0.0007   0.0021  -0.0023 -13.00   34.1
2024/06/03 12:05:18.000   28.304769374  -16.501544240  2380.9324   1   7   0.0012   0.0010   0.0105  -0.0007   0.0021  -0.0023 -12.00   34.9
2024/06/03 12:05:19.000   28.304769374  -16.501544240  2380.9325   1   7   0.0012   0.0010   0.0105  -0.0007   0.0021  -0.0023 -11.00   35.9
2024/06/03 12:05:20.000   28.304769374  -16.501544240  2380.9327   1   7   0.0012   0.0010   0.0105  -0.0007   0.0021  -0.0023 -10.00   37.0
2024/06/03 12:05:21.000   28.304769374  -16.501544240  2380.9328   1   7   0.0012   0.0010   0.0105  -0.0007   0.0021  -0.0023  -9.00   38.1
2024/06/03 12:05:22.000   28.304769374  -16.501544240  2380.9330   1   7   0.0012   0.0010   0.0105  -0.0007   0.0021  -0.0023  -8.00   39.5
2024/06/03 12:05:23.000   28.304769374  -16.501544240  2380.9332   1   7   0.0012   0.0010   0.0105  -0.0007   0.0021  -0.0023  -7.00   41.0
2024/06/03 12:05:24.000   28.304769374  -16.501544240  2380.9336   1   7   0.0012   0.0010   0.0105  -0.0007   0.0021  -0.0023  -6.00   42.6
2024/06/03 12:05:25.000   28.304769374  -16.501544240  2380.9340   1   7   0.0012   0.0010   0.0105  -0.0007   0.0021  -0.0023  -5.00   44.4
2024/06/03 12:05:26.000   28.304769373  -16.501544240  2380.9342   1   7   0.0012   0.0010   0.0105  -0.0007   0.0021  -0.0023  -4.00   46.8
2024/06/03 12:05:27.000   28.304769373  -16.501544239  2380.9343   1   7   0.0012   0.0010   0.0105  -0.0007   0.0021  -0.0023  -3.00   48.2
2024/06/03 12:05:28.000   28.304769373  -16.501544239  2380.9343   1   7   0.0012   0.0010   0.0105  -0.0007   0.0021  -0.0023  -2.00   48.3
2024/06/03 12:05:29.000   28.304769373  -16.501544239  2380.9345   1   7   0.0012   0.0010   0.0105  -0.0007   0.0021  -0.0023  -1.00   48.4
2024/06/03 12:05:30.000   28.304769373  -16.501544239  2380.9348   1   7   0.0012   0.0010   0.0105  -0.0007   0.0021  -0.0024   0.00   48.5
2024/06/03 12:05:31.000   28.304769373  -16.501544240  2380.9347   1   7   0.0012   0.0010   0.0105  -0.0007   0.0021  -0.0023   1.00    5.9
2024/06/03 12:05:32.000   28.304769373  -16.501544240  2380.9345   1   7   0.0012   0.0010   0.0105  -0.0007   0.0021  -0.0023   2.00   10.1
2024/06/03 12:05:33.000   28.304769373  -16.501544240  2380.9345   1   7   0.0012   0.0010   0.0105  -0.0007   0.0021  -0.0023   3.00   13.6
2024/06/03 12:05:34.000   28.304769373  -16.501544240  2380.9349   1   7   0.0012   0.0010   0.0105  -0.0007   0.0021  -0.0023   4.00   16.3
2024/06/03 12:05:35.000   28.304769373  -16.501544240  2380.9351   1   7   0.0012   0.0010   0.0105  -0.0007   0.0021  -0.0023   5.00   18.7
2024/06/03 12:05:36.000   28.304769372  -16.501544240  2380.9354   1   7   0.0012   0.0010   0.0105  -0.0007   0.0021  -0.0023   6.00   20.7
2024/06/03 12:05:37.000   28.304769372  -16.501544240  2380.9356   1   7   0.0012   0.0010   0.0105  -0.0007   0.0021  -0.0023   7.00   22.4
2024/06/03 12:05:38.000   28.304769372  -16.501544240  2380.9357   1   7   0.0012   0.0010   0.0105  -0.0007   0.0021  -0.0023   8.00   23.8
2024/06/03 12:05:39.000   28.304769372  -16.501544240  2380.9357   1   7   0.0012   0.0010   0.0105  -0.0007   0.0021  -0.0023   9.00   25.1
2024/06/03 12:05:40.000   28.304769372  -16.501544240  2380.9357   1   7   0.0012   0.0010   0.0105  -0.0007   0.0021  -0.0023  10.00   26.2
2024/06/03 12:05:41.000   28.304769372  -16.501544240  2380.9357   1   7   0.0012   0.0010   0.0105  -0.0007   0.0021  -0.0023  11.00   27.1
2024/06/03 12:05:42.000   28.304769372  -16.501544240  2380.9356   1   7   0.0012   0.0010   0.0104  -0.0007   0.0021  -0.0023  12.00   28.0
2024/06/03 12:05:43.000   28.304769372  -16.501544240  2380.9356   1   7   0.0012   0.0010   0.0104  -0.0007   0.0021  -0.0023  13.00   28.8
2024/06/03 12:05:44.000   28.304769372  -16.501544240  2380.9356   1   7   0.0012   0.0010   0.0104  -0.0007   0.0021  -0.0023  14.00   29.5
2024/06/03 12:05:45.000   28.304769372  -16.501544240  2380.9356   1   7   0.0012   0.0010   0.0104  -0.0007   0.0021  -0.0023 -15.00   30.1
2024/06/03 12:05:46.000   28.304769372  -16.501544240  2380.9357   1   7   0.0012   0.0010   0.0104  -0.0007   0.0021  -0.0023 -14.00   30.7
2024/06/03 12:05:47.000   28.304769372  -16.501544240  2380.9358   1   7   0.0012   0.0010   0.0104  -0.0007   0.0021  -0.0023 -13.00   31.5
2024/06/03 12:05:48.000   28.304769372  -16.501544240  2380.9359   1   7   0.0012   0.0010   0.0104  -0.0007   0.0021  -0.0023 -12.00   32.3
2024/06/03 12:05:49.000   28.304769372  -16.501544240  2380.9359   1   7   0.0012   0.0010   0.0104  -0.0007   0.0021  -0.0023 -11.00   33.2
2024/06/03 12:05:50.000   28.304769372  -16.501544240  2380.9358   1   7   0.0012   0.0010   0.0104  -0.0007   0.0021  -0.0023 -10.00   34.3
2024/06/03 12:05:51.000   28.304769372  -16.501544240  2380.9359   1   7   0.0012   0.0010   0.0104  -0.0007   0.0021  -0.0023  -9.00   35.5
2024/06/03 12:05:52.000   28.304769372  -16.501544240  2380.9360   1   7   0.0012   0.0010   0.0104  -0.0007   0.0021  -0.0023  -8.00   36.8
2024/06/03 12:05:53.000   28.304769372  -16.501544240  2380.9362   1   7   0.0012   0.0010   0.0104  -0.0007   0.0021  -0.0023  -7.00   38.3
2024/06/03 12:05:54.000   28.304769372  -16.501544240  2380.9364   1   7   0.0012   0.0010   0.0104  -0.0007   0.0021  -0.0023  -6.00   40.0
2024/06/03 12:05:55.000   28.304769372  -16.501544240  2380.9367   1   7   0.0012   0.0010   0.0104  -0.0007   0.0021  -0.0023  -5.00   41.9
2024/06/03 12:05:56.000   28.304769372  -16.501544240  2380.9367   1   7   0.0012   0.0010   0.0104  -0.0007   0.0021  -0.0023  -4.00   44.4
2024/06/03 12:05:57.000   28.304769372  -16.501544240  2380.9364   1   7   0.0012   0.0010   0.0104  -0.0007   0.0021  -0.0023  -3.00   47.2
2024/06/03 12:05:58.000   28.304769372  -16.501544240  2380.9365   1   7   0.0012   0.0010   0.0104  -0.0007   0.0021  -0.0023  -2.00   50.1
2024/06/03 12:05:59.000   28.304769373  -16.501544240  2380.9367   1   7   0.0012   0.0010   0.0104  -0.0007   0.0021  -0.0023  -1.00   53.1
2024/06/03 12:06:00.000   28.304769372  -16.501544240  2380.9371   1   7   0.0012   0.0010   0.0104  -0.0007   0.0021  -0.0024   0.00   55.3
2024/06/03 12:06:01.000   28.304769372  -16.501544240  2380.9372   1   7   0.0012   0.0010   0.0104  -0.0007   0.0021  -0.0023   1.00    5.6
2024/06/03 12:06:02.000   28.304769372  -16.501544240  2380.9371   1   7   0.0012   0.0010   0.0104  -0.0007   0.0021  -0.0023   2.00    9.9
2024/06/03 12:06:03.000   28.304769372  -16.501544240  2380.9373   1   7   0.0012   0.0010   0.0104  -0.0007   0.0021  -0.0023   3.00   13.2
2024/06/03 12:06:04.000   28.304769371  -16.501544240  2380.9375   1   7   0.0012   0.0010   0.0104  -0.0007   0.0021  -0.0023   4.00   16.2
2024/06/03 12:06:05.000   28.304769371  -16.501544240  2380.9378   1   7   0.0012   0.0010   0.0104  -0.0007   0.0021  -0.0023   5.00   18.6
2024/06/03 12:06:06.000   28.304769371  -16.501544240  2380.9379   1   7   0.0012   0.0010   0.0104  -0.0007   0.0021  -0.0023   6.00   20.7
2024/06/03 12:06:07.000   28.304769371  -16.501544240  2380.9377   1   7   0.0012   0.0010   0.0104  -0.0007   0.0021  -0.0023   7.00   22.6
2024/06/03 12:06:08.000   28.304769371  -16.501544240  2380.9375   1   7   0.0012   0.0010   0.0104  -0.0007   0.0021  -0.0023   8.00   24.1
2024/06/03 12:06:09.000   28.304769371  -16.501544240  2380.9373   1   7   0.0012   0.0010   0.0104  -0.0007   0.0021  -0.0023   9.00   25.4
2024/06/03 12:06:10.000   28.304769371  -16.501544240  2380.9371   1   7   0.0012   0.0010   0.0104  -0.0007   0.0021  -0.0023  10.00   26.6
2024/06/03 12:06:11.000   28.304769371  -16.501544240  2380.9369   1   7   0.0012   0.0010   0.0104  -0.0007   0.0021  -0.0023  11.00   27.6
2024/06/03 12:06:12.000   28.304769371  -16.501544240  2380.9369   1   7   0.0012   0.0010   0.0104  -0.0007   0.0021  -0.0023  12.00   28.5
2024/06/03 12:06:13.000   28.304769371  -16.501544240  2380.9369   1   7   0.0012   0.0010   0.0104  -0.0007   0.0021  -0.0023  13.00   29.3
2024/06/03 12:06:14.000   28.304769371  -16.501544240  2380.9370   1   7   0.0012   0.0010   0.0104  -0.0007   0.0021  -0.0023  14.00   30.0
2024/06/03 12:06:15.000   28.304769371  -16.501544240  2380.9371   1   7   0.0012   0.0010   0.0104  -0.0007   0.0021  -0.0023 -15.00   30.6
2024/06/03 12:06:16.000   28.304769371  -16.501544240  2380.9371   1   7   0.0012   0.0010   0.0104  -0.0007   0.0021  -0.0023 -14.00   31.4
2024/06/03 12:06:17.000   28.304769371  -16.501544240  2380.9372   1   7   0.0012   0.0010   0.0104  -0.0007   0.0021  -0.0023 -13.00   32.2
2024/06/03 12:06:18.000   28.304769371  -16.501544240  2380.9373   1   7   0.0012   0.0010   0.0104  -0.0007   0.0021  -0.0023 -12.00   33.1
2024/06/03 12:06:19.000   28.304769371  -16.501544240  2380.9372   1   7   0.0012   0.0010   0.0104  -0.0007   0.0021  -0.0023 -11.00   34.1
2024/06/03 12:06:20.000   28.304769371  -16.501544240  2380.9372   1   7   0.0012   0.0010   0.0104  -0.0007   0.0021  -0.0023 -10.00   35.2
2024/06/03 12:06:21.000   28.304769371  -16.501544240  2380.9371   1   7   0.0012   0.0010   0.0104  -0.0007   0.0021  -0.0023  -9.00   36.5
2024/06/03 12:06:22.000   28.304769371  -16.501544240  2380.9372   1   7   0.0012   0.0010   0.0104  -0.0007   0.0021  -0.0023  -8.00   37.9
2024/06/03 12:06:23.000   28.304769371  -16.501544240  2380.9372   1   7   0.0012   0.0010   0.0104  -0.0007   0.0021  -0.0023  -7.00   39.6
2024/06/03 12:06:24.000   28.304769371  -16.501544240  2380.9372   1   7   0.0012   0.0010   0.0104  -0.0007   0.0021  -0.0023  -6.00   41.6
2024/06/03 12:06:25.000   28.304769371  -16.501544240  2380.9372   1   7   0.0012   0.0010   0.0104  -0.0007   0.0021  -0.0023  -5.00   43.8
2024/06/03 12:06:26.000   28.304769371  -16.501544240  2380.9372   1   7   0.0012   0.0010   0.0104  -0.0007   0.0021  -0.0023  -4.00   46.5
2024/06/03 12:06:27.000   28.304769371  -16.501544240  2380.9372   1   7   0.0012   0.0010   0.0104  -0.0007   0.0021  -0.0023  -3.00   49.5
2024/06/03 12:06:28.000   28.304769371  -16.501544240  2380.9372   1   7   0.0012   0.0010   0.0104  -0.0007   0.0021  -0.0023  -2.00   52.6
2024/06/03 12:06:29.000   28.304769371  -16.501544240  2380.9376   1   7   0.0012   0.0010   0.0104  -0.0007   0.0021  -0.0023  -1.00   55.9
2024/06/03 12:06:30.000   28.304769369  -16.501544239  2380.9375   1   7   0.0012   0.0010   0.0104  -0.0007   0.0021  -0.0023   0.00   59.1
2024/06/03 12:06:31.000   28.304769369  -16.501544239  2380.9379   1   7   0.0012   0.0010   0.0104  -0.0007   0.0021  -0.0023   1.00    5.9
2024/06/03 12:06:32.000   28.304769369  -16.501544239  2380.9382   1   7   0.0012   0.0010   0.0104  -0.0007   0.0021  -0.0023   2.00   10.1
2024/06/03 12:06:33.000   28.304769368  -16.501544239  2380.9384   1   7   0.0012   0.0010   0.0104  -0.0007   0.0021  -0.0023   3.00   13.4
2024/06/03 12:06:34.000   28.304769368  -16.501544239  2380.9386   1   7   0.0012   0.0010   0.0104  -0.0007   0.0021  -0.0023   4.00   16.2
2024/06/03 12:06:35.000   28.304769367  -16.501544239  2380.9385   1   7   0.0012   0.0010   0.0104  -0.0007   0.0021  -0.0023   5.00   18.5
2024/06/03 12:06:36.000   28.304769367  -16.501544239  2380.9382   1   7   0.0012   0.0010   0.0104  -0.0007   0.0021  -0.0023   6.00   20.3
2024/06/03 12:06:37.000   28.304769367  -16.501544239  2380.9382   1   7   0.0012   0.0010   0.0104  -0.0007   0.0021  -0.0023   7.00   21.8
2024/06/03 12:06:38.000   28.304769367  -16.501544239  2380.9380   1   7   0.0012   0.0010   0.0104  -0.0007   0.0021  -0.0023   8.00   23.1
2024/06/03 12:06:39.000   28.304769367  -16.501544239  2380.9379   1   7   0.0012   0.0010   0.0104  -0.0007   0.0021  -0.0023   9.00   24.3
2024/06/03 12:06:40.000   28.304769367  -16.501544239  2380.9378   1   7   0.0012   0.0010   0.0104  -0.0007   0.0021  -0.0023  10.00   25.2
2024/06/03 12:06:41.000   28.304769367  -16.501544239  2380.9380   1   7   0.0012   0.0010   0.0104  -0.0007   0.0021  -0.0023  11.00   26.1
2024/06/03 12:06:42.000   28.304769367  -16.501544239  2380.9381   1   7   0.0012   0.0010   0.0104  -0.0007   0.0021  -0.0023  12.00   26.9
2024/06/03 12:06:43.000   28.304769367  -16.501544239  2380.9383   1   7   0.0012   0.0010   0.0104  -0.0007   0.0021  -0.0023  13.00   27.6
2024/06/03 12:06:44.000   28.304769366  -16.501544239  2380.9384   1   7   0.0012   0.0010   0.0104  -0.0007   0.0021  -0.0023  14.00   28.3
2024/06/03 12:06:45.000   28.304769366  -16.501544239  2380.9385   1   7   0.0012   0.0010   0.0104  -0.0007   0.0021  -0.0023 -15.00   28.8
2024/06/03 12:06:46.000   28.304769366  -16.501544239  2380.9386   1   7   0.0012   0.0010   0.0104  -0.0007   0.0021  -0.0023 -14.00   29.5
2024/06/03 12:06:47.000   28.304769366  -16.501544239  2380.9388   1   7   0.0012   0.0010   0.0104  -0.0007   0.0021  -0.0023 -13.00   30.2
2024/06/03 12:06:48.000   28.304769366  -16.501544239  2380.9388   1   7   0.0012   0.0010   0.0104  -0.0007   0.0021  -0.0023 -12.00   31.0
2024/06/03 12:06:49.000   28.304769366  -16.501544239  2380.9388   1   7   0.0012   0.0010   0.0104  -0.0007   0.0021  -0.0023 -11.00   32.0
2024/06/03 12:06:50.000   28.304769366  -16.501544239  2380.9387   1   7   0.0012   0.0010   0.0104  -0.0007   0.0021  -0.0023 -10.00   33.1
2024/06/03 12:06:51.000   28.304769366  -16.501544239  2380.9386   1   7   0.0012   0.0010   0.0104  -0.0007   0.0021  -0.0023  -9.00   34.5
2024/06/03 12:06:52.000   28.304769366  -16.501544239  2380.9385   1   7   0.0012   0.0010   0.0104  -0.0007   0.0021  -0.0023  -8.00   36.0
2024/06/03 12:06:53.000   28.304769366  -16.501544239  2380.9386   1   7   0.0012   0.0010   0.0104  -0.0007   0.0021  -0.0023  -7.00   37.8
2024/06/03 12:06:54.000   28.304769366  -16.501544239  2380.9388   1   7   0.0012   0.0010   0.0104  -0.0007   0.0021  -0.0023  -6.00   39.7
2024/06/03 12:06:55.000   28.304769366  -16.501544239  2380.9390   1   7   0.0012   0.0010   0.0104  -0.0007   0.0021  -0.0023  -5.00   41.9
2024/06/03 12:06:56.000   28.304769366  -16.501544239  2380.9390   1   7   0.0012   0.0010   0.0104  -0.0007   0.0021  -0.0023  -4.00   44.6
2024/06/03 12:06:57.000   28.304769366  -16.501544239  2380.9388   1   7   0.0012   0.0010   0.0104  -0.0007   0.0021  -0.0023  -3.00   47.6
2024/06/03 12:06:58.000   28.304769366  -16.501544239  2380.9388   1   7   0.0012   0.0010   0.0104  -0.0007   0.0021  -0.0023  -2.00   50.9
2024/06/03 12:06:59.000   28.304769367  -16.501544239  2380.9389   1   7   0.0012   0.0010   0.0104  -0.0007   0.0021  -0.0023  -1.00   54.7
2024/06/03 12:07:00.000   28.304769366  -16.501544239  2380.9390   1   7   0.0012   0.0010   0.0104  -0.0007   0.0021  -0.0023   0.00   58.6
2024/06/03 12:07:01.000   28.304769369  -16.501544240  2380.9398   1   7   0.0012   0.0010   0.0104  -0.0007   0.0021  -0.0023   1.00    5.9
2024/06/03 12:07:02.000   28.304769369  -16.501544240  2380.9401   1   7   0.0012   0.0010   0.0104  -0.0007   0.0021  -0.0023   2.00   10.3
2024/06/03 12:07:03.000   28.304769369  -16.501544240  2380.9404   1   7   0.0012   0.0010   0.0104  -0.0007   0.0021  -0.0023   3.00   13.9
2024/06/03 12:07:04.000   28.304769369  -16.501544240  2380.9406   1   7   0.0012   0.0010   0.0104  -0.0007   0.0021  -0.0023   4.00   17.1
2024/06/03 12:07:05.000   28.304769369  -16.501544240  2380.9409   1   7   0.0012   0.0010   0.0104  -0.0007   0.0021  -0.0023   5.00   19.6
2024/06/03 12:07:06.000   28.304769369  -16.501544240  2380.9410   1   7   0.0012   0.0010   0.0104  -0.0007   0.0021  -0.0023   6.00   21.7
2024/06/03 12:07:07.000   28.304769369  -16.501544240  2380.9413   1   7   0.0012   0.0010   0.0104  -0.0007   0.0021  -0.0023   7.00   23.5
2024/06/03 12:07:08.000   28.304769369  -16.501544240  2380.9415   1   7   0.0012   0.0010   0.0104  -0.0007   0.0021  -0.0023   8.00   24.9
2024/06/03 12:07:09.000   28.304769369  -16.501544240  2380.9415   1   7   0.0012   0.0010   0.0104  -0.0007   0.0021  -0.0023   9.00   26.3
2024/06/03 12:07:10.000   28.304769370  -16.501544240  2380.9415   1   7   0.0012   0.0010   0.0103  -0.0007   0.0021  -0.0023  10.00   27.4
2024/06/03 12:07:11.000   28.304769370  -16.501544240  2380.9414   1   7   0.0012   0.0010   0.0103  -0.0007   0.0021  -0.0023  11.00   28.4
2024/06/03 12:07:12.000   28.304769370  -16.501544240  2380.9413   1   7   0.0012   0.0010   0.0103  -0.0007   0.0021  -0.0023  12.00   29.4
2024/06/03 12:07:13.000   28.304769370  -16.501544240  2380.9411   1   7   0.0012   0.0010   0.0103  -0.0007   0.0021  -0.0023  13.00   30.3
2024/06/03 12:07:14.000   28.304769370  -16.501544240  2380.9410   1   7   0.0012   0.0010   0.0103  -0.0007   0.0021  -0.0023  14.00   31.1
2024/06/03 12:07:15.000   28.304769370  -16.501544241  2380.9409   1   7   0.0012   0.0010   0.0103  -0.0007   0.0021  -0.0023 -15.00   31.8
2024/06/03 12:07:16.000   28.304769370  -16.501544241  2380.9408   1   7   0.0012   0.0010   0.0103  -0.0007   0.0021  -0.0023 -14.00   32.5
2024/06/03 12:07:17.000   28.304769370  -16.501544241  2380.9407   1   7   0.0012   0.0010   0.0103  -0.0007   0.0021  -0.0023 -13.00   33.4
2024/06/03 12:07:18.000   28.304769370  -16.501544241  2380.9406   1   7   0.0012   0.0010   0.0103  -0.0007   0.0021  -0.0023 -12.00   34.4
2024/06/03 12:07:19.000   28.304769370  -16.501544241  2380.9406   1   7   0.0012   0.0010   0.0103  -0.0007   0.0021  -0.0023 -11.00   35.5
2024/06/03 12:07:20.000   28.304769370  -16.501544241  2380.9405   1   7   0.0012   0.0010   0.0103  -0.0007   0.0021  -0.0023 -10.00   36.8
2024/06/03 12:07:21.000   28.304769371  -16.501544241  2380.9405   1   7   0.0012   0.0010   0.0103  -0.0007   0.0021  -0.0023  -9.00   38.2
2024/06/03 12:07:22.000   28.304769370  -16.501544241  2380.9406   1   7   0.0012   0.0010   0.0103  -0.0007   0.0021  -0.0023  -8.00   39.9
2024/06/03 12:07:23.000   28.304769370  -16.501544241  2380.9406   1   7   0.0012   0.0010   0.0103  -0.0007   0.0021  -0.0023  -7.00   41.7
2024/06/03 12:07:24.000   28.304769370  -16.501544241  2380.9407   1   7   0.0012   0.0010   0.0103  -0.0007   0.0021  -0.0023  -6.00   43.9
2024/06/03 12:07:25.000   28.304769370  -16.501544241  2380.9407   1   7   0.0012   0.0010   0.0103  -0.0007   0.0021  -0.0023  -5.00   46.4
2024/06/03 12:07:26.000   28.304769370  -16.501544241  2380.9408   1   7   0.0012   0.0010   0.0103  -0.0007   0.0021  -0.0023  -4.00   49.3
2024/06/03 12:07:27.000   28.304769370  -16.501544241  2380.9405   1   7   0.0012   0.0010   0.0103  -0.0007   0.0021  -0.0023  -3.00   52.5
2024/06/03 12:07:28.000   28.304769370  -16.501544241  2380.9401   1   7   0.0012   0.0010   0.0103  -0.0007   0.0021  -0.0023  -2.00   55.9
2024/06/03 12:07:29.000   28.304769371  -16.501544241  2380.9402   1   7   0.0012   0.0010   0.0103  -0.0007   0.0021  -0.0023  -1.00   59.1
2024/06/03 12:07:30.000   28.304769368  -16.501544240  2380.9396   1   7   0.0012   0.0010   0.0103  -0.0007   0.0021  -0.0023   0.00   62.6
2024/06/03 12:07:31.000   28.304769368  -16.501544240  2380.9397   1   7   0.0012   0.0010   0.0103  -0.0007   0.0021  -0.0023   1.00    6.0
2024/06/03 12:07:32.000   28.304769368  -16.501544240  2380.9401   1   7   0.0012   0.0010   0.0103  -0.0007   0.0021  -0.0023   2.00   10.4
2024/06/03 12:07:33.000   28.304769368  -16.501544240  2380.9405   1   7   0.0012   0.0010   0.0103  -0.0007   0.0021  -0.0023   3.00   14.2
2024/06/03 12:07:34.000   28.304769368  -16.501544240  2380.9405   1   7   0.0012   0.0010   0.0103  -0.0007   0.0021  -0.0023   4.00   17.2
2024/06/03 12:07:35.000   28.304769368  -16.501544240  2380.9405   1   7   0.0012   0.0010   0.0103  -0.0007   0.0021  -0.0023   5.00   19.8
2024/06/03 12:07:36.000   28.304769368  -16.501544240  2380.9406   1   7   0.0012   0.0010   0.0103  -0.0007   0.0021  -0.0023   6.00   21.9
2024/06/03 12:07:37.000   28.304769368  -16.501544240  2380.9408   1   7   0.0012   0.0010   0.0103  -0.0007   0.0021  -0.0023   7.00   23.8
2024/06/03 12:07:38.000   28.304769368  -16.501544240  2380.9408   1   7   0.0012   0.0010   0.0103  -0.0007   0.0021  -0.0023   8.00   25.4
2024/06/03 12:07:39.000   28.304769368  -16.501544240  2380.9409   1   7   0.0012   0.0010   0.0103  -0.0007   0.0021  -0.0023   9.00   26.8
2024/06/03 12:07:40.000   28.304769367  -16.501544240  2380.9412   1   7   0.0012   0.0010   0.0103  -0.0007   0.0021  -0.0023  10.00   28.0
2024/06/03 12:07:41.000   28.304769367  -16.501544240  2380.9413   1   7   0.0012   0.0010   0.0103  -0.0007   0.0021  -0.0023  11.00   29.0
2024/06/03 12:07:42.000   28.304769367  -16.501544240  2380.9414   1   7   0.0012   0.0010   0.0103  -0.0007   0.0021  -0.0023  12.00   29.9
2024/06/03 12:07:43.000   28.304769367  -16.501544240  2380.9415   1   7   0.0012   0.0010   0.0103  -0.0007   0.0021  -0.0023  13.00   30.7
2024/06/03 12:07:44.000   28.304769367  -16.501544240  2380.9416   1   7   0.0012   0.0010   0.0103  -0.0007   0.0021  -0.0023  14.00   31.5
2024/06/03 12:07:45.000   28.304769367  -16.501544240  2380.9416   1   7   0.0012   0.0010   0.0103  -0.0007   0.0021  -0.0023 -15.00   32.2
2024/06/03 12:07:46.000   28.304769367  -16.501544240  2380.9416   1   7   0.0012   0.0010   0.0103  -0.0007   0.0021  -0.0023 -14.00   32.9
2024/06/03 12:07:47.000   28.304769367  -16.501544240  2380.9417   1   7   0.0012   0.0010   0.0103  -0.0007   0.0021  -0.0023 -13.00   33.7
2024/06/03 12:07:48.000   28.304769367  -16.501544240  2380.9418   1   7   0.0012   0.0010   0.0103  -0.0007   0.0021  -0.0023 -12.00   34.6
2024/06/03 12:07:49.000   28.304769367  -16.501544240  2380.9418   1   7   0.0012   0.0010   0.0103  -0.0007   0.0021  -0.0023 -11.00   35.5
2024/06/03 12:07:50.000   28.304769367  -16.501544240  2380.9418   1   7   0.0012   0.0010   0.0103  -0.0007   0.0021  -0.0023 -10.00   36.8
2024/06/03 12:07:51.000   28.304769367  -16.501544240  2380.9418   1   7   0.0012   0.0010   0.0103  -0.0007   0.0021  -0.0023  -9.00   38.0
2024/06/03 12:07:52.000   28.304769367  -16.501544240  2380.9419   1   7   0.0012   0.0010   0.0103  -0.0007   0.0021  -0.0023  -8.00   39.4
2024/06/03 12:07:53.000   28.304769367  -16.501544240  2380.9418   1   7   0.0012   0.0010   0.0103  -0.0007   0.0021  -0.0023  -7.00   41.0
2024/06/03 12:07:54.000   28.304769367  -16.501544240  2380.9417   1   7   0.0012   0.0010   0.0103  -0.0007   0.0021  -0.0023  -6.00   42.9
2024/06/03 12:07:55.000   28.304769366  -16.501544240  2380.9416   1   7   0.0012   0.0010   0.0103  -0.0007   0.0021  -0.0023  -5.00   45.0
2024/06/03 12:07:56.000   28.304769366  -16.501544240  2380.9414   1   7   0.0012   0.0010   0.0103  -0.0007   0.0021  -0.0023  -4.00   47.3
2024/06/03 12:07:57.000   28.304769366  -16.501544240  2380.9412   1   7   0.0012   0.0010   0.0103  -0.0007   0.0021  -0.0023  -3.00   50.2
2024/06/03 12:07:58.000   28.304769366  -16.501544240  2380.9411   1   7   0.0012   0.0010   0.0103  -0.0007   0.0021  -0.0023  -2.00   53.2
2024/06/03 12:07:59.000   28.304769366  -16.501544240  2380.9411   1   7   0.0012   0.0010   0.0103  -0.0007   0.0020  -0.0023  -1.00   56.5
2024/06/03 12:08:00.000   28.304769364  -16.501544240  2380.9402   1   7   0.0012   0.0010   0.0103  -0.0006   0.0021  -0.0023   0.00   60.0
2024/06/03 12:08:01.000   28.304769367  -16.501544241  2380.9403   1   7   0.0012   0.0010   0.0103  -0.0007   0.0020  -0.0023   1.00    6.2
2024/06/03 12:08:02.000   28.304769368  -16.501544241  2380.9400   1   7   0.0012   0.0010   0.0103  -0.0007   0.0020  -0.0023   2.00   10.7
2024/06/03 12:08:03.000   28.304769368  -16.501544241  2380.9398   1   7   0.0012   0.0010   0.0103  -0.0007   0.0020  -0.0023   3.00   14.5
2024/06/03 12:08:04.000   28.304769368  -16.501544241  2380.9399   1   7   0.0012   0.0010   0.0103  -0.0007   0.0020  -0.0023   4.00   17.6
2024/06/03 12:08:05.000   28.304769368  -16.501544241  2380.9399   1   7   0.0012   0.0010   0.0103  -0.0007   0.0020  -0.0023   5.00   20.6
2024/06/03 12:08:06.000   28.304769368  -16.501544241  2380.9397   1   7   0.0012   0.0010   0.0103  -0.0007   0.0020  -0.0023   6.00   23.0
2024/06/03 12:08:07.000   28.304769368  -16.501544241  2380.9396   1   7   0.0012   0.0010   0.0103  -0.0007   0.0020  -0.0023   7.00   25.0
2024/06/03 12:08:08.000   28.304769368  -16.501544241  2380.9394   1   7   0.0012   0.0010   0.0103  -0.0007   0.0020  -0.0023   8.00   26.6
2024/06/03 12:08:09.000   28.304769368  -16.501544241  2380.9393   1   7   0.0012   0.0010   0.0103  -0.0007   0.0020  -0.0023   9.00   28.0
