% program   : RTKPOST-EX 2.5.0
% inp file  : C:\Users\SallyHenry\Desktop\Sally Internship\GNSS gravi\DATA\Survey Rover Obs\GUI21.24o
% inp file  : C:\Users\SallyHenry\Desktop\Sally Internship\GNSS gravi\DATA\BaseStations\IZAN\IZAN00ESP_R_20241550000_01D_30S_MO.rnx
% inp file  : C:\Users\SallyHenry\Desktop\Sally Internship\GNSS gravi\DATA\BaseStations\IZAN\IZAN00ESP_R_20241550000_01D_MN.rnx
% inp file  : C:\Users\SallyHenry\Desktop\Sally Internship\GNSS gravi\DATA\aux_files\Survey\IGS0OPSFIN_20241550000_01D_15M_ORB.SP3
% inp file  : C:\Users\SallyHenry\Desktop\Sally Internship\GNSS gravi\DATA\aux_files\Survey\IGS0OPSFIN_20241550000_01D_30S_CLK.CLK
% obs start : 2024/06/03 12:30:06.0 GPST (week2317 131406.0s)
% obs end   : 2024/06/03 12:45:06.0 GPST (week2317 132306.0s)
% pos mode  : Static
% freqs     : L1+L2/E5b
% solution  : Combined-No Phase Reset
% elev mask : 15.0 deg
% dynamics  : on
% tidecorr  : solid
% ionos opt : Estimate TEC
% tropo opt : Estimate ZTD+Grad
% ephemeris : Precise
% navi sys  : GPS GLONASS Galileo QZSS BDS
% amb res   : Fix and Hold
% amb glo   : Fix and Hold
% amb bds   : on
% val thres : 3.0
% antenna1  :                       ( 0.0000  0.0000  1.8000)
% antenna2  :                       ( 0.0000  0.0000  0.0000)
% ref pos   :  28.308069410  -16.499677180  2417.4044
%
% (lat/lon/height=WGS84/ellipsoidal,Q=1:fix,2:float,3:sbas,4:dgps,5:single,6:ppp,ns=# of satellites)
%  GPST                  latitude(deg) longitude(deg)  height(m)   Q  ns   sdn(m)   sde(m)   sdu(m)  sdne(m)  sdeu(m)  sdun(m) age(s)  ratio
2024/06/03 12:30:06.000   28.302652573  -16.492932342  2301.9272   1   7   0.0021   0.0015   0.0151  -0.0005   0.0009  -0.0047   6.00   10.2
2024/06/03 12:30:07.000   28.302652573  -16.492932342  2301.9265   1   7   0.0021   0.0015   0.0151  -0.0005   0.0009  -0.0047   7.00   10.0
2024/06/03 12:30:08.000   28.302652573  -16.492932341  2301.9260   1   7   0.0021   0.0015   0.0151  -0.0005   0.0008  -0.0047   8.00    9.8
2024/06/03 12:30:09.000   28.302652573  -16.492932341  2301.9255   1   7   0.0021   0.0015   0.0151  -0.0005   0.0008  -0.0047   9.00    9.6
2024/06/03 12:30:10.000   28.302652573  -16.492932341  2301.9251   1   7   0.0021   0.0015   0.0151  -0.0005   0.0008  -0.0047  10.00    9.3
2024/06/03 12:30:11.000   28.302652574  -16.492932341  2301.9247   1   7   0.0021   0.0015   0.0152  -0.0005   0.0008  -0.0047  11.00    9.0
2024/06/03 12:30:12.000   28.302652574  -16.492932341  2301.9243   1   7   0.0021   0.0015   0.0152  -0.0005   0.0008  -0.0047  12.00    8.7
2024/06/03 12:30:13.000   28.302652574  -16.492932341  2301.9239   1   7   0.0021   0.0015   0.0152  -0.0005   0.0008  -0.0046  13.00    8.4
2024/06/03 12:30:14.000   28.302652574  -16.492932341  2301.9237   1   7   0.0021   0.0015   0.0152  -0.0005   0.0008  -0.0046  14.00    8.1
2024/06/03 12:30:15.000   28.302652574  -16.492932341  2301.9234   1   7   0.0021   0.0015   0.0152  -0.0005   0.0008  -0.0046  15.00    7.7
2024/06/03 12:30:16.000   28.302652574  -16.492932341  2301.9232   1   7   0.0021   0.0015   0.0152  -0.0005   0.0008  -0.0046 -14.00    7.4
2024/06/03 12:30:17.000   28.302652574  -16.492932341  2301.9229   1   7   0.0021   0.0015   0.0152  -0.0005   0.0008  -0.0046 -13.00    7.0
2024/06/03 12:30:18.000   28.302652574  -16.492932341  2301.9226   1   7   0.0021   0.0015   0.0152  -0.0005   0.0008  -0.0046 -12.00    6.7
2024/06/03 12:30:19.000   28.302652574  -16.492932341  2301.9223   1   7   0.0021   0.0015   0.0152  -0.0005   0.0008  -0.0046 -11.00    6.4
2024/06/03 12:30:20.000   28.302652574  -16.492932341  2301.9219   1   7   0.0021   0.0015   0.0152  -0.0005   0.0008  -0.0046 -10.00    6.0
2024/06/03 12:30:21.000   28.302652575  -16.492932341  2301.9216   1   7   0.0021   0.0015   0.0152  -0.0005   0.0008  -0.0046  -9.00    5.7
2024/06/03 12:30:22.000   28.302652575  -16.492932341  2301.9212   1   7   0.0021   0.0015   0.0152  -0.0005   0.0007  -0.0046  -8.00    5.3
2024/06/03 12:30:23.000   28.302652575  -16.492932341  2301.9207   1   7   0.0021   0.0015   0.0152  -0.0005   0.0007  -0.0046  -7.00    5.0
2024/06/03 12:30:24.000   28.302652575  -16.492932340  2301.9199   1   7   0.0021   0.0015   0.0152  -0.0005   0.0007  -0.0046  -6.00    4.7
2024/06/03 12:30:25.000   28.302652575  -16.492932341  2301.9195   1   7   0.0021   0.0015   0.0152  -0.0005   0.0007  -0.0046  -5.00    4.3
2024/06/03 12:30:26.000   28.302652576  -16.492932341  2301.9190   1   7   0.0021   0.0015   0.0153  -0.0005   0.0007  -0.0046  -4.00    3.9
2024/06/03 12:30:27.000   28.302652578  -16.492932341  2301.9222   1   7   0.0021   0.0015   0.0153  -0.0005   0.0006  -0.0046  -3.00    5.7
2024/06/03 12:30:28.000   28.302652579  -16.492932342  2301.9229   1   7   0.0021   0.0015   0.0154  -0.0005   0.0006  -0.0046  -2.00    5.2
2024/06/03 12:30:29.000   28.302652583  -16.492932344  2301.9297   1   7   0.0021   0.0015   0.0158  -0.0005   0.0002  -0.0046  -1.00    8.8
2024/06/03 12:30:30.000   28.302652577  -16.492932348  2301.9422   1   7   0.0021   0.0015   0.0155  -0.0005   0.0006  -0.0045   0.00   56.4
2024/06/03 12:30:31.000   28.302652577  -16.492932348  2301.9417   1   6   0.0021   0.0015   0.0155  -0.0005   0.0006  -0.0045   1.00   55.1
2024/06/03 12:30:32.000   28.302652578  -16.492932348  2301.9411   1   6   0.0021   0.0015   0.0156  -0.0005   0.0006  -0.0045   2.00   54.2
2024/06/03 12:30:33.000   28.302652578  -16.492932349  2301.9405   1   6   0.0021   0.0015   0.0156  -0.0005   0.0006  -0.0045   3.00   52.9
2024/06/03 12:30:34.000   28.302652578  -16.492932349  2301.9399   1   6   0.0021   0.0015   0.0156  -0.0005   0.0006  -0.0045   4.00   51.5
2024/06/03 12:30:35.000   28.302652579  -16.492932349  2301.9394   1   6   0.0021   0.0015   0.0156  -0.0005   0.0006  -0.0045   5.00   49.7
2024/06/03 12:30:36.000   28.302652579  -16.492932349  2301.9390   1   6   0.0021   0.0015   0.0156  -0.0005   0.0006  -0.0045   6.00   48.1
2024/06/03 12:30:37.000   28.302652579  -16.492932349  2301.9385   1   6   0.0021   0.0015   0.0157  -0.0005   0.0006  -0.0045   7.00   46.8
2024/06/03 12:30:38.000   28.302652579  -16.492932349  2301.9380   1   6   0.0021   0.0015   0.0157  -0.0005   0.0006  -0.0045   8.00   45.4
2024/06/03 12:30:39.000   28.302652580  -16.492932349  2301.9376   1   6   0.0021   0.0015   0.0157  -0.0005   0.0005  -0.0045   9.00   44.3
2024/06/03 12:30:40.000   28.302652580  -16.492932349  2301.9372   1   6   0.0021   0.0015   0.0157  -0.0005   0.0005  -0.0045  10.00   43.0
2024/06/03 12:30:41.000   28.302652580  -16.492932349  2301.9369   1   6   0.0021   0.0015   0.0157  -0.0005   0.0005  -0.0045  11.00   41.9
2024/06/03 12:30:42.000   28.302652580  -16.492932349  2301.9366   1   6   0.0021   0.0015   0.0157  -0.0005   0.0005  -0.0045  12.00   40.8
2024/06/03 12:30:43.000   28.302652580  -16.492932349  2301.9363   1   6   0.0021   0.0015   0.0157  -0.0005   0.0005  -0.0045  13.00   39.8
2024/06/03 12:30:44.000   28.302652581  -16.492932349  2301.9360   1   6   0.0021   0.0015   0.0157  -0.0005   0.0005  -0.0045  14.00   38.9
2024/06/03 12:30:45.000   28.302652581  -16.492932349  2301.9358   1   6   0.0021   0.0015   0.0157  -0.0005   0.0005  -0.0045  15.00   37.9
2024/06/03 12:30:46.001   28.302652581  -16.492932349  2301.9356   1   6   0.0021   0.0015   0.0157  -0.0005   0.0005  -0.0045 -14.00   37.1
2024/06/03 12:30:47.000   28.302652581  -16.492932349  2301.9354   1   6   0.0021   0.0015   0.0157  -0.0005   0.0005  -0.0045 -13.00   36.1
2024/06/03 12:30:48.000   28.302652581  -16.492932349  2301.9352   1   6   0.0021   0.0015   0.0157  -0.0005   0.0004  -0.0045 -12.00   35.0
2024/06/03 12:30:49.000   28.302652581  -16.492932349  2301.9350   1   6   0.0021   0.0015   0.0157  -0.0005   0.0004  -0.0045 -11.00   33.9
2024/06/03 12:30:50.000   28.302652581  -16.492932349  2301.9349   1   6   0.0021   0.0015   0.0157  -0.0005   0.0004  -0.0045 -10.00   32.5
2024/06/03 12:30:51.000   28.302652581  -16.492932349  2301.9345   1   6   0.0021   0.0015   0.0157  -0.0005   0.0004  -0.0045  -9.00   31.2
2024/06/03 12:30:52.000   28.302652582  -16.492932349  2301.9341   1   6   0.0021   0.0015   0.0157  -0.0005   0.0004  -0.0045  -8.00   29.7
2024/06/03 12:30:53.000   28.302652582  -16.492932349  2301.9339   1   6   0.0021   0.0015   0.0157  -0.0005   0.0003  -0.0045  -7.00   27.9
2024/06/03 12:30:54.000   28.302652582  -16.492932349  2301.9337   1   6   0.0021   0.0015   0.0157  -0.0005   0.0003  -0.0045  -6.00   25.9
2024/06/03 12:30:55.000   28.302652582  -16.492932349  2301.9332   1   6   0.0021   0.0015   0.0158  -0.0005   0.0003  -0.0045  -5.00   23.6
2024/06/03 12:30:56.000   28.302652582  -16.492932348  2301.9324   1   6   0.0021   0.0015   0.0158  -0.0005   0.0002  -0.0046  -4.00   20.8
2024/06/03 12:30:57.000   28.302652583  -16.492932348  2301.9314   1   6   0.0021   0.0015   0.0158  -0.0005   0.0002  -0.0046  -3.00   17.5
2024/06/03 12:30:58.000   28.302652583  -16.492932348  2301.9310   1   6   0.0021   0.0015   0.0158  -0.0005  -0.0001  -0.0046  -2.00   13.7
2024/06/03 12:30:59.000   28.302652583  -16.492932348  2301.9303   1   6   0.0021   0.0015   0.0159  -0.0005  -0.0002  -0.0046  -1.00    8.4
2024/06/03 12:31:00.000   28.302652577  -16.492932353  2301.9429   1   6   0.0021   0.0015   0.0155  -0.0005   0.0006  -0.0045   0.00   44.4
2024/06/03 12:31:01.000   28.302652577  -16.492932353  2301.9420   1   6   0.0021   0.0015   0.0156  -0.0005   0.0006  -0.0045   1.00   44.5
2024/06/03 12:31:02.000   28.302652578  -16.492932353  2301.9412   1   6   0.0021   0.0015   0.0156  -0.0005   0.0006  -0.0045   2.00   44.3
2024/06/03 12:31:03.000   28.302652578  -16.492932352  2301.9404   1   6   0.0021   0.0015   0.0156  -0.0005   0.0006  -0.0045   3.00   43.9
2024/06/03 12:31:04.000   28.302652578  -16.492932352  2301.9399   1   6   0.0021   0.0015   0.0156  -0.0005   0.0006  -0.0045   4.00   43.4
2024/06/03 12:31:05.000   28.302652578  -16.492932352  2301.9393   1   6   0.0021   0.0015   0.0157  -0.0005   0.0006  -0.0045   5.00   42.9
2024/06/03 12:31:06.000   28.302652578  -16.492932352  2301.9386   1   6   0.0021   0.0015   0.0157  -0.0005   0.0005  -0.0045   6.00   42.3
2024/06/03 12:31:07.000   28.302652578  -16.492932352  2301.9381   1   6   0.0021   0.0015   0.0157  -0.0005   0.0005  -0.0045   7.00   41.8
2024/06/03 12:31:08.000   28.302652578  -16.492932352  2301.9377   1   6   0.0021   0.0015   0.0157  -0.0005   0.0005  -0.0046   8.00   40.7
2024/06/03 12:31:09.000   28.302652578  -16.492932352  2301.9374   1   6   0.0021   0.0015   0.0157  -0.0005   0.0005  -0.0046   9.00   39.7
2024/06/03 12:31:10.000   28.302652578  -16.492932351  2301.9371   1   6   0.0021   0.0015   0.0157  -0.0005   0.0005  -0.0046  10.00   38.6
2024/06/03 12:31:11.000   28.302652578  -16.492932351  2301.9369   1   6   0.0021   0.0015   0.0157  -0.0005   0.0005  -0.0046  11.00   37.5
2024/06/03 12:31:12.000   28.302652578  -16.492932351  2301.9366   1   6   0.0021   0.0015   0.0157  -0.0005   0.0004  -0.0046  12.00   36.7
2024/06/03 12:31:13.000   28.302652579  -16.492932351  2301.9363   1   6   0.0021   0.0015   0.0157  -0.0005   0.0004  -0.0046  13.00   35.9
2024/06/03 12:31:14.000   28.302652579  -16.492932351  2301.9361   1   6   0.0021   0.0015   0.0157  -0.0005   0.0004  -0.0046  14.00   35.3
2024/06/03 12:31:15.000   28.302652579  -16.492932351  2301.9358   1   6   0.0021   0.0015   0.0157  -0.0005   0.0004  -0.0045  15.00   34.7
2024/06/03 12:31:16.000   28.302652579  -16.492932351  2301.9357   1   6   0.0021   0.0015   0.0157  -0.0005   0.0004  -0.0045 -14.00   34.0
2024/06/03 12:31:17.000   28.302652579  -16.492932351  2301.9355   1   6   0.0021   0.0015   0.0157  -0.0005   0.0004  -0.0045 -13.00   33.3
2024/06/03 12:31:18.000   28.302652579  -16.492932351  2301.9352   1   6   0.0021   0.0015   0.0157  -0.0005   0.0004  -0.0045 -12.00   32.5
2024/06/03 12:31:19.000   28.302652579  -16.492932351  2301.9350   1   6   0.0021   0.0015   0.0158  -0.0005   0.0003  -0.0045 -11.00   31.6
2024/06/03 12:31:20.000   28.302652579  -16.492932351  2301.9347   1   6   0.0021   0.0015   0.0158  -0.0005   0.0003  -0.0045 -10.00   30.5
2024/06/03 12:31:21.000   28.302652579  -16.492932351  2301.9345   1   6   0.0021   0.0015   0.0158  -0.0005   0.0003  -0.0045  -9.00   29.1
2024/06/03 12:31:22.000   28.302652580  -16.492932351  2301.9342   1   6   0.0021   0.0015   0.0158  -0.0005   0.0003  -0.0045  -8.00   27.5
2024/06/03 12:31:23.000   28.302652580  -16.492932351  2301.9341   1   6   0.0021   0.0015   0.0158  -0.0005   0.0002  -0.0045  -7.00   25.8
2024/06/03 12:31:24.000   28.302652580  -16.492932351  2301.9334   1   6   0.0021   0.0015   0.0158  -0.0005   0.0002  -0.0045  -6.00   24.0
2024/06/03 12:31:25.000   28.302652580  -16.492932350  2301.9327   1   6   0.0021   0.0015   0.0158  -0.0005  -0.0000  -0.0046  -5.00   21.9
2024/06/03 12:31:26.000   28.302652581  -16.492932350  2301.9321   1   6   0.0021   0.0015   0.0158  -0.0005  -0.0002  -0.0046  -4.00   19.5
2024/06/03 12:31:27.000   28.302652581  -16.492932350  2301.9315   1   6   0.0021   0.0015   0.0159  -0.0005  -0.0002  -0.0046  -3.00   16.5
2024/06/03 12:31:28.000   28.302652581  -16.492932350  2301.9311   1   6   0.0021   0.0015   0.0159  -0.0005  -0.0003  -0.0046  -2.00   12.6
2024/06/03 12:31:29.000   28.302652581  -16.492932350  2301.9303   1   6   0.0021   0.0015   0.0160  -0.0005  -0.0004  -0.0046  -1.00    7.7
2024/06/03 12:31:30.000   28.302652577  -16.492932353  2301.9399   1   6   0.0021   0.0015   0.0157  -0.0005   0.0004  -0.0045   0.00   36.2
2024/06/03 12:31:31.000   28.302652577  -16.492932353  2301.9391   1   6   0.0021   0.0015   0.0157  -0.0005   0.0004  -0.0045   1.00   35.3
2024/06/03 12:31:32.000   28.302652577  -16.492932353  2301.9385   1   6   0.0021   0.0015   0.0158  -0.0005   0.0004  -0.0045   2.00   34.2
2024/06/03 12:31:33.000   28.302652578  -16.492932353  2301.9378   1   6   0.0021   0.0015   0.0158  -0.0005   0.0004  -0.0046   3.00   33.3
2024/06/03 12:31:34.000   28.302652578  -16.492932353  2301.9372   1   6   0.0021   0.0015   0.0158  -0.0005   0.0003  -0.0046   4.00   31.8
2024/06/03 12:31:35.000   28.302652578  -16.492932353  2301.9367   1   6   0.0021   0.0015   0.0158  -0.0005   0.0003  -0.0046   5.00   30.1
2024/06/03 12:31:36.000   28.302652578  -16.492932353  2301.9359   1   6   0.0021   0.0015   0.0159  -0.0005   0.0003  -0.0046   6.00   28.7
2024/06/03 12:31:37.000   28.302652579  -16.492932353  2301.9352   1   6   0.0021   0.0015   0.0159  -0.0005   0.0002  -0.0046   7.00   27.2
2024/06/03 12:31:38.000   28.302652579  -16.492932353  2301.9348   1   6   0.0021   0.0015   0.0159  -0.0005   0.0002  -0.0046   8.00   25.8
2024/06/03 12:31:39.000   28.302652579  -16.492932352  2301.9345   1   6   0.0021   0.0015   0.0159  -0.0005   0.0001  -0.0046   9.00   24.3
2024/06/03 12:31:40.000   28.302652579  -16.492932352  2301.9344   1   6   0.0021   0.0015   0.0159  -0.0005   0.0000  -0.0046  10.00   22.9
2024/06/03 12:31:41.000   28.302652579  -16.492932352  2301.9339   1   6   0.0021   0.0015   0.0159  -0.0005  -0.0001  -0.0046  11.00   21.9
2024/06/03 12:31:42.000   28.302652580  -16.492932352  2301.9336   1   6   0.0021   0.0015   0.0159  -0.0005  -0.0002  -0.0046  12.00   20.7
2024/06/03 12:31:43.000   28.302652580  -16.492932352  2301.9333   1   6   0.0021   0.0015   0.0159  -0.0005  -0.0002  -0.0046  13.00   19.6
2024/06/03 12:31:44.000   28.302652580  -16.492932352  2301.9331   1   6   0.0021   0.0015   0.0160  -0.0005  -0.0002  -0.0046  14.00   18.6
2024/06/03 12:31:45.000   28.302652580  -16.492932352  2301.9330   1   6   0.0021   0.0015   0.0160  -0.0005  -0.0003  -0.0046  15.00   17.5
2024/06/03 12:31:46.000   28.302652580  -16.492932352  2301.9328   1   6   0.0021   0.0015   0.0160  -0.0005  -0.0003  -0.0046 -14.00   16.5
2024/06/03 12:31:47.000   28.302652580  -16.492932352  2301.9326   1   6   0.0021   0.0015   0.0160  -0.0005  -0.0003  -0.0046 -13.00   15.5
2024/06/03 12:31:48.000   28.302652580  -16.492932352  2301.9324   1   6   0.0021   0.0015   0.0160  -0.0005  -0.0004  -0.0046 -12.00   14.3
2024/06/03 12:31:49.000   28.302652581  -16.492932352  2301.9321   1   6   0.0021   0.0015   0.0160  -0.0005  -0.0004  -0.0046 -11.00   13.0
2024/06/03 12:31:50.000   28.302652581  -16.492932352  2301.9317   1   6   0.0021   0.0015   0.0160  -0.0005  -0.0004  -0.0046 -10.00   11.5
2024/06/03 12:31:51.000   28.302652581  -16.492932351  2301.9316   1   6   0.0021   0.0015   0.0160  -0.0005  -0.0004  -0.0046  -9.00    9.6
2024/06/03 12:31:52.000   28.302652581  -16.492932351  2301.9314   1   6   0.0021   0.0015   0.0160  -0.0005  -0.0005  -0.0046  -8.00    7.3
2024/06/03 12:31:53.000   28.302652581  -16.492932351  2301.9310   1   6   0.0021   0.0015   0.0161  -0.0005  -0.0005  -0.0046  -7.00    4.3
2024/06/03 12:31:54.000   28.302652582  -16.492932351  2301.9299   1   6   0.0021   0.0015   0.0161  -0.0004  -0.0006  -0.0046  -6.00  852.2
2024/06/03 12:31:55.000   28.302652582  -16.492932351  2301.9301   1   6   0.0021   0.0015   0.0160  -0.0005  -0.0005  -0.0046  -5.00    5.7
2024/06/03 12:31:56.000   28.302652580  -16.492932353  2301.9344   1   6   0.0021   0.0015   0.0159  -0.0005  -0.0003  -0.0046  -4.00   17.6
2024/06/03 12:31:57.000   28.302652580  -16.492932352  2301.9335   1   6   0.0021   0.0015   0.0159  -0.0005  -0.0004  -0.0046  -3.00   15.0
2024/06/03 12:31:58.000   28.302652581  -16.492932352  2301.9326   1   6   0.0021   0.0015   0.0160  -0.0005  -0.0004  -0.0046  -2.00   10.9
2024/06/03 12:31:59.000   28.302652582  -16.492932352  2301.9310   1   6   0.0021   0.0015   0.0161  -0.0005  -0.0005  -0.0046  -1.00    7.4
2024/06/03 12:32:00.000   28.302652579  -16.492932354  2301.9376   1   6   0.0021   0.0015   0.0156  -0.0005   0.0005  -0.0045   0.00   43.9
2024/06/03 12:32:01.000   28.302652579  -16.492932354  2301.9373   1   6   0.0021   0.0015   0.0156  -0.0005   0.0005  -0.0045   1.00   44.3
2024/06/03 12:32:02.000   28.302652579  -16.492932354  2301.9364   1   6   0.0021   0.0015   0.0157  -0.0005   0.0005  -0.0045   2.00   43.4
2024/06/03 12:32:03.000   28.302652579  -16.492932354  2301.9372   1   6   0.0021   0.0015   0.0157  -0.0005   0.0005  -0.0045   3.00   42.6
2024/06/03 12:32:04.000   28.302652580  -16.492932354  2301.9371   1   6   0.0021   0.0015   0.0157  -0.0005   0.0005  -0.0045   4.00   42.5
2024/06/03 12:32:05.000   28.302652580  -16.492932354  2301.9369   1   6   0.0021   0.0015   0.0158  -0.0005   0.0005  -0.0045   5.00   42.2
2024/06/03 12:32:06.000   28.302652580  -16.492932354  2301.9367   1   6   0.0021   0.0015   0.0158  -0.0005   0.0005  -0.0045   6.00   41.3
2024/06/03 12:32:07.000   28.302652580  -16.492932354  2301.9362   1   6   0.0021   0.0015   0.0158  -0.0005   0.0004  -0.0046   7.00   39.7
2024/06/03 12:32:08.000   28.302652580  -16.492932354  2301.9360   1   6   0.0021   0.0015   0.0158  -0.0005   0.0004  -0.0046   8.00   38.5
2024/06/03 12:32:09.000   28.302652580  -16.492932354  2301.9359   1   6   0.0021   0.0015   0.0158  -0.0005   0.0004  -0.0046   9.00   37.5
2024/06/03 12:32:10.000   28.302652580  -16.492932354  2301.9361   1   6   0.0021   0.0015   0.0158  -0.0005   0.0004  -0.0046  10.00   36.2
2024/06/03 12:32:11.000   28.302652580  -16.492932354  2301.9360   1   6   0.0021   0.0015   0.0158  -0.0005   0.0004  -0.0046  11.00   35.2
2024/06/03 12:32:12.000   28.302652581  -16.492932354  2301.9358   1   6   0.0021   0.0015   0.0158  -0.0005   0.0003  -0.0046  12.00   33.9
2024/06/03 12:32:13.000   28.302652581  -16.492932354  2301.9357   1   6   0.0021   0.0015   0.0158  -0.0005   0.0003  -0.0046  13.00   32.5
2024/06/03 12:32:14.000   28.302652581  -16.492932354  2301.9356   1   6   0.0021   0.0015   0.0158  -0.0005   0.0003  -0.0046  14.00   31.6
2024/06/03 12:32:15.000   28.302652581  -16.492932354  2301.9355   1   6   0.0021   0.0015   0.0158  -0.0005   0.0003  -0.0046  15.00   30.7
2024/06/03 12:32:16.000   28.302652581  -16.492932354  2301.9355   1   6   0.0021   0.0015   0.0158  -0.0005   0.0003  -0.0046 -14.00   29.7
2024/06/03 12:32:17.000   28.302652581  -16.492932354  2301.9356   1   6   0.0021   0.0015   0.0159  -0.0005   0.0002  -0.0046 -13.00   28.6
2024/06/03 12:32:18.000   28.302652581  -16.492932354  2301.9356   1   6   0.0021   0.0015   0.0159  -0.0005   0.0002  -0.0046 -12.00   27.6
2024/06/03 12:32:19.000   28.302652581  -16.492932354  2301.9356   1   6   0.0021   0.0015   0.0159  -0.0005   0.0001  -0.0046 -11.00   26.8
2024/06/03 12:32:20.000   28.302652581  -16.492932354  2301.9356   1   6   0.0021   0.0015   0.0159  -0.0005   0.0001  -0.0046 -10.00   26.1
2024/06/03 12:32:21.000   28.302652581  -16.492932354  2301.9354   1   6   0.0021   0.0015   0.0159  -0.0005  -0.0001  -0.0046  -9.00   25.2
2024/06/03 12:32:22.000   28.302652582  -16.492932354  2301.9353   1   6   0.0021   0.0015   0.0159  -0.0005  -0.0002  -0.0046  -8.00   24.3
2024/06/03 12:32:23.000   28.302652582  -16.492932354  2301.9350   1   6   0.0021   0.0015   0.0159  -0.0005  -0.0003  -0.0046  -7.00   23.5
2024/06/03 12:32:24.000   28.302652582  -16.492932354  2301.9351   1   6   0.0021   0.0015   0.0159  -0.0005  -0.0003  -0.0046  -6.00   21.9
2024/06/03 12:32:25.000   28.302652582  -16.492932353  2301.9348   1   6   0.0021   0.0015   0.0160  -0.0005  -0.0004  -0.0046  -5.00   19.6
2024/06/03 12:32:26.000   28.302652582  -16.492932353  2301.9345   1   6   0.0021   0.0015   0.0160  -0.0005  -0.0004  -0.0046  -4.00   16.2
2024/06/03 12:32:27.000   28.302652583  -16.492932353  2301.9344   1   6   0.0021   0.0015   0.0160  -0.0005  -0.0005  -0.0046  -3.00   12.3
2024/06/03 12:32:28.000   28.302652583  -16.492932353  2301.9328   1   6   0.0021   0.0015   0.0161  -0.0004  -0.0005  -0.0046  -2.00    9.1
2024/06/03 12:32:29.000   28.302652585  -16.492932352  2301.9303   1   6   0.0021   0.0015   0.0162  -0.0004  -0.0006  -0.0046  -1.00    5.3
2024/06/03 12:32:30.000   28.302652576  -16.492932357  2301.9479   1   6   0.0021   0.0015   0.0157  -0.0005   0.0004  -0.0045   0.00   16.4
2024/06/03 12:32:31.000   28.302652577  -16.492932357  2301.9472   1   6   0.0021   0.0015   0.0158  -0.0005   0.0004  -0.0045   1.00   16.3
2024/06/03 12:32:32.000   28.302652578  -16.492932357  2301.9464   1   6   0.0021   0.0015   0.0158  -0.0005   0.0004  -0.0045   2.00   16.1
2024/06/03 12:32:33.000   28.302652578  -16.492932357  2301.9459   1   6   0.0021   0.0015   0.0158  -0.0005   0.0003  -0.0045   3.00   15.5
2024/06/03 12:32:34.000   28.302652579  -16.492932357  2301.9453   1   6   0.0021   0.0015   0.0159  -0.0005   0.0003  -0.0046   4.00   15.1
2024/06/03 12:32:35.000   28.302652579  -16.492932357  2301.9448   1   6   0.0021   0.0015   0.0159  -0.0005   0.0003  -0.0046   5.00   14.7
2024/06/03 12:32:36.000   28.302652580  -16.492932356  2301.9439   1   6   0.0021   0.0015   0.0159  -0.0005   0.0002  -0.0046   6.00   14.7
2024/06/03 12:32:37.000   28.302652580  -16.492932356  2301.9433   1   6   0.0021   0.0015   0.0159  -0.0005   0.0002  -0.0046   7.00   14.2
2024/06/03 12:32:38.000   28.302652580  -16.492932356  2301.9430   1   6   0.0021   0.0015   0.0159  -0.0005   0.0001  -0.0046   8.00   13.6
2024/06/03 12:32:39.000   28.302652581  -16.492932356  2301.9423   1   6   0.0021   0.0015   0.0160  -0.0005  -0.0000  -0.0046   9.00   13.4
2024/06/03 12:32:40.000   28.302652581  -16.492932355  2301.9419   1   6   0.0021   0.0015   0.0160  -0.0005  -0.0001  -0.0046  10.00   12.9
2024/06/03 12:32:41.000   28.302652582  -16.492932355  2301.9413   1   6   0.0021   0.0015   0.0160  -0.0005  -0.0002  -0.0046  11.00   12.6
2024/06/03 12:32:42.000   28.302652582  -16.492932355  2301.9406   1   6   0.0021   0.0015   0.0160  -0.0005  -0.0002  -0.0046  12.00   12.3
2024/06/03 12:32:43.000   28.302652583  -16.492932355  2301.9402   1   6   0.0021   0.0015   0.0160  -0.0005  -0.0003  -0.0046  13.00   11.9
2024/06/03 12:32:44.000   28.302652583  -16.492932355  2301.9394   1   6   0.0021   0.0015   0.0160  -0.0005  -0.0003  -0.0046  14.00   11.7
2024/06/03 12:32:45.000   28.302652583  -16.492932354  2301.9390   1   6   0.0021   0.0015   0.0160  -0.0005  -0.0003  -0.0046  15.00   11.2
2024/06/03 12:32:46.000   28.302652584  -16.492932354  2301.9384   1   6   0.0021   0.0015   0.0160  -0.0005  -0.0004  -0.0046 -14.00   10.9
2024/06/03 12:32:47.000   28.302652584  -16.492932354  2301.9375   1   6   0.0021   0.0015   0.0160  -0.0005  -0.0004  -0.0046 -13.00   10.7
2024/06/03 12:32:48.000   28.302652585  -16.492932354  2301.9367   1   6   0.0021   0.0015   0.0160  -0.0005  -0.0004  -0.0046 -12.00   10.4
2024/06/03 12:32:49.000   28.302652585  -16.492932353  2301.9361   1   6   0.0021   0.0015   0.0160  -0.0005  -0.0004  -0.0046 -11.00    9.9
2024/06/03 12:32:50.000   28.302652585  -16.492932353  2301.9360   1   6   0.0021   0.0015   0.0161  -0.0005  -0.0005  -0.0046 -10.00    9.1
2024/06/03 12:32:51.000   28.302652586  -16.492932353  2301.9356   1   6   0.0021   0.0015   0.0161  -0.0005  -0.0005  -0.0046  -9.00    8.3
2024/06/03 12:32:52.000   28.302652586  -16.492932353  2301.9348   1   6   0.0021   0.0015   0.0161  -0.0004  -0.0005  -0.0046  -8.00    7.7
2024/06/03 12:32:53.000   28.302652587  -16.492932352  2301.9335   1   6   0.0021   0.0015   0.0161  -0.0004  -0.0006  -0.0046  -7.00    7.1
2024/06/03 12:32:54.000   28.302652588  -16.492932351  2301.9312   1   6   0.0021   0.0015   0.0162  -0.0004  -0.0006  -0.0046  -6.00    6.4
2024/06/03 12:32:55.000   28.302652590  -16.492932349  2301.9271   1   6   0.0021   0.0015   0.0163  -0.0004  -0.0007  -0.0046  -5.00    5.3
2024/06/03 12:32:56.000   28.302652593  -16.492932347  2301.9214   1   6   0.0021   0.0015   0.0164  -0.0004  -0.0008  -0.0046  -4.00    3.7
2024/06/03 12:32:57.000   28.302652599  -16.492932342  2301.9096   1   6   0.0021   0.0015   0.0168  -0.0004  -0.0011  -0.0047  -3.00  999.9
2024/06/03 12:32:58.000   28.302652589  -16.492932351  2301.9307   1   6   0.0021   0.0015   0.0162  -0.0004  -0.0007  -0.0046  -2.00    4.9
2024/06/03 12:32:59.000   28.302652592  -16.492932348  2301.9244   1   6   0.0021   0.0015   0.0164  -0.0004  -0.0008  -0.0046  -1.00    3.1
2024/06/03 12:33:00.000   28.302652592  -16.492932347  2301.9229   1   6   0.0021   0.0015   0.0165  -0.0004  -0.0009  -0.0047   0.00    3.0
2024/06/03 12:33:01.000   28.302652601  -16.492932341  2301.9057   1   6   0.0021   0.0015   0.0169  -0.0004  -0.0011  -0.0047   1.00  999.9
2024/06/03 12:33:02.000   28.302652602  -16.492932341  2301.9056   1   5   0.0021   0.0015   0.0169  -0.0004  -0.0011  -0.0047   2.00  999.9
2024/06/03 12:33:03.000   28.302652602  -16.492932341  2301.9056   1   5   0.0021   0.0015   0.0170  -0.0004  -0.0011  -0.0048   3.00  999.9
2024/06/03 12:33:04.000   28.302652596  -16.492932346  2301.9178   1   6   0.0021   0.0015   0.0166  -0.0004  -0.0009  -0.0047   4.00    3.1
2024/06/03 12:33:05.000   28.302652603  -16.492932341  2301.9043   1   6   0.0021   0.0015   0.0170  -0.0004  -0.0011  -0.0048   5.00  999.9
2024/06/03 12:33:06.000   28.302652603  -16.492932341  2301.9042   1   6   0.0021   0.0015   0.0170  -0.0004  -0.0011  -0.0048   6.00  999.9
2024/06/03 12:33:07.000   28.302652603  -16.492932341  2301.9041   1   6   0.0021   0.0015   0.0170  -0.0004  -0.0011  -0.0048   7.00  999.9
2024/06/03 12:33:08.000   28.302652603  -16.492932341  2301.9040   1   6   0.0021   0.0015   0.0170  -0.0004  -0.0011  -0.0048   8.00  999.9
2024/06/03 12:33:09.000   28.302652603  -16.492932341  2301.9039   1   5   0.0021   0.0015   0.0170  -0.0004  -0.0011  -0.0048   9.00  999.9
2024/06/03 12:33:10.000   28.302652603  -16.492932341  2301.9039   1   6   0.0021   0.0015   0.0170  -0.0004  -0.0011  -0.0048  10.00  999.9
2024/06/03 12:33:11.000   28.302652604  -16.492932341  2301.9038   1   6   0.0021   0.0015   0.0170  -0.0004  -0.0011  -0.0048  11.00  999.9
2024/06/03 12:33:12.000   28.302652604  -16.492932341  2301.9039   1   6   0.0021   0.0015   0.0170  -0.0004  -0.0011  -0.0048  12.00  999.9
2024/06/03 12:33:13.000   28.302652604  -16.492932341  2301.9039   1   5   0.0021   0.0015   0.0170  -0.0004  -0.0011  -0.0048  13.00  999.9
2024/06/03 12:33:14.000   28.302652604  -16.492932341  2301.9039   1   6   0.0021   0.0015   0.0170  -0.0004  -0.0011  -0.0048  14.00  999.9
2024/06/03 12:33:15.000   28.302652604  -16.492932341  2301.9038   1   6   0.0021   0.0015   0.0170  -0.0004  -0.0011  -0.0048  15.00  999.9
2024/06/03 12:33:16.000   28.302652604  -16.492932341  2301.9037   1   6   0.0021   0.0015   0.0170  -0.0004  -0.0011  -0.0047 -14.00  999.9
2024/06/03 12:33:17.000   28.302652604  -16.492932341  2301.9037   1   6   0.0021   0.0015   0.0170  -0.0004  -0.0011  -0.0047 -13.00  999.9
2024/06/03 12:33:18.000   28.302652604  -16.492932341  2301.9036   1   6   0.0021   0.0015   0.0170  -0.0004  -0.0011  -0.0047 -12.00  999.9
2024/06/03 12:33:19.000   28.302652604  -16.492932340  2301.9035   1   5   0.0021   0.0015   0.0170  -0.0004  -0.0011  -0.0047 -11.00  999.9
2024/06/03 12:33:20.000   28.302652604  -16.492932340  2301.9034   1   5   0.0021   0.0015   0.0170  -0.0004  -0.0011  -0.0047 -10.00  999.9
2024/06/03 12:33:21.000   28.302652605  -16.492932340  2301.9034   1   6   0.0021   0.0015   0.0169  -0.0004  -0.0012  -0.0047  -9.00  999.9
2024/06/03 12:33:22.000   28.302652605  -16.492932340  2301.9033   1   5   0.0021   0.0015   0.0169  -0.0004  -0.0012  -0.0047  -8.00  999.9
2024/06/03 12:33:23.000   28.302652605  -16.492932340  2301.9033   1   5   0.0021   0.0015   0.0169  -0.0004  -0.0012  -0.0047  -7.00  999.9
2024/06/03 12:33:24.000   28.302652605  -16.492932340  2301.9033   1   5   0.0021   0.0015   0.0169  -0.0004  -0.0012  -0.0047  -6.00  999.9
2024/06/03 12:33:25.000   28.302652605  -16.492932340  2301.9032   1   5   0.0021   0.0015   0.0169  -0.0004  -0.0012  -0.0047  -5.00  999.9
2024/06/03 12:33:26.000   28.302652605  -16.492932340  2301.9031   1   5   0.0021   0.0015   0.0169  -0.0004  -0.0012  -0.0047  -4.00  999.9
2024/06/03 12:33:27.000   28.302652605  -16.492932340  2301.9030   1   5   0.0021   0.0015   0.0170  -0.0004  -0.0012  -0.0047  -3.00  999.9
2024/06/03 12:33:28.000   28.302652605  -16.492932340  2301.9029   1   5   0.0021   0.0015   0.0170  -0.0004  -0.0012  -0.0047  -2.00  999.9
2024/06/03 12:33:29.000   28.302652606  -16.492932340  2301.9026   1   5   0.0021   0.0015   0.0170  -0.0004  -0.0011  -0.0047  -1.00  999.9
2024/06/03 12:33:30.000   28.302652604  -16.492932338  2301.8988   1   6   0.0021   0.0015   0.0165  -0.0002  -0.0005  -0.0049   0.00  815.6
2024/06/03 12:33:31.000   28.302652604  -16.492932338  2301.8988   1   6   0.0021   0.0015   0.0165  -0.0002  -0.0004  -0.0049   1.00  806.9
2024/06/03 12:33:32.000   28.302652604  -16.492932338  2301.8987   1   6   0.0021   0.0015   0.0165  -0.0002  -0.0004  -0.0049   2.00  799.1
2024/06/03 12:33:33.000   28.302652604  -16.492932338  2301.8986   1   6   0.0021   0.0015   0.0166  -0.0002  -0.0004  -0.0049   3.00  796.3
2024/06/03 12:33:34.000   28.302652604  -16.492932338  2301.8984   1   6   0.0021   0.0015   0.0166  -0.0002  -0.0004  -0.0049   4.00  791.3
2024/06/03 12:33:35.000   28.302652604  -16.492932338  2301.8985   1   6   0.0021   0.0015   0.0166  -0.0002  -0.0004  -0.0049   5.00  784.1
2024/06/03 12:33:36.000   28.302652604  -16.492932338  2301.8986   1   6   0.0021   0.0015   0.0166  -0.0002  -0.0004  -0.0049   6.00  779.3
2024/06/03 12:33:37.000   28.302652604  -16.492932338  2301.8985   1   6   0.0021   0.0015   0.0166  -0.0002  -0.0004  -0.0049   7.00  775.6
2024/06/03 12:33:38.000   28.302652596  -16.492932347  2301.9079   1   6   0.0018   0.0013   0.0153  -0.0003  -0.0005  -0.0042   8.00   12.0
2024/06/03 12:33:39.000   28.302652596  -16.492932347  2301.9080   1   6   0.0018   0.0013   0.0153  -0.0003  -0.0005  -0.0042   9.00   12.0
2024/06/03 12:33:40.000   28.302652596  -16.492932347  2301.9080   1   6   0.0018   0.0013   0.0153  -0.0003  -0.0005  -0.0042  10.00   12.0
2024/06/03 12:33:41.000   28.302652596  -16.492932347  2301.9080   1   6   0.0018   0.0013   0.0153  -0.0003  -0.0005  -0.0042  11.00   12.1
2024/06/03 12:33:42.000   28.302652596  -16.492932347  2301.9080   1   6   0.0018   0.0013   0.0153  -0.0003  -0.0005  -0.0042  12.00   12.1
2024/06/03 12:33:43.000   28.302652596  -16.492932347  2301.9081   1   6   0.0018   0.0013   0.0153  -0.0003  -0.0005  -0.0042  13.00   12.2
2024/06/03 12:33:44.000   28.302652596  -16.492932347  2301.9081   1   6   0.0018   0.0013   0.0153  -0.0003  -0.0005  -0.0042  14.00   12.2
2024/06/03 12:33:45.000   28.302652596  -16.492932347  2301.9080   1   6   0.0018   0.0013   0.0153  -0.0003  -0.0006  -0.0042 -15.00   12.2
2024/06/03 12:33:46.000   28.302652596  -16.492932347  2301.9081   1   6   0.0018   0.0013   0.0153  -0.0003  -0.0006  -0.0042 -14.00   12.2
2024/06/03 12:33:47.000   28.302652596  -16.492932347  2301.9081   1   6   0.0018   0.0013   0.0153  -0.0003  -0.0006  -0.0042 -13.00   12.2
2024/06/03 12:33:48.000   28.302652596  -16.492932347  2301.9081   1   6   0.0018   0.0013   0.0153  -0.0003  -0.0006  -0.0042 -12.00   12.2
2024/06/03 12:33:49.000   28.302652597  -16.492932347  2301.9081   1   6   0.0018   0.0013   0.0153  -0.0003  -0.0006  -0.0042 -11.00   12.2
2024/06/03 12:33:50.000   28.302652597  -16.492932347  2301.9081   1   6   0.0018   0.0013   0.0153  -0.0003  -0.0006  -0.0042 -10.00   12.2
2024/06/03 12:33:51.000   28.302652597  -16.492932347  2301.9082   1   6   0.0018   0.0013   0.0153  -0.0003  -0.0006  -0.0042  -9.00   12.2
2024/06/03 12:33:52.000   28.302652597  -16.492932347  2301.9083   1   6   0.0018   0.0013   0.0153  -0.0003  -0.0006  -0.0042  -8.00   12.2
2024/06/03 12:33:53.000   28.302652597  -16.492932347  2301.9083   1   6   0.0018   0.0013   0.0153  -0.0003  -0.0006  -0.0042  -7.00   12.1
2024/06/03 12:33:54.000   28.302652597  -16.492932347  2301.9085   1   6   0.0018   0.0013   0.0153  -0.0003  -0.0006  -0.0042  -6.00   12.1
2024/06/03 12:33:55.000   28.302652597  -16.492932347  2301.9085   1   6   0.0018   0.0013   0.0153  -0.0003  -0.0006  -0.0042  -5.00   12.0
2024/06/03 12:33:56.000   28.302652597  -16.492932347  2301.9086   1   6   0.0018   0.0013   0.0153  -0.0003  -0.0006  -0.0042  -4.00   12.0
2024/06/03 12:33:57.000   28.302652597  -16.492932347  2301.9087   1   6   0.0018   0.0013   0.0153  -0.0003  -0.0006  -0.0042  -3.00   11.9
2024/06/03 12:33:58.000   28.302652597  -16.492932347  2301.9089   1   6   0.0018   0.0013   0.0153  -0.0003  -0.0006  -0.0042  -2.00   16.3
2024/06/03 12:33:59.000   28.302652597  -16.492932347  2301.9089   1   6   0.0018   0.0013   0.0153  -0.0003  -0.0006  -0.0042  -1.00   18.9
2024/06/03 12:34:00.000   28.302652597  -16.492932347  2301.9091   1   6   0.0018   0.0013   0.0153  -0.0003  -0.0006  -0.0042   0.00   21.2
2024/06/03 12:34:01.000   28.302652597  -16.492932347  2301.9092   1   6   0.0018   0.0013   0.0153  -0.0003  -0.0006  -0.0042   1.00   23.1
2024/06/03 12:34:02.000   28.302652597  -16.492932347  2301.9094   1   6   0.0018   0.0013   0.0153  -0.0003  -0.0006  -0.0042   2.00   25.0
2024/06/03 12:34:03.000   28.302652597  -16.492932347  2301.9095   1   6   0.0018   0.0013   0.0153  -0.0003  -0.0006  -0.0042   3.00   26.8
2024/06/03 12:34:04.000   28.302652597  -16.492932347  2301.9096   1   6   0.0018   0.0013   0.0153  -0.0003  -0.0006  -0.0042   4.00   28.6
2024/06/03 12:34:05.000   28.302652597  -16.492932347  2301.9097   1   6   0.0018   0.0013   0.0153  -0.0003  -0.0006  -0.0042   5.00   30.3
2024/06/03 12:34:06.000   28.302652597  -16.492932347  2301.9098   1   6   0.0018   0.0013   0.0153  -0.0003  -0.0006  -0.0042   6.00   32.2
2024/06/03 12:34:07.000   28.302652597  -16.492932347  2301.9099   1   6   0.0018   0.0013   0.0153  -0.0003  -0.0006  -0.0042   7.00   34.0
2024/06/03 12:34:08.000   28.302652597  -16.492932347  2301.9100   1   6   0.0018   0.0013   0.0153  -0.0003  -0.0006  -0.0042   8.00   35.9
2024/06/03 12:34:09.000   28.302652597  -16.492932347  2301.9101   1   6   0.0018   0.0013   0.0153  -0.0003  -0.0006  -0.0042   9.00   37.8
2024/06/03 12:34:10.000   28.302652597  -16.492932347  2301.9102   1   6   0.0018   0.0013   0.0153  -0.0003  -0.0006  -0.0042  10.00   39.7
2024/06/03 12:34:11.000   28.302652597  -16.492932347  2301.9103   1   6   0.0018   0.0013   0.0153  -0.0003  -0.0006  -0.0042  11.00   41.5
2024/06/03 12:34:12.000   28.302652597  -16.492932347  2301.9104   1   6   0.0018   0.0013   0.0153  -0.0003  -0.0006  -0.0042  12.00   43.5
2024/06/03 12:34:13.000   28.302652597  -16.492932347  2301.9105   1   6   0.0018   0.0013   0.0153  -0.0003  -0.0006  -0.0042  13.00   45.4
2024/06/03 12:34:14.000   28.302652597  -16.492932347  2301.9106   1   6   0.0018   0.0013   0.0153  -0.0003  -0.0006  -0.0042  14.00   47.2
2024/06/03 12:34:15.000   28.302652597  -16.492932347  2301.9107   1   6   0.0018   0.0013   0.0153  -0.0003  -0.0006  -0.0042 -15.00   49.2
2024/06/03 12:34:16.000   28.302652597  -16.492932347  2301.9107   1   6   0.0018   0.0013   0.0153  -0.0003  -0.0006  -0.0042 -14.00   51.0
2024/06/03 12:34:17.000   28.302652597  -16.492932347  2301.9107   1   6   0.0018   0.0013   0.0153  -0.0003  -0.0006  -0.0042 -13.00   52.9
2024/06/03 12:34:18.000   28.302652597  -16.492932347  2301.9108   1   6   0.0018   0.0013   0.0153  -0.0003  -0.0006  -0.0042 -12.00   54.7
2024/06/03 12:34:19.000   28.302652597  -16.492932347  2301.9109   1   6   0.0018   0.0013   0.0153  -0.0003  -0.0006  -0.0042 -11.00   56.4
2024/06/03 12:34:20.000   28.302652597  -16.492932347  2301.9109   1   6   0.0018   0.0013   0.0153  -0.0003  -0.0006  -0.0042 -10.00   58.0
2024/06/03 12:34:21.000   28.302652597  -16.492932347  2301.9110   1   6   0.0018   0.0013   0.0153  -0.0003  -0.0006  -0.0042  -9.00   59.5
2024/06/03 12:34:22.000   28.302652597  -16.492932347  2301.9110   1   6   0.0018   0.0013   0.0153  -0.0003  -0.0006  -0.0042  -8.00   61.0
2024/06/03 12:34:23.000   28.302652597  -16.492932347  2301.9111   1   6   0.0018   0.0013   0.0152  -0.0003  -0.0006  -0.0042  -7.00   62.4
2024/06/03 12:34:24.000   28.302652597  -16.492932347  2301.9111   1   6   0.0018   0.0013   0.0152  -0.0003  -0.0006  -0.0042  -6.00   63.7
2024/06/03 12:34:25.000   28.302652597  -16.492932347  2301.9112   1   6   0.0018   0.0013   0.0152  -0.0003  -0.0006  -0.0042  -5.00   65.1
2024/06/03 12:34:26.000   28.302652597  -16.492932347  2301.9113   1   6   0.0018   0.0013   0.0152  -0.0003  -0.0006  -0.0042  -4.00   66.4
2024/06/03 12:34:27.000   28.302652597  -16.492932347  2301.9114   1   6   0.0018   0.0013   0.0152  -0.0003  -0.0006  -0.0042  -3.00   67.5
2024/06/03 12:34:28.000   28.302652597  -16.492932347  2301.9115   1   6   0.0018   0.0013   0.0152  -0.0003  -0.0006  -0.0042  -2.00   68.6
2024/06/03 12:34:29.000   28.302652597  -16.492932347  2301.9118   1   6   0.0018   0.0013   0.0152  -0.0003  -0.0006  -0.0042  -1.00   70.0
2024/06/03 12:34:30.000   28.302652597  -16.492932348  2301.9121   1   6   0.0018   0.0013   0.0152  -0.0003  -0.0006  -0.0042   0.00   71.3
2024/06/03 12:34:31.000   28.302652597  -16.492932347  2301.9124   1   6   0.0018   0.0013   0.0152  -0.0003  -0.0006  -0.0042   1.00   73.3
2024/06/03 12:34:32.000   28.302652597  -16.492932347  2301.9129   1   6   0.0018   0.0013   0.0153  -0.0003  -0.0006  -0.0042   2.00   74.8
2024/06/03 12:34:33.000   28.302652597  -16.492932347  2301.9133   1   6   0.0018   0.0013   0.0153  -0.0003  -0.0006  -0.0042   3.00   76.5
2024/06/03 12:34:34.000   28.302652596  -16.492932347  2301.9136   1   6   0.0018   0.0013   0.0153  -0.0003  -0.0006  -0.0042   4.00   78.1
2024/06/03 12:34:35.000   28.302652596  -16.492932347  2301.9138   1   6   0.0018   0.0013   0.0153  -0.0003  -0.0006  -0.0041   5.00   79.9
2024/06/03 12:34:36.000   28.302652596  -16.492932347  2301.9141   1   6   0.0018   0.0013   0.0153  -0.0003  -0.0006  -0.0041   6.00   82.1
2024/06/03 12:34:37.000   28.302652596  -16.492932347  2301.9145   1   6   0.0018   0.0013   0.0153  -0.0003  -0.0006  -0.0041   7.00   84.2
2024/06/03 12:34:38.000   28.302652596  -16.492932347  2301.9147   1   6   0.0018   0.0013   0.0153  -0.0003  -0.0006  -0.0041   8.00   86.1
2024/06/03 12:34:39.000   28.302652596  -16.492932347  2301.9150   1   6   0.0018   0.0013   0.0153  -0.0003  -0.0006  -0.0041   9.00   88.3
2024/06/03 12:34:40.000   28.302652596  -16.492932347  2301.9153   1   6   0.0018   0.0013   0.0153  -0.0003  -0.0006  -0.0041  10.00   90.5
2024/06/03 12:34:41.000   28.302652596  -16.492932347  2301.9155   1   6   0.0018   0.0013   0.0153  -0.0003  -0.0006  -0.0041  11.00   92.8
2024/06/03 12:34:42.000   28.302652596  -16.492932347  2301.9158   1   6   0.0018   0.0013   0.0153  -0.0003  -0.0007  -0.0041  12.00   94.7
2024/06/03 12:34:43.000   28.302652596  -16.492932347  2301.9159   1   6   0.0018   0.0013   0.0153  -0.0003  -0.0007  -0.0041  13.00   96.6
2024/06/03 12:34:44.000   28.302652596  -16.492932347  2301.9161   1   6   0.0018   0.0013   0.0152  -0.0003  -0.0007  -0.0041  14.00   98.4
2024/06/03 12:34:45.000   28.302652596  -16.492932347  2301.9162   1   6   0.0018   0.0013   0.0152  -0.0003  -0.0007  -0.0041 -15.00  100.2
2024/06/03 12:34:46.000   28.302652596  -16.492932347  2301.9162   1   6   0.0018   0.0013   0.0152  -0.0003  -0.0007  -0.0041 -14.00  102.0
2024/06/03 12:34:47.000   28.302652596  -16.492932347  2301.9163   1   6   0.0018   0.0013   0.0152  -0.0003  -0.0007  -0.0041 -13.00  103.8
2024/06/03 12:34:48.000   28.302652596  -16.492932347  2301.9164   1   6   0.0018   0.0013   0.0152  -0.0003  -0.0007  -0.0041 -12.00  105.3
2024/06/03 12:34:49.000   28.302652596  -16.492932347  2301.9164   1   6   0.0018   0.0013   0.0152  -0.0003  -0.0007  -0.0041 -11.00  107.0
2024/06/03 12:34:50.000   28.302652596  -16.492932347  2301.9165   1   6   0.0018   0.0013   0.0152  -0.0003  -0.0007  -0.0041 -10.00  108.5
2024/06/03 12:34:51.000   28.302652596  -16.492932347  2301.9165   1   6   0.0018   0.0013   0.0152  -0.0003  -0.0007  -0.0041  -9.00  110.0
2024/06/03 12:34:52.000   28.302652596  -16.492932347  2301.9166   1   6   0.0018   0.0013   0.0152  -0.0003  -0.0007  -0.0041  -8.00  111.4
2024/06/03 12:34:53.000   28.302652596  -16.492932347  2301.9166   1   6   0.0018   0.0013   0.0152  -0.0003  -0.0007  -0.0041  -7.00  112.7
2024/06/03 12:34:54.000   28.302652596  -16.492932347  2301.9165   1   6   0.0018   0.0013   0.0152  -0.0003  -0.0007  -0.0041  -6.00  113.8
2024/06/03 12:34:55.000   28.302652596  -16.492932347  2301.9166   1   6   0.0018   0.0013   0.0152  -0.0003  -0.0007  -0.0041  -5.00  114.9
2024/06/03 12:34:56.000   28.302652596  -16.492932347  2301.9165   1   6   0.0018   0.0013   0.0152  -0.0003  -0.0007  -0.0041  -4.00  115.3
2024/06/03 12:34:57.000   28.302652597  -16.492932347  2301.9163   1   6   0.0018   0.0013   0.0152  -0.0003  -0.0007  -0.0041  -3.00  115.3
2024/06/03 12:34:58.000   28.302652597  -16.492932347  2301.9161   1   6   0.0018   0.0013   0.0152  -0.0003  -0.0007  -0.0041  -2.00  115.4
2024/06/03 12:34:59.000   28.302652597  -16.492932347  2301.9160   1   6   0.0018   0.0013   0.0152  -0.0003  -0.0007  -0.0041  -1.00  115.8
2024/06/03 12:35:00.000   28.302652596  -16.492932346  2301.9161   1   6   0.0018   0.0013   0.0152  -0.0003  -0.0007  -0.0041   0.00  116.7
2024/06/03 12:35:01.000   28.302652596  -16.492932346  2301.9167   1   6   0.0018   0.0013   0.0152  -0.0003  -0.0007  -0.0041   1.00  117.0
2024/06/03 12:35:02.000   28.302652596  -16.492932346  2301.9170   1   6   0.0018   0.0013   0.0152  -0.0003  -0.0007  -0.0041   2.00  117.6
2024/06/03 12:35:03.000   28.302652596  -16.492932347  2301.9173   1   6   0.0018   0.0013   0.0152  -0.0003  -0.0007  -0.0041   3.00  118.2
2024/06/03 12:35:04.000   28.302652596  -16.492932347  2301.9175   1   6   0.0018   0.0013   0.0152  -0.0003  -0.0007  -0.0041   4.00  118.7
2024/06/03 12:35:05.000   28.302652595  -16.492932347  2301.9175   1   6   0.0018   0.0013   0.0152  -0.0003  -0.0007  -0.0041   5.00  119.3
2024/06/03 12:35:06.000   28.302652595  -16.492932347  2301.9175   1   6   0.0018   0.0013   0.0152  -0.0003  -0.0007  -0.0041   6.00  120.4
2024/06/03 12:35:07.000   28.302652595  -16.492932347  2301.9177   1   6   0.0018   0.0013   0.0152  -0.0003  -0.0007  -0.0041   7.00  121.8
2024/06/03 12:35:08.000   28.302652595  -16.492932347  2301.9180   1   6   0.0018   0.0013   0.0152  -0.0003  -0.0007  -0.0041   8.00  123.1
2024/06/03 12:35:09.000   28.302652595  -16.492932347  2301.9180   1   6   0.0018   0.0012   0.0152  -0.0003  -0.0007  -0.0041   9.00  124.0
2024/06/03 12:35:10.000   28.302652595  -16.492932347  2301.9181   1   6   0.0018   0.0012   0.0152  -0.0003  -0.0007  -0.0041  10.00  125.3
2024/06/03 12:35:11.000   28.302652595  -16.492932347  2301.9181   1   6   0.0018   0.0012   0.0152  -0.0003  -0.0007  -0.0041  11.00  126.7
2024/06/03 12:35:12.000   28.302652595  -16.492932347  2301.9182   1   6   0.0018   0.0012   0.0152  -0.0003  -0.0007  -0.0041  12.00  128.2
2024/06/03 12:35:13.000   28.302652595  -16.492932347  2301.9184   1   6   0.0018   0.0012   0.0152  -0.0003  -0.0007  -0.0041  13.00  130.0
2024/06/03 12:35:14.000   28.302652595  -16.492932347  2301.9185   1   6   0.0018   0.0012   0.0152  -0.0003  -0.0007  -0.0041  14.00  131.6
2024/06/03 12:35:15.000   28.302652595  -16.492932347  2301.9186   1   6   0.0018   0.0012   0.0152  -0.0003  -0.0007  -0.0041 -15.00  133.2
2024/06/03 12:35:16.000   28.302652595  -16.492932347  2301.9186   1   6   0.0018   0.0012   0.0152  -0.0003  -0.0007  -0.0041 -14.00  134.6
2024/06/03 12:35:17.000   28.302652595  -16.492932347  2301.9187   1   6   0.0018   0.0012   0.0152  -0.0003  -0.0007  -0.0041 -13.00  136.2
2024/06/03 12:35:18.000   28.302652595  -16.492932347  2301.9188   1   6   0.0018   0.0012   0.0152  -0.0003  -0.0007  -0.0041 -12.00  137.8
2024/06/03 12:35:19.000   28.302652595  -16.492932347  2301.9189   1   6   0.0018   0.0012   0.0152  -0.0003  -0.0007  -0.0041 -11.00  139.2
2024/06/03 12:35:20.000   28.302652595  -16.492932347  2301.9190   1   6   0.0018   0.0012   0.0152  -0.0003  -0.0007  -0.0041 -10.00  140.6
2024/06/03 12:35:21.000   28.302652595  -16.492932347  2301.9190   1   6   0.0018   0.0012   0.0152  -0.0003  -0.0007  -0.0041  -9.00  141.8
2024/06/03 12:35:22.000   28.302652594  -16.492932347  2301.9190   1   6   0.0018   0.0012   0.0152  -0.0003  -0.0007  -0.0041  -8.00  142.7
2024/06/03 12:35:23.000   28.302652594  -16.492932347  2301.9191   1   6   0.0018   0.0012   0.0151  -0.0003  -0.0007  -0.0041  -7.00  143.6
2024/06/03 12:35:24.000   28.302652594  -16.492932347  2301.9191   1   6   0.0018   0.0012   0.0151  -0.0003  -0.0007  -0.0041  -6.00  144.6
2024/06/03 12:35:25.000   28.302652594  -16.492932347  2301.9191   1   6   0.0018   0.0012   0.0151  -0.0003  -0.0007  -0.0041  -5.00  145.6
2024/06/03 12:35:26.000   28.302652594  -16.492932347  2301.9190   1   6   0.0018   0.0012   0.0151  -0.0003  -0.0007  -0.0041  -4.00  146.2
2024/06/03 12:35:27.000   28.302652594  -16.492932347  2301.9191   1   6   0.0018   0.0012   0.0151  -0.0003  -0.0007  -0.0041  -3.00  147.4
2024/06/03 12:35:28.000   28.302652594  -16.492932347  2301.9188   1   6   0.0018   0.0012   0.0151  -0.0003  -0.0007  -0.0041  -2.00  147.9
2024/06/03 12:35:29.000   28.302652594  -16.492932347  2301.9185   1   6   0.0017   0.0012   0.0151  -0.0003  -0.0007  -0.0041  -1.00  147.9
2024/06/03 12:35:30.000   28.302652595  -16.492932347  2301.9184   1   6   0.0017   0.0012   0.0151  -0.0003  -0.0007  -0.0041   0.00  147.8
2024/06/03 12:35:31.000   28.302652595  -16.492932347  2301.9175   1   6   0.0017   0.0012   0.0151  -0.0003  -0.0007  -0.0041   1.00  145.9
2024/06/03 12:35:32.000   28.302652595  -16.492932345  2301.9006   1   6   0.0017   0.0012   0.0137  -0.0003  -0.0002  -0.0041   2.00    3.6
2024/06/03 12:35:33.000   28.302652596  -16.492932345  2301.9005   1   6   0.0017   0.0012   0.0137  -0.0003  -0.0002  -0.0041   3.00    5.6
2024/06/03 12:35:34.000   28.302652596  -16.492932345  2301.9005   1   6   0.0017   0.0012   0.0137  -0.0003  -0.0001  -0.0041   4.00    7.2
2024/06/03 12:35:35.000   28.302652596  -16.492932345  2301.9003   1   6   0.0017   0.0012   0.0137  -0.0003  -0.0001  -0.0041   5.00    8.6
2024/06/03 12:35:36.000   28.302652596  -16.492932345  2301.9002   1   6   0.0017   0.0012   0.0137  -0.0003  -0.0001  -0.0041   6.00    9.9
2024/06/03 12:35:37.000   28.302652596  -16.492932345  2301.9002   1   6   0.0017   0.0012   0.0137  -0.0003  -0.0001  -0.0041   7.00   11.2
2024/06/03 12:35:38.000   28.302652596  -16.492932345  2301.9002   1   6   0.0017   0.0012   0.0137  -0.0003  -0.0001  -0.0041   8.00   12.5
2024/06/03 12:35:39.000   28.302652596  -16.492932345  2301.9002   1   6   0.0017   0.0012   0.0137  -0.0003  -0.0001  -0.0041   9.00   13.8
2024/06/03 12:35:40.000   28.302652596  -16.492932345  2301.9002   1   6   0.0017   0.0012   0.0136  -0.0003  -0.0001  -0.0041  10.00   15.0
2024/06/03 12:35:41.000   28.302652597  -16.492932345  2301.9001   1   6   0.0017   0.0012   0.0136  -0.0003  -0.0001  -0.0041  11.00   16.3
2024/06/03 12:35:42.000   28.302652597  -16.492932345  2301.9001   1   6   0.0017   0.0012   0.0136  -0.0003  -0.0001  -0.0041  12.00   17.6
2024/06/03 12:35:43.000   28.302652597  -16.492932345  2301.9001   1   6   0.0017   0.0012   0.0136  -0.0003  -0.0001  -0.0041  13.00   18.9
2024/06/03 12:35:44.000   28.302652597  -16.492932345  2301.9001   1   6   0.0017   0.0012   0.0136  -0.0003  -0.0001  -0.0041  14.00   20.2
2024/06/03 12:35:45.000   28.302652597  -16.492932345  2301.9001   1   6   0.0017   0.0012   0.0136  -0.0003  -0.0002  -0.0041 -15.00   21.5
2024/06/03 12:35:46.000   28.302652597  -16.492932345  2301.9001   1   6   0.0017   0.0012   0.0136  -0.0003  -0.0002  -0.0041 -14.00   22.8
2024/06/03 12:35:47.000   28.302652597  -16.492932345  2301.9001   1   6   0.0017   0.0012   0.0136  -0.0003  -0.0002  -0.0041 -13.00   24.1
2024/06/03 12:35:48.000   28.302652597  -16.492932345  2301.9001   1   6   0.0017   0.0012   0.0136  -0.0003  -0.0002  -0.0040 -12.00   25.4
2024/06/03 12:35:49.000   28.302652597  -16.492932345  2301.9001   1   6   0.0017   0.0012   0.0136  -0.0003  -0.0002  -0.0040 -11.00   26.7
2024/06/03 12:35:50.000   28.302652597  -16.492932345  2301.9001   1   6   0.0017   0.0012   0.0136  -0.0003  -0.0002  -0.0040 -10.00   28.0
2024/06/03 12:35:51.000   28.302652597  -16.492932345  2301.9002   1   6   0.0017   0.0012   0.0136  -0.0003  -0.0002  -0.0040  -9.00   29.3
2024/06/03 12:35:52.000   28.302652597  -16.492932345  2301.9003   1   6   0.0017   0.0012   0.0136  -0.0003  -0.0002  -0.0040  -8.00   30.5
2024/06/03 12:35:53.000   28.302652597  -16.492932346  2301.9003   1   6   0.0017   0.0012   0.0136  -0.0003  -0.0002  -0.0040  -7.00   31.7
2024/06/03 12:35:54.000   28.302652598  -16.492932346  2301.9004   1   6   0.0017   0.0012   0.0136  -0.0003  -0.0002  -0.0040  -6.00   32.9
2024/06/03 12:35:55.000   28.302652598  -16.492932346  2301.9005   1   6   0.0017   0.0012   0.0136  -0.0003  -0.0002  -0.0040  -5.00   34.2
2024/06/03 12:35:56.000   28.302652598  -16.492932346  2301.9006   1   6   0.0017   0.0012   0.0136  -0.0003  -0.0002  -0.0040  -4.00   35.3
2024/06/03 12:35:57.000   28.302652598  -16.492932346  2301.9007   1   6   0.0017   0.0012   0.0136  -0.0003  -0.0002  -0.0040  -3.00   36.4
2024/06/03 12:35:58.000   28.302652598  -16.492932346  2301.9008   1   6   0.0017   0.0012   0.0136  -0.0003  -0.0002  -0.0040  -2.00   37.7
2024/06/03 12:35:59.000   28.302652598  -16.492932346  2301.9010   1   6   0.0017   0.0012   0.0136  -0.0003  -0.0002  -0.0040  -1.00   38.9
2024/06/03 12:36:00.000   28.302652598  -16.492932347  2301.9012   1   6   0.0017   0.0012   0.0135  -0.0003  -0.0002  -0.0040   0.00   40.1
2024/06/03 12:36:01.000   28.302652598  -16.492932346  2301.9010   1   6   0.0017   0.0012   0.0135  -0.0003  -0.0002  -0.0040   1.00   41.4
2024/06/03 12:36:02.000   28.302652598  -16.492932346  2301.9009   1   6   0.0017   0.0012   0.0135  -0.0003  -0.0001  -0.0040   2.00   42.5
2024/06/03 12:36:03.000   28.302652598  -16.492932346  2301.9008   1   6   0.0017   0.0012   0.0135  -0.0003  -0.0001  -0.0040   3.00   43.8
2024/06/03 12:36:04.000   28.302652598  -16.492932346  2301.9008   1   6   0.0017   0.0012   0.0135  -0.0003  -0.0001  -0.0040   4.00   45.0
2024/06/03 12:36:05.000   28.302652598  -16.492932346  2301.9008   1   6   0.0017   0.0012   0.0135  -0.0003  -0.0001  -0.0040   5.00   46.3
2024/06/03 12:36:06.000   28.302652598  -16.492932346  2301.9008   1   6   0.0017   0.0012   0.0135  -0.0003  -0.0001  -0.0040   6.00   47.6
2024/06/03 12:36:07.000   28.302652598  -16.492932346  2301.9008   1   6   0.0017   0.0012   0.0135  -0.0003  -0.0001  -0.0040   7.00   48.9
2024/06/03 12:36:08.000   28.302652598  -16.492932346  2301.9008   1   6   0.0017   0.0012   0.0135  -0.0003  -0.0001  -0.0040   8.00   50.1
2024/06/03 12:36:09.000   28.302652598  -16.492932346  2301.9007   1   6   0.0017   0.0012   0.0135  -0.0003  -0.0001  -0.0040   9.00   51.3
2024/06/03 12:36:10.000   28.302652598  -16.492932346  2301.9007   1   6   0.0017   0.0012   0.0135  -0.0003  -0.0001  -0.0040  10.00   52.6
2024/06/03 12:36:11.000   28.302652598  -16.492932346  2301.9007   1   6   0.0017   0.0012   0.0135  -0.0003  -0.0001  -0.0040  11.00   53.9
2024/06/03 12:36:12.000   28.302652599  -16.492932346  2301.9007   1   6   0.0017   0.0012   0.0135  -0.0003  -0.0001  -0.0040  12.00   55.0
2024/06/03 12:36:13.000   28.302652599  -16.492932346  2301.9007   1   6   0.0017   0.0012   0.0135  -0.0003  -0.0001  -0.0040  13.00   56.3
2024/06/03 12:36:14.000   28.302652599  -16.492932346  2301.9007   1   6   0.0017   0.0012   0.0135  -0.0003  -0.0001  -0.0040  14.00   57.6
2024/06/03 12:36:15.000   28.302652599  -16.492932346  2301.9007   1   6   0.0017   0.0012   0.0135  -0.0003  -0.0001  -0.0040 -15.00   58.8
2024/06/03 12:36:16.000   28.302652599  -16.492932346  2301.9007   1   6   0.0017   0.0012   0.0135  -0.0003  -0.0001  -0.0040 -14.00   60.1
2024/06/03 12:36:17.000   28.302652599  -16.492932346  2301.9007   1   6   0.0017   0.0012   0.0135  -0.0003  -0.0001  -0.0040 -13.00   61.3
2024/06/03 12:36:18.000   28.302652599  -16.492932346  2301.9007   1   6   0.0017   0.0012   0.0135  -0.0003  -0.0001  -0.0040 -12.00   62.5
2024/06/03 12:36:19.000   28.302652599  -16.492932346  2301.9007   1   6   0.0017   0.0012   0.0135  -0.0003  -0.0001  -0.0040 -11.00   63.8
2024/06/03 12:36:20.000   28.302652599  -16.492932346  2301.9008   1   6   0.0017   0.0012   0.0135  -0.0003  -0.0001  -0.0040 -10.00   65.1
2024/06/03 12:36:21.000   28.302652599  -16.492932346  2301.9008   1   6   0.0017   0.0012   0.0135  -0.0003  -0.0001  -0.0040  -9.00   66.4
2024/06/03 12:36:22.000   28.302652599  -16.492932346  2301.9009   1   6   0.0017   0.0012   0.0135  -0.0003  -0.0001  -0.0040  -8.00   67.6
2024/06/03 12:36:23.000   28.302652599  -16.492932347  2301.9009   1   6   0.0017   0.0012   0.0135  -0.0003  -0.0001  -0.0040  -7.00   68.9
2024/06/03 12:36:24.000   28.302652599  -16.492932347  2301.9009   1   6   0.0017   0.0012   0.0135  -0.0003  -0.0001  -0.0040  -6.00   70.4
2024/06/03 12:36:25.000   28.302652600  -16.492932347  2301.9009   1   6   0.0017   0.0012   0.0135  -0.0003  -0.0001  -0.0040  -5.00   71.4
2024/06/03 12:36:26.000   28.302652600  -16.492932347  2301.9009   1   6   0.0017   0.0012   0.0135  -0.0003  -0.0001  -0.0040  -4.00   72.4
2024/06/03 12:36:27.000   28.302652600  -16.492932347  2301.9010   1   6   0.0017   0.0012   0.0135  -0.0003  -0.0001  -0.0040  -3.00   73.4
2024/06/03 12:36:28.000   28.302652600  -16.492932347  2301.9011   1   6   0.0017   0.0012   0.0134  -0.0003  -0.0001  -0.0040  -2.00   74.4
2024/06/03 12:36:29.000   28.302652600  -16.492932348  2301.9013   1   6   0.0017   0.0012   0.0134  -0.0003  -0.0001  -0.0040  -1.00   75.0
2024/06/03 12:36:30.000   28.302652601  -16.492932348  2301.9015   1   6   0.0017   0.0012   0.0134  -0.0003  -0.0001  -0.0040   0.00   75.8
2024/06/03 12:36:31.000   28.302652601  -16.492932348  2301.9013   1   6   0.0017   0.0012   0.0134  -0.0003  -0.0001  -0.0040   1.00   76.7
2024/06/03 12:36:32.000   28.302652601  -16.492932348  2301.9010   1   6   0.0017   0.0012   0.0134  -0.0003  -0.0001  -0.0040   2.00   77.7
2024/06/03 12:36:33.000   28.302652601  -16.492932347  2301.9009   1   6   0.0017   0.0012   0.0134  -0.0003  -0.0001  -0.0040   3.00   78.8
2024/06/03 12:36:34.000   28.302652601  -16.492932347  2301.9009   1   6   0.0017   0.0012   0.0134  -0.0003  -0.0001  -0.0040   4.00   79.6
2024/06/03 12:36:35.000   28.302652601  -16.492932347  2301.9008   1   6   0.0017   0.0012   0.0134  -0.0003  -0.0001  -0.0040   5.00   80.5
2024/06/03 12:36:36.000   28.302652601  -16.492932347  2301.9008   1   6   0.0017   0.0012   0.0134  -0.0003  -0.0000  -0.0040   6.00   81.3
2024/06/03 12:36:37.000   28.302652601  -16.492932347  2301.9007   1   6   0.0017   0.0012   0.0134  -0.0003  -0.0000  -0.0040   7.00   82.2
2024/06/03 12:36:38.000   28.302652601  -16.492932347  2301.9006   1   6   0.0017   0.0012   0.0134  -0.0003  -0.0000  -0.0040   8.00   83.0
2024/06/03 12:36:39.000   28.302652601  -16.492932347  2301.9005   1   6   0.0017   0.0012   0.0134  -0.0003  -0.0001  -0.0040   9.00   84.0
2024/06/03 12:36:40.000   28.302652601  -16.492932347  2301.9005   1   6   0.0017   0.0012   0.0134  -0.0003  -0.0001  -0.0040  10.00   85.0
2024/06/03 12:36:41.000   28.302652601  -16.492932347  2301.9005   1   6   0.0017   0.0012   0.0134  -0.0003  -0.0001  -0.0040  11.00   86.0
2024/06/03 12:36:42.000   28.302652601  -16.492932347  2301.9004   1   6   0.0017   0.0012   0.0134  -0.0003  -0.0001  -0.0040  12.00   87.1
2024/06/03 12:36:43.000   28.302652601  -16.492932347  2301.9004   1   6   0.0017   0.0012   0.0134  -0.0003  -0.0001  -0.0040  13.00   88.1
2024/06/03 12:36:44.000   28.302652601  -16.492932347  2301.9004   1   6   0.0017   0.0012   0.0134  -0.0003  -0.0001  -0.0040  14.00   89.2
2024/06/03 12:36:45.000   28.302652601  -16.492932347  2301.9004   1   6   0.0017   0.0012   0.0134  -0.0003  -0.0001  -0.0040 -15.00   90.4
2024/06/03 12:36:46.000   28.302652601  -16.492932347  2301.9004   1   6   0.0017   0.0012   0.0134  -0.0003  -0.0001  -0.0040 -14.00   91.4
2024/06/03 12:36:47.000   28.302652602  -16.492932347  2301.9004   1   6   0.0017   0.0012   0.0134  -0.0003  -0.0001  -0.0040 -13.00   92.5
2024/06/03 12:36:48.000   28.302652602  -16.492932347  2301.9004   1   6   0.0017   0.0012   0.0134  -0.0003  -0.0001  -0.0040 -12.00   93.5
2024/06/03 12:36:49.000   28.302652602  -16.492932347  2301.9003   1   6   0.0017   0.0012   0.0134  -0.0003  -0.0001  -0.0040 -11.00   94.5
2024/06/03 12:36:50.000   28.302652602  -16.492932347  2301.9004   1   6   0.0017   0.0012   0.0134  -0.0003  -0.0001  -0.0040 -10.00   95.5
2024/06/03 12:36:51.000   28.302652602  -16.492932347  2301.9004   1   6   0.0017   0.0012   0.0134  -0.0003  -0.0001  -0.0040  -9.00   96.7
2024/06/03 12:36:52.000   28.302652602  -16.492932347  2301.9005   1   6   0.0017   0.0012   0.0134  -0.0003  -0.0001  -0.0040  -8.00   97.7
2024/06/03 12:36:53.000   28.302652602  -16.492932347  2301.9006   1   6   0.0017   0.0012   0.0134  -0.0003  -0.0001  -0.0040  -7.00   98.7
2024/06/03 12:36:54.000   28.302652602  -16.492932347  2301.9007   1   6   0.0017   0.0012   0.0134  -0.0003  -0.0001  -0.0040  -6.00   99.7
2024/06/03 12:36:55.000   28.302652602  -16.492932347  2301.9008   1   6   0.0017   0.0012   0.0134  -0.0003  -0.0001  -0.0040  -5.00  100.6
2024/06/03 12:36:56.000   28.302652602  -16.492932347  2301.9009   1   6   0.0017   0.0012   0.0134  -0.0003  -0.0001  -0.0040  -4.00  101.5
