% program   : RTKPOST-EX 2.5.0
% inp file  : C:\Users\SallyHenry\Desktop\Sally Internship\GNSS gravi\DATA\Survey Rover Obs\GUI22.24o
% inp file  : C:\Users\SallyHenry\Desktop\Sally Internship\GNSS gravi\DATA\BaseStations\IZAN\IZAN00ESP_R_20241550000_01D_30S_MO.rnx
% inp file  : C:\Users\SallyHenry\Desktop\Sally Internship\GNSS gravi\DATA\BaseStations\IZAN\IZAN00ESP_R_20241550000_01D_MN.rnx
% inp file  : C:\Users\SallyHenry\Desktop\Sally Internship\GNSS gravi\DATA\aux_files\Survey\IGS0OPSFIN_20241550000_01D_15M_ORB.SP3
% inp file  : C:\Users\SallyHenry\Desktop\Sally Internship\GNSS gravi\DATA\aux_files\Survey\IGS0OPSFIN_20241550000_01D_30S_CLK.CLK
% obs start : 2024/06/03 12:58:04.0 GPST (week2317 133084.0s)
% obs end   : 2024/06/03 13:13:14.0 GPST (week2317 133994.0s)
% pos mode  : Static
% freqs     : L1+L2/E5b
% solution  : Combined-No Phase Reset
% elev mask : 15.0 deg
% dynamics  : on
% tidecorr  : solid
% ionos opt : Estimate TEC
% tropo opt : Estimate ZTD+Grad
% ephemeris : Precise
% navi sys  : GPS GLONASS Galileo QZSS BDS
% amb res   : Fix and Hold
% amb glo   : Fix and Hold
% amb bds   : on
% val thres : 3.0
% antenna1  :                       ( 0.0000  0.0000  1.8000)
% antenna2  :                       ( 0.0000  0.0000  0.0000)
% ref pos   :  28.308069410  -16.499677180  2417.4044
%
% (lat/lon/height=WGS84/ellipsoidal,Q=1:fix,2:float,3:sbas,4:dgps,5:single,6:ppp,ns=# of satellites)
%  GPST                  latitude(deg) longitude(deg)  height(m)   Q  ns   sdn(m)   sde(m)   sdu(m)  sdne(m)  sdeu(m)  sdun(m) age(s)  ratio
2024/06/03 12:58:04.000   28.299142643  -16.489642471  2188.9110   1   6   0.0015   0.0020   0.0320   0.0007  -0.0043  -0.0043   4.00  639.4
2024/06/03 12:58:05.000   28.299142643  -16.489642476  2188.9170   1   6   0.0015   0.0020   0.0321   0.0007  -0.0044  -0.0043   5.00  629.5
2024/06/03 12:58:06.000   28.299142643  -16.489642477  2188.9185   1   6   0.0015   0.0020   0.0321   0.0007  -0.0044  -0.0043   6.00  622.6
2024/06/03 12:58:07.000   28.299142644  -16.489642474  2188.9150   1   6   0.0015   0.0020   0.0321   0.0007  -0.0044  -0.0043   7.00  629.5
2024/06/03 12:58:08.000   28.299142644  -16.489642472  2188.9121   1   6   0.0015   0.0020   0.0321   0.0007  -0.0044  -0.0043   8.00  630.8
2024/06/03 12:58:09.000   28.299142644  -16.489642471  2188.9104   1   6   0.0015   0.0020   0.0322   0.0007  -0.0044  -0.0043   9.00  627.5
2024/06/03 12:58:10.000   28.299142644  -16.489642471  2188.9099   1   6   0.0015   0.0020   0.0322   0.0007  -0.0044  -0.0043  10.00  624.1
2024/06/03 12:58:11.000   28.299142644  -16.489642471  2188.9101   1   6   0.0015   0.0020   0.0322   0.0007  -0.0044  -0.0043  11.00  622.7
2024/06/03 12:58:12.000   28.299142644  -16.489642471  2188.9099   1   6   0.0015   0.0020   0.0322   0.0007  -0.0044  -0.0043  12.00  621.3
2024/06/03 12:58:13.000   28.299142644  -16.489642471  2188.9099   1   6   0.0015   0.0020   0.0322   0.0007  -0.0044  -0.0043  13.00  619.8
2024/06/03 12:58:14.000   28.299142644  -16.489642471  2188.9102   1   6   0.0015   0.0020   0.0322   0.0007  -0.0044  -0.0043  14.00  618.2
2024/06/03 12:58:15.000   28.299142644  -16.489642471  2188.9103   1   6   0.0015   0.0020   0.0322   0.0007  -0.0044  -0.0043  15.00  616.6
2024/06/03 12:58:16.000   28.299142644  -16.489642471  2188.9102   1   6   0.0015   0.0020   0.0322   0.0007  -0.0044  -0.0043 -14.00  614.8
2024/06/03 12:58:17.000   28.299142644  -16.489642471  2188.9102   1   6   0.0015   0.0020   0.0322   0.0007  -0.0044  -0.0043 -13.00  612.9
2024/06/03 12:58:18.000   28.299142644  -16.489642471  2188.9101   1   6   0.0015   0.0020   0.0322   0.0007  -0.0044  -0.0043 -12.00  611.1
2024/06/03 12:58:19.000   28.299142644  -16.489642470  2188.9102   1   6   0.0015   0.0020   0.0322   0.0007  -0.0044  -0.0043 -11.00  609.5
2024/06/03 12:58:20.000   28.299142644  -16.489642470  2188.9102   1   6   0.0015   0.0020   0.0322   0.0007  -0.0044  -0.0043 -10.00  608.0
2024/06/03 12:58:21.000   28.299142644  -16.489642470  2188.9103   1   6   0.0015   0.0020   0.0322   0.0007  -0.0044  -0.0043  -9.00  606.7
2024/06/03 12:58:22.000   28.299142644  -16.489642470  2188.9103   1   6   0.0015   0.0020   0.0322   0.0007  -0.0044  -0.0043  -8.00  605.0
2024/06/03 12:58:23.000   28.299142644  -16.489642470  2188.9103   1   6   0.0015   0.0020   0.0322   0.0007  -0.0044  -0.0043  -7.00  603.7
2024/06/03 12:58:24.000   28.299142645  -16.489642470  2188.9101   1   6   0.0015   0.0020   0.0323   0.0007  -0.0044  -0.0043  -6.00  601.3
2024/06/03 12:58:25.000   28.299142645  -16.489642470  2188.9097   1   6   0.0015   0.0020   0.0323   0.0007  -0.0044  -0.0043  -5.00  597.3
2024/06/03 12:58:26.000   28.299142645  -16.489642470  2188.9097   1   6   0.0015   0.0020   0.0323   0.0007  -0.0044  -0.0043  -4.00  593.5
2024/06/03 12:58:27.000   28.299142645  -16.489642469  2188.9098   1   6   0.0015   0.0020   0.0323   0.0007  -0.0044  -0.0043  -3.00  591.5
2024/06/03 12:58:28.000   28.299142645  -16.489642469  2188.9103   1   6   0.0015   0.0020   0.0324   0.0007  -0.0044  -0.0043  -2.00  590.0
2024/06/03 12:58:29.000   28.299142645  -16.489642469  2188.9104   1   6   0.0015   0.0020   0.0324   0.0007  -0.0044  -0.0043  -1.00  585.8
2024/06/03 12:58:30.000   28.299142646  -16.489642470  2188.9100   1   6   0.0015   0.0020   0.0325   0.0007  -0.0044  -0.0043   0.00  573.3
2024/06/03 12:58:31.000   28.299142646  -16.489642468  2188.9088   1   6   0.0015   0.0020   0.0325   0.0007  -0.0044  -0.0043   1.00  575.2
2024/06/03 12:58:32.000   28.299142647  -16.489642468  2188.9098   1   6   0.0015   0.0020   0.0326   0.0007  -0.0044  -0.0043   2.00  575.1
2024/06/03 12:58:33.000   28.299142647  -16.489642467  2188.9099   1   6   0.0015   0.0020   0.0326   0.0007  -0.0044  -0.0043   3.00  573.0
2024/06/03 12:58:34.000   28.299142647  -16.489642466  2188.9089   1   6   0.0015   0.0020   0.0327   0.0007  -0.0044  -0.0043   4.00  573.6
2024/06/03 12:58:35.000   28.299142647  -16.489642465  2188.9084   1   6   0.0015   0.0020   0.0327   0.0007  -0.0044  -0.0043   5.00  574.8
2024/06/03 12:58:36.000   28.299142647  -16.489642464  2188.9077   1   6   0.0015   0.0020   0.0327   0.0007  -0.0044  -0.0043   6.00  575.5
2024/06/03 12:58:37.000   28.299142648  -16.489642463  2188.9078   1   6   0.0015   0.0020   0.0328   0.0007  -0.0044  -0.0043   7.00  575.1
2024/06/03 12:58:38.000   28.299142648  -16.489642463  2188.9084   1   6   0.0015   0.0020   0.0328   0.0007  -0.0044  -0.0043   8.00  573.1
2024/06/03 12:58:39.000   28.299142648  -16.489642463  2188.9084   1   6   0.0015   0.0020   0.0328   0.0007  -0.0044  -0.0043   9.00  571.3
2024/06/03 12:58:40.000   28.299142648  -16.489642463  2188.9086   1   6   0.0015   0.0020   0.0328   0.0007  -0.0044  -0.0043  10.00  570.3
2024/06/03 12:58:41.000   28.299142648  -16.489642463  2188.9088   1   6   0.0015   0.0020   0.0328   0.0007  -0.0044  -0.0043  11.00  569.2
2024/06/03 12:58:42.000   28.299142648  -16.489642463  2188.9089   1   6   0.0015   0.0020   0.0328   0.0007  -0.0044  -0.0043  12.00  567.7
2024/06/03 12:58:43.000   28.299142648  -16.489642463  2188.9089   1   6   0.0015   0.0020   0.0328   0.0007  -0.0044  -0.0043  13.00  566.2
2024/06/03 12:58:44.000   28.299142648  -16.489642463  2188.9090   1   6   0.0015   0.0020   0.0328   0.0007  -0.0044  -0.0043  14.00  564.6
2024/06/03 12:58:45.000   28.299142648  -16.489642462  2188.9091   1   6   0.0015   0.0020   0.0328   0.0007  -0.0045  -0.0043  15.00  563.3
2024/06/03 12:58:46.000   28.299142648  -16.489642462  2188.9093   1   6   0.0015   0.0020   0.0328   0.0007  -0.0045  -0.0043 -14.00  561.9
2024/06/03 12:58:47.000   28.299142648  -16.489642462  2188.9097   1   6   0.0015   0.0020   0.0328   0.0007  -0.0045  -0.0043 -13.00  560.5
2024/06/03 12:58:48.000   28.299142648  -16.489642462  2188.9096   1   6   0.0015   0.0020   0.0328   0.0007  -0.0045  -0.0043 -12.00  558.6
2024/06/03 12:58:49.000   28.299142648  -16.489642462  2188.9098   1   6   0.0015   0.0020   0.0328   0.0007  -0.0045  -0.0043 -11.00  557.3
2024/06/03 12:58:50.000   28.299142648  -16.489642462  2188.9103   1   6   0.0015   0.0020   0.0328   0.0007  -0.0045  -0.0043 -10.00  556.6
2024/06/03 12:58:51.000   28.299142648  -16.489642462  2188.9108   1   6   0.0015   0.0020   0.0329   0.0007  -0.0045  -0.0043  -9.00  556.2
2024/06/03 12:58:52.000   28.299142648  -16.489642462  2188.9109   1   6   0.0015   0.0020   0.0329   0.0007  -0.0045  -0.0043  -8.00  554.2
2024/06/03 12:58:53.000   28.299142648  -16.489642462  2188.9109   1   6   0.0015   0.0020   0.0329   0.0007  -0.0045  -0.0043  -7.00  551.6
2024/06/03 12:58:54.000   28.299142648  -16.489642462  2188.9113   1   6   0.0015   0.0020   0.0329   0.0007  -0.0045  -0.0043  -6.00  550.2
2024/06/03 12:58:55.000   28.299142648  -16.489642462  2188.9120   1   6   0.0015   0.0020   0.0329   0.0007  -0.0045  -0.0043  -5.00  549.6
2024/06/03 12:58:56.000   28.299142648  -16.489642462  2188.9127   1   6   0.0015   0.0020   0.0329   0.0007  -0.0045  -0.0043  -4.00  549.4
2024/06/03 12:58:57.000   28.299142648  -16.489642461  2188.9130   1   6   0.0015   0.0020   0.0330   0.0007  -0.0045  -0.0043  -3.00  547.8
2024/06/03 12:58:58.000   28.299142648  -16.489642461  2188.9131   1   6   0.0015   0.0020   0.0330   0.0007  -0.0045  -0.0043  -2.00  544.8
2024/06/03 12:58:59.000   28.299142648  -16.489642461  2188.9136   1   6   0.0015   0.0020   0.0331   0.0007  -0.0045  -0.0043  -1.00  548.1
2024/06/03 12:59:00.000   28.299142648  -16.489642461  2188.9143   1   6   0.0015   0.0020   0.0331   0.0007  -0.0045  -0.0043   0.00  547.9
2024/06/03 12:59:01.000   28.299142648  -16.489642461  2188.9149   1   6   0.0015   0.0020   0.0332   0.0007  -0.0045  -0.0043   1.00  547.3
2024/06/03 12:59:02.000   28.299142648  -16.489642461  2188.9154   1   6   0.0015   0.0020   0.0332   0.0007  -0.0045  -0.0043   2.00  545.1
2024/06/03 12:59:03.000   28.299142649  -16.489642461  2188.9157   1   6   0.0015   0.0020   0.0333   0.0007  -0.0045  -0.0043   3.00  544.7
2024/06/03 12:59:04.000   28.299142649  -16.489642460  2188.9162   1   6   0.0015   0.0020   0.0333   0.0007  -0.0045  -0.0043   4.00  545.7
2024/06/03 12:59:05.000   28.299142649  -16.489642460  2188.9167   1   6   0.0015   0.0020   0.0334   0.0007  -0.0045  -0.0043   5.00  544.6
2024/06/03 12:59:06.000   28.299142649  -16.489642460  2188.9168   1   6   0.0015   0.0020   0.0334   0.0007  -0.0045  -0.0043   6.00  543.0
2024/06/03 12:59:07.000   28.299142649  -16.489642460  2188.9167   1   6   0.0015   0.0020   0.0334   0.0007  -0.0045  -0.0043   7.00  541.3
2024/06/03 12:59:08.000   28.299142649  -16.489642460  2188.9166   1   6   0.0015   0.0020   0.0334   0.0007  -0.0045  -0.0043   8.00  539.3
2024/06/03 12:59:09.000   28.299142649  -16.489642460  2188.9169   1   6   0.0015   0.0020   0.0334   0.0007  -0.0045  -0.0043   9.00  537.5
2024/06/03 12:59:10.000   28.299142649  -16.489642460  2188.9172   1   6   0.0015   0.0020   0.0335   0.0007  -0.0045  -0.0043  10.00  535.6
2024/06/03 12:59:11.000   28.299142649  -16.489642460  2188.9173   1   6   0.0015   0.0020   0.0335   0.0007  -0.0045  -0.0043  11.00  534.2
2024/06/03 12:59:12.000   28.299142649  -16.489642460  2188.9175   1   6   0.0015   0.0020   0.0335   0.0007  -0.0045  -0.0043  12.00  532.9
2024/06/03 12:59:13.000   28.299142649  -16.489642460  2188.9177   1   6   0.0015   0.0020   0.0335   0.0007  -0.0045  -0.0043  13.00  531.6
2024/06/03 12:59:14.000   28.299142649  -16.489642460  2188.9180   1   6   0.0015   0.0020   0.0335   0.0007  -0.0045  -0.0043  14.00  530.1
2024/06/03 12:59:15.000   28.299142649  -16.489642460  2188.9180   1   6   0.0015   0.0020   0.0335   0.0007  -0.0045  -0.0042  15.00  528.4
2024/06/03 12:59:16.000   28.299142649  -16.489642460  2188.9183   1   6   0.0015   0.0020   0.0335   0.0007  -0.0045  -0.0042 -14.00  527.0
2024/06/03 12:59:17.000   28.299142649  -16.489642460  2188.9185   1   6   0.0015   0.0020   0.0335   0.0007  -0.0045  -0.0042 -13.00  525.3
2024/06/03 12:59:18.000   28.299142649  -16.489642460  2188.9187   1   6   0.0015   0.0020   0.0335   0.0007  -0.0045  -0.0042 -12.00  523.7
2024/06/03 12:59:19.000   28.299142649  -16.489642460  2188.9187   1   6   0.0015   0.0020   0.0335   0.0007  -0.0045  -0.0042 -11.00  522.1
2024/06/03 12:59:20.000   28.299142649  -16.489642460  2188.9188   1   6   0.0015   0.0020   0.0335   0.0007  -0.0045  -0.0042 -10.00  520.5
2024/06/03 12:59:21.000   28.299142649  -16.489642460  2188.9190   1   6   0.0015   0.0020   0.0335   0.0007  -0.0045  -0.0042  -9.00  519.1
2024/06/03 12:59:22.000   28.299142649  -16.489642460  2188.9195   1   6   0.0015   0.0020   0.0335   0.0007  -0.0045  -0.0042  -8.00  517.9
2024/06/03 12:59:23.000   28.299142649  -16.489642460  2188.9197   1   6   0.0015   0.0020   0.0335   0.0007  -0.0045  -0.0042  -7.00  516.1
2024/06/03 12:59:24.000   28.299142650  -16.489642460  2188.9198   1   6   0.0015   0.0020   0.0335   0.0007  -0.0045  -0.0042  -6.00  513.3
2024/06/03 12:59:25.000   28.299142650  -16.489642460  2188.9194   1   6   0.0015   0.0020   0.0336   0.0007  -0.0045  -0.0042  -5.00  509.0
2024/06/03 12:59:26.000   28.299142650  -16.489642460  2188.9196   1   6   0.0015   0.0020   0.0336   0.0007  -0.0045  -0.0042  -4.00  506.2
2024/06/03 12:59:27.000   28.299142650  -16.489642460  2188.9205   1   6   0.0015   0.0020   0.0336   0.0007  -0.0045  -0.0042  -3.00  506.1
2024/06/03 12:59:28.000   28.299142650  -16.489642460  2188.9199   1   6   0.0015   0.0020   0.0337   0.0007  -0.0045  -0.0042  -2.00  502.5
2024/06/03 12:59:29.000   28.299142650  -16.489642459  2188.9197   1   6   0.0015   0.0020   0.0337   0.0007  -0.0045  -0.0042  -1.00  499.1
2024/06/03 12:59:30.000   28.299142650  -16.489642460  2188.9196   1   6   0.0015   0.0020   0.0338   0.0007  -0.0045  -0.0042   0.00  494.0
2024/06/03 12:59:31.000   28.299142650  -16.489642460  2188.9209   1   6   0.0015   0.0020   0.0338   0.0007  -0.0045  -0.0042   1.00  492.1
2024/06/03 12:59:32.000   28.299142651  -16.489642460  2188.9207   1   6   0.0015   0.0020   0.0339   0.0007  -0.0045  -0.0042   2.00  491.6
2024/06/03 12:59:33.000   28.299142651  -16.489642459  2188.9198   1   6   0.0015   0.0020   0.0339   0.0007  -0.0046  -0.0042   3.00  490.5
2024/06/03 12:59:34.000   28.299142651  -16.489642459  2188.9200   1   6   0.0015   0.0020   0.0340   0.0007  -0.0046  -0.0042   4.00  489.6
2024/06/03 12:59:35.000   28.299142651  -16.489642459  2188.9202   1   6   0.0015   0.0020   0.0340   0.0007  -0.0046  -0.0042   5.00  488.3
2024/06/03 12:59:36.000   28.299142651  -16.489642459  2188.9206   1   6   0.0015   0.0020   0.0340   0.0007  -0.0046  -0.0042   6.00  486.6
2024/06/03 12:59:37.000   28.299142651  -16.489642459  2188.9204   1   6   0.0015   0.0020   0.0341   0.0007  -0.0046  -0.0042   7.00  484.4
2024/06/03 12:59:38.000   28.299142651  -16.489642459  2188.9206   1   6   0.0015   0.0020   0.0341   0.0007  -0.0046  -0.0042   8.00  483.3
2024/06/03 12:59:39.000   28.299142651  -16.489642459  2188.9205   1   6   0.0015   0.0020   0.0341   0.0007  -0.0046  -0.0042   9.00  482.6
2024/06/03 12:59:40.000   28.299142651  -16.489642459  2188.9205   1   6   0.0015   0.0020   0.0341   0.0007  -0.0046  -0.0042  10.00  481.8
2024/06/03 12:59:41.000   28.299142651  -16.489642458  2188.9202   1   6   0.0015   0.0020   0.0341   0.0007  -0.0046  -0.0042  11.00  480.8
2024/06/03 12:59:42.000   28.299142651  -16.489642458  2188.9201   1   6   0.0015   0.0020   0.0341   0.0007  -0.0046  -0.0042  12.00  479.0
2024/06/03 12:59:43.000   28.299142651  -16.489642458  2188.9201   1   6   0.0015   0.0020   0.0341   0.0007  -0.0046  -0.0042  13.00  477.4
2024/06/03 12:59:44.000   28.299142651  -16.489642458  2188.9204   1   6   0.0015   0.0020   0.0341   0.0007  -0.0046  -0.0042  14.00  476.0
2024/06/03 12:59:45.000   28.299142651  -16.489642458  2188.9207   1   6   0.0015   0.0020   0.0341   0.0007  -0.0046  -0.0042  15.00  474.8
2024/06/03 12:59:46.000   28.299142651  -16.489642458  2188.9207   1   6   0.0015   0.0020   0.0341   0.0007  -0.0046  -0.0042 -14.00  473.3
2024/06/03 12:59:47.000   28.299142651  -16.489642458  2188.9208   1   6   0.0015   0.0020   0.0341   0.0007  -0.0046  -0.0042 -13.00  471.9
2024/06/03 12:59:48.000   28.299142651  -16.489642458  2188.9209   1   6   0.0015   0.0020   0.0341   0.0007  -0.0046  -0.0042 -12.00  470.5
2024/06/03 12:59:49.000   28.299142643  -16.489642484  2188.9184   1   6   0.0014   0.0019   0.0332   0.0007  -0.0049  -0.0042 -11.00    4.5
2024/06/03 12:59:50.000   28.299142643  -16.489642484  2188.9187   1   6   0.0014   0.0019   0.0332   0.0007  -0.0049  -0.0042 -10.00    4.5
2024/06/03 12:59:51.000   28.299142643  -16.489642484  2188.9190   1   6   0.0014   0.0019   0.0332   0.0007  -0.0049  -0.0042  -9.00    4.5
2024/06/03 12:59:52.000   28.299142643  -16.489642484  2188.9193   1   6   0.0014   0.0019   0.0332   0.0007  -0.0049  -0.0042  -8.00    4.5
2024/06/03 12:59:53.000   28.299142643  -16.489642484  2188.9195   1   6   0.0014   0.0019   0.0332   0.0007  -0.0049  -0.0042  -7.00    4.7
2024/06/03 12:59:54.000   28.299142643  -16.489642484  2188.9194   1   6   0.0014   0.0019   0.0332   0.0007  -0.0049  -0.0042  -6.00    4.8
2024/06/03 12:59:55.000   28.299142643  -16.489642484  2188.9191   1   6   0.0014   0.0019   0.0332   0.0007  -0.0049  -0.0042  -5.00    4.7
2024/06/03 12:59:56.000   28.299142643  -16.489642484  2188.9193   1   6   0.0014   0.0019   0.0332   0.0007  -0.0049  -0.0041  -4.00    4.9
2024/06/03 12:59:57.000   28.299142643  -16.489642484  2188.9202   1   6   0.0014   0.0019   0.0332   0.0007  -0.0049  -0.0041  -3.00    4.9
2024/06/03 12:59:58.000   28.299142643  -16.489642484  2188.9208   1   6   0.0014   0.0019   0.0333   0.0007  -0.0049  -0.0041  -2.00    4.9
2024/06/03 12:59:59.000   28.299142642  -16.489642484  2188.9211   1   6   0.0014   0.0019   0.0333   0.0007  -0.0049  -0.0041  -1.00    4.9
2024/06/03 13:00:00.000   28.299142643  -16.489642485  2188.9210   1   6   0.0014   0.0019   0.0333   0.0007  -0.0049  -0.0041   0.00    4.8
2024/06/03 13:00:01.000   28.299142643  -16.489642485  2188.9223   1   6   0.0014   0.0019   0.0333   0.0007  -0.0049  -0.0041   1.00    4.5
2024/06/03 13:00:02.000   28.299142642  -16.489642485  2188.9229   1   6   0.0014   0.0019   0.0334   0.0007  -0.0049  -0.0041   2.00    4.6
2024/06/03 13:00:03.000   28.299142642  -16.489642485  2188.9248   1   6   0.0014   0.0019   0.0334   0.0007  -0.0049  -0.0041   3.00    4.2
2024/06/03 13:00:04.000   28.299142642  -16.489642486  2188.9259   1   6   0.0014   0.0019   0.0334   0.0007  -0.0049  -0.0041   4.00    4.1
2024/06/03 13:00:05.000   28.299142642  -16.489642486  2188.9271   1   6   0.0014   0.0019   0.0334   0.0007  -0.0049  -0.0041   5.00    3.8
2024/06/03 13:00:06.000   28.299142642  -16.489642487  2188.9281   1   6   0.0014   0.0019   0.0334   0.0007  -0.0049  -0.0041   6.00    3.8
2024/06/03 13:00:07.000   28.299142642  -16.489642487  2188.9286   1   6   0.0014   0.0019   0.0334   0.0007  -0.0049  -0.0041   7.00    3.8
2024/06/03 13:00:08.000   28.299142642  -16.489642487  2188.9287   1   6   0.0014   0.0019   0.0335   0.0007  -0.0049  -0.0041   8.00    3.8
2024/06/03 13:00:09.000   28.299142643  -16.489642508  2188.9664   1   6   0.0014   0.0018   0.0317   0.0007  -0.0042  -0.0041   9.00    3.0
2024/06/03 13:00:10.000   28.299142643  -16.489642508  2188.9662   1   6   0.0014   0.0018   0.0317   0.0007  -0.0042  -0.0041  10.00    5.0
2024/06/03 13:00:11.000   28.299142643  -16.489642506  2188.9636   1   6   0.0014   0.0017   0.0303   0.0007  -0.0037  -0.0041  11.00    5.8
2024/06/03 13:00:12.000   28.299142643  -16.489642506  2188.9636   1   6   0.0014   0.0017   0.0303   0.0007  -0.0037  -0.0041  12.00    7.2
2024/06/03 13:00:13.000   28.299142643  -16.489642506  2188.9639   1   6   0.0014   0.0017   0.0303   0.0007  -0.0037  -0.0041  13.00    8.5
2024/06/03 13:00:14.000   28.299142643  -16.489642506  2188.9643   1   6   0.0014   0.0017   0.0303   0.0007  -0.0037  -0.0041  14.00    9.8
2024/06/03 13:00:15.000   28.299142643  -16.489642506  2188.9648   1   6   0.0014   0.0017   0.0303   0.0007  -0.0037  -0.0041 -15.00   11.0
2024/06/03 13:00:16.000   28.299142643  -16.489642507  2188.9652   1   6   0.0014   0.0017   0.0303   0.0007  -0.0037  -0.0041 -14.00   12.4
2024/06/03 13:00:17.000   28.299142643  -16.489642507  2188.9655   1   6   0.0014   0.0017   0.0303   0.0007  -0.0037  -0.0041 -13.00   13.7
2024/06/03 13:00:18.000   28.299142643  -16.489642507  2188.9657   1   6   0.0014   0.0017   0.0303   0.0007  -0.0037  -0.0041 -12.00   15.1
2024/06/03 13:00:19.000   28.299142643  -16.489642507  2188.9660   1   6   0.0014   0.0017   0.0302   0.0007  -0.0037  -0.0041 -11.00   16.5
2024/06/03 13:00:20.000   28.299142642  -16.489642507  2188.9665   1   6   0.0014   0.0017   0.0302   0.0007  -0.0037  -0.0041 -10.00   17.8
2024/06/03 13:00:21.000   28.299142642  -16.489642507  2188.9669   1   6   0.0014   0.0017   0.0302   0.0007  -0.0037  -0.0041  -9.00   19.3
2024/06/03 13:00:22.000   28.299142642  -16.489642507  2188.9672   1   6   0.0014   0.0017   0.0302   0.0007  -0.0037  -0.0041  -8.00   20.8
2024/06/03 13:00:23.000   28.299142642  -16.489642507  2188.9678   1   6   0.0014   0.0017   0.0302   0.0007  -0.0037  -0.0041  -7.00   22.2
2024/06/03 13:00:24.000   28.299142642  -16.489642507  2188.9686   1   6   0.0014   0.0017   0.0302   0.0007  -0.0037  -0.0041  -6.00   23.6
2024/06/03 13:00:25.000   28.299142642  -16.489642507  2188.9693   1   6   0.0014   0.0017   0.0302   0.0007  -0.0037  -0.0041  -5.00   25.1
2024/06/03 13:00:26.000   28.299142642  -16.489642507  2188.9695   1   6   0.0014   0.0017   0.0302   0.0007  -0.0036  -0.0041  -4.00   26.8
2024/06/03 13:00:27.000   28.299142642  -16.489642508  2188.9703   1   6   0.0014   0.0017   0.0302   0.0007  -0.0036  -0.0041  -3.00   28.2
2024/06/03 13:00:28.000   28.299142642  -16.489642507  2188.9706   1   6   0.0014   0.0017   0.0302   0.0007  -0.0036  -0.0041  -2.00   30.0
2024/06/03 13:00:29.000   28.299142642  -16.489642508  2188.9704   1   6   0.0014   0.0017   0.0302   0.0007  -0.0036  -0.0041  -1.00   31.8
2024/06/03 13:00:30.000   28.299142642  -16.489642508  2188.9701   1   6   0.0014   0.0017   0.0302   0.0007  -0.0036  -0.0041   0.00   33.6
2024/06/03 13:00:31.000   28.299142642  -16.489642507  2188.9709   1   6   0.0014   0.0017   0.0302   0.0007  -0.0036  -0.0041   1.00   33.5
2024/06/03 13:00:32.000   28.299142643  -16.489642509  2188.9701   1   6   0.0014   0.0017   0.0302   0.0007  -0.0036  -0.0041   2.00   35.7
2024/06/03 13:00:33.000   28.299142643  -16.489642509  2188.9690   1   6   0.0014   0.0017   0.0302   0.0007  -0.0036  -0.0041   3.00   38.5
2024/06/03 13:00:34.000   28.299142643  -16.489642508  2188.9684   1   6   0.0014   0.0017   0.0302   0.0007  -0.0036  -0.0041   4.00   40.4
2024/06/03 13:00:35.000   28.299142643  -16.489642508  2188.9688   1   6   0.0014   0.0017   0.0302   0.0007  -0.0036  -0.0041   5.00   41.7
2024/06/03 13:00:36.000   28.299142643  -16.489642508  2188.9691   1   6   0.0014   0.0017   0.0302   0.0007  -0.0036  -0.0041   6.00   42.8
2024/06/03 13:00:37.000   28.299142643  -16.489642508  2188.9697   1   6   0.0014   0.0017   0.0302   0.0007  -0.0036  -0.0041   7.00   43.9
2024/06/03 13:00:38.000   28.299142643  -16.489642508  2188.9700   1   6   0.0014   0.0017   0.0302   0.0007  -0.0036  -0.0041   8.00   45.2
2024/06/03 13:00:39.000   28.299142643  -16.489642508  2188.9702   1   6   0.0014   0.0017   0.0302   0.0007  -0.0036  -0.0041   9.00   46.6
2024/06/03 13:00:40.000   28.299142643  -16.489642508  2188.9702   1   6   0.0014   0.0017   0.0302   0.0007  -0.0036  -0.0041  10.00   48.4
2024/06/03 13:00:41.000   28.299142643  -16.489642508  2188.9700   1   6   0.0014   0.0017   0.0302   0.0007  -0.0036  -0.0041  11.00   50.1
2024/06/03 13:00:42.000   28.299142643  -16.489642508  2188.9699   1   6   0.0014   0.0017   0.0302   0.0007  -0.0036  -0.0041  12.00   51.9
2024/06/03 13:00:43.000   28.299142643  -16.489642508  2188.9698   1   6   0.0014   0.0017   0.0302   0.0007  -0.0037  -0.0041  13.00   53.5
2024/06/03 13:00:44.000   28.299142643  -16.489642508  2188.9698   1   6   0.0014   0.0017   0.0302   0.0007  -0.0037  -0.0041  14.00   55.1
2024/06/03 13:00:45.000   28.299142643  -16.489642508  2188.9699   1   6   0.0014   0.0017   0.0302   0.0007  -0.0037  -0.0041 -15.00   56.7
2024/06/03 13:00:46.000   28.299142643  -16.489642508  2188.9699   1   6   0.0014   0.0017   0.0302   0.0007  -0.0037  -0.0041 -14.00   58.3
2024/06/03 13:00:47.000   28.299142643  -16.489642508  2188.9698   1   6   0.0014   0.0017   0.0302   0.0007  -0.0037  -0.0041 -13.00   60.0
2024/06/03 13:00:48.000   28.299142643  -16.489642507  2188.9698   1   6   0.0014   0.0017   0.0302   0.0007  -0.0037  -0.0041 -12.00   61.6
2024/06/03 13:00:49.000   28.299142643  -16.489642507  2188.9697   1   6   0.0014   0.0017   0.0302   0.0007  -0.0037  -0.0041 -11.00   63.4
2024/06/03 13:00:50.000   28.299142643  -16.489642507  2188.9694   1   6   0.0014   0.0017   0.0301   0.0007  -0.0037  -0.0041 -10.00   65.3
2024/06/03 13:00:51.000   28.299142644  -16.489642507  2188.9692   1   6   0.0014   0.0017   0.0301   0.0007  -0.0037  -0.0041  -9.00   67.1
2024/06/03 13:00:52.000   28.299142644  -16.489642507  2188.9688   1   6   0.0014   0.0017   0.0301   0.0007  -0.0037  -0.0041  -8.00   69.0
2024/06/03 13:00:53.000   28.299142644  -16.489642507  2188.9685   1   6   0.0014   0.0017   0.0301   0.0007  -0.0037  -0.0041  -7.00   70.8
2024/06/03 13:00:54.000   28.299142644  -16.489642507  2188.9685   1   6   0.0014   0.0017   0.0301   0.0007  -0.0037  -0.0041  -6.00   72.1
2024/06/03 13:00:55.000   28.299142644  -16.489642507  2188.9683   1   6   0.0014   0.0017   0.0301   0.0007  -0.0037  -0.0041  -5.00   73.4
2024/06/03 13:00:56.000   28.299142644  -16.489642507  2188.9682   1   6   0.0014   0.0017   0.0301   0.0007  -0.0037  -0.0041  -4.00   74.8
2024/06/03 13:00:57.000   28.299142644  -16.489642507  2188.9680   1   6   0.0014   0.0017   0.0301   0.0007  -0.0037  -0.0041  -3.00   75.3
2024/06/03 13:00:58.000   28.299142644  -16.489642507  2188.9681   1   6   0.0014   0.0017   0.0301   0.0007  -0.0037  -0.0041  -2.00   76.4
2024/06/03 13:00:59.000   28.299142644  -16.489642507  2188.9685   1   6   0.0014   0.0017   0.0301   0.0007  -0.0037  -0.0041  -1.00   77.7
2024/06/03 13:01:00.000   28.299142644  -16.489642507  2188.9682   1   6   0.0014   0.0017   0.0301   0.0007  -0.0036  -0.0041   0.00   78.9
2024/06/03 13:01:01.000   28.299142644  -16.489642507  2188.9687   1   6   0.0014   0.0017   0.0301   0.0007  -0.0037  -0.0041   1.00   80.7
2024/06/03 13:01:02.000   28.299142644  -16.489642507  2188.9693   1   6   0.0014   0.0017   0.0301   0.0007  -0.0037  -0.0041   2.00   82.8
2024/06/03 13:01:03.000   28.299142644  -16.489642507  2188.9699   1   6   0.0014   0.0017   0.0301   0.0007  -0.0037  -0.0041   3.00   83.4
2024/06/03 13:01:04.000   28.299142644  -16.489642507  2188.9699   1   6   0.0014   0.0017   0.0301   0.0007  -0.0037  -0.0040   4.00   84.5
2024/06/03 13:01:05.000   28.299142644  -16.489642507  2188.9701   1   6   0.0014   0.0017   0.0301   0.0007  -0.0037  -0.0040   5.00   86.4
2024/06/03 13:01:06.000   28.299142644  -16.489642507  2188.9703   1   6   0.0014   0.0017   0.0301   0.0007  -0.0037  -0.0040   6.00   88.3
2024/06/03 13:01:07.000   28.299142644  -16.489642507  2188.9702   1   6   0.0014   0.0017   0.0301   0.0007  -0.0037  -0.0040   7.00   89.8
2024/06/03 13:01:08.000   28.299142644  -16.489642507  2188.9702   1   6   0.0014   0.0017   0.0301   0.0007  -0.0037  -0.0040   8.00   91.5
2024/06/03 13:01:09.000   28.299142644  -16.489642507  2188.9705   1   6   0.0014   0.0017   0.0301   0.0007  -0.0037  -0.0040   9.00   93.2
2024/06/03 13:01:10.000   28.299142644  -16.489642507  2188.9707   1   6   0.0014   0.0017   0.0301   0.0007  -0.0037  -0.0040  10.00   95.3
2024/06/03 13:01:11.000   28.299142644  -16.489642507  2188.9706   1   6   0.0014   0.0017   0.0301   0.0007  -0.0037  -0.0040  11.00   97.4
2024/06/03 13:01:12.000   28.299142644  -16.489642507  2188.9706   1   6   0.0014   0.0017   0.0301   0.0006  -0.0037  -0.0040  12.00   99.3
2024/06/03 13:01:13.000   28.299142644  -16.489642507  2188.9706   1   6   0.0014   0.0017   0.0301   0.0006  -0.0037  -0.0040  13.00  101.0
2024/06/03 13:01:14.000   28.299142644  -16.489642507  2188.9706   1   6   0.0014   0.0017   0.0301   0.0006  -0.0037  -0.0040  14.00  102.5
2024/06/03 13:01:15.000   28.299142644  -16.489642507  2188.9707   1   6   0.0014   0.0017   0.0301   0.0006  -0.0037  -0.0040 -15.00  104.1
2024/06/03 13:01:16.000   28.299142644  -16.489642507  2188.9709   1   6   0.0014   0.0017   0.0301   0.0006  -0.0037  -0.0040 -14.00  105.6
2024/06/03 13:01:17.000   28.299142644  -16.489642507  2188.9711   1   6   0.0014   0.0017   0.0301   0.0006  -0.0037  -0.0040 -13.00  107.2
2024/06/03 13:01:18.000   28.299142644  -16.489642507  2188.9714   1   6   0.0014   0.0017   0.0301   0.0006  -0.0037  -0.0040 -12.00  108.9
2024/06/03 13:01:19.000   28.299142644  -16.489642507  2188.9716   1   6   0.0014   0.0017   0.0301   0.0006  -0.0037  -0.0040 -11.00  110.4
2024/06/03 13:01:20.000   28.299142644  -16.489642507  2188.9719   1   6   0.0014   0.0017   0.0301   0.0006  -0.0037  -0.0040 -10.00  111.6
2024/06/03 13:01:21.000   28.299142644  -16.489642507  2188.9723   1   6   0.0014   0.0017   0.0301   0.0006  -0.0037  -0.0040  -9.00  113.3
2024/06/03 13:01:22.000   28.299142644  -16.489642507  2188.9728   1   6   0.0014   0.0017   0.0301   0.0006  -0.0037  -0.0040  -8.00  114.8
2024/06/03 13:01:23.000   28.299142644  -16.489642506  2188.9731   1   6   0.0014   0.0017   0.0301   0.0006  -0.0037  -0.0040  -7.00  116.4
2024/06/03 13:01:24.000   28.299142644  -16.489642506  2188.9734   1   6   0.0014   0.0017   0.0301   0.0006  -0.0037  -0.0040  -6.00  117.6
2024/06/03 13:01:25.000   28.299142644  -16.489642506  2188.9738   1   6   0.0014   0.0017   0.0301   0.0006  -0.0037  -0.0040  -5.00  118.1
2024/06/03 13:01:26.000   28.299142644  -16.489642506  2188.9742   1   6   0.0014   0.0017   0.0301   0.0006  -0.0037  -0.0040  -4.00  119.7
2024/06/03 13:01:27.000   28.299142644  -16.489642506  2188.9745   1   6   0.0014   0.0017   0.0301   0.0006  -0.0037  -0.0040  -3.00  120.9
2024/06/03 13:01:28.000   28.299142644  -16.489642506  2188.9745   1   6   0.0014   0.0017   0.0301   0.0006  -0.0037  -0.0040  -2.00  122.5
2024/06/03 13:01:29.000   28.299142644  -16.489642506  2188.9744   1   6   0.0014   0.0017   0.0301   0.0006  -0.0037  -0.0040  -1.00  123.6
2024/06/03 13:01:30.000   28.299142644  -16.489642506  2188.9743   1   6   0.0013   0.0017   0.0301   0.0006  -0.0037  -0.0040   0.00  126.6
2024/06/03 13:01:31.000   28.299142644  -16.489642506  2188.9744   1   6   0.0013   0.0017   0.0301   0.0006  -0.0037  -0.0040   1.00  128.8
2024/06/03 13:01:32.000   28.299142644  -16.489642505  2188.9747   1   6   0.0013   0.0017   0.0301   0.0006  -0.0037  -0.0040   2.00  128.3
2024/06/03 13:01:33.000   28.299142644  -16.489642504  2188.9747   1   6   0.0013   0.0017   0.0301   0.0006  -0.0037  -0.0040   3.00  127.8
2024/06/03 13:01:34.000   28.299142644  -16.489642505  2188.9748   1   6   0.0013   0.0017   0.0301   0.0006  -0.0037  -0.0040   4.00  128.1
2024/06/03 13:01:35.000   28.299142644  -16.489642504  2188.9749   1   6   0.0013   0.0017   0.0301   0.0006  -0.0037  -0.0040   5.00  128.3
2024/06/03 13:01:36.000   28.299142644  -16.489642505  2188.9754   1   6   0.0013   0.0017   0.0301   0.0006  -0.0037  -0.0040   6.00  129.0
2024/06/03 13:01:37.000   28.299142644  -16.489642505  2188.9755   1   6   0.0013   0.0017   0.0301   0.0006  -0.0037  -0.0040   7.00  130.0
2024/06/03 13:01:38.000   28.299142644  -16.489642505  2188.9759   1   6   0.0013   0.0017   0.0301   0.0006  -0.0037  -0.0040   8.00  130.6
2024/06/03 13:01:39.000   28.299142644  -16.489642505  2188.9763   1   6   0.0013   0.0017   0.0301   0.0006  -0.0037  -0.0040   9.00  132.3
2024/06/03 13:01:40.000   28.299142644  -16.489642505  2188.9765   1   6   0.0013   0.0017   0.0301   0.0006  -0.0037  -0.0040  10.00  133.9
2024/06/03 13:01:41.000   28.299142644  -16.489642505  2188.9766   1   6   0.0013   0.0017   0.0301   0.0006  -0.0037  -0.0040  11.00  135.0
2024/06/03 13:01:42.000   28.299142644  -16.489642505  2188.9769   1   6   0.0013   0.0017   0.0301   0.0006  -0.0037  -0.0040  12.00  136.3
2024/06/03 13:01:43.000   28.299142644  -16.489642505  2188.9771   1   6   0.0013   0.0017   0.0301   0.0006  -0.0037  -0.0040  13.00  137.9
2024/06/03 13:01:44.000   28.299142644  -16.489642505  2188.9772   1   6   0.0013   0.0017   0.0301   0.0006  -0.0037  -0.0040  14.00  139.6
2024/06/03 13:01:45.000   28.299142644  -16.489642505  2188.9772   1   6   0.0013   0.0017   0.0301   0.0006  -0.0037  -0.0040 -15.00  141.0
2024/06/03 13:01:46.000   28.299142644  -16.489642505  2188.9772   1   6   0.0013   0.0017   0.0301   0.0006  -0.0037  -0.0040 -14.00  142.5
2024/06/03 13:01:47.000   28.299142644  -16.489642505  2188.9772   1   6   0.0013   0.0017   0.0301   0.0006  -0.0037  -0.0040 -13.00  144.2
2024/06/03 13:01:48.000   28.299142644  -16.489642505  2188.9772   1   6   0.0013   0.0017   0.0301   0.0006  -0.0037  -0.0040 -12.00  146.0
2024/06/03 13:01:49.000   28.299142644  -16.489642505  2188.9772   1   6   0.0013   0.0017   0.0301   0.0006  -0.0037  -0.0040 -11.00  148.0
2024/06/03 13:01:50.000   28.299142644  -16.489642505  2188.9771   1   6   0.0013   0.0017   0.0301   0.0006  -0.0037  -0.0040 -10.00  149.8
2024/06/03 13:01:51.000   28.299142644  -16.489642504  2188.9769   1   6   0.0013   0.0017   0.0301   0.0006  -0.0037  -0.0040  -9.00  151.0
2024/06/03 13:01:52.000   28.299142644  -16.489642504  2188.9771   1   6   0.0013   0.0017   0.0301   0.0006  -0.0037  -0.0040  -8.00  152.2
2024/06/03 13:01:53.000   28.299142644  -16.489642504  2188.9777   1   6   0.0013   0.0017   0.0301   0.0006  -0.0037  -0.0040  -7.00  153.6
2024/06/03 13:01:54.000   28.299142644  -16.489642504  2188.9782   1   6   0.0013   0.0017   0.0301   0.0006  -0.0037  -0.0040  -6.00  155.5
2024/06/03 13:01:55.000   28.299142644  -16.489642504  2188.9785   1   6   0.0013   0.0017   0.0301   0.0006  -0.0037  -0.0040  -5.00  156.9
2024/06/03 13:01:56.000   28.299142644  -16.489642504  2188.9787   1   6   0.0013   0.0017   0.0301   0.0006  -0.0037  -0.0040  -4.00  157.6
2024/06/03 13:01:57.000   28.299142644  -16.489642504  2188.9791   1   6   0.0013   0.0017   0.0301   0.0006  -0.0037  -0.0040  -3.00  156.8
2024/06/03 13:01:58.000   28.299142643  -16.489642504  2188.9799   1   6   0.0013   0.0017   0.0301   0.0006  -0.0037  -0.0040  -2.00  156.9
2024/06/03 13:01:59.000   28.299142643  -16.489642504  2188.9808   1   6   0.0013   0.0017   0.0301   0.0006  -0.0037  -0.0040  -1.00  158.7
2024/06/03 13:02:00.000   28.299142643  -16.489642504  2188.9811   1   6   0.0013   0.0017   0.0301   0.0006  -0.0037  -0.0040   0.00  158.5
2024/06/03 13:02:01.000   28.299142643  -16.489642504  2188.9809   1   6   0.0013   0.0017   0.0301   0.0006  -0.0037  -0.0039   1.00  159.8
2024/06/03 13:02:02.000   28.299142643  -16.489642504  2188.9813   1   6   0.0013   0.0017   0.0301   0.0006  -0.0037  -0.0039   2.00  161.6
2024/06/03 13:02:03.000   28.299142643  -16.489642505  2188.9819   1   6   0.0013   0.0017   0.0301   0.0006  -0.0037  -0.0039   3.00  164.7
2024/06/03 13:02:04.000   28.299142643  -16.489642505  2188.9820   1   6   0.0013   0.0017   0.0302   0.0006  -0.0037  -0.0039   4.00  168.3
2024/06/03 13:02:05.000   28.299142643  -16.489642505  2188.9822   1   6   0.0013   0.0017   0.0302   0.0006  -0.0037  -0.0039   5.00  169.6
2024/06/03 13:02:06.000   28.299142643  -16.489642505  2188.9828   1   6   0.0013   0.0017   0.0302   0.0006  -0.0037  -0.0039   6.00  172.2
2024/06/03 13:02:07.000   28.299142643  -16.489642506  2188.9833   1   6   0.0013   0.0017   0.0302   0.0006  -0.0037  -0.0039   7.00  175.8
2024/06/03 13:02:08.000   28.299142643  -16.489642505  2188.9834   1   6   0.0013   0.0017   0.0302   0.0006  -0.0037  -0.0039   8.00  177.8
2024/06/03 13:02:09.000   28.299142643  -16.489642505  2188.9835   1   6   0.0013   0.0017   0.0302   0.0006  -0.0037  -0.0039   9.00  178.7
2024/06/03 13:02:10.000   28.299142643  -16.489642505  2188.9838   1   6   0.0013   0.0017   0.0302   0.0006  -0.0037  -0.0039  10.00  180.8
2024/06/03 13:02:11.000   28.299142643  -16.489642505  2188.9840   1   6   0.0013   0.0017   0.0302   0.0006  -0.0037  -0.0039  11.00  182.4
2024/06/03 13:02:12.000   28.299142643  -16.489642505  2188.9842   1   6   0.0013   0.0017   0.0302   0.0006  -0.0037  -0.0039  12.00  184.0
2024/06/03 13:02:13.000   28.299142643  -16.489642505  2188.9845   1   6   0.0013   0.0017   0.0302   0.0006  -0.0037  -0.0039  13.00  185.8
2024/06/03 13:02:14.000   28.299142643  -16.489642505  2188.9846   1   6   0.0013   0.0017   0.0302   0.0006  -0.0037  -0.0039  14.00  187.5
2024/06/03 13:02:15.000   28.299142643  -16.489642505  2188.9847   1   6   0.0013   0.0017   0.0302   0.0006  -0.0037  -0.0039 -15.00  189.3
2024/06/03 13:02:16.000   28.299142643  -16.489642505  2188.9847   1   6   0.0013   0.0017   0.0302   0.0006  -0.0037  -0.0039 -14.00  190.7
2024/06/03 13:02:17.000   28.299142643  -16.489642505  2188.9848   1   6   0.0013   0.0017   0.0302   0.0006  -0.0037  -0.0039 -13.00  192.6
2024/06/03 13:02:18.000   28.299142643  -16.489642505  2188.9848   1   6   0.0013   0.0017   0.0302   0.0006  -0.0037  -0.0039 -12.00  194.6
2024/06/03 13:02:19.000   28.299142643  -16.489642505  2188.9848   1   6   0.0013   0.0017   0.0302   0.0006  -0.0037  -0.0039 -11.00  196.6
2024/06/03 13:02:20.000   28.299142643  -16.489642505  2188.9848   1   6   0.0013   0.0017   0.0302   0.0006  -0.0037  -0.0039 -10.00  198.7
2024/06/03 13:02:21.000   28.299142644  -16.489642505  2188.9847   1   6   0.0013   0.0017   0.0302   0.0006  -0.0037  -0.0039  -9.00  200.2
2024/06/03 13:02:22.000   28.299142644  -16.489642505  2188.9845   1   6   0.0013   0.0017   0.0302   0.0006  -0.0037  -0.0039  -8.00  201.6
2024/06/03 13:02:23.000   28.299142644  -16.489642505  2188.9843   1   6   0.0013   0.0017   0.0302   0.0006  -0.0037  -0.0039  -7.00  203.8
2024/06/03 13:02:24.000   28.299142644  -16.489642505  2188.9843   1   6   0.0013   0.0016   0.0302   0.0006  -0.0037  -0.0039  -6.00  205.7
2024/06/03 13:02:25.000   28.299142644  -16.489642505  2188.9847   1   6   0.0013   0.0016   0.0302   0.0006  -0.0037  -0.0039  -5.00  207.7
2024/06/03 13:02:26.000   28.299142644  -16.489642505  2188.9847   1   6   0.0013   0.0016   0.0302   0.0006  -0.0037  -0.0039  -4.00  208.2
2024/06/03 13:02:27.000   28.299142644  -16.489642505  2188.9852   1   6   0.0013   0.0016   0.0302   0.0006  -0.0037  -0.0039  -3.00  207.7
2024/06/03 13:02:28.000   28.299142643  -16.489642505  2188.9862   1   6   0.0013   0.0016   0.0302   0.0006  -0.0037  -0.0039  -2.00  210.5
2024/06/03 13:02:29.000   28.299142644  -16.489642505  2188.9868   1   6   0.0013   0.0016   0.0302   0.0006  -0.0037  -0.0039  -1.00  210.8
2024/06/03 13:02:30.000   28.299142644  -16.489642505  2188.9866   1   6   0.0013   0.0016   0.0302   0.0006  -0.0037  -0.0039   0.00  210.2
2024/06/03 13:02:31.000   28.299142644  -16.489642505  2188.9866   1   6   0.0013   0.0016   0.0302   0.0006  -0.0038  -0.0039   1.00  209.7
2024/06/03 13:02:32.000   28.299142644  -16.489642504  2188.9865   1   6   0.0013   0.0016   0.0302   0.0006  -0.0038  -0.0039   2.00  206.9
2024/06/03 13:02:33.000   28.299142644  -16.489642504  2188.9860   1   6   0.0013   0.0016   0.0302   0.0006  -0.0038  -0.0039   3.00  204.8
2024/06/03 13:02:34.000   28.299142644  -16.489642504  2188.9862   1   6   0.0013   0.0016   0.0302   0.0006  -0.0038  -0.0039   4.00  204.5
2024/06/03 13:02:35.000   28.299142644  -16.489642504  2188.9862   1   6   0.0013   0.0016   0.0302   0.0006  -0.0038  -0.0039   5.00  205.6
2024/06/03 13:02:36.000   28.299142644  -16.489642504  2188.9861   1   6   0.0013   0.0016   0.0302   0.0006  -0.0038  -0.0039   6.00  207.9
2024/06/03 13:02:37.000   28.299142644  -16.489642504  2188.9860   1   6   0.0013   0.0016   0.0302   0.0006  -0.0038  -0.0039   7.00  208.6
2024/06/03 13:02:38.000   28.299142644  -16.489642504  2188.9858   1   6   0.0013   0.0016   0.0302   0.0006  -0.0038  -0.0039   8.00  209.8
2024/06/03 13:02:39.000   28.299142644  -16.489642504  2188.9858   1   6   0.0013   0.0016   0.0302   0.0006  -0.0038  -0.0039   9.00  211.4
2024/06/03 13:02:40.000   28.299142644  -16.489642504  2188.9859   1   6   0.0013   0.0016   0.0302   0.0006  -0.0038  -0.0039  10.00  212.8
2024/06/03 13:02:41.000   28.299142644  -16.489642504  2188.9860   1   6   0.0013   0.0016   0.0302   0.0006  -0.0038  -0.0039  11.00  214.1
2024/06/03 13:02:42.000   28.299142644  -16.489642504  2188.9860   1   6   0.0013   0.0016   0.0302   0.0006  -0.0038  -0.0039  12.00  215.6
2024/06/03 13:02:43.000   28.299142644  -16.489642504  2188.9860   1   6   0.0013   0.0016   0.0302   0.0006  -0.0038  -0.0039  13.00  217.0
2024/06/03 13:02:44.000   28.299142644  -16.489642503  2188.9860   1   6   0.0013   0.0016   0.0302   0.0006  -0.0038  -0.0039  14.00  218.2
2024/06/03 13:02:45.000   28.299142644  -16.489642503  2188.9861   1   6   0.0013   0.0016   0.0302   0.0006  -0.0038  -0.0039 -15.00  219.5
2024/06/03 13:02:46.000   28.299142644  -16.489642503  2188.9861   1   6   0.0013   0.0016   0.0302   0.0006  -0.0038  -0.0039 -14.00  221.0
2024/06/03 13:02:47.000   28.299142645  -16.489642503  2188.9861   1   6   0.0013   0.0016   0.0302   0.0006  -0.0038  -0.0039 -13.00  222.4
2024/06/03 13:02:48.000   28.299142645  -16.489642503  2188.9860   1   6   0.0013   0.0016   0.0302   0.0006  -0.0038  -0.0039 -12.00  223.3
2024/06/03 13:02:49.000   28.299142645  -16.489642503  2188.9860   1   6   0.0013   0.0016   0.0302   0.0006  -0.0038  -0.0039 -11.00  224.2
2024/06/03 13:02:50.000   28.299142645  -16.489642503  2188.9861   1   6   0.0013   0.0016   0.0302   0.0006  -0.0038  -0.0039 -10.00  224.9
2024/06/03 13:02:51.000   28.299142645  -16.489642503  2188.9863   1   6   0.0013   0.0016   0.0302   0.0006  -0.0038  -0.0039  -9.00  225.4
2024/06/03 13:02:52.000   28.299142645  -16.489642503  2188.9865   1   6   0.0013   0.0016   0.0302   0.0006  -0.0038  -0.0039  -8.00  225.9
2024/06/03 13:02:53.000   28.299142645  -16.489642503  2188.9867   1   6   0.0013   0.0016   0.0302   0.0006  -0.0038  -0.0039  -7.00  226.7
2024/06/03 13:02:54.000   28.299142645  -16.489642503  2188.9868   1   6   0.0013   0.0016   0.0302   0.0006  -0.0038  -0.0039  -6.00  228.5
2024/06/03 13:02:55.000   28.299142645  -16.489642503  2188.9867   1   6   0.0013   0.0016   0.0302   0.0006  -0.0038  -0.0039  -5.00  228.2
2024/06/03 13:02:56.000   28.299142645  -16.489642503  2188.9869   1   6   0.0013   0.0016   0.0302   0.0006  -0.0038  -0.0039  -4.00  225.8
2024/06/03 13:02:57.000   28.299142645  -16.489642503  2188.9869   1   6   0.0013   0.0016   0.0302   0.0006  -0.0038  -0.0038  -3.00  223.4
2024/06/03 13:02:58.000   28.299142645  -16.489642502  2188.9863   1   6   0.0013   0.0016   0.0302   0.0006  -0.0038  -0.0038  -2.00  219.1
2024/06/03 13:02:59.000   28.299142645  -16.489642502  2188.9855   1   6   0.0013   0.0016   0.0302   0.0006  -0.0038  -0.0038  -1.00  216.6
2024/06/03 13:03:00.000   28.299142645  -16.489642502  2188.9846   1   6   0.0013   0.0016   0.0302   0.0006  -0.0038  -0.0038   0.00  214.1
2024/06/03 13:03:01.000   28.299142645  -16.489642501  2188.9842   1   6   0.0013   0.0016   0.0302   0.0006  -0.0038  -0.0038   1.00  212.9
2024/06/03 13:03:02.000   28.299142645  -16.489642501  2188.9842   1   6   0.0013   0.0016   0.0302   0.0006  -0.0038  -0.0038   2.00  211.7
2024/06/03 13:03:03.000   28.299142645  -16.489642500  2188.9840   1   6   0.0013   0.0016   0.0302   0.0006  -0.0038  -0.0038   3.00  211.1
2024/06/03 13:03:04.000   28.299142645  -16.489642501  2188.9840   1   6   0.0013   0.0016   0.0302   0.0006  -0.0038  -0.0038   4.00  212.9
2024/06/03 13:03:05.000   28.299142645  -16.489642501  2188.9841   1   6   0.0013   0.0016   0.0303   0.0006  -0.0038  -0.0038   5.00  213.0
2024/06/03 13:03:06.000   28.299142645  -16.489642501  2188.9839   1   6   0.0013   0.0016   0.0303   0.0006  -0.0038  -0.0038   6.00  213.9
2024/06/03 13:03:07.000   28.299142645  -16.489642501  2188.9840   1   6   0.0013   0.0016   0.0303   0.0006  -0.0038  -0.0038   7.00  214.8
2024/06/03 13:03:08.000   28.299142645  -16.489642501  2188.9839   1   6   0.0013   0.0016   0.0303   0.0006  -0.0038  -0.0038   8.00  215.7
2024/06/03 13:03:09.000   28.299142645  -16.489642501  2188.9839   1   6   0.0013   0.0016   0.0303   0.0006  -0.0038  -0.0038   9.00  216.9
2024/06/03 13:03:10.000   28.299142645  -16.489642501  2188.9842   1   6   0.0013   0.0016   0.0303   0.0006  -0.0038  -0.0038  10.00  218.1
2024/06/03 13:03:11.000   28.299142645  -16.489642501  2188.9842   1   6   0.0013   0.0016   0.0303   0.0006  -0.0038  -0.0038  11.00  218.8
2024/06/03 13:03:12.000   28.299142645  -16.489642500  2188.9843   1   6   0.0013   0.0016   0.0303   0.0006  -0.0038  -0.0038  12.00  220.1
2024/06/03 13:03:13.000   28.299142645  -16.489642501  2188.9845   1   6   0.0013   0.0016   0.0303   0.0006  -0.0038  -0.0038  13.00  221.2
2024/06/03 13:03:14.000   28.299142645  -16.489642500  2188.9846   1   6   0.0013   0.0016   0.0303   0.0006  -0.0038  -0.0038  14.00  222.5
2024/06/03 13:03:15.000   28.299142645  -16.489642500  2188.9847   1   6   0.0013   0.0016   0.0303   0.0006  -0.0038  -0.0038 -15.00  223.9
2024/06/03 13:03:16.000   28.299142645  -16.489642500  2188.9848   1   6   0.0013   0.0016   0.0303   0.0006  -0.0038  -0.0038 -14.00  225.3
2024/06/03 13:03:17.000   28.299142645  -16.489642500  2188.9849   1   6   0.0013   0.0016   0.0303   0.0006  -0.0038  -0.0038 -13.00  227.1
2024/06/03 13:03:18.000   28.299142645  -16.489642500  2188.9851   1   6   0.0013   0.0016   0.0303   0.0006  -0.0038  -0.0038 -12.00  228.9
2024/06/03 13:03:19.000   28.299142645  -16.489642500  2188.9853   1   6   0.0013   0.0016   0.0303   0.0006  -0.0038  -0.0038 -11.00  230.8
2024/06/03 13:03:20.000   28.299142645  -16.489642500  2188.9857   1   6   0.0013   0.0016   0.0303   0.0006  -0.0038  -0.0038 -10.00  232.6
2024/06/03 13:03:21.000   28.299142645  -16.489642500  2188.9861   1   6   0.0013   0.0016   0.0303   0.0006  -0.0038  -0.0038  -9.00  234.2
2024/06/03 13:03:22.000   28.299142645  -16.489642500  2188.9865   1   6   0.0013   0.0016   0.0303   0.0006  -0.0038  -0.0038  -8.00  234.8
2024/06/03 13:03:23.000   28.299142645  -16.489642500  2188.9870   1   6   0.0013   0.0016   0.0303   0.0006  -0.0038  -0.0038  -7.00  234.9
2024/06/03 13:03:24.000   28.299142645  -16.489642500  2188.9873   1   6   0.0013   0.0016   0.0303   0.0006  -0.0038  -0.0038  -6.00  236.4
2024/06/03 13:03:25.000   28.299142645  -16.489642500  2188.9872   1   6   0.0013   0.0016   0.0303   0.0006  -0.0038  -0.0038  -5.00  237.2
2024/06/03 13:03:26.000   28.299142645  -16.489642500  2188.9868   1   6   0.0013   0.0016   0.0303   0.0006  -0.0038  -0.0038  -4.00  235.9
2024/06/03 13:03:27.000   28.299142645  -16.489642500  2188.9870   1   6   0.0013   0.0016   0.0303   0.0006  -0.0038  -0.0038  -3.00  236.4
2024/06/03 13:03:28.000   28.299142645  -16.489642500  2188.9873   1   6   0.0013   0.0016   0.0303   0.0006  -0.0038  -0.0038  -2.00  235.6
2024/06/03 13:03:29.000   28.299142645  -16.489642500  2188.9879   1   6   0.0013   0.0016   0.0303   0.0006  -0.0038  -0.0038  -1.00  237.0
2024/06/03 13:03:30.000   28.299142645  -16.489642500  2188.9886   1   6   0.0013   0.0016   0.0303   0.0006  -0.0038  -0.0038   0.00  240.3
2024/06/03 13:03:31.000   28.299142645  -16.489642500  2188.9894   1   6   0.0013   0.0016   0.0303   0.0006  -0.0038  -0.0038   1.00  239.8
2024/06/03 13:03:32.000   28.299142645  -16.489642499  2188.9899   1   6   0.0013   0.0016   0.0303   0.0006  -0.0038  -0.0038   2.00  240.1
2024/06/03 13:03:33.000   28.299142645  -16.489642500  2188.9905   1   6   0.0013   0.0016   0.0303   0.0006  -0.0038  -0.0038   3.00  241.2
2024/06/03 13:03:34.000   28.299142645  -16.489642500  2188.9908   1   6   0.0013   0.0016   0.0303   0.0006  -0.0038  -0.0038   4.00  241.3
2024/06/03 13:03:35.000   28.299142645  -16.489642500  2188.9907   1   6   0.0013   0.0016   0.0303   0.0006  -0.0038  -0.0038   5.00  241.6
2024/06/03 13:03:36.000   28.299142645  -16.489642500  2188.9907   1   6   0.0013   0.0016   0.0303   0.0006  -0.0038  -0.0038   6.00  242.3
2024/06/03 13:03:37.000   28.299142645  -16.489642500  2188.9905   1   6   0.0013   0.0016   0.0303   0.0006  -0.0038  -0.0038   7.00  243.5
2024/06/03 13:03:38.000   28.299142645  -16.489642499  2188.9905   1   6   0.0013   0.0016   0.0303   0.0006  -0.0038  -0.0038   8.00  244.2
2024/06/03 13:03:39.000   28.299142645  -16.489642499  2188.9906   1   6   0.0013   0.0016   0.0303   0.0006  -0.0039  -0.0038   9.00  245.6
2024/06/03 13:03:40.000   28.299142645  -16.489642499  2188.9908   1   6   0.0013   0.0016   0.0303   0.0006  -0.0039  -0.0038  10.00  246.5
2024/06/03 13:03:41.000   28.299142645  -16.489642499  2188.9908   1   6   0.0013   0.0016   0.0303   0.0006  -0.0039  -0.0038  11.00  247.5
2024/06/03 13:03:42.000   28.299142645  -16.489642499  2188.9909   1   6   0.0013   0.0016   0.0303   0.0006  -0.0039  -0.0038  12.00  248.3
2024/06/03 13:03:43.000   28.299142645  -16.489642499  2188.9910   1   6   0.0013   0.0016   0.0303   0.0006  -0.0039  -0.0038  13.00  249.5
2024/06/03 13:03:44.000   28.299142645  -16.489642499  2188.9910   1   6   0.0013   0.0016   0.0303   0.0006  -0.0039  -0.0038  14.00  250.6
2024/06/03 13:03:45.000   28.299142645  -16.489642499  2188.9910   1   6   0.0013   0.0016   0.0303   0.0006  -0.0039  -0.0038 -15.00  251.7
2024/06/03 13:03:46.000   28.299142645  -16.489642499  2188.9910   1   6   0.0013   0.0016   0.0303   0.0006  -0.0039  -0.0038 -14.00  252.6
2024/06/03 13:03:47.000   28.299142645  -16.489642499  2188.9909   1   6   0.0013   0.0016   0.0303   0.0006  -0.0039  -0.0038 -13.00  253.4
2024/06/03 13:03:48.000   28.299142645  -16.489642499  2188.9907   1   6   0.0013   0.0016   0.0303   0.0006  -0.0039  -0.0038 -12.00  254.2
2024/06/03 13:03:49.000   28.299142645  -16.489642499  2188.9907   1   6   0.0013   0.0016   0.0303   0.0006  -0.0039  -0.0038 -11.00  254.8
2024/06/03 13:03:50.000   28.299142645  -16.489642499  2188.9906   1   6   0.0013   0.0016   0.0303   0.0006  -0.0039  -0.0038 -10.00  254.7
2024/06/03 13:03:51.000   28.299142645  -16.489642499  2188.9905   1   6   0.0013   0.0016   0.0303   0.0006  -0.0039  -0.0038  -9.00  254.9
2024/06/03 13:03:52.000   28.299142645  -16.489642499  2188.9905   1   6   0.0013   0.0016   0.0303   0.0006  -0.0039  -0.0037  -8.00  254.9
2024/06/03 13:03:53.000   28.299142645  -16.489642498  2188.9905   1   6   0.0013   0.0016   0.0303   0.0006  -0.0039  -0.0037  -7.00  254.3
2024/06/03 13:03:54.000   28.299142645  -16.489642498  2188.9906   1   6   0.0013   0.0016   0.0303   0.0006  -0.0039  -0.0037  -6.00  254.3
2024/06/03 13:03:55.000   28.299142645  -16.489642498  2188.9904   1   6   0.0013   0.0016   0.0303   0.0006  -0.0039  -0.0037  -5.00  254.5
2024/06/03 13:03:56.000   28.299142645  -16.489642498  2188.9902   1   6   0.0013   0.0016   0.0303   0.0006  -0.0039  -0.0037  -4.00  252.3
2024/06/03 13:03:57.000   28.299142645  -16.489642498  2188.9902   1   6   0.0013   0.0016   0.0303   0.0006  -0.0039  -0.0037  -3.00  251.5
2024/06/03 13:03:58.000   28.299142645  -16.489642498  2188.9902   1   6   0.0013   0.0016   0.0303   0.0006  -0.0039  -0.0037  -2.00  248.6
2024/06/03 13:03:59.000   28.299142645  -16.489642497  2188.9900   1   6   0.0013   0.0016   0.0303   0.0006  -0.0039  -0.0037  -1.00  246.9
2024/06/03 13:04:00.000   28.299142645  -16.489642497  2188.9901   1   6   0.0013   0.0016   0.0303   0.0006  -0.0039  -0.0037   0.00  247.6
2024/06/03 13:04:01.000   28.299142645  -16.489642497  2188.9906   1   6   0.0013   0.0016   0.0303   0.0006  -0.0039  -0.0037   1.00  247.4
2024/06/03 13:04:02.000   28.299142645  -16.489642497  2188.9908   1   6   0.0013   0.0016   0.0304   0.0006  -0.0039  -0.0037   2.00  246.3
2024/06/03 13:04:03.000   28.299142645  -16.489642497  2188.9905   1   6   0.0013   0.0016   0.0304   0.0006  -0.0039  -0.0037   3.00  243.7
2024/06/03 13:04:04.000   28.299142645  -16.489642497  2188.9901   1   6   0.0013   0.0016   0.0304   0.0006  -0.0039  -0.0037   4.00  242.8
2024/06/03 13:04:05.000   28.299142645  -16.489642497  2188.9900   1   6   0.0013   0.0016   0.0304   0.0006  -0.0039  -0.0037   5.00  242.1
2024/06/03 13:04:06.000   28.299142645  -16.489642497  2188.9899   1   6   0.0013   0.0016   0.0304   0.0006  -0.0039  -0.0037   6.00  241.9
2024/06/03 13:04:07.000   28.299142645  -16.489642497  2188.9899   1   6   0.0013   0.0016   0.0304   0.0006  -0.0039  -0.0037   7.00  242.8
2024/06/03 13:04:08.000   28.299142645  -16.489642497  2188.9901   1   6   0.0013   0.0016   0.0304   0.0006  -0.0039  -0.0037   8.00  243.4
2024/06/03 13:04:09.000   28.299142645  -16.489642497  2188.9900   1   6   0.0013   0.0016   0.0304   0.0006  -0.0039  -0.0037   9.00  244.4
2024/06/03 13:04:10.000   28.299142645  -16.489642497  2188.9901   1   6   0.0013   0.0016   0.0304   0.0006  -0.0039  -0.0037  10.00  245.7
2024/06/03 13:04:11.000   28.299142645  -16.489642497  2188.9903   1   6   0.0013   0.0016   0.0304   0.0006  -0.0039  -0.0037  11.00  246.8
2024/06/03 13:04:12.000   28.299142645  -16.489642497  2188.9901   1   6   0.0013   0.0016   0.0304   0.0006  -0.0039  -0.0037  12.00  247.5
2024/06/03 13:04:13.000   28.299142645  -16.489642497  2188.9900   1   6   0.0013   0.0016   0.0304   0.0006  -0.0039  -0.0037  13.00  248.7
2024/06/03 13:04:14.000   28.299142645  -16.489642497  2188.9899   1   6   0.0013   0.0016   0.0304   0.0006  -0.0039  -0.0037  14.00  249.8
2024/06/03 13:04:15.000   28.299142646  -16.489642497  2188.9897   1   6   0.0013   0.0016   0.0304   0.0006  -0.0039  -0.0037 -15.00  250.5
2024/06/03 13:04:16.000   28.299142646  -16.489642496  2188.9897   1   6   0.0013   0.0016   0.0304   0.0006  -0.0039  -0.0037 -14.00  251.4
2024/06/03 13:04:17.000   28.299142646  -16.489642496  2188.9896   1   6   0.0013   0.0016   0.0304   0.0006  -0.0039  -0.0037 -13.00  252.3
2024/06/03 13:04:18.000   28.299142646  -16.489642496  2188.9895   1   6   0.0013   0.0016   0.0304   0.0006  -0.0039  -0.0037 -12.00  252.7
2024/06/03 13:04:19.000   28.299142646  -16.489642496  2188.9893   1   6   0.0013   0.0016   0.0304   0.0006  -0.0039  -0.0037 -11.00  253.4
2024/06/03 13:04:20.000   28.299142646  -16.489642496  2188.9893   1   6   0.0013   0.0016   0.0304   0.0006  -0.0039  -0.0037 -10.00  253.5
2024/06/03 13:04:21.000   28.299142646  -16.489642496  2188.9891   1   6   0.0013   0.0016   0.0304   0.0006  -0.0039  -0.0037  -9.00  254.0
2024/06/03 13:04:22.000   28.299142646  -16.489642496  2188.9889   1   6   0.0013   0.0016   0.0304   0.0006  -0.0039  -0.0037  -8.00  254.6
2024/06/03 13:04:23.000   28.299142646  -16.489642496  2188.9886   1   6   0.0013   0.0016   0.0304   0.0006  -0.0039  -0.0037  -7.00  255.9
2024/06/03 13:04:24.000   28.299142646  -16.489642496  2188.9883   1   6   0.0013   0.0016   0.0304   0.0006  -0.0039  -0.0037  -6.00  257.1
2024/06/03 13:04:25.000   28.299142646  -16.489642496  2188.9883   1   6   0.0013   0.0016   0.0304   0.0006  -0.0039  -0.0037  -5.00  258.2
2024/06/03 13:04:26.000   28.299142646  -16.489642496  2188.9882   1   6   0.0013   0.0016   0.0304   0.0006  -0.0039  -0.0037  -4.00  258.4
2024/06/03 13:04:27.000   28.299142646  -16.489642496  2188.9879   1   6   0.0013   0.0016   0.0304   0.0006  -0.0039  -0.0037  -3.00  258.6
2024/06/03 13:04:28.000   28.299142646  -16.489642496  2188.9880   1   6   0.0013   0.0016   0.0304   0.0006  -0.0039  -0.0037  -2.00  259.3
2024/06/03 13:04:29.000   28.299142646  -16.489642496  2188.9882   1   6   0.0013   0.0016   0.0304   0.0006  -0.0039  -0.0037  -1.00  259.0
2024/06/03 13:04:30.000   28.299142646  -16.489642496  2188.9879   1   6   0.0013   0.0016   0.0304   0.0006  -0.0039  -0.0037   0.00  261.2
2024/06/03 13:04:31.000   28.299142646  -16.489642496  2188.9884   1   6   0.0013   0.0016   0.0304   0.0006  -0.0039  -0.0037   1.00  262.8
2024/06/03 13:04:32.000   28.299142646  -16.489642497  2188.9891   1   6   0.0013   0.0016   0.0304   0.0006  -0.0039  -0.0037   2.00  264.5
2024/06/03 13:04:33.000   28.299142646  -16.489642496  2188.9894   1   6   0.0013   0.0016   0.0304   0.0006  -0.0039  -0.0037   3.00  264.1
2024/06/03 13:04:34.000   28.299142646  -16.489642496  2188.9889   1   6   0.0013   0.0016   0.0304   0.0006  -0.0039  -0.0037   4.00  263.6
2024/06/03 13:04:35.000   28.299142646  -16.489642496  2188.9888   1   6   0.0013   0.0016   0.0305   0.0006  -0.0039  -0.0037   5.00  264.4
2024/06/03 13:04:36.000   28.299142646  -16.489642495  2188.9890   1   6   0.0013   0.0016   0.0305   0.0006  -0.0039  -0.0037   6.00  264.3
2024/06/03 13:04:37.000   28.299142646  -16.489642496  2188.9889   1   6   0.0013   0.0016   0.0305   0.0006  -0.0039  -0.0037   7.00  264.8
2024/06/03 13:04:38.000   28.299142646  -16.489642495  2188.9889   1   6   0.0013   0.0016   0.0305   0.0006  -0.0039  -0.0037   8.00  264.7
2024/06/03 13:04:39.000   28.299142646  -16.489642495  2188.9889   1   6   0.0013   0.0016   0.0305   0.0006  -0.0039  -0.0037   9.00  264.9
2024/06/03 13:04:40.000   28.299142646  -16.489642495  2188.9889   1   6   0.0013   0.0016   0.0305   0.0006  -0.0039  -0.0037  10.00  265.4
2024/06/03 13:04:41.000   28.299142646  -16.489642495  2188.9888   1   6   0.0013   0.0016   0.0305   0.0006  -0.0039  -0.0037  11.00  266.0
2024/06/03 13:04:42.000   28.299142646  -16.489642495  2188.9888   1   6   0.0013   0.0016   0.0305   0.0006  -0.0039  -0.0037  12.00  266.4
2024/06/03 13:04:43.000   28.299142646  -16.489642495  2188.9889   1   6   0.0013   0.0016   0.0305   0.0006  -0.0039  -0.0037  13.00  267.1
2024/06/03 13:04:44.000   28.299142646  -16.489642495  2188.9889   1   6   0.0013   0.0016   0.0305   0.0006  -0.0039  -0.0036  14.00  267.7
2024/06/03 13:04:45.000   28.299142646  -16.489642495  2188.9889   1   6   0.0013   0.0016   0.0305   0.0006  -0.0039  -0.0036 -15.00  268.3
2024/06/03 13:04:46.000   28.299142646  -16.489642495  2188.9889   1   6   0.0013   0.0016   0.0305   0.0006  -0.0039  -0.0036 -14.00  268.7
2024/06/03 13:04:47.000   28.299142646  -16.489642495  2188.9889   1   6   0.0013   0.0016   0.0305   0.0006  -0.0039  -0.0036 -13.00  268.9
2024/06/03 13:04:48.000   28.299142646  -16.489642495  2188.9889   1   6   0.0013   0.0016   0.0305   0.0006  -0.0039  -0.0036 -12.00  269.3
2024/06/03 13:04:49.000   28.299142646  -16.489642495  2188.9890   1   6   0.0013   0.0016   0.0305   0.0006  -0.0039  -0.0036 -11.00  269.7
2024/06/03 13:04:50.000   28.299142646  -16.489642495  2188.9889   1   6   0.0013   0.0016   0.0305   0.0006  -0.0039  -0.0036 -10.00  269.8
2024/06/03 13:04:51.000   28.299142646  -16.489642495  2188.9887   1   6   0.0013   0.0016   0.0305   0.0006  -0.0039  -0.0036  -9.00  269.8
2024/06/03 13:04:52.000   28.299142646  -16.489642495  2188.9888   1   6   0.0013   0.0016   0.0305   0.0006  -0.0039  -0.0036  -8.00  269.3
2024/06/03 13:04:53.000   28.299142646  -16.489642495  2188.9888   1   6   0.0013   0.0016   0.0305   0.0006  -0.0039  -0.0036  -7.00  269.0
2024/06/03 13:04:54.000   28.299142646  -16.489642495  2188.9885   1   6   0.0013   0.0016   0.0305   0.0006  -0.0040  -0.0036  -6.00  270.3
