% program   : RTKPOST-EX 2.5.0
% inp file  : C:\Users\SallyHenry\Desktop\Sally Internship\GNSS gravi\DATA\Survey Rover Obs\GUI23.24o
% inp file  : C:\Users\SallyHenry\Desktop\Sally Internship\GNSS gravi\DATA\BaseStations\IZAN\IZAN00ESP_R_20241550000_01D_30S_MO.rnx
% inp file  : C:\Users\SallyHenry\Desktop\Sally Internship\GNSS gravi\DATA\BaseStations\IZAN\IZAN00ESP_R_20241550000_01D_MN.rnx
% inp file  : C:\Users\SallyHenry\Desktop\Sally Internship\GNSS gravi\DATA\aux_files\Survey\IGS0OPSFIN_20241550000_01D_15M_ORB.SP3
% inp file  : C:\Users\SallyHenry\Desktop\Sally Internship\GNSS gravi\DATA\aux_files\Survey\IGS0OPSFIN_20241550000_01D_30S_CLK.CLK
% obs start : 2024/06/03 13:30:27.0 GPST (week2317 135027.0s)
% obs end   : 2024/06/03 13:49:57.0 GPST (week2317 136197.0s)
% pos mode  : Static
% freqs     : L1+L2/E5b
% solution  : Combined-No Phase Reset
% elev mask : 15.0 deg
% dynamics  : on
% tidecorr  : solid
% ionos opt : Estimate TEC
% tropo opt : Estimate ZTD+Grad
% ephemeris : Precise
% navi sys  : GPS GLONASS Galileo QZSS BDS
% amb res   : Fix and Hold
% amb glo   : Fix and Hold
% amb bds   : on
% val thres : 3.0
% antenna1  :                       ( 0.0000  0.0000  1.8000)
% antenna2  :                       ( 0.0000  0.0000  0.0000)
% ref pos   :  28.308069410  -16.499677180  2417.4044
%
% (lat/lon/height=WGS84/ellipsoidal,Q=1:fix,2:float,3:sbas,4:dgps,5:single,6:ppp,ns=# of satellites)
%  GPST                  latitude(deg) longitude(deg)  height(m)   Q  ns   sdn(m)   sde(m)   sdu(m)  sdne(m)  sdeu(m)  sdun(m) age(s)  ratio
2024/06/03 13:30:27.000   28.299018427  -16.474408542  1948.0454   1   7   0.0015   0.0014   0.0104   0.0005  -0.0004   0.0021  -3.00   26.5
2024/06/03 13:30:28.000   28.299018427  -16.474408542  1948.0452   1   7   0.0015   0.0014   0.0104   0.0005  -0.0004   0.0021  -2.00   20.7
2024/06/03 13:30:29.000   28.299018426  -16.474408541  1948.0452   1   7   0.0015   0.0014   0.0104   0.0005  -0.0004   0.0021  -1.00   12.7
2024/06/03 13:30:30.000   28.299018433  -16.474408550  1948.0467   1   7   0.0015   0.0014   0.0104   0.0005  -0.0003   0.0021   0.00   59.9
2024/06/03 13:30:31.000   28.299018433  -16.474408550  1948.0468   1   7   0.0015   0.0014   0.0104   0.0005  -0.0003   0.0021   1.00   61.3
2024/06/03 13:30:32.000   28.299018433  -16.474408549  1948.0468   1   7   0.0015   0.0014   0.0104   0.0005  -0.0003   0.0021   2.00   62.9
2024/06/03 13:30:33.000   28.299018433  -16.474408549  1948.0468   1   7   0.0015   0.0014   0.0104   0.0005  -0.0003   0.0021   3.00   63.5
2024/06/03 13:30:34.000   28.299018433  -16.474408549  1948.0468   1   7   0.0015   0.0014   0.0104   0.0005  -0.0003   0.0021   4.00   63.2
2024/06/03 13:30:35.000   28.299018433  -16.474408549  1948.0468   1   7   0.0015   0.0014   0.0104   0.0005  -0.0003   0.0021   5.00   62.7
2024/06/03 13:30:36.000   28.299018432  -16.474408548  1948.0469   1   7   0.0015   0.0014   0.0104   0.0005  -0.0003   0.0021   6.00   61.8
2024/06/03 13:30:37.000   28.299018432  -16.474408548  1948.0469   1   7   0.0015   0.0014   0.0104   0.0005  -0.0003   0.0021   7.00   60.4
2024/06/03 13:30:38.000   28.299018432  -16.474408548  1948.0469   1   7   0.0015   0.0014   0.0104   0.0005  -0.0003   0.0021   8.00   59.5
2024/06/03 13:30:39.000   28.299018432  -16.474408548  1948.0469   1   7   0.0015   0.0014   0.0104   0.0005  -0.0003   0.0021   9.00   58.8
2024/06/03 13:30:40.000   28.299018432  -16.474408548  1948.0469   1   7   0.0015   0.0014   0.0104   0.0005  -0.0003   0.0021  10.00   58.1
2024/06/03 13:30:41.000   28.299018432  -16.474408548  1948.0469   1   7   0.0015   0.0014   0.0104   0.0005  -0.0003   0.0021  11.00   57.5
2024/06/03 13:30:42.000   28.299018432  -16.474408547  1948.0469   1   7   0.0015   0.0014   0.0104   0.0005  -0.0003   0.0021  12.00   56.9
2024/06/03 13:30:43.000   28.299018431  -16.474408547  1948.0469   1   7   0.0015   0.0014   0.0104   0.0005  -0.0002   0.0021  13.00   56.0
2024/06/03 13:30:44.000   28.299018431  -16.474408547  1948.0469   1   7   0.0015   0.0014   0.0104   0.0005  -0.0002   0.0021  14.00   55.1
2024/06/03 13:30:45.000   28.299018431  -16.474408547  1948.0468   1   7   0.0015   0.0014   0.0104   0.0005  -0.0002   0.0021  15.00   54.5
2024/06/03 13:30:46.000   28.299018431  -16.474408547  1948.0468   1   7   0.0015   0.0014   0.0104   0.0005  -0.0002   0.0021 -14.00   54.0
2024/06/03 13:30:47.000   28.299018431  -16.474408547  1948.0467   1   7   0.0015   0.0014   0.0104   0.0005  -0.0002   0.0021 -13.00   53.3
2024/06/03 13:30:48.000   28.299018431  -16.474408547  1948.0467   1   7   0.0015   0.0014   0.0104   0.0005  -0.0002   0.0021 -12.00   52.7
2024/06/03 13:30:49.000   28.299018431  -16.474408547  1948.0466   1   7   0.0015   0.0014   0.0104   0.0005  -0.0002   0.0021 -11.00   52.2
2024/06/03 13:30:50.000   28.299018430  -16.474408546  1948.0465   1   7   0.0015   0.0014   0.0104   0.0005  -0.0002   0.0021 -10.00   51.7
2024/06/03 13:30:51.000   28.299018430  -16.474408546  1948.0464   1   7   0.0015   0.0014   0.0104   0.0005  -0.0002   0.0021  -9.00   50.6
2024/06/03 13:30:52.000   28.299018430  -16.474408546  1948.0462   1   7   0.0015   0.0014   0.0104   0.0005  -0.0002   0.0021  -8.00   49.3
2024/06/03 13:30:53.000   28.299018429  -16.474408546  1948.0461   1   7   0.0015   0.0014   0.0104   0.0005  -0.0002   0.0021  -7.00   47.5
2024/06/03 13:30:54.000   28.299018429  -16.474408546  1948.0459   1   7   0.0015   0.0014   0.0104   0.0005  -0.0002   0.0021  -6.00   44.7
2024/06/03 13:30:55.000   28.299018429  -16.474408545  1948.0458   1   7   0.0015   0.0014   0.0104   0.0005  -0.0002   0.0021  -5.00   41.8
2024/06/03 13:30:56.000   28.299018429  -16.474408545  1948.0455   1   7   0.0015   0.0014   0.0104   0.0005  -0.0002   0.0021  -4.00   38.0
2024/06/03 13:30:57.000   28.299018428  -16.474408544  1948.0453   1   7   0.0015   0.0014   0.0104   0.0005  -0.0002   0.0021  -3.00   32.2
2024/06/03 13:30:58.000   28.299018428  -16.474408544  1948.0450   1   7   0.0015   0.0014   0.0104   0.0005  -0.0002   0.0021  -2.00   24.6
2024/06/03 13:30:59.000   28.299018428  -16.474408543  1948.0447   1   7   0.0015   0.0014   0.0104   0.0005  -0.0002   0.0021  -1.00   14.7
2024/06/03 13:31:00.000   28.299018433  -16.474408551  1948.0455   1   7   0.0015   0.0014   0.0104   0.0005   0.0002   0.0021   0.00   76.0
2024/06/03 13:31:01.000   28.299018433  -16.474408550  1948.0452   1   7   0.0015   0.0014   0.0104   0.0005   0.0002   0.0021   1.00   79.0
2024/06/03 13:31:02.000   28.299018433  -16.474408550  1948.0449   1   7   0.0015   0.0014   0.0104   0.0005   0.0002   0.0021   2.00   82.3
2024/06/03 13:31:03.000   28.299018432  -16.474408550  1948.0446   1   7   0.0015   0.0014   0.0104   0.0005   0.0002   0.0021   3.00   82.8
2024/06/03 13:31:04.000   28.299018432  -16.474408549  1948.0444   1   7   0.0015   0.0014   0.0104   0.0005   0.0002   0.0021   4.00   83.6
2024/06/03 13:31:05.000   28.299018432  -16.474408549  1948.0442   1   7   0.0015   0.0014   0.0104   0.0005   0.0002   0.0021   5.00   84.3
2024/06/03 13:31:06.000   28.299018432  -16.474408549  1948.0439   1   7   0.0015   0.0014   0.0104   0.0005   0.0002   0.0021   6.00   85.0
2024/06/03 13:31:07.000   28.299018431  -16.474408549  1948.0437   1   7   0.0015   0.0014   0.0104   0.0005   0.0002   0.0021   7.00   85.7
2024/06/03 13:31:08.000   28.299018431  -16.474408548  1948.0436   1   7   0.0015   0.0014   0.0104   0.0005   0.0002   0.0021   8.00   85.7
2024/06/03 13:31:09.000   28.299018431  -16.474408548  1948.0434   1   7   0.0015   0.0014   0.0104   0.0005   0.0002   0.0021   9.00   85.7
2024/06/03 13:31:10.000   28.299018431  -16.474408548  1948.0433   1   7   0.0015   0.0014   0.0104   0.0005   0.0002   0.0021  10.00   85.5
2024/06/03 13:31:11.000   28.299018431  -16.474408548  1948.0432   1   7   0.0015   0.0014   0.0104   0.0005   0.0002   0.0021  11.00   85.5
2024/06/03 13:31:12.000   28.299018430  -16.474408548  1948.0431   1   7   0.0015   0.0014   0.0104   0.0005   0.0002   0.0021  12.00   85.0
2024/06/03 13:31:13.000   28.299018430  -16.474408547  1948.0431   1   7   0.0015   0.0014   0.0104   0.0005   0.0002   0.0021  13.00   84.1
2024/06/03 13:31:14.000   28.299018430  -16.474408547  1948.0430   1   7   0.0015   0.0014   0.0104   0.0005   0.0002   0.0021  14.00   83.2
2024/06/03 13:31:15.000   28.299018430  -16.474408547  1948.0429   1   7   0.0015   0.0014   0.0104   0.0005   0.0002   0.0021  15.00   82.1
2024/06/03 13:31:16.000   28.299018430  -16.474408547  1948.0429   1   7   0.0015   0.0014   0.0104   0.0005   0.0002   0.0021 -14.00   80.8
2024/06/03 13:31:17.000   28.299018430  -16.474408547  1948.0429   1   7   0.0015   0.0014   0.0104   0.0005   0.0002   0.0021 -13.00   79.4
2024/06/03 13:31:18.000   28.299018430  -16.474408547  1948.0428   1   7   0.0015   0.0014   0.0104   0.0005   0.0002   0.0021 -12.00   77.7
2024/06/03 13:31:19.000   28.299018430  -16.474408547  1948.0428   1   7   0.0015   0.0014   0.0104   0.0005   0.0002   0.0021 -11.00   75.7
2024/06/03 13:31:20.000   28.299018430  -16.474408546  1948.0427   1   7   0.0015   0.0014   0.0104   0.0005   0.0002   0.0021 -10.00   73.7
2024/06/03 13:31:21.000   28.299018429  -16.474408546  1948.0427   1   7   0.0015   0.0014   0.0104   0.0005   0.0002   0.0021  -9.00   71.5
2024/06/03 13:31:22.000   28.299018429  -16.474408546  1948.0426   1   7   0.0015   0.0014   0.0104   0.0005   0.0002   0.0021  -8.00   68.6
2024/06/03 13:31:23.000   28.299018429  -16.474408546  1948.0425   1   7   0.0015   0.0014   0.0104   0.0005   0.0003   0.0021  -7.00   65.5
2024/06/03 13:31:24.000   28.299018429  -16.474408546  1948.0424   1   7   0.0015   0.0014   0.0104   0.0005   0.0003   0.0021  -6.00   61.1
2024/06/03 13:31:25.000   28.299018429  -16.474408545  1948.0423   1   7   0.0015   0.0014   0.0104   0.0005   0.0003   0.0021  -5.00   55.5
2024/06/03 13:31:26.000   28.299018429  -16.474408545  1948.0421   1   7   0.0015   0.0014   0.0104   0.0005   0.0003   0.0021  -4.00   49.0
2024/06/03 13:31:27.000   28.299018428  -16.474408545  1948.0420   1   7   0.0015   0.0014   0.0104   0.0005   0.0003   0.0021  -3.00   40.7
2024/06/03 13:31:28.000   28.299018428  -16.474408545  1948.0418   1   7   0.0015   0.0014   0.0104   0.0005   0.0003   0.0021  -2.00   31.4
2024/06/03 13:31:29.000   28.299018428  -16.474408545  1948.0415   1   7   0.0015   0.0014   0.0104   0.0005   0.0003   0.0021  -1.00   19.2
2024/06/03 13:31:30.000   28.299018431  -16.474408549  1948.0417   1   7   0.0015   0.0014   0.0104   0.0005   0.0003   0.0021   0.00  119.4
2024/06/03 13:31:31.000   28.299018431  -16.474408549  1948.0414   1   7   0.0015   0.0014   0.0104   0.0005   0.0003   0.0021   1.00  121.6
2024/06/03 13:31:32.000   28.299018431  -16.474408549  1948.0410   1   7   0.0015   0.0014   0.0104   0.0005   0.0003   0.0021   2.00  124.2
2024/06/03 13:31:33.000   28.299018431  -16.474408549  1948.0409   1   7   0.0015   0.0014   0.0104   0.0005   0.0003   0.0021   3.00  126.9
2024/06/03 13:31:34.000   28.299018431  -16.474408548  1948.0407   1   7   0.0015   0.0014   0.0104   0.0005   0.0004   0.0021   4.00  129.4
2024/06/03 13:31:35.000   28.299018431  -16.474408548  1948.0405   1   7   0.0015   0.0014   0.0104   0.0005   0.0004   0.0021   5.00  131.7
2024/06/03 13:31:36.000   28.299018430  -16.474408548  1948.0404   1   7   0.0015   0.0014   0.0104   0.0005   0.0004   0.0021   6.00  132.6
2024/06/03 13:31:37.000   28.299018430  -16.474408548  1948.0403   1   7   0.0015   0.0014   0.0104   0.0005   0.0004   0.0021   7.00  132.5
2024/06/03 13:31:38.000   28.299018430  -16.474408548  1948.0402   1   7   0.0015   0.0014   0.0104   0.0005   0.0004   0.0021   8.00  131.2
2024/06/03 13:31:39.000   28.299018430  -16.474408548  1948.0401   1   7   0.0015   0.0014   0.0104   0.0005   0.0004   0.0021   9.00  129.4
2024/06/03 13:31:40.000   28.299018430  -16.474408547  1948.0401   1   7   0.0015   0.0014   0.0104   0.0005   0.0004   0.0021  10.00  127.6
2024/06/03 13:31:41.000   28.299018430  -16.474408547  1948.0400   1   7   0.0015   0.0014   0.0104   0.0005   0.0004   0.0021  11.00  125.6
2024/06/03 13:31:42.000   28.299018429  -16.474408547  1948.0400   1   7   0.0015   0.0014   0.0104   0.0005   0.0004   0.0021  12.00  123.9
2024/06/03 13:31:43.000   28.299018429  -16.474408547  1948.0400   1   7   0.0015   0.0014   0.0104   0.0005   0.0004   0.0021  13.00  121.9
2024/06/03 13:31:44.000   28.299018429  -16.474408547  1948.0400   1   7   0.0015   0.0014   0.0104   0.0005   0.0004   0.0021  14.00  119.6
2024/06/03 13:31:45.000   28.299018429  -16.474408547  1948.0399   1   7   0.0015   0.0014   0.0104   0.0005   0.0004   0.0021  15.00  117.4
2024/06/03 13:31:46.000   28.299018429  -16.474408547  1948.0399   1   7   0.0015   0.0014   0.0104   0.0005   0.0004   0.0021 -14.00  115.4
2024/06/03 13:31:47.000   28.299018429  -16.474408547  1948.0399   1   7   0.0015   0.0014   0.0104   0.0005   0.0004   0.0021 -13.00  113.0
2024/06/03 13:31:48.000   28.299018429  -16.474408547  1948.0399   1   7   0.0015   0.0014   0.0104   0.0005   0.0004   0.0021 -12.00  110.3
2024/06/03 13:31:49.000   28.299018429  -16.474408547  1948.0399   1   7   0.0015   0.0014   0.0104   0.0005   0.0004   0.0021 -11.00  107.6
2024/06/03 13:31:50.000   28.299018429  -16.474408547  1948.0398   1   7   0.0015   0.0014   0.0104   0.0005   0.0004   0.0021 -10.00  104.4
2024/06/03 13:31:51.000   28.299018429  -16.474408546  1948.0398   1   7   0.0015   0.0014   0.0104   0.0005   0.0004   0.0021  -9.00  101.4
2024/06/03 13:31:52.000   28.299018428  -16.474408546  1948.0398   1   7   0.0015   0.0014   0.0104   0.0005   0.0004   0.0021  -8.00   97.9
2024/06/03 13:31:53.000   28.299018428  -16.474408546  1948.0398   1   7   0.0015   0.0014   0.0104   0.0005   0.0004   0.0021  -7.00   93.0
2024/06/03 13:31:54.000   28.299018428  -16.474408546  1948.0397   1   7   0.0015   0.0014   0.0104   0.0005   0.0004   0.0021  -6.00   86.8
2024/06/03 13:31:55.000   28.299018428  -16.474408546  1948.0396   1   7   0.0015   0.0014   0.0104   0.0005   0.0004   0.0021  -5.00   78.3
2024/06/03 13:31:56.000   28.299018428  -16.474408546  1948.0395   1   7   0.0015   0.0014   0.0104   0.0005   0.0004   0.0021  -4.00   68.5
2024/06/03 13:31:57.000   28.299018426  -16.474408548  1948.0407   1   7   0.0014   0.0014   0.0103   0.0006   0.0008   0.0020  -3.00    3.7
2024/06/03 13:31:58.000   28.299018425  -16.474408548  1948.0405   1   7   0.0014   0.0014   0.0103   0.0006   0.0008   0.0020  -2.00    4.0
2024/06/03 13:31:59.000   28.299018425  -16.474408548  1948.0405   1   7   0.0014   0.0014   0.0103   0.0006   0.0008   0.0020  -1.00    4.1
2024/06/03 13:32:00.000   28.299018426  -16.474408550  1948.0404   1   7   0.0014   0.0014   0.0103   0.0006   0.0008   0.0019   0.00    4.1
2024/06/03 13:32:01.000   28.299018428  -16.474408548  1948.0390   1   7   0.0015   0.0014   0.0104   0.0005   0.0005   0.0021   1.00  211.1
2024/06/03 13:32:02.000   28.299018428  -16.474408548  1948.0389   1   7   0.0015   0.0014   0.0104   0.0005   0.0005   0.0021   2.00  211.5
2024/06/03 13:32:03.000   28.299018428  -16.474408548  1948.0388   1   7   0.0015   0.0014   0.0104   0.0005   0.0005   0.0021   3.00  212.7
2024/06/03 13:32:04.000   28.299018428  -16.474408548  1948.0387   1   7   0.0015   0.0014   0.0104   0.0005   0.0005   0.0021   4.00  211.7
2024/06/03 13:32:05.000   28.299018428  -16.474408548  1948.0386   1   7   0.0015   0.0014   0.0104   0.0005   0.0005   0.0021   5.00  210.7
2024/06/03 13:32:06.000   28.299018430  -16.474408545  1948.0374   1   7   0.0014   0.0013   0.0103   0.0005   0.0009   0.0020   6.00    3.9
2024/06/03 13:32:07.000   28.299018430  -16.474408544  1948.0373   1   7   0.0014   0.0013   0.0103   0.0005   0.0009   0.0020   7.00    4.1
2024/06/03 13:32:08.000   28.299018430  -16.474408544  1948.0373   1   7   0.0014   0.0013   0.0103   0.0005   0.0009   0.0020   8.00    4.2
2024/06/03 13:32:09.000   28.299018430  -16.474408544  1948.0373   1   7   0.0014   0.0013   0.0103   0.0005   0.0010   0.0020   9.00    4.4
2024/06/03 13:32:10.000   28.299018430  -16.474408544  1948.0373   1   7   0.0014   0.0013   0.0103   0.0005   0.0010   0.0020  10.00    4.4
2024/06/03 13:32:11.000   28.299018430  -16.474408544  1948.0373   1   7   0.0014   0.0013   0.0103   0.0005   0.0010   0.0020  11.00    4.5
2024/06/03 13:32:12.000   28.299018430  -16.474408544  1948.0373   1   7   0.0014   0.0013   0.0103   0.0005   0.0010   0.0020  12.00    4.6
2024/06/03 13:32:13.000   28.299018430  -16.474408544  1948.0373   1   7   0.0014   0.0013   0.0103   0.0005   0.0010   0.0020  13.00    4.7
2024/06/03 13:32:14.000   28.299018430  -16.474408544  1948.0373   1   7   0.0014   0.0013   0.0103   0.0005   0.0010   0.0020  14.00    4.8
2024/06/03 13:32:15.000   28.299018430  -16.474408544  1948.0373   1   7   0.0014   0.0013   0.0103   0.0005   0.0010   0.0020 -15.00    4.8
2024/06/03 13:32:16.000   28.299018430  -16.474408544  1948.0373   1   7   0.0014   0.0013   0.0103   0.0005   0.0010   0.0020 -14.00    4.9
2024/06/03 13:32:17.000   28.299018430  -16.474408544  1948.0373   1   7   0.0014   0.0013   0.0103   0.0005   0.0010   0.0020 -13.00    4.9
2024/06/03 13:32:18.000   28.299018430  -16.474408544  1948.0373   1   7   0.0014   0.0013   0.0102   0.0005   0.0010   0.0020 -12.00    4.9
2024/06/03 13:32:19.000   28.299018430  -16.474408544  1948.0373   1   7   0.0014   0.0013   0.0102   0.0005   0.0010   0.0020 -11.00    5.0
2024/06/03 13:32:20.000   28.299018425  -16.474408547  1948.0386   1   7   0.0014   0.0013   0.0102   0.0005   0.0010   0.0021 -10.00    3.1
2024/06/03 13:32:21.000   28.299018425  -16.474408547  1948.0386   1   7   0.0014   0.0013   0.0102   0.0005   0.0010   0.0021  -9.00    3.1
2024/06/03 13:32:22.000   28.299018425  -16.474408547  1948.0386   1   7   0.0014   0.0013   0.0102   0.0005   0.0010   0.0021  -8.00    3.2
2024/06/03 13:32:23.000   28.299018425  -16.474408547  1948.0386   1   7   0.0014   0.0013   0.0102   0.0005   0.0010   0.0021  -7.00    3.4
2024/06/03 13:32:24.000   28.299018425  -16.474408547  1948.0386   1   7   0.0014   0.0013   0.0102   0.0005   0.0010   0.0020  -6.00    3.5
2024/06/03 13:32:25.000   28.299018424  -16.474408547  1948.0385   1   7   0.0014   0.0013   0.0102   0.0005   0.0011   0.0020  -5.00    3.6
2024/06/03 13:32:26.000   28.299018424  -16.474408547  1948.0385   1   7   0.0014   0.0013   0.0102   0.0005   0.0011   0.0020  -4.00    6.1
2024/06/03 13:32:27.000   28.299018424  -16.474408547  1948.0385   1   7   0.0014   0.0013   0.0102   0.0005   0.0011   0.0020  -3.00    8.6
2024/06/03 13:32:28.000   28.299018424  -16.474408547  1948.0384   1   7   0.0014   0.0013   0.0102   0.0005   0.0011   0.0020  -2.00   11.1
2024/06/03 13:32:29.000   28.299018424  -16.474408546  1948.0385   1   7   0.0014   0.0013   0.0102   0.0005   0.0011   0.0020  -1.00   13.6
2024/06/03 13:32:30.000   28.299018424  -16.474408546  1948.0383   1   7   0.0014   0.0013   0.0102   0.0005   0.0011   0.0020   0.00   16.1
2024/06/03 13:32:31.000   28.299018424  -16.474408546  1948.0383   1   7   0.0014   0.0013   0.0102   0.0005   0.0011   0.0021   1.00   15.4
2024/06/03 13:32:32.000   28.299018424  -16.474408546  1948.0382   1   7   0.0014   0.0013   0.0102   0.0005   0.0011   0.0021   2.00   17.9
2024/06/03 13:32:33.000   28.299018424  -16.474408546  1948.0382   1   7   0.0014   0.0013   0.0102   0.0005   0.0011   0.0021   3.00   20.3
2024/06/03 13:32:34.000   28.299018424  -16.474408546  1948.0383   1   7   0.0014   0.0013   0.0102   0.0004   0.0011   0.0021   4.00   22.9
2024/06/03 13:32:35.000   28.299018424  -16.474408546  1948.0383   1   7   0.0014   0.0013   0.0102   0.0004   0.0011   0.0021   5.00   25.3
2024/06/03 13:32:36.000   28.299018424  -16.474408546  1948.0383   1   7   0.0014   0.0013   0.0102   0.0004   0.0011   0.0021   6.00   27.8
2024/06/03 13:32:37.000   28.299018424  -16.474408546  1948.0384   1   7   0.0014   0.0013   0.0102   0.0004   0.0011   0.0021   7.00   30.5
2024/06/03 13:32:38.000   28.299018424  -16.474408546  1948.0384   1   7   0.0014   0.0013   0.0102   0.0004   0.0011   0.0021   8.00   33.1
2024/06/03 13:32:39.000   28.299018424  -16.474408546  1948.0385   1   7   0.0014   0.0013   0.0102   0.0004   0.0011   0.0021   9.00   35.7
2024/06/03 13:32:40.000   28.299018424  -16.474408546  1948.0385   1   7   0.0014   0.0013   0.0102   0.0004   0.0011   0.0021  10.00   38.4
2024/06/03 13:32:41.000   28.299018424  -16.474408546  1948.0386   1   7   0.0014   0.0013   0.0102   0.0004   0.0011   0.0021  11.00   41.1
2024/06/03 13:32:42.000   28.299018424  -16.474408546  1948.0386   1   7   0.0014   0.0013   0.0102   0.0004   0.0011   0.0021  12.00   43.5
2024/06/03 13:32:43.000   28.299018424  -16.474408546  1948.0386   1   7   0.0014   0.0013   0.0102   0.0004   0.0011   0.0021  13.00   46.1
2024/06/03 13:32:44.000   28.299018424  -16.474408546  1948.0386   1   7   0.0014   0.0013   0.0102   0.0004   0.0011   0.0021  14.00   48.8
2024/06/03 13:32:45.000   28.299018424  -16.474408546  1948.0386   1   7   0.0014   0.0013   0.0102   0.0004   0.0011   0.0021 -15.00   51.6
2024/06/03 13:32:46.000   28.299018424  -16.474408546  1948.0387   1   7   0.0014   0.0013   0.0102   0.0004   0.0011   0.0021 -14.00   54.3
2024/06/03 13:32:47.000   28.299018424  -16.474408546  1948.0387   1   7   0.0014   0.0013   0.0102   0.0004   0.0011   0.0021 -13.00   57.0
2024/06/03 13:32:48.000   28.299018424  -16.474408546  1948.0387   1   7   0.0014   0.0013   0.0102   0.0004   0.0011   0.0021 -12.00   59.8
2024/06/03 13:32:49.000   28.299018424  -16.474408546  1948.0387   1   7   0.0014   0.0013   0.0102   0.0004   0.0011   0.0021 -11.00   62.4
2024/06/03 13:32:50.000   28.299018424  -16.474408546  1948.0388   1   7   0.0014   0.0013   0.0102   0.0004   0.0011   0.0021 -10.00   65.2
2024/06/03 13:32:51.000   28.299018424  -16.474408546  1948.0388   1   7   0.0014   0.0013   0.0102   0.0004   0.0011   0.0021  -9.00   67.9
2024/06/03 13:32:52.000   28.299018424  -16.474408546  1948.0388   1   7   0.0014   0.0013   0.0102   0.0004   0.0011   0.0021  -8.00   70.5
2024/06/03 13:32:53.000   28.299018424  -16.474408546  1948.0389   1   7   0.0014   0.0013   0.0102   0.0004   0.0011   0.0021  -7.00   73.0
2024/06/03 13:32:54.000   28.299018424  -16.474408546  1948.0389   1   7   0.0014   0.0013   0.0102   0.0004   0.0011   0.0021  -6.00   75.8
2024/06/03 13:32:55.000   28.299018424  -16.474408546  1948.0389   1   7   0.0014   0.0013   0.0102   0.0004   0.0011   0.0021  -5.00   77.6
2024/06/03 13:32:56.000   28.299018424  -16.474408546  1948.0389   1   7   0.0014   0.0013   0.0102   0.0004   0.0011   0.0021  -4.00   79.8
2024/06/03 13:32:57.000   28.299018424  -16.474408546  1948.0389   1   7   0.0014   0.0013   0.0102   0.0004   0.0011   0.0021  -3.00   80.9
2024/06/03 13:32:58.000   28.299018425  -16.474408546  1948.0389   1   7   0.0014   0.0013   0.0102   0.0004   0.0012   0.0021  -2.00   81.8
2024/06/03 13:32:59.000   28.299018425  -16.474408546  1948.0390   1   7   0.0014   0.0013   0.0102   0.0004   0.0012   0.0021  -1.00   81.8
2024/06/03 13:33:00.000   28.299018423  -16.474408544  1948.0390   1   7   0.0014   0.0013   0.0102   0.0004   0.0012   0.0021   0.00   82.3
2024/06/03 13:33:01.000   28.299018424  -16.474408544  1948.0391   1   7   0.0014   0.0013   0.0102   0.0004   0.0012   0.0021   1.00   83.1
2024/06/03 13:33:02.000   28.299018424  -16.474408545  1948.0392   1   7   0.0014   0.0013   0.0102   0.0004   0.0012   0.0021   2.00   85.3
2024/06/03 13:33:03.000   28.299018424  -16.474408545  1948.0393   1   7   0.0014   0.0013   0.0102   0.0004   0.0012   0.0021   3.00   86.2
2024/06/03 13:33:04.000   28.299018424  -16.474408545  1948.0394   1   7   0.0014   0.0013   0.0102   0.0004   0.0012   0.0021   4.00   86.6
2024/06/03 13:33:05.000   28.299018424  -16.474408545  1948.0395   1   7   0.0014   0.0013   0.0102   0.0004   0.0012   0.0021   5.00   87.1
2024/06/03 13:33:06.000   28.299018424  -16.474408545  1948.0396   1   7   0.0014   0.0013   0.0102   0.0004   0.0012   0.0021   6.00   88.2
2024/06/03 13:33:07.000   28.299018424  -16.474408545  1948.0396   1   7   0.0014   0.0013   0.0102   0.0004   0.0012   0.0021   7.00   89.1
2024/06/03 13:33:08.000   28.299018424  -16.474408545  1948.0397   1   7   0.0014   0.0013   0.0102   0.0004   0.0012   0.0021   8.00   90.1
2024/06/03 13:33:09.000   28.299018424  -16.474408545  1948.0397   1   7   0.0014   0.0013   0.0102   0.0004   0.0012   0.0021   9.00   90.9
2024/06/03 13:33:10.000   28.299018425  -16.474408545  1948.0398   1   7   0.0014   0.0013   0.0102   0.0004   0.0012   0.0021  10.00   92.1
2024/06/03 13:33:11.000   28.299018425  -16.474408545  1948.0398   1   7   0.0014   0.0013   0.0102   0.0004   0.0012   0.0021  11.00   93.4
2024/06/03 13:33:12.000   28.299018425  -16.474408545  1948.0399   1   7   0.0014   0.0013   0.0102   0.0004   0.0012   0.0021  12.00   94.6
2024/06/03 13:33:13.000   28.299018425  -16.474408545  1948.0399   1   7   0.0014   0.0013   0.0102   0.0004   0.0012   0.0021  13.00   95.9
2024/06/03 13:33:14.000   28.299018425  -16.474408545  1948.0399   1   7   0.0014   0.0013   0.0102   0.0004   0.0012   0.0021  14.00   97.1
2024/06/03 13:33:15.000   28.299018425  -16.474408545  1948.0400   1   7   0.0014   0.0013   0.0102   0.0004   0.0012   0.0021 -15.00   98.4
2024/06/03 13:33:16.000   28.299018425  -16.474408545  1948.0400   1   7   0.0014   0.0013   0.0102   0.0004   0.0012   0.0021 -14.00   99.5
2024/06/03 13:33:17.000   28.299018425  -16.474408545  1948.0401   1   7   0.0014   0.0013   0.0102   0.0004   0.0012   0.0021 -13.00  100.8
2024/06/03 13:33:18.000   28.299018425  -16.474408545  1948.0402   1   7   0.0014   0.0013   0.0102   0.0004   0.0012   0.0021 -12.00  101.8
2024/06/03 13:33:19.000   28.299018425  -16.474408545  1948.0402   1   7   0.0014   0.0013   0.0102   0.0004   0.0012   0.0021 -11.00  103.4
2024/06/03 13:33:20.000   28.299018425  -16.474408545  1948.0403   1   7   0.0014   0.0013   0.0102   0.0004   0.0012   0.0021 -10.00  104.4
2024/06/03 13:33:21.000   28.299018425  -16.474408545  1948.0403   1   7   0.0014   0.0013   0.0102   0.0004   0.0012   0.0021  -9.00  105.8
2024/06/03 13:33:22.000   28.299018425  -16.474408545  1948.0404   1   7   0.0014   0.0013   0.0102   0.0004   0.0012   0.0021  -8.00  107.6
2024/06/03 13:33:23.000   28.299018425  -16.474408545  1948.0406   1   7   0.0014   0.0013   0.0102   0.0004   0.0012   0.0021  -7.00  109.0
2024/06/03 13:33:24.000   28.299018426  -16.474408545  1948.0407   1   7   0.0014   0.0013   0.0102   0.0004   0.0012   0.0021  -6.00  111.2
2024/06/03 13:33:25.000   28.299018426  -16.474408545  1948.0409   1   7   0.0014   0.0013   0.0102   0.0004   0.0012   0.0021  -5.00  113.7
2024/06/03 13:33:26.000   28.299018426  -16.474408545  1948.0411   1   7   0.0014   0.0013   0.0102   0.0004   0.0012   0.0021  -4.00  116.8
2024/06/03 13:33:27.000   28.299018426  -16.474408545  1948.0413   1   7   0.0014   0.0013   0.0102   0.0004   0.0012   0.0021  -3.00  120.0
2024/06/03 13:33:28.000   28.299018426  -16.474408545  1948.0415   1   7   0.0014   0.0013   0.0102   0.0004   0.0012   0.0021  -2.00  123.0
2024/06/03 13:33:29.000   28.299018426  -16.474408545  1948.0419   1   7   0.0014   0.0013   0.0102   0.0004   0.0013   0.0021  -1.00  128.2
2024/06/03 13:33:30.000   28.299018425  -16.474408542  1948.0425   1   7   0.0014   0.0013   0.0102   0.0004   0.0012   0.0021   0.00  133.0
2024/06/03 13:33:31.000   28.299018425  -16.474408542  1948.0428   1   7   0.0014   0.0013   0.0102   0.0004   0.0013   0.0021   1.00  136.1
2024/06/03 13:33:32.000   28.299018426  -16.474408542  1948.0431   1   7   0.0014   0.0013   0.0102   0.0004   0.0013   0.0021   2.00  138.6
2024/06/03 13:33:33.000   28.299018426  -16.474408542  1948.0433   1   7   0.0014   0.0013   0.0102   0.0004   0.0013   0.0021   3.00  140.0
2024/06/03 13:33:34.000   28.299018426  -16.474408542  1948.0435   1   7   0.0014   0.0013   0.0102   0.0004   0.0013   0.0021   4.00  141.3
2024/06/03 13:33:35.000   28.299018426  -16.474408542  1948.0436   1   7   0.0014   0.0013   0.0102   0.0004   0.0013   0.0021   5.00  142.5
2024/06/03 13:33:36.000   28.299018426  -16.474408542  1948.0437   1   7   0.0014   0.0013   0.0102   0.0004   0.0013   0.0021   6.00  143.4
2024/06/03 13:33:37.000   28.299018426  -16.474408542  1948.0438   1   7   0.0014   0.0013   0.0102   0.0004   0.0013   0.0021   7.00  144.8
2024/06/03 13:33:38.000   28.299018426  -16.474408542  1948.0438   1   7   0.0014   0.0013   0.0102   0.0004   0.0013   0.0021   8.00  146.1
2024/06/03 13:33:39.000   28.299018426  -16.474408542  1948.0439   1   7   0.0014   0.0013   0.0102   0.0004   0.0013   0.0021   9.00  147.1
2024/06/03 13:33:40.000   28.299018426  -16.474408542  1948.0439   1   7   0.0014   0.0013   0.0102   0.0004   0.0013   0.0021  10.00  148.0
2024/06/03 13:33:41.000   28.299018426  -16.474408543  1948.0428   1   7   0.0014   0.0013   0.0101   0.0004   0.0013   0.0021  11.00    3.4
2024/06/03 13:33:42.000   28.299018426  -16.474408543  1948.0428   1   7   0.0014   0.0013   0.0101   0.0004   0.0013   0.0021  12.00    4.7
2024/06/03 13:33:43.000   28.299018428  -16.474408539  1948.0473   1   7   0.0013   0.0012   0.0093   0.0004   0.0003   0.0019  13.00    5.6
2024/06/03 13:33:44.000   28.299018428  -16.474408539  1948.0473   1   7   0.0013   0.0012   0.0093   0.0004   0.0003   0.0019  14.00    7.7
2024/06/03 13:33:45.000   28.299018426  -16.474408537  1948.0472   1   7   0.0013   0.0012   0.0093   0.0004   0.0004   0.0019 -15.00    7.2
2024/06/03 13:33:46.000   28.299018426  -16.474408537  1948.0472   1   7   0.0013   0.0012   0.0093   0.0004   0.0004   0.0019 -14.00    8.8
2024/06/03 13:33:47.000   28.299018426  -16.474408536  1948.0472   1   7   0.0013   0.0012   0.0093   0.0004   0.0004   0.0019 -13.00   10.3
2024/06/03 13:33:48.000   28.299018426  -16.474408536  1948.0472   1   7   0.0013   0.0012   0.0093   0.0004   0.0004   0.0019 -12.00   11.8
2024/06/03 13:33:49.000   28.299018426  -16.474408536  1948.0472   1   7   0.0013   0.0012   0.0093   0.0004   0.0004   0.0019 -11.00   13.4
2024/06/03 13:33:50.000   28.299018426  -16.474408536  1948.0472   1   7   0.0013   0.0012   0.0093   0.0004   0.0004   0.0019 -10.00   14.9
2024/06/03 13:33:51.000   28.299018426  -16.474408536  1948.0472   1   7   0.0013   0.0012   0.0093   0.0004   0.0004   0.0019  -9.00   16.5
2024/06/03 13:33:52.000   28.299018425  -16.474408536  1948.0473   1   7   0.0013   0.0012   0.0093   0.0004   0.0004   0.0019  -8.00   18.0
2024/06/03 13:33:53.000   28.299018425  -16.474408536  1948.0473   1   7   0.0013   0.0012   0.0093   0.0004   0.0004   0.0019  -7.00   19.4
2024/06/03 13:33:54.000   28.299018425  -16.474408536  1948.0473   1   7   0.0013   0.0012   0.0093   0.0004   0.0004   0.0019  -6.00   20.7
2024/06/03 13:33:55.000   28.299018425  -16.474408535  1948.0473   1   7   0.0013   0.0012   0.0093   0.0004   0.0004   0.0019  -5.00   21.9
2024/06/03 13:33:56.000   28.299018425  -16.474408535  1948.0473   1   7   0.0013   0.0012   0.0093   0.0004   0.0004   0.0019  -4.00   23.1
2024/06/03 13:33:57.000   28.299018425  -16.474408535  1948.0472   1   7   0.0013   0.0012   0.0093   0.0004   0.0004   0.0019  -3.00   24.0
2024/06/03 13:33:58.000   28.299018425  -16.474408535  1948.0471   1   7   0.0013   0.0012   0.0093   0.0004   0.0004   0.0019  -2.00   25.0
2024/06/03 13:33:59.000   28.299018424  -16.474408535  1948.0470   1   7   0.0013   0.0012   0.0093   0.0004   0.0004   0.0019  -1.00   26.1
2024/06/03 13:34:00.000   28.299018423  -16.474408532  1948.0470   1   7   0.0013   0.0012   0.0092   0.0004   0.0004   0.0019   0.00   27.8
2024/06/03 13:34:01.000   28.299018426  -16.474408537  1948.0471   1   7   0.0013   0.0012   0.0092   0.0004   0.0004   0.0019   1.00   14.2
2024/06/03 13:34:02.000   28.299018426  -16.474408537  1948.0470   1   7   0.0013   0.0012   0.0092   0.0004   0.0004   0.0019   2.00   22.3
2024/06/03 13:34:03.000   28.299018426  -16.474408536  1948.0470   1   7   0.0013   0.0012   0.0092   0.0004   0.0004   0.0019   3.00   28.8
2024/06/03 13:34:04.000   28.299018426  -16.474408536  1948.0470   1   7   0.0013   0.0012   0.0092   0.0004   0.0004   0.0019   4.00   32.3
2024/06/03 13:34:05.000   28.299018426  -16.474408536  1948.0470   1   7   0.0013   0.0012   0.0092   0.0004   0.0004   0.0019   5.00   34.8
2024/06/03 13:34:06.000   28.299018426  -16.474408536  1948.0470   1   7   0.0013   0.0012   0.0092   0.0004   0.0004   0.0019   6.00   38.1
2024/06/03 13:34:07.000   28.299018426  -16.474408536  1948.0471   1   7   0.0013   0.0012   0.0092   0.0004   0.0004   0.0019   7.00   40.0
2024/06/03 13:34:08.000   28.299018426  -16.474408536  1948.0471   1   7   0.0013   0.0012   0.0092   0.0004   0.0004   0.0019   8.00   41.7
2024/06/03 13:34:09.000   28.299018426  -16.474408536  1948.0471   1   7   0.0013   0.0012   0.0092   0.0004   0.0004   0.0019   9.00   43.7
2024/06/03 13:34:10.000   28.299018426  -16.474408536  1948.0471   1   7   0.0013   0.0012   0.0092   0.0004   0.0004   0.0019  10.00   45.7
2024/06/03 13:34:11.000   28.299018426  -16.474408536  1948.0472   1   7   0.0013   0.0012   0.0092   0.0004   0.0004   0.0019  11.00   47.7
2024/06/03 13:34:12.000   28.299018425  -16.474408536  1948.0472   1   7   0.0013   0.0012   0.0092   0.0004   0.0004   0.0019  12.00   49.7
2024/06/03 13:34:13.000   28.299018425  -16.474408536  1948.0472   1   7   0.0013   0.0012   0.0092   0.0004   0.0004   0.0019  13.00   51.6
2024/06/03 13:34:14.000   28.299018425  -16.474408536  1948.0472   1   7   0.0013   0.0012   0.0092   0.0004   0.0004   0.0019  14.00   53.5
2024/06/03 13:34:15.000   28.299018425  -16.474408536  1948.0472   1   7   0.0013   0.0012   0.0092   0.0004   0.0004   0.0019 -15.00   55.3
2024/06/03 13:34:16.000   28.299018425  -16.474408536  1948.0472   1   7   0.0013   0.0012   0.0092   0.0004   0.0004   0.0019 -14.00   57.2
2024/06/03 13:34:17.000   28.299018425  -16.474408535  1948.0472   1   7   0.0013   0.0012   0.0092   0.0004   0.0004   0.0019 -13.00   59.0
2024/06/03 13:34:18.000   28.299018425  -16.474408535  1948.0472   1   7   0.0013   0.0012   0.0092   0.0004   0.0004   0.0019 -12.00   60.8
2024/06/03 13:34:19.000   28.299018425  -16.474408535  1948.0472   1   7   0.0013   0.0012   0.0092   0.0004   0.0004   0.0019 -11.00   62.2
2024/06/03 13:34:20.000   28.299018425  -16.474408535  1948.0473   1   7   0.0013   0.0012   0.0092   0.0004   0.0004   0.0019 -10.00   63.6
2024/06/03 13:34:21.000   28.299018425  -16.474408535  1948.0473   1   7   0.0013   0.0012   0.0092   0.0004   0.0004   0.0019  -9.00   64.8
2024/06/03 13:34:22.000   28.299018425  -16.474408535  1948.0473   1   7   0.0013   0.0012   0.0092   0.0004   0.0004   0.0019  -8.00   66.0
2024/06/03 13:34:23.000   28.299018425  -16.474408535  1948.0472   1   7   0.0013   0.0012   0.0092   0.0004   0.0004   0.0019  -7.00   66.0
2024/06/03 13:34:24.000   28.299018425  -16.474408535  1948.0473   1   7   0.0013   0.0012   0.0092   0.0004   0.0004   0.0019  -6.00   65.9
2024/06/03 13:34:25.000   28.299018425  -16.474408535  1948.0473   1   7   0.0013   0.0012   0.0092   0.0004   0.0004   0.0019  -5.00   65.5
2024/06/03 13:34:26.000   28.299018425  -16.474408535  1948.0473   1   7   0.0013   0.0012   0.0091   0.0004   0.0004   0.0019  -4.00   65.2
2024/06/03 13:34:27.000   28.299018425  -16.474408535  1948.0472   1   7   0.0013   0.0012   0.0091   0.0004   0.0004   0.0019  -3.00   64.8
2024/06/03 13:34:28.000   28.299018424  -16.474408534  1948.0472   1   7   0.0013   0.0012   0.0091   0.0004   0.0004   0.0019  -2.00   64.2
2024/06/03 13:34:29.000   28.299018424  -16.474408534  1948.0472   1   7   0.0013   0.0012   0.0091   0.0004   0.0004   0.0019  -1.00   63.0
2024/06/03 13:34:30.000   28.299018422  -16.474408531  1948.0473   1   7   0.0013   0.0012   0.0091   0.0004   0.0004   0.0019   0.00   61.9
2024/06/03 13:34:31.000   28.299018426  -16.474408536  1948.0473   1   7   0.0013   0.0012   0.0091   0.0004   0.0004   0.0019   1.00   15.6
2024/06/03 13:34:32.000   28.299018426  -16.474408536  1948.0472   1   7   0.0013   0.0012   0.0091   0.0004   0.0004   0.0019   2.00   26.2
2024/06/03 13:34:33.000   28.299018426  -16.474408536  1948.0472   1   7   0.0013   0.0012   0.0091   0.0004   0.0004   0.0019   3.00   34.5
2024/06/03 13:34:34.000   28.299018425  -16.474408535  1948.0471   1   7   0.0013   0.0012   0.0091   0.0004   0.0004   0.0019   4.00   41.0
2024/06/03 13:34:35.000   28.299018425  -16.474408535  1948.0471   1   7   0.0013   0.0012   0.0091   0.0004   0.0004   0.0019   5.00   44.4
2024/06/03 13:34:36.000   28.299018425  -16.474408535  1948.0472   1   7   0.0013   0.0012   0.0091   0.0004   0.0004   0.0019   6.00   47.3
2024/06/03 13:34:37.000   28.299018425  -16.474408535  1948.0472   1   7   0.0013   0.0012   0.0091   0.0004   0.0004   0.0019   7.00   49.8
2024/06/03 13:34:38.000   28.299018425  -16.474408535  1948.0472   1   7   0.0013   0.0012   0.0091   0.0004   0.0004   0.0019   8.00   52.0
2024/06/03 13:34:39.000   28.299018425  -16.474408535  1948.0472   1   7   0.0013   0.0012   0.0091   0.0004   0.0004   0.0019   9.00   54.0
2024/06/03 13:34:40.000   28.299018425  -16.474408535  1948.0472   1   7   0.0013   0.0012   0.0091   0.0004   0.0004   0.0019  10.00   55.6
2024/06/03 13:34:41.000   28.299018425  -16.474408535  1948.0472   1   7   0.0013   0.0012   0.0091   0.0004   0.0004   0.0019  11.00   56.8
2024/06/03 13:34:42.000   28.299018425  -16.474408535  1948.0472   1   7   0.0013   0.0012   0.0091   0.0004   0.0004   0.0019  12.00   58.0
2024/06/03 13:34:43.000   28.299018425  -16.474408535  1948.0472   1   7   0.0013   0.0012   0.0091   0.0004   0.0004   0.0019  13.00   59.1
2024/06/03 13:34:44.000   28.299018425  -16.474408535  1948.0472   1   7   0.0013   0.0012   0.0091   0.0004   0.0004   0.0019  14.00   60.2
2024/06/03 13:34:45.000   28.299018425  -16.474408535  1948.0472   1   7   0.0013   0.0012   0.0091   0.0004   0.0004   0.0019 -15.00   61.4
2024/06/03 13:34:46.000   28.299018425  -16.474408535  1948.0472   1   7   0.0013   0.0012   0.0091   0.0004   0.0004   0.0019 -14.00   62.5
2024/06/03 13:34:47.000   28.299018425  -16.474408535  1948.0472   1   7   0.0013   0.0012   0.0091   0.0004   0.0004   0.0019 -13.00   63.8
2024/06/03 13:34:48.000   28.299018425  -16.474408535  1948.0472   1   7   0.0013   0.0012   0.0091   0.0004   0.0004   0.0019 -12.00   65.1
2024/06/03 13:34:49.000   28.299018425  -16.474408534  1948.0472   1   7   0.0013   0.0012   0.0091   0.0004   0.0004   0.0019 -11.00   66.5
2024/06/03 13:34:50.000   28.299018424  -16.474408534  1948.0472   1   7   0.0013   0.0012   0.0091   0.0004   0.0004   0.0019 -10.00   67.7
2024/06/03 13:34:51.000   28.299018424  -16.474408534  1948.0472   1   7   0.0013   0.0012   0.0091   0.0004   0.0004   0.0019  -9.00   69.4
2024/06/03 13:34:52.000   28.299018424  -16.474408534  1948.0472   1   7   0.0013   0.0012   0.0091   0.0004   0.0004   0.0019  -8.00   70.2
2024/06/03 13:34:53.000   28.299018424  -16.474408534  1948.0472   1   7   0.0013   0.0012   0.0090   0.0004   0.0004   0.0019  -7.00   71.0
2024/06/03 13:34:54.000   28.299018424  -16.474408534  1948.0472   1   7   0.0013   0.0012   0.0090   0.0004   0.0005   0.0019  -6.00   71.6
2024/06/03 13:34:55.000   28.299018424  -16.474408534  1948.0472   1   7   0.0013   0.0012   0.0090   0.0004   0.0005   0.0019  -5.00   71.4
2024/06/03 13:34:56.000   28.299018424  -16.474408534  1948.0471   1   7   0.0013   0.0012   0.0090   0.0004   0.0005   0.0019  -4.00   71.2
2024/06/03 13:34:57.000   28.299018424  -16.474408534  1948.0470   1   7   0.0013   0.0012   0.0090   0.0004   0.0005   0.0019  -3.00   70.9
2024/06/03 13:34:58.000   28.299018424  -16.474408534  1948.0469   1   7   0.0013   0.0012   0.0090   0.0004   0.0005   0.0019  -2.00   70.7
2024/06/03 13:34:59.000   28.299018424  -16.474408534  1948.0469   1   7   0.0013   0.0012   0.0090   0.0004   0.0005   0.0019  -1.00   70.9
2024/06/03 13:35:00.000   28.299018422  -16.474408531  1948.0471   1   7   0.0013   0.0012   0.0090   0.0004   0.0004   0.0019   0.00   71.4
2024/06/03 13:35:01.000   28.299018426  -16.474408536  1948.0469   1   7   0.0013   0.0012   0.0090   0.0004   0.0004   0.0019   1.00   15.4
2024/06/03 13:35:02.000   28.299018426  -16.474408536  1948.0468   1   7   0.0013   0.0012   0.0090   0.0004   0.0004   0.0019   2.00   24.9
2024/06/03 13:35:03.000   28.299018426  -16.474408536  1948.0468   1   7   0.0013   0.0012   0.0090   0.0004   0.0004   0.0019   3.00   32.6
2024/06/03 13:35:04.000   28.299018426  -16.474408536  1948.0468   1   7   0.0013   0.0012   0.0090   0.0004   0.0004   0.0019   4.00   39.7
2024/06/03 13:35:05.000   28.299018426  -16.474408536  1948.0468   1   7   0.0013   0.0012   0.0090   0.0004   0.0004   0.0019   5.00   44.8
2024/06/03 13:35:06.000   28.299018425  -16.474408536  1948.0467   1   7   0.0013   0.0012   0.0090   0.0004   0.0004   0.0019   6.00   49.0
2024/06/03 13:35:07.000   28.299018425  -16.474408536  1948.0467   1   7   0.0013   0.0012   0.0090   0.0004   0.0005   0.0019   7.00   53.1
2024/06/03 13:35:08.000   28.299018425  -16.474408536  1948.0466   1   7   0.0013   0.0012   0.0090   0.0004   0.0005   0.0019   8.00   55.8
2024/06/03 13:35:09.000   28.299018425  -16.474408536  1948.0466   1   7   0.0013   0.0012   0.0090   0.0004   0.0005   0.0019   9.00   58.5
2024/06/03 13:35:10.000   28.299018425  -16.474408536  1948.0466   1   7   0.0013   0.0012   0.0090   0.0004   0.0005   0.0019  10.00   61.3
2024/06/03 13:35:11.000   28.299018425  -16.474408536  1948.0466   1   7   0.0013   0.0012   0.0090   0.0004   0.0005   0.0019  11.00   63.9
2024/06/03 13:35:12.000   28.299018425  -16.474408536  1948.0465   1   7   0.0013   0.0012   0.0090   0.0004   0.0005   0.0019  12.00   66.3
2024/06/03 13:35:13.000   28.299018425  -16.474408536  1948.0465   1   7   0.0013   0.0012   0.0090   0.0004   0.0005   0.0019  13.00   68.5
2024/06/03 13:35:14.000   28.299018425  -16.474408536  1948.0465   1   7   0.0013   0.0012   0.0090   0.0004   0.0005   0.0019  14.00   70.6
2024/06/03 13:35:15.000   28.299018425  -16.474408536  1948.0465   1   7   0.0013   0.0012   0.0090   0.0004   0.0005   0.0019 -15.00   72.8
2024/06/03 13:35:16.000   28.299018425  -16.474408536  1948.0465   1   7   0.0013   0.0012   0.0090   0.0004   0.0005   0.0019 -14.00   75.1
2024/06/03 13:35:17.000   28.299018425  -16.474408536  1948.0465   1   7   0.0013   0.0012   0.0090   0.0004   0.0005   0.0019 -13.00   77.4
2024/06/03 13:35:18.000   28.299018425  -16.474408536  1948.0465   1   7   0.0013   0.0012   0.0090   0.0004   0.0005   0.0019 -12.00   79.6
2024/06/03 13:35:19.000   28.299018425  -16.474408536  1948.0465   1   7   0.0013   0.0012   0.0090   0.0004   0.0005   0.0019 -11.00   81.8
2024/06/03 13:35:20.000   28.299018425  -16.474408535  1948.0465   1   7   0.0013   0.0012   0.0090   0.0004   0.0005   0.0019 -10.00   84.0
2024/06/03 13:35:21.000   28.299018425  -16.474408535  1948.0465   1   7   0.0013   0.0012   0.0090   0.0004   0.0005   0.0019  -9.00   86.4
2024/06/03 13:35:22.000   28.299018425  -16.474408535  1948.0465   1   7   0.0013   0.0012   0.0089   0.0004   0.0005   0.0019  -8.00   88.4
2024/06/03 13:35:23.000   28.299018425  -16.474408535  1948.0466   1   7   0.0013   0.0012   0.0089   0.0004   0.0005   0.0019  -7.00   90.8
2024/06/03 13:35:24.000   28.299018425  -16.474408535  1948.0465   1   7   0.0013   0.0012   0.0089   0.0004   0.0005   0.0019  -6.00   93.5
2024/06/03 13:35:25.000   28.299018424  -16.474408535  1948.0464   1   7   0.0013   0.0012   0.0089   0.0004   0.0005   0.0019  -5.00   96.6
2024/06/03 13:35:26.000   28.299018424  -16.474408535  1948.0464   1   7   0.0013   0.0012   0.0089   0.0004   0.0005   0.0019  -4.00   98.6
2024/06/03 13:35:27.000   28.299018424  -16.474408535  1948.0464   1   7   0.0013   0.0012   0.0089   0.0004   0.0005   0.0019  -3.00  100.7
2024/06/03 13:35:28.000   28.299018424  -16.474408535  1948.0464   1   7   0.0013   0.0012   0.0089   0.0004   0.0005   0.0019  -2.00  102.6
2024/06/03 13:35:29.000   28.299018425  -16.474408535  1948.0464   1   7   0.0013   0.0012   0.0089   0.0004   0.0005   0.0019  -1.00  104.9
2024/06/03 13:35:30.000   28.299018423  -16.474408533  1948.0464   1   7   0.0013   0.0012   0.0089   0.0004   0.0005   0.0019   0.00  106.6
2024/06/03 13:35:31.000   28.299018427  -16.474408537  1948.0464   1   7   0.0013   0.0012   0.0089   0.0004   0.0005   0.0019   1.00   15.3
2024/06/03 13:35:32.000   28.299018426  -16.474408537  1948.0464   1   7   0.0013   0.0012   0.0089   0.0004   0.0005   0.0019   2.00   34.5
2024/06/03 13:35:33.000   28.299018426  -16.474408537  1948.0464   1   7   0.0013   0.0012   0.0089   0.0004   0.0005   0.0019   3.00   51.2
2024/06/03 13:35:34.000   28.299018426  -16.474408537  1948.0464   1   7   0.0013   0.0012   0.0089   0.0004   0.0005   0.0019   4.00   64.5
2024/06/03 13:35:35.000   28.299018426  -16.474408537  1948.0464   1   7   0.0013   0.0012   0.0089   0.0004   0.0005   0.0019   5.00   75.8
2024/06/03 13:35:36.000   28.299018426  -16.474408537  1948.0464   1   7   0.0013   0.0012   0.0089   0.0004   0.0005   0.0019   6.00   86.7
2024/06/03 13:35:37.000   28.299018426  -16.474408537  1948.0464   1   7   0.0013   0.0012   0.0089   0.0004   0.0005   0.0019   7.00   95.6
2024/06/03 13:35:38.000   28.299018426  -16.474408537  1948.0464   1   7   0.0013   0.0012   0.0089   0.0004   0.0005   0.0019   8.00  102.8
2024/06/03 13:35:39.000   28.299018426  -16.474408537  1948.0464   1   7   0.0013   0.0012   0.0089   0.0004   0.0005   0.0019   9.00  110.0
2024/06/03 13:35:40.000   28.299018426  -16.474408537  1948.0464   1   7   0.0013   0.0012   0.0089   0.0004   0.0005   0.0019  10.00  116.3
2024/06/03 13:35:41.000   28.299018426  -16.474408537  1948.0464   1   7   0.0013   0.0012   0.0089   0.0004   0.0005   0.0019  11.00  120.9
2024/06/03 13:35:42.000   28.299018426  -16.474408537  1948.0464   1   7   0.0013   0.0012   0.0089   0.0004   0.0005   0.0019  12.00  125.2
2024/06/03 13:35:43.000   28.299018426  -16.474408537  1948.0465   1   7   0.0013   0.0012   0.0089   0.0004   0.0005   0.0019  13.00  129.1
2024/06/03 13:35:44.000   28.299018426  -16.474408537  1948.0465   1   7   0.0013   0.0012   0.0089   0.0004   0.0005   0.0019  14.00  132.8
2024/06/03 13:35:45.000   28.299018426  -16.474408537  1948.0465   1   7   0.0013   0.0012   0.0089   0.0004   0.0005   0.0019 -15.00  136.1
2024/06/03 13:35:46.000   28.299018426  -16.474408537  1948.0465   1   7   0.0013   0.0012   0.0089   0.0004   0.0005   0.0019 -14.00  139.4
2024/06/03 13:35:47.000   28.299018426  -16.474408537  1948.0465   1   7   0.0013   0.0012   0.0089   0.0004   0.0005   0.0019 -13.00  143.0
2024/06/03 13:35:48.000   28.299018426  -16.474408537  1948.0465   1   7   0.0013   0.0012   0.0089   0.0004   0.0005   0.0019 -12.00  147.0
2024/06/03 13:35:49.000   28.299018426  -16.474408537  1948.0465   1   7   0.0013   0.0012   0.0089   0.0004   0.0005   0.0019 -11.00  151.6
2024/06/03 13:35:50.000   28.299018425  -16.474408537  1948.0465   1   7   0.0013   0.0012   0.0089   0.0004   0.0005   0.0019 -10.00  156.0
2024/06/03 13:35:51.000   28.299018425  -16.474408537  1948.0465   1   7   0.0013   0.0012   0.0089   0.0004   0.0005   0.0019  -9.00  161.2
2024/06/03 13:35:52.000   28.299018425  -16.474408537  1948.0465   1   7   0.0013   0.0012   0.0088   0.0004   0.0005   0.0019  -8.00  167.6
2024/06/03 13:35:53.000   28.299018425  -16.474408537  1948.0465   1   7   0.0013   0.0012   0.0088   0.0004   0.0005   0.0019  -7.00  173.7
2024/06/03 13:35:54.000   28.299018425  -16.474408537  1948.0465   1   7   0.0013   0.0012   0.0088   0.0004   0.0005   0.0019  -6.00  179.1
2024/06/03 13:35:55.000   28.299018425  -16.474408537  1948.0465   1   7   0.0013   0.0012   0.0088   0.0004   0.0005   0.0019  -5.00  183.0
2024/06/03 13:35:56.000   28.299018425  -16.474408536  1948.0464   1   7   0.0013   0.0012   0.0088   0.0004   0.0005   0.0019  -4.00  185.6
2024/06/03 13:35:57.000   28.299018425  -16.474408536  1948.0464   1   7   0.0013   0.0012   0.0088   0.0004   0.0005   0.0019  -3.00  189.1
2024/06/03 13:35:58.000   28.299018425  -16.474408536  1948.0466   1   7   0.0013   0.0012   0.0088   0.0004   0.0005   0.0019  -2.00  190.3
2024/06/03 13:35:59.000   28.299018425  -16.474408536  1948.0465   1   7   0.0013   0.0012   0.0088   0.0004   0.0005   0.0019  -1.00  188.9
2024/06/03 13:36:00.000   28.299018424  -16.474408535  1948.0468   1   7   0.0013   0.0011   0.0088   0.0004   0.0005   0.0019   0.00  188.4
2024/06/03 13:36:01.000   28.299018426  -16.474408537  1948.0466   1   7   0.0013   0.0012   0.0088   0.0004   0.0005   0.0019   1.00   23.5
2024/06/03 13:36:02.000   28.299018425  -16.474408537  1948.0465   1   7   0.0013   0.0012   0.0088   0.0004   0.0005   0.0019   2.00   40.4
2024/06/03 13:36:03.000   28.299018425  -16.474408537  1948.0464   1   7   0.0013   0.0012   0.0088   0.0004   0.0005   0.0019   3.00   53.8
2024/06/03 13:36:04.000   28.299018425  -16.474408537  1948.0463   1   7   0.0013   0.0012   0.0088   0.0004   0.0005   0.0019   4.00   65.1
2024/06/03 13:36:05.000   28.299018425  -16.474408537  1948.0463   1   7   0.0013   0.0012   0.0088   0.0004   0.0005   0.0019   5.00   75.7
2024/06/03 13:36:06.000   28.299018425  -16.474408537  1948.0462   1   7   0.0013   0.0012   0.0088   0.0004   0.0005   0.0019   6.00   84.4
2024/06/03 13:36:07.000   28.299018425  -16.474408537  1948.0462   1   7   0.0013   0.0012   0.0088   0.0004   0.0005   0.0019   7.00   92.7
2024/06/03 13:36:08.000   28.299018425  -16.474408537  1948.0463   1   7   0.0013   0.0012   0.0088   0.0004   0.0005   0.0019   8.00   99.0
2024/06/03 13:36:09.000   28.299018425  -16.474408537  1948.0462   1   7   0.0013   0.0012   0.0088   0.0004   0.0005   0.0019   9.00  103.7
2024/06/03 13:36:10.000   28.299018425  -16.474408537  1948.0462   1   7   0.0013   0.0012   0.0088   0.0004   0.0005   0.0018  10.00  108.1
2024/06/03 13:36:11.000   28.299018425  -16.474408537  1948.0463   1   7   0.0013   0.0012   0.0088   0.0004   0.0005   0.0018  11.00  111.4
2024/06/03 13:36:12.000   28.299018425  -16.474408537  1948.0463   1   7   0.0013   0.0012   0.0088   0.0004   0.0005   0.0018  12.00  114.9
2024/06/03 13:36:13.000   28.299018425  -16.474408537  1948.0463   1   7   0.0013   0.0012   0.0088   0.0004   0.0005   0.0018  13.00  118.3
2024/06/03 13:36:14.000   28.299018425  -16.474408537  1948.0463   1   7   0.0013   0.0012   0.0088   0.0004   0.0005   0.0018  14.00  121.1
2024/06/03 13:36:15.000   28.299018425  -16.474408537  1948.0463   1   7   0.0013   0.0012   0.0088   0.0004   0.0005   0.0018 -15.00  124.2
2024/06/03 13:36:16.000   28.299018425  -16.474408537  1948.0463   1   7   0.0013   0.0012   0.0088   0.0004   0.0005   0.0018 -14.00  126.7
2024/06/03 13:36:17.000   28.299018425  -16.474408537  1948.0463   1   7   0.0013   0.0012   0.0088   0.0004   0.0005   0.0018 -13.00  130.1
2024/06/03 13:36:18.000   28.299018425  -16.474408537  1948.0463   1   7   0.0013   0.0012   0.0088   0.0004   0.0005   0.0018 -12.00  132.5
2024/06/03 13:36:19.000   28.299018424  -16.474408537  1948.0463   1   7   0.0013   0.0012   0.0088   0.0004   0.0005   0.0018 -11.00  136.1
2024/06/03 13:36:20.000   28.299018424  -16.474408537  1948.0463   1   7   0.0013   0.0012   0.0088   0.0004   0.0005   0.0018 -10.00  139.6
2024/06/03 13:36:21.000   28.299018424  -16.474408537  1948.0463   1   7   0.0013   0.0012   0.0088   0.0004   0.0005   0.0018  -9.00  143.7
2024/06/03 13:36:22.000   28.299018424  -16.474408537  1948.0464   1   7   0.0013   0.0012   0.0088   0.0004   0.0005   0.0018  -8.00  147.3
2024/06/03 13:36:23.000   28.299018424  -16.474408537  1948.0464   1   7   0.0013   0.0011   0.0088   0.0004   0.0005   0.0018  -7.00  152.5
2024/06/03 13:36:24.000   28.299018424  -16.474408536  1948.0464   1   7   0.0013   0.0011   0.0087   0.0004   0.0005   0.0018  -6.00  155.2
2024/06/03 13:36:25.000   28.299018424  -16.474408537  1948.0465   1   7   0.0013   0.0011   0.0087   0.0004   0.0005   0.0018  -5.00  155.7
2024/06/03 13:36:26.000   28.299018424  -16.474408536  1948.0465   1   7   0.0013   0.0011   0.0087   0.0004   0.0005   0.0018  -4.00  157.3
2024/06/03 13:36:27.000   28.299018424  -16.474408536  1948.0466   1   7   0.0013   0.0011   0.0087   0.0004   0.0005   0.0018  -3.00  159.0
2024/06/03 13:36:28.000   28.299018424  -16.474408536  1948.0465   1   7   0.0013   0.0011   0.0087   0.0004   0.0005   0.0018  -2.00  159.5
2024/06/03 13:36:29.000   28.299018424  -16.474408536  1948.0464   1   7   0.0013   0.0011   0.0087   0.0004   0.0005   0.0018  -1.00  160.8
2024/06/03 13:36:30.000   28.299018423  -16.474408535  1948.0465   1   7   0.0013   0.0011   0.0087   0.0004   0.0005   0.0018   0.00  162.7
2024/06/03 13:36:31.000   28.299018426  -16.474408538  1948.0462   1   7   0.0013   0.0011   0.0087   0.0003   0.0005   0.0018   1.00   20.6
2024/06/03 13:36:32.000   28.299018426  -16.474408538  1948.0461   1   7   0.0013   0.0011   0.0087   0.0004   0.0005   0.0018   2.00   32.6
2024/06/03 13:36:33.000   28.299018425  -16.474408538  1948.0462   1   7   0.0013   0.0011   0.0087   0.0004   0.0005   0.0018   3.00   51.3
2024/06/03 13:36:34.000   28.299018425  -16.474408538  1948.0462   1   7   0.0013   0.0011   0.0087   0.0004   0.0005   0.0018   4.00   65.1
2024/06/03 13:36:35.000   28.299018425  -16.474408538  1948.0462   1   7   0.0013   0.0011   0.0087   0.0004   0.0005   0.0018   5.00   77.1
2024/06/03 13:36:36.000   28.299018425  -16.474408538  1948.0462   1   7   0.0013   0.0011   0.0087   0.0004   0.0005   0.0018   6.00   84.2
2024/06/03 13:36:37.000   28.299018425  -16.474408538  1948.0462   1   7   0.0013   0.0011   0.0087   0.0004   0.0005   0.0018   7.00   93.9
2024/06/03 13:36:38.000   28.299018425  -16.474408538  1948.0462   1   7   0.0013   0.0011   0.0087   0.0004   0.0005   0.0018   8.00  100.3
2024/06/03 13:36:39.000   28.299018425  -16.474408538  1948.0462   1   7   0.0013   0.0011   0.0087   0.0004   0.0005   0.0018   9.00  106.3
2024/06/03 13:36:40.000   28.299018425  -16.474408538  1948.0462   1   7   0.0013   0.0011   0.0087   0.0004   0.0005   0.0018  10.00  111.4
2024/06/03 13:36:41.000   28.299018425  -16.474408538  1948.0462   1   7   0.0013   0.0011   0.0087   0.0004   0.0005   0.0018  11.00  117.5
2024/06/03 13:36:42.000   28.299018425  -16.474408538  1948.0462   1   7   0.0013   0.0011   0.0087   0.0004   0.0005   0.0018  12.00  121.5
2024/06/03 13:36:43.000   28.299018425  -16.474408538  1948.0462   1   7   0.0013   0.0011   0.0087   0.0004   0.0005   0.0018  13.00  127.2
2024/06/03 13:36:44.000   28.299018425  -16.474408538  1948.0462   1   7   0.0013   0.0011   0.0087   0.0004   0.0005   0.0018  14.00  131.7
2024/06/03 13:36:45.000   28.299018425  -16.474408538  1948.0462   1   7   0.0013   0.0011   0.0087   0.0003   0.0005   0.0018 -15.00  135.9
2024/06/03 13:36:46.000   28.299018425  -16.474408538  1948.0462   1   7   0.0013   0.0011   0.0087   0.0003   0.0005   0.0018 -14.00  141.5
2024/06/03 13:36:47.000   28.299018425  -16.474408538  1948.0463   1   7   0.0013   0.0011   0.0087   0.0003   0.0005   0.0018 -13.00  149.2
2024/06/03 13:36:48.000   28.299018425  -16.474408538  1948.0463   1   7   0.0013   0.0011   0.0087   0.0003   0.0005   0.0018 -12.00  157.2
2024/06/03 13:36:49.000   28.299018425  -16.474408538  1948.0463   1   7   0.0013   0.0011   0.0087   0.0003   0.0006   0.0018 -11.00  165.1
2024/06/03 13:36:50.000   28.299018425  -16.474408538  1948.0463   1   7   0.0013   0.0011   0.0087   0.0003   0.0006   0.0018 -10.00  175.5
2024/06/03 13:36:51.000   28.299018425  -16.474408538  1948.0464   1   7   0.0013   0.0011   0.0087   0.0003   0.0006   0.0018  -9.00  185.6
2024/06/03 13:36:52.000   28.299018425  -16.474408538  1948.0464   1   7   0.0013   0.0011   0.0087   0.0003   0.0006   0.0018  -8.00  195.5
2024/06/03 13:36:53.000   28.299018425  -16.474408538  1948.0465   1   7   0.0013   0.0011   0.0087   0.0003   0.0006   0.0018  -7.00  206.2
2024/06/03 13:36:54.000   28.299018424  -16.474408538  1948.0465   1   7   0.0013   0.0011   0.0087   0.0003   0.0006   0.0018  -6.00  216.4
2024/06/03 13:36:55.000   28.299018424  -16.474408538  1948.0465   1   7   0.0013   0.0011   0.0087   0.0003   0.0006   0.0018  -5.00  225.5
2024/06/03 13:36:56.000   28.299018424  -16.474408538  1948.0465   1   7   0.0013   0.0011   0.0087   0.0003   0.0006   0.0018  -4.00  234.1
2024/06/03 13:36:57.000   28.299018424  -16.474408537  1948.0465   1   7   0.0013   0.0011   0.0086   0.0003   0.0006   0.0018  -3.00  244.1
2024/06/03 13:36:58.000   28.299018424  -16.474408537  1948.0465   1   7   0.0013   0.0011   0.0086   0.0003   0.0006   0.0018  -2.00  251.0
2024/06/03 13:36:59.000   28.299018424  -16.474408537  1948.0465   1   7   0.0013   0.0011   0.0086   0.0003   0.0006   0.0018  -1.00  260.3
2024/06/03 13:37:00.000   28.299018424  -16.474408537  1948.0464   1   7   0.0013   0.0011   0.0086   0.0004   0.0005   0.0018   0.00  268.1
2024/06/03 13:37:01.000   28.299018426  -16.474408539  1948.0462   1   7   0.0013   0.0011   0.0086   0.0003   0.0005   0.0018   1.00   24.6
2024/06/03 13:37:02.000   28.299018425  -16.474408539  1948.0462   1   7   0.0013   0.0011   0.0086   0.0003   0.0006   0.0018   2.00   43.0
2024/06/03 13:37:03.000   28.299018425  -16.474408539  1948.0462   1   7   0.0013   0.0011   0.0086   0.0003   0.0006   0.0018   3.00   64.7
2024/06/03 13:37:04.000   28.299018425  -16.474408539  1948.0462   1   7   0.0013   0.0011   0.0086   0.0003   0.0006   0.0018   4.00   73.1
2024/06/03 13:37:05.000   28.299018425  -16.474408539  1948.0463   1   7   0.0013   0.0011   0.0086   0.0003   0.0006   0.0018   5.00  101.5
2024/06/03 13:37:06.000   28.299018425  -16.474408539  1948.0463   1   7   0.0013   0.0011   0.0086   0.0003   0.0006   0.0018   6.00  121.4
2024/06/03 13:37:07.000   28.299018425  -16.474408539  1948.0464   1   7   0.0013   0.0011   0.0086   0.0003   0.0006   0.0018   7.00  144.3
2024/06/03 13:37:08.000   28.299018425  -16.474408539  1948.0464   1   7   0.0013   0.0011   0.0086   0.0003   0.0006   0.0018   8.00  161.3
2024/06/03 13:37:09.000   28.299018425  -16.474408539  1948.0464   1   7   0.0013   0.0011   0.0086   0.0003   0.0006   0.0018   9.00  179.5
2024/06/03 13:37:10.000   28.299018425  -16.474408539  1948.0465   1   7   0.0013   0.0011   0.0086   0.0003   0.0006   0.0018  10.00  196.5
2024/06/03 13:37:11.000   28.299018425  -16.474408539  1948.0465   1   7   0.0013   0.0011   0.0086   0.0003   0.0006   0.0018  11.00  210.9
2024/06/03 13:37:12.000   28.299018425  -16.474408539  1948.0466   1   7   0.0013   0.0011   0.0086   0.0003   0.0006   0.0018  12.00  223.3
2024/06/03 13:37:13.000   28.299018425  -16.474408539  1948.0466   1   7   0.0013   0.0011   0.0086   0.0003   0.0006   0.0018  13.00  232.8
2024/06/03 13:37:14.000   28.299018425  -16.474408539  1948.0466   1   7   0.0013   0.0011   0.0086   0.0003   0.0006   0.0018  14.00  243.0
2024/06/03 13:37:15.000   28.299018425  -16.474408539  1948.0466   1   7   0.0013   0.0011   0.0086   0.0003   0.0006   0.0018 -15.00  249.1
2024/06/03 13:37:16.000   28.299018425  -16.474408539  1948.0466   1   7   0.0013   0.0011   0.0086   0.0003   0.0006   0.0018 -14.00  257.9
2024/06/03 13:37:17.000   28.299018425  -16.474408539  1948.0467   1   7   0.0013   0.0011   0.0086   0.0003   0.0006   0.0018 -13.00  263.3
