% program   : RTKPOST-EX 2.5.0
% inp file  : C:\Users\SallyHenry\Desktop\Sally Internship\GNSS gravi\DATA\Survey Rover Obs\GUI24.24o
% inp file  : C:\Users\SallyHenry\Desktop\Sally Internship\GNSS gravi\DATA\BaseStations\IZAN\IZAN00ESP_R_20241550000_01D_30S_MO.rnx
% inp file  : C:\Users\SallyHenry\Desktop\Sally Internship\GNSS gravi\DATA\BaseStations\IZAN\IZAN00ESP_R_20241550000_01D_MN.rnx
% inp file  : C:\Users\SallyHenry\Desktop\Sally Internship\GNSS gravi\DATA\aux_files\Survey\IGS0OPSFIN_20241550000_01D_15M_ORB.SP3
% inp file  : C:\Users\SallyHenry\Desktop\Sally Internship\GNSS gravi\DATA\aux_files\Survey\IGS0OPSFIN_20241550000_01D_30S_CLK.CLK
% obs start : 2024/06/03 14:06:31.0 GPST (week2317 137191.0s)
% obs end   : 2024/06/03 14:21:30.0 GPST (week2317 138090.0s)
% pos mode  : Static
% freqs     : L1+L2/E5b
% solution  : Combined-No Phase Reset
% elev mask : 15.0 deg
% dynamics  : on
% tidecorr  : solid
% ionos opt : Estimate TEC
% tropo opt : Estimate ZTD+Grad
% ephemeris : Precise
% navi sys  : GPS GLONASS Galileo QZSS BDS
% amb res   : Fix and Hold
% amb glo   : Fix and Hold
% amb bds   : on
% val thres : 3.0
% antenna1  :                       ( 0.0000  0.0000  1.8000)
% antenna2  :                       ( 0.0000  0.0000  0.0000)
% ref pos   :  28.308069410  -16.499677180  2417.4044
%
% (lat/lon/height=WGS84/ellipsoidal,Q=1:fix,2:float,3:sbas,4:dgps,5:single,6:ppp,ns=# of satellites)
%  GPST                  latitude(deg) longitude(deg)  height(m)   Q  ns   sdn(m)   sde(m)   sdu(m)  sdne(m)  sdeu(m)  sdun(m) age(s)  ratio
2024/06/03 14:06:31.000   28.296927086  -16.460068481  1698.5630   2   7   0.0230   0.0217   0.1331  -0.0085   0.0149  -0.0035 -29.00    0.0
2024/06/03 14:06:32.000   28.296927086  -16.460068483  1698.5605   2   7   0.0230   0.0217   0.1332  -0.0085   0.0149  -0.0038 -28.00    0.0
2024/06/03 14:06:33.000   28.296927085  -16.460068486  1698.5604   2   7   0.0230   0.0217   0.1334  -0.0084   0.0148  -0.0040 -27.00    0.0
2024/06/03 14:06:34.000   28.296927082  -16.460068490  1698.5616   2   7   0.0230   0.0217   0.1335  -0.0084   0.0148  -0.0042 -26.00    0.0
2024/06/03 14:06:35.000   28.296927079  -16.460068493  1698.5624   2   7   0.0230   0.0218   0.1336  -0.0084   0.0148  -0.0044 -25.00    0.0
2024/06/03 14:06:36.000   28.296927076  -16.460068500  1698.5627   2   7   0.0230   0.0218   0.1337  -0.0084   0.0148  -0.0045 -24.00    0.0
2024/06/03 14:06:37.000   28.296927074  -16.460068502  1698.5629   2   7   0.0230   0.0218   0.1337  -0.0084   0.0148  -0.0046 -23.00    0.0
2024/06/03 14:06:38.000   28.296927072  -16.460068504  1698.5634   2   7   0.0230   0.0218   0.1338  -0.0084   0.0148  -0.0047 -22.00    0.0
2024/06/03 14:06:39.000   28.296927069  -16.460068507  1698.5643   2   7   0.0230   0.0218   0.1338  -0.0084   0.0148  -0.0048 -21.00    0.0
2024/06/03 14:06:40.000   28.296927069  -16.460068509  1698.5637   2   7   0.0230   0.0218   0.1339  -0.0084   0.0148  -0.0049 -20.00    0.0
2024/06/03 14:06:41.000   28.296927066  -16.460068513  1698.5637   2   7   0.0230   0.0218   0.1339  -0.0083   0.0148  -0.0050 -19.00    0.0
2024/06/03 14:06:42.000   28.296927064  -16.460068516  1698.5637   2   7   0.0230   0.0218   0.1339  -0.0083   0.0148  -0.0050 -18.00    0.0
2024/06/03 14:06:43.000   28.296927062  -16.460068518  1698.5626   2   7   0.0230   0.0218   0.1340  -0.0083   0.0147  -0.0051 -17.00    0.0
2024/06/03 14:06:44.000   28.296927062  -16.460068518  1698.5607   2   7   0.0230   0.0218   0.1340  -0.0083   0.0147  -0.0051 -16.00    0.0
2024/06/03 14:06:45.000   28.296927061  -16.460068518  1698.5588   2   7   0.0230   0.0218   0.1340  -0.0083   0.0147  -0.0051 -15.00    0.0
2024/06/03 14:06:46.000   28.296927061  -16.460068518  1698.5567   2   7   0.0230   0.0218   0.1340  -0.0083   0.0147  -0.0052 -14.00    0.0
2024/06/03 14:06:47.000   28.296927061  -16.460068518  1698.5548   2   7   0.0230   0.0218   0.1340  -0.0083   0.0147  -0.0052 -13.00    0.0
2024/06/03 14:06:48.000   28.296927060  -16.460068519  1698.5545   2   7   0.0230   0.0218   0.1341  -0.0083   0.0147  -0.0052 -12.00    0.0
2024/06/03 14:06:49.000   28.296927057  -16.460068522  1698.5546   2   7   0.0230   0.0218   0.1341  -0.0083   0.0147  -0.0053 -11.00    0.0
2024/06/03 14:06:50.000   28.296927055  -16.460068525  1698.5539   2   7   0.0230   0.0218   0.1341  -0.0083   0.0147  -0.0053 -10.00    0.0
2024/06/03 14:06:51.000   28.296927052  -16.460068526  1698.5517   2   7   0.0230   0.0218   0.1341  -0.0083   0.0147  -0.0054  -9.00    0.0
2024/06/03 14:06:52.000   28.296927051  -16.460068526  1698.5479   2   7   0.0230   0.0218   0.1342  -0.0083   0.0147  -0.0054  -8.00    0.0
2024/06/03 14:06:53.000   28.296927051  -16.460068525  1698.5446   2   7   0.0230   0.0218   0.1342  -0.0083   0.0147  -0.0055  -7.00    0.0
2024/06/03 14:06:54.000   28.296927049  -16.460068526  1698.5418   2   7   0.0230   0.0218   0.1343  -0.0083   0.0147  -0.0056  -6.00    0.0
2024/06/03 14:06:55.000   28.296927047  -16.460068527  1698.5393   2   7   0.0230   0.0218   0.1344  -0.0083   0.0147  -0.0057  -5.00    0.0
2024/06/03 14:06:56.000   28.296927044  -16.460068528  1698.5362   2   7   0.0230   0.0218   0.1345  -0.0082   0.0147  -0.0058  -4.00    0.0
2024/06/03 14:06:57.000   28.296927044  -16.460068528  1698.5320   2   7   0.0230   0.0218   0.1346  -0.0082   0.0147  -0.0059  -3.00    0.0
2024/06/03 14:06:58.000   28.296927042  -16.460068530  1698.5274   2   7   0.0230   0.0218   0.1347  -0.0082   0.0147  -0.0060  -2.00    0.0
2024/06/03 14:06:59.000   28.296927040  -16.460068535  1698.5232   2   7   0.0230   0.0218   0.1348  -0.0082   0.0147  -0.0062  -1.00    0.0
2024/06/03 14:07:00.000   28.296927037  -16.460068541  1698.5176   2   7   0.0230   0.0219   0.1350  -0.0082   0.0147  -0.0063   0.00    0.0
2024/06/03 14:07:01.000   28.296927038  -16.460068539  1698.5224   2   7   0.0230   0.0219   0.1351  -0.0082   0.0147  -0.0065   1.00    0.0
2024/06/03 14:07:02.000   28.296927037  -16.460068544  1698.5228   2   7   0.0230   0.0219   0.1353  -0.0081   0.0147  -0.0066   2.00    0.0
2024/06/03 14:07:03.000   28.296927036  -16.460068545  1698.5246   2   7   0.0230   0.0219   0.1354  -0.0081   0.0147  -0.0067   3.00    0.0
2024/06/03 14:07:04.000   28.296927035  -16.460068548  1698.5251   2   7   0.0230   0.0219   0.1355  -0.0081   0.0146  -0.0069   4.00    0.0
2024/06/03 14:07:05.000   28.296927033  -16.460068551  1698.5276   2   7   0.0230   0.0219   0.1356  -0.0081   0.0146  -0.0070   5.00    0.0
2024/06/03 14:07:06.000   28.296927032  -16.460068553  1698.5282   2   7   0.0230   0.0219   0.1357  -0.0081   0.0146  -0.0071   6.00    0.0
2024/06/03 14:07:07.000   28.296927031  -16.460068556  1698.5287   2   7   0.0230   0.0219   0.1358  -0.0081   0.0146  -0.0071   7.00    0.0
2024/06/03 14:07:08.000   28.296927030  -16.460068559  1698.5282   2   7   0.0230   0.0219   0.1359  -0.0081   0.0146  -0.0072   8.00    0.0
2024/06/03 14:07:09.000   28.296927029  -16.460068560  1698.5284   2   7   0.0230   0.0219   0.1359  -0.0080   0.0146  -0.0073   9.00    0.0
2024/06/03 14:07:10.000   28.296927030  -16.460068560  1698.5293   2   7   0.0230   0.0219   0.1360  -0.0080   0.0146  -0.0073  10.00    0.0
2024/06/03 14:07:11.000   28.296927030  -16.460068560  1698.5303   2   7   0.0230   0.0219   0.1360  -0.0080   0.0146  -0.0074  11.00    0.0
2024/06/03 14:07:12.000   28.296927031  -16.460068560  1698.5298   2   7   0.0230   0.0219   0.1360  -0.0080   0.0146  -0.0074  12.00    0.0
2024/06/03 14:07:13.000   28.296927030  -16.460068561  1698.5307   2   7   0.0230   0.0219   0.1360  -0.0080   0.0146  -0.0074  13.00    0.0
2024/06/03 14:07:14.000   28.296927030  -16.460068561  1698.5317   2   7   0.0230   0.0219   0.1361  -0.0080   0.0146  -0.0074  14.00    0.0
2024/06/03 14:07:15.000   28.296927031  -16.460068560  1698.5322   2   7   0.0230   0.0219   0.1361  -0.0080   0.0146  -0.0075 -15.00    0.0
2024/06/03 14:07:16.000   28.296927032  -16.460068560  1698.5324   2   7   0.0230   0.0219   0.1361  -0.0080   0.0146  -0.0075 -14.00    0.0
2024/06/03 14:07:17.000   28.296927032  -16.460068559  1698.5330   2   7   0.0230   0.0220   0.1361  -0.0080   0.0146  -0.0075 -13.00    0.0
2024/06/03 14:07:18.000   28.296927032  -16.460068560  1698.5343   2   7   0.0230   0.0220   0.1362  -0.0080   0.0146  -0.0075 -12.00    0.0
2024/06/03 14:07:19.000   28.296927032  -16.460068560  1698.5356   2   7   0.0230   0.0220   0.1362  -0.0080   0.0146  -0.0076 -11.00    0.0
2024/06/03 14:07:20.000   28.296927033  -16.460068560  1698.5364   2   7   0.0230   0.0220   0.1362  -0.0080   0.0146  -0.0076 -10.00    0.0
2024/06/03 14:07:21.000   28.296927034  -16.460068559  1698.5364   2   7   0.0230   0.0220   0.1362  -0.0080   0.0146  -0.0076  -9.00    0.0
2024/06/03 14:07:22.000   28.296927035  -16.460068559  1698.5375   2   7   0.0230   0.0220   0.1363  -0.0080   0.0145  -0.0077  -8.00    0.0
2024/06/03 14:07:23.000   28.296927036  -16.460068559  1698.5383   2   7   0.0230   0.0220   0.1363  -0.0080   0.0145  -0.0077  -7.00    0.0
2024/06/03 14:07:24.000   28.296927037  -16.460068560  1698.5389   2   7   0.0230   0.0220   0.1364  -0.0080   0.0145  -0.0078  -6.00    0.0
2024/06/03 14:07:25.000   28.296927038  -16.460068561  1698.5390   2   7   0.0230   0.0220   0.1365  -0.0079   0.0145  -0.0079  -5.00    0.0
2024/06/03 14:07:26.000   28.296927040  -16.460068562  1698.5379   2   7   0.0230   0.0220   0.1365  -0.0079   0.0145  -0.0079  -4.00    0.0
2024/06/03 14:07:27.000   28.296927042  -16.460068561  1698.5364   2   7   0.0230   0.0220   0.1366  -0.0079   0.0145  -0.0080  -3.00    0.0
2024/06/03 14:07:28.000   28.296927044  -16.460068562  1698.5350   2   7   0.0230   0.0220   0.1367  -0.0079   0.0145  -0.0081  -2.00    0.0
2024/06/03 14:07:29.000   28.296927042  -16.460068567  1698.5355   2   7   0.0230   0.0220   0.1369  -0.0079   0.0145  -0.0082  -1.00    0.0
2024/06/03 14:07:30.000   28.296927041  -16.460068574  1698.5365   2   7   0.0230   0.0220   0.1370  -0.0079   0.0145  -0.0083   0.00    0.0
2024/06/03 14:07:31.000   28.296927038  -16.460068578  1698.5388   2   7   0.0230   0.0220   0.1371  -0.0078   0.0145  -0.0085   1.00    0.0
2024/06/03 14:07:32.000   28.296927039  -16.460068576  1698.5418   2   7   0.0230   0.0220   0.1372  -0.0078   0.0144  -0.0086   2.00    0.0
2024/06/03 14:07:33.000   28.296927042  -16.460068575  1698.5369   2   7   0.0230   0.0221   0.1374  -0.0078   0.0144  -0.0087   3.00    0.0
2024/06/03 14:07:34.000   28.296927044  -16.460068576  1698.5323   2   7   0.0230   0.0221   0.1375  -0.0078   0.0144  -0.0088   4.00    0.0
2024/06/03 14:07:35.000   28.296927046  -16.460068579  1698.5281   2   7   0.0230   0.0221   0.1376  -0.0078   0.0144  -0.0089   5.00    0.0
2024/06/03 14:07:36.000   28.296927045  -16.460068584  1698.5249   2   7   0.0230   0.0221   0.1377  -0.0078   0.0144  -0.0089   6.00    0.0
2024/06/03 14:07:37.000   28.296927045  -16.460068587  1698.5230   2   7   0.0230   0.0221   0.1377  -0.0078   0.0144  -0.0090   7.00    0.0
2024/06/03 14:07:38.000   28.296927048  -16.460068586  1698.5201   2   7   0.0230   0.0221   0.1378  -0.0077   0.0144  -0.0091   8.00    0.0
2024/06/03 14:07:39.000   28.296927049  -16.460068590  1698.5166   2   7   0.0230   0.0221   0.1379  -0.0077   0.0143  -0.0091   9.00    0.0
2024/06/03 14:07:40.000   28.296927048  -16.460068593  1698.5169   2   7   0.0230   0.0221   0.1379  -0.0077   0.0143  -0.0091  10.00    0.0
2024/06/03 14:07:41.000   28.296927048  -16.460068595  1698.5155   2   7   0.0230   0.0221   0.1379  -0.0077   0.0143  -0.0092  11.00    0.0
2024/06/03 14:07:42.000   28.296927048  -16.460068596  1698.5155   2   7   0.0230   0.0221   0.1380  -0.0077   0.0143  -0.0092  12.00    0.0
2024/06/03 14:07:43.000   28.296927049  -16.460068597  1698.5147   2   7   0.0230   0.0221   0.1380  -0.0077   0.0143  -0.0092  13.00    0.0
2024/06/03 14:07:44.000   28.296927050  -16.460068598  1698.5140   2   7   0.0230   0.0221   0.1380  -0.0077   0.0143  -0.0092  14.00    0.0
2024/06/03 14:07:45.000   28.296927050  -16.460068598  1698.5139   2   7   0.0230   0.0221   0.1380  -0.0077   0.0143  -0.0093 -15.00    0.0
2024/06/03 14:07:46.000   28.296927050  -16.460068600  1698.5137   2   7   0.0230   0.0221   0.1381  -0.0077   0.0143  -0.0093 -14.00    0.0
2024/06/03 14:07:47.000   28.296927050  -16.460068601  1698.5133   2   7   0.0230   0.0221   0.1381  -0.0077   0.0143  -0.0093 -13.00    0.0
2024/06/03 14:07:48.000   28.296927049  -16.460068602  1698.5131   2   7   0.0230   0.0221   0.1381  -0.0077   0.0143  -0.0093 -12.00    0.0
2024/06/03 14:07:49.000   28.296927049  -16.460068603  1698.5129   2   7   0.0230   0.0221   0.1381  -0.0077   0.0143  -0.0093 -11.00    0.0
2024/06/03 14:07:50.000   28.296927051  -16.460068602  1698.5138   2   7   0.0230   0.0221   0.1381  -0.0077   0.0143  -0.0094 -10.00    0.0
2024/06/03 14:07:51.000   28.296927053  -16.460068601  1698.5140   2   7   0.0230   0.0221   0.1382  -0.0077   0.0143  -0.0094  -9.00    0.0
2024/06/03 14:07:52.000   28.296927054  -16.460068600  1698.5139   2   7   0.0230   0.0221   0.1382  -0.0077   0.0143  -0.0094  -8.00    0.0
2024/06/03 14:07:53.000   28.296927056  -16.460068599  1698.5144   2   7   0.0230   0.0221   0.1382  -0.0077   0.0142  -0.0095  -7.00    0.0
2024/06/03 14:07:54.000   28.296927058  -16.460068598  1698.5147   2   7   0.0230   0.0221   0.1383  -0.0076   0.0142  -0.0095  -6.00    0.0
2024/06/03 14:07:55.000   28.296927059  -16.460068600  1698.5143   2   7   0.0230   0.0221   0.1384  -0.0076   0.0142  -0.0096  -5.00    0.0
2024/06/03 14:07:56.000   28.296927057  -16.460068608  1698.5136   2   7   0.0230   0.0221   0.1384  -0.0076   0.0142  -0.0096  -4.00    0.0
2024/06/03 14:07:57.000   28.296927053  -16.460068615  1698.5118   2   7   0.0230   0.0221   0.1385  -0.0076   0.0142  -0.0097  -3.00    0.0
2024/06/03 14:07:58.000   28.296927048  -16.460068627  1698.5041   2   7   0.0230   0.0221   0.1386  -0.0076   0.0142  -0.0098  -2.00    0.0
2024/06/03 14:07:59.000   28.296927041  -16.460068639  1698.5050   2   7   0.0230   0.0221   0.1387  -0.0076   0.0141  -0.0099  -1.00    0.0
2024/06/03 14:08:00.000   28.296927039  -16.460068644  1698.4976   2   7   0.0230   0.0222   0.1388  -0.0076   0.0141  -0.0100   0.00    0.0
2024/06/03 14:08:01.000   28.296927035  -16.460068652  1698.4977   2   7   0.0231   0.0222   0.1388  -0.0075   0.0140  -0.0101   1.00    0.0
2024/06/03 14:08:02.000   28.296927035  -16.460068647  1698.5070   2   7   0.0231   0.0222   0.1388  -0.0075   0.0139  -0.0103   2.00    0.0
2024/06/03 14:08:03.000   28.296927035  -16.460068650  1698.5033   2   7   0.0231   0.0222   0.1389  -0.0075   0.0139  -0.0104   3.00    0.0
2024/06/03 14:08:04.000   28.296927031  -16.460068661  1698.4984   2   7   0.0231   0.0222   0.1390  -0.0075   0.0138  -0.0104   4.00    0.0
2024/06/03 14:08:05.000   28.296927028  -16.460068664  1698.5006   2   7   0.0231   0.0222   0.1391  -0.0075   0.0138  -0.0105   5.00    0.0
2024/06/03 14:08:06.000   28.296927029  -16.460068657  1698.5051   2   7   0.0231   0.0222   0.1392  -0.0075   0.0138  -0.0106   6.00    0.0
2024/06/03 14:08:07.000   28.296927031  -16.460068654  1698.5046   2   7   0.0231   0.0222   0.1392  -0.0075   0.0138  -0.0106   7.00    0.0
2024/06/03 14:08:08.000   28.296927030  -16.460068656  1698.5027   2   7   0.0231   0.0222   0.1393  -0.0074   0.0138  -0.0107   8.00    0.0
2024/06/03 14:08:09.000   28.296927029  -16.460068658  1698.5036   2   7   0.0231   0.0222   0.1393  -0.0074   0.0137  -0.0107   9.00    0.0
2024/06/03 14:08:10.000   28.296927029  -16.460068655  1698.5038   2   7   0.0231   0.0222   0.1393  -0.0074   0.0137  -0.0107  10.00    0.0
2024/06/03 14:08:11.000   28.296927031  -16.460068652  1698.5028   2   7   0.0231   0.0222   0.1394  -0.0074   0.0137  -0.0108  11.00    0.0
2024/06/03 14:08:12.000   28.296927032  -16.460068651  1698.5017   2   7   0.0231   0.0222   0.1394  -0.0074   0.0137  -0.0108  12.00    0.0
2024/06/03 14:08:13.000   28.296927034  -16.460068649  1698.5003   2   7   0.0231   0.0222   0.1394  -0.0074   0.0137  -0.0108  13.00    0.0
2024/06/03 14:08:14.000   28.296927034  -16.460068648  1698.4996   2   7   0.0231   0.0222   0.1394  -0.0074   0.0137  -0.0108  14.00    0.0
2024/06/03 14:08:15.000   28.296927034  -16.460068648  1698.4997   2   7   0.0231   0.0222   0.1395  -0.0074   0.0137  -0.0108 -15.00    0.0
2024/06/03 14:08:16.000   28.296927034  -16.460068649  1698.5000   2   7   0.0231   0.0222   0.1395  -0.0074   0.0137  -0.0109 -14.00    0.0
2024/06/03 14:08:17.000   28.296927033  -16.460068650  1698.5007   2   7   0.0231   0.0222   0.1395  -0.0074   0.0137  -0.0109 -13.00    0.0
2024/06/03 14:08:18.000   28.296927033  -16.460068652  1698.5010   2   7   0.0231   0.0222   0.1395  -0.0074   0.0136  -0.0109 -12.00    0.0
2024/06/03 14:08:19.000   28.296927033  -16.460068652  1698.5007   2   7   0.0231   0.0222   0.1395  -0.0074   0.0136  -0.0109 -11.00    0.0
2024/06/03 14:08:20.000   28.296927034  -16.460068651  1698.5006   2   7   0.0231   0.0222   0.1395  -0.0074   0.0136  -0.0109 -10.00    0.0
2024/06/03 14:08:21.000   28.296927033  -16.460068651  1698.5018   2   7   0.0231   0.0222   0.1396  -0.0074   0.0136  -0.0110  -9.00    0.0
2024/06/03 14:08:22.000   28.296927033  -16.460068650  1698.5026   2   7   0.0231   0.0222   0.1396  -0.0074   0.0136  -0.0110  -8.00    0.0
2024/06/03 14:08:23.000   28.296927034  -16.460068650  1698.5027   2   7   0.0231   0.0222   0.1396  -0.0074   0.0136  -0.0110  -7.00    0.0
2024/06/03 14:08:24.000   28.296927034  -16.460068650  1698.5023   2   7   0.0231   0.0222   0.1397  -0.0073   0.0136  -0.0110  -6.00    0.0
2024/06/03 14:08:25.000   28.296927036  -16.460068648  1698.5007   2   7   0.0231   0.0222   0.1397  -0.0073   0.0136  -0.0111  -5.00    0.0
2024/06/03 14:08:26.000   28.296927039  -16.460068644  1698.4991   2   7   0.0231   0.0223   0.1398  -0.0073   0.0135  -0.0111  -4.00    0.0
2024/06/03 14:08:27.000   28.296927043  -16.460068636  1698.4969   2   7   0.0231   0.0223   0.1399  -0.0073   0.0135  -0.0112  -3.00    0.0
2024/06/03 14:08:28.000   28.296927050  -16.460068627  1698.4907   2   7   0.0231   0.0223   0.1399  -0.0073   0.0135  -0.0113  -2.00    0.0
2024/06/03 14:08:29.000   28.296927056  -16.460068620  1698.4850   2   7   0.0231   0.0223   0.1400  -0.0073   0.0135  -0.0113  -1.00    0.0
2024/06/03 14:08:30.000   28.296927061  -16.460068615  1698.4792   2   7   0.0231   0.0223   0.1402  -0.0073   0.0135  -0.0114   0.00    0.0
2024/06/03 14:08:31.000   28.296927065  -16.460068613  1698.4717   2   7   0.0231   0.0223   0.1403  -0.0072   0.0135  -0.0115   1.00    0.0
2024/06/03 14:08:32.000   28.296927070  -16.460068600  1698.4719   2   7   0.0231   0.0223   0.1404  -0.0072   0.0134  -0.0116   2.00    0.0
2024/06/03 14:08:33.000   28.296927079  -16.460068586  1698.4649   2   7   0.0231   0.0223   0.1405  -0.0072   0.0134  -0.0117   3.00    0.0
2024/06/03 14:08:34.000   28.296927086  -16.460068578  1698.4564   2   7   0.0231   0.0223   0.1406  -0.0072   0.0134  -0.0117   4.00    0.0
2024/06/03 14:08:35.000   28.296927089  -16.460068572  1698.4537   2   7   0.0231   0.0223   0.1407  -0.0072   0.0134  -0.0118   5.00    0.0
2024/06/03 14:08:36.000   28.296927093  -16.460068568  1698.4501   2   7   0.0231   0.0223   0.1408  -0.0072   0.0134  -0.0119   6.00    0.0
2024/06/03 14:08:37.000   28.296927095  -16.460068565  1698.4475   2   7   0.0231   0.0223   0.1408  -0.0071   0.0133  -0.0119   7.00    0.0
2024/06/03 14:08:38.000   28.296927097  -16.460068562  1698.4470   2   7   0.0231   0.0224   0.1409  -0.0071   0.0133  -0.0119   8.00    0.0
2024/06/03 14:08:39.000   28.296927099  -16.460068557  1698.4455   2   7   0.0231   0.0224   0.1409  -0.0071   0.0133  -0.0120   9.00    0.0
2024/06/03 14:08:40.000   28.296927101  -16.460068554  1698.4435   2   7   0.0231   0.0224   0.1409  -0.0071   0.0133  -0.0120  10.00    0.0
2024/06/03 14:08:41.000   28.296927102  -16.460068552  1698.4429   2   7   0.0231   0.0224   0.1410  -0.0071   0.0133  -0.0120  11.00    0.0
2024/06/03 14:08:42.000   28.296927103  -16.460068551  1698.4419   2   7   0.0231   0.0224   0.1410  -0.0071   0.0133  -0.0120  12.00    0.0
2024/06/03 14:08:43.000   28.296927104  -16.460068550  1698.4411   2   7   0.0231   0.0224   0.1410  -0.0071   0.0133  -0.0120  13.00    0.0
2024/06/03 14:08:44.000   28.296927106  -16.460068547  1698.4404   2   7   0.0231   0.0224   0.1410  -0.0071   0.0133  -0.0121  14.00    0.0
2024/06/03 14:08:45.000   28.296927107  -16.460068546  1698.4397   2   7   0.0231   0.0224   0.1410  -0.0071   0.0133  -0.0121 -15.00    0.0
2024/06/03 14:08:46.000   28.296927108  -16.460068544  1698.4390   2   7   0.0231   0.0224   0.1410  -0.0071   0.0132  -0.0121 -14.00    0.0
2024/06/03 14:08:47.000   28.296927109  -16.460068542  1698.4384   2   7   0.0231   0.0224   0.1410  -0.0071   0.0132  -0.0121 -13.00    0.0
2024/06/03 14:08:48.000   28.296927110  -16.460068539  1698.4376   2   7   0.0231   0.0224   0.1411  -0.0071   0.0132  -0.0121 -12.00    0.0
2024/06/03 14:08:49.000   28.296927112  -16.460068538  1698.4374   2   7   0.0231   0.0224   0.1411  -0.0071   0.0132  -0.0121 -11.00    0.0
2024/06/03 14:08:50.000   28.296927112  -16.460068535  1698.4375   2   7   0.0231   0.0224   0.1411  -0.0071   0.0132  -0.0121 -10.00    0.0
2024/06/03 14:08:51.000   28.296927115  -16.460068531  1698.4369   2   7   0.0231   0.0224   0.1411  -0.0071   0.0132  -0.0122  -9.00    0.0
2024/06/03 14:08:52.000   28.296927117  -16.460068527  1698.4357   2   7   0.0231   0.0224   0.1411  -0.0071   0.0132  -0.0122  -8.00    0.0
2024/06/03 14:08:53.000   28.296927121  -16.460068520  1698.4337   2   7   0.0231   0.0224   0.1412  -0.0071   0.0132  -0.0122  -7.00    0.0
2024/06/03 14:08:54.000   28.296927125  -16.460068514  1698.4322   2   7   0.0231   0.0224   0.1412  -0.0070   0.0132  -0.0122  -6.00    0.0
2024/06/03 14:08:55.000   28.296927128  -16.460068508  1698.4325   2   7   0.0231   0.0224   0.1412  -0.0070   0.0132  -0.0123  -5.00    0.0
2024/06/03 14:08:56.000   28.296927131  -16.460068501  1698.4357   2   7   0.0231   0.0224   0.1413  -0.0070   0.0131  -0.0123  -4.00    0.0
2024/06/03 14:08:57.000   28.296927132  -16.460068497  1698.4399   2   7   0.0231   0.0224   0.1413  -0.0070   0.0131  -0.0124  -3.00    0.0
2024/06/03 14:08:58.000   28.296927133  -16.460068491  1698.4407   2   7   0.0231   0.0224   0.1414  -0.0070   0.0131  -0.0124  -2.00    0.0
2024/06/03 14:08:59.000   28.296927138  -16.460068480  1698.4437   2   7   0.0231   0.0224   0.1415  -0.0070   0.0131  -0.0125  -1.00    0.0
2024/06/03 14:09:00.000   28.296927141  -16.460068470  1698.4490   2   7   0.0231   0.0224   0.1416  -0.0070   0.0131  -0.0126   0.00    0.0
2024/06/03 14:09:01.000   28.296927142  -16.460068464  1698.4518   2   7   0.0231   0.0224   0.1417  -0.0069   0.0131  -0.0126   1.00    0.0
2024/06/03 14:09:02.000   28.296927141  -16.460068465  1698.4557   2   7   0.0231   0.0224   0.1418  -0.0069   0.0130  -0.0127   2.00    0.0
2024/06/03 14:09:03.000   28.296927142  -16.460068456  1698.4593   2   7   0.0231   0.0224   0.1419  -0.0069   0.0130  -0.0128   3.00    0.0
2024/06/03 14:09:04.000   28.296927145  -16.460068445  1698.4596   2   7   0.0231   0.0225   0.1420  -0.0069   0.0130  -0.0128   4.00    0.0
2024/06/03 14:09:05.000   28.296927145  -16.460068447  1698.4591   2   7   0.0231   0.0225   0.1420  -0.0069   0.0130  -0.0129   5.00    0.0
2024/06/03 14:09:06.000   28.296927144  -16.460068447  1698.4610   2   7   0.0231   0.0225   0.1421  -0.0069   0.0130  -0.0129   6.00    0.0
2024/06/03 14:09:07.000   28.296927145  -16.460068443  1698.4612   2   7   0.0231   0.0225   0.1422  -0.0069   0.0130  -0.0129   7.00    0.0
2024/06/03 14:09:08.000   28.296927146  -16.460068442  1698.4619   2   7   0.0231   0.0225   0.1422  -0.0068   0.0130  -0.0130   8.00    0.0
2024/06/03 14:09:09.000   28.296927145  -16.460068443  1698.4645   2   7   0.0231   0.0225   0.1422  -0.0068   0.0129  -0.0130   9.00    0.0
2024/06/03 14:09:10.000   28.296927145  -16.460068442  1698.4666   2   7   0.0231   0.0225   0.1423  -0.0068   0.0129  -0.0130  10.00    0.0
2024/06/03 14:09:11.000   28.296927144  -16.460068442  1698.4684   2   7   0.0231   0.0225   0.1423  -0.0068   0.0129  -0.0130  11.00    0.0
2024/06/03 14:09:12.000   28.296927145  -16.460068440  1698.4692   2   7   0.0231   0.0225   0.1423  -0.0068   0.0129  -0.0131  12.00    0.0
2024/06/03 14:09:13.000   28.296927146  -16.460068437  1698.4690   2   7   0.0231   0.0225   0.1423  -0.0068   0.0129  -0.0131  13.00    0.0
2024/06/03 14:09:14.000   28.296927148  -16.460068434  1698.4690   2   7   0.0231   0.0225   0.1423  -0.0068   0.0129  -0.0131  14.00    0.0
2024/06/03 14:09:15.000   28.296927149  -16.460068432  1698.4701   2   7   0.0231   0.0225   0.1423  -0.0068   0.0129  -0.0131 -15.00    0.0
2024/06/03 14:09:16.000   28.296927149  -16.460068431  1698.4712   2   7   0.0231   0.0225   0.1423  -0.0068   0.0129  -0.0131 -14.00    0.0
2024/06/03 14:09:17.000   28.296927149  -16.460068431  1698.4726   2   7   0.0231   0.0225   0.1424  -0.0068   0.0129  -0.0131 -13.00    0.0
2024/06/03 14:09:18.000   28.296927148  -16.460068431  1698.4754   2   7   0.0231   0.0225   0.1424  -0.0068   0.0129  -0.0131 -12.00    0.0
2024/06/03 14:09:19.000   28.296927148  -16.460068431  1698.4781   2   7   0.0231   0.0225   0.1424  -0.0068   0.0129  -0.0131 -11.00    0.0
2024/06/03 14:09:20.000   28.296927147  -16.460068430  1698.4804   2   7   0.0231   0.0225   0.1424  -0.0068   0.0128  -0.0132 -10.00    0.0
2024/06/03 14:09:21.000   28.296927147  -16.460068429  1698.4820   2   7   0.0231   0.0225   0.1424  -0.0068   0.0128  -0.0132  -9.00    0.0
2024/06/03 14:09:22.000   28.296927148  -16.460068426  1698.4833   2   7   0.0231   0.0225   0.1424  -0.0068   0.0128  -0.0132  -8.00    0.0
2024/06/03 14:09:23.000   28.296927149  -16.460068424  1698.4872   2   7   0.0231   0.0225   0.1424  -0.0068   0.0128  -0.0132  -7.00    0.0
2024/06/03 14:09:24.000   28.296927148  -16.460068422  1698.4905   2   7   0.0231   0.0225   0.1425  -0.0067   0.0128  -0.0132  -6.00    0.0
2024/06/03 14:09:25.000   28.296927149  -16.460068418  1698.4936   2   7   0.0231   0.0225   0.1425  -0.0067   0.0128  -0.0133  -5.00    0.0
2024/06/03 14:09:26.000   28.296927149  -16.460068417  1698.4988   2   7   0.0231   0.0225   0.1425  -0.0067   0.0128  -0.0133  -4.00    0.0
2024/06/03 14:09:27.000   28.296927148  -16.460068416  1698.5026   2   7   0.0231   0.0225   0.1426  -0.0067   0.0128  -0.0133  -3.00    0.0
2024/06/03 14:09:28.000   28.296927149  -16.460068411  1698.5054   2   7   0.0231   0.0225   0.1426  -0.0067   0.0128  -0.0134  -2.00    0.0
2024/06/03 14:09:29.000   28.296927151  -16.460068404  1698.5096   2   7   0.0231   0.0225   0.1427  -0.0067   0.0127  -0.0134  -1.00    0.0
2024/06/03 14:09:30.000   28.296927151  -16.460068398  1698.5167   2   7   0.0231   0.0225   0.1428  -0.0067   0.0127  -0.0135   0.00    0.0
2024/06/03 14:09:31.000   28.296927150  -16.460068396  1698.5219   2   7   0.0231   0.0225   0.1429  -0.0067   0.0127  -0.0136   1.00    0.0
2024/06/03 14:09:32.000   28.296927148  -16.460068394  1698.5275   2   7   0.0231   0.0226   0.1429  -0.0066   0.0127  -0.0136   2.00    0.0
2024/06/03 14:09:33.000   28.296927145  -16.460068397  1698.5318   2   7   0.0231   0.0226   0.1430  -0.0066   0.0127  -0.0137   3.00    0.0
2024/06/03 14:09:34.000   28.296927141  -16.460068401  1698.5379   2   7   0.0231   0.0226   0.1431  -0.0066   0.0126  -0.0137   4.00    0.0
2024/06/03 14:09:35.000   28.296927139  -16.460068401  1698.5416   2   7   0.0231   0.0226   0.1432  -0.0066   0.0126  -0.0138   5.00    0.0
2024/06/03 14:09:36.000   28.296927139  -16.460068399  1698.5425   2   7   0.0231   0.0226   0.1432  -0.0066   0.0126  -0.0138   6.00    0.0
2024/06/03 14:09:37.000   28.296927140  -16.460068398  1698.5428   2   7   0.0231   0.0226   0.1432  -0.0066   0.0126  -0.0138   7.00    0.0
2024/06/03 14:09:38.000   28.296927141  -16.460068397  1698.5442   2   7   0.0231   0.0226   0.1433  -0.0066   0.0126  -0.0139   8.00    0.0
2024/06/03 14:09:39.000   28.296927139  -16.460068398  1698.5465   2   7   0.0231   0.0226   0.1433  -0.0065   0.0126  -0.0139   9.00    0.0
2024/06/03 14:09:40.000   28.296927138  -16.460068398  1698.5480   2   7   0.0231   0.0226   0.1433  -0.0065   0.0126  -0.0139  10.00    0.0
2024/06/03 14:09:41.000   28.296927139  -16.460068396  1698.5476   2   7   0.0231   0.0226   0.1434  -0.0065   0.0126  -0.0139  11.00    0.0
2024/06/03 14:09:42.000   28.296927140  -16.460068394  1698.5471   2   7   0.0231   0.0226   0.1434  -0.0065   0.0125  -0.0139  12.00    0.0
2024/06/03 14:09:43.000   28.296927140  -16.460068392  1698.5476   2   7   0.0231   0.0226   0.1434  -0.0065   0.0125  -0.0139  13.00    0.0
2024/06/03 14:09:44.000   28.296927140  -16.460068392  1698.5489   2   7   0.0231   0.0226   0.1434  -0.0065   0.0125  -0.0139  14.00    0.0
2024/06/03 14:09:45.000   28.296927139  -16.460068391  1698.5502   2   7   0.0231   0.0226   0.1434  -0.0065   0.0125  -0.0140 -15.00    0.0
2024/06/03 14:09:46.000   28.296927139  -16.460068391  1698.5507   2   7   0.0231   0.0226   0.1434  -0.0065   0.0125  -0.0140 -14.00    0.0
2024/06/03 14:09:47.000   28.296927139  -16.460068390  1698.5509   2   7   0.0231   0.0226   0.1434  -0.0065   0.0125  -0.0140 -13.00    0.0
2024/06/03 14:09:48.000   28.296927139  -16.460068390  1698.5515   2   7   0.0231   0.0226   0.1434  -0.0065   0.0125  -0.0140 -12.00    0.0
2024/06/03 14:09:49.000   28.296927139  -16.460068389  1698.5524   2   7   0.0231   0.0226   0.1434  -0.0065   0.0125  -0.0140 -11.00    0.0
2024/06/03 14:09:50.000   28.296927138  -16.460068390  1698.5554   2   7   0.0231   0.0226   0.1434  -0.0065   0.0125  -0.0140 -10.00    0.0
2024/06/03 14:09:51.000   28.296927136  -16.460068391  1698.5576   2   7   0.0231   0.0226   0.1434  -0.0065   0.0125  -0.0140  -9.00    0.0
2024/06/03 14:09:52.000   28.296927137  -16.460068388  1698.5582   2   7   0.0231   0.0226   0.1435  -0.0065   0.0125  -0.0140  -8.00    0.0
2024/06/03 14:09:53.000   28.296927138  -16.460068386  1698.5594   2   7   0.0231   0.0226   0.1435  -0.0065   0.0124  -0.0141  -7.00    0.0
2024/06/03 14:09:54.000   28.296927136  -16.460068388  1698.5644   2   7   0.0231   0.0226   0.1435  -0.0065   0.0124  -0.0141  -6.00    0.0
2024/06/03 14:09:55.000   28.296927134  -16.460068389  1698.5692   2   7   0.0231   0.0226   0.1435  -0.0065   0.0124  -0.0141  -5.00    0.0
2024/06/03 14:09:56.000   28.296927135  -16.460068385  1698.5691   2   7   0.0231   0.0226   0.1435  -0.0064   0.0124  -0.0141  -4.00    0.0
2024/06/03 14:09:57.000   28.296927137  -16.460068381  1698.5681   2   7   0.0231   0.0226   0.1436  -0.0064   0.0124  -0.0142  -3.00    0.0
2024/06/03 14:09:58.000   28.296927139  -16.460068375  1698.5691   2   7   0.0231   0.0226   0.1436  -0.0064   0.0124  -0.0142  -2.00    0.0
2024/06/03 14:09:59.000   28.296927139  -16.460068372  1698.5743   2   7   0.0231   0.0226   0.1437  -0.0064   0.0124  -0.0142  -1.00    0.0
2024/06/03 14:10:00.000   28.296927136  -16.460068370  1698.5799   2   7   0.0231   0.0226   0.1437  -0.0064   0.0124  -0.0143   0.00    0.0
2024/06/03 14:10:01.000   28.296927137  -16.460068363  1698.5842   2   7   0.0231   0.0226   0.1438  -0.0064   0.0123  -0.0143   1.00    0.0
2024/06/03 14:10:02.000   28.296927138  -16.460068357  1698.5881   2   7   0.0231   0.0227   0.1439  -0.0064   0.0123  -0.0144   2.00    0.0
2024/06/03 14:10:03.000   28.296927141  -16.460068346  1698.5905   2   7   0.0231   0.0227   0.1439  -0.0063   0.0123  -0.0144   3.00    0.0
2024/06/03 14:10:04.000   28.296927146  -16.460068334  1698.5915   2   7   0.0231   0.0227   0.1440  -0.0063   0.0123  -0.0145   4.00    0.0
2024/06/03 14:10:05.000   28.296927147  -16.460068327  1698.5941   2   7   0.0231   0.0227   0.1440  -0.0063   0.0122  -0.0145   5.00    0.0
2024/06/03 14:10:06.000   28.296927149  -16.460068322  1698.5948   2   7   0.0231   0.0227   0.1441  -0.0063   0.0122  -0.0145   6.00    0.0
2024/06/03 14:10:07.000   28.296927149  -16.460068320  1698.5972   2   7   0.0231   0.0227   0.1441  -0.0063   0.0122  -0.0146   7.00    0.0
2024/06/03 14:10:08.000   28.296927148  -16.460068319  1698.5992   2   7   0.0231   0.0227   0.1441  -0.0063   0.0122  -0.0146   8.00    0.0
2024/06/03 14:10:09.000   28.296927148  -16.460068318  1698.6014   2   7   0.0231   0.0227   0.1442  -0.0063   0.0122  -0.0146   9.00    0.0
2024/06/03 14:10:10.000   28.296927147  -16.460068316  1698.6039   2   7   0.0231   0.0227   0.1442  -0.0063   0.0122  -0.0146  10.00    0.0
2024/06/03 14:10:11.000   28.296927146  -16.460068316  1698.6066   2   7   0.0231   0.0227   0.1442  -0.0063   0.0122  -0.0146  11.00    0.0
2024/06/03 14:10:12.000   28.296927146  -16.460068314  1698.6088   2   7   0.0231   0.0227   0.1442  -0.0063   0.0122  -0.0147  12.00    0.0
2024/06/03 14:10:13.000   28.296927146  -16.460068312  1698.6102   2   7   0.0231   0.0227   0.1442  -0.0063   0.0122  -0.0147  13.00    0.0
2024/06/03 14:10:14.000   28.296927145  -16.460068312  1698.6126   2   7   0.0231   0.0227   0.1442  -0.0063   0.0121  -0.0147  14.00    0.0
2024/06/03 14:10:15.000   28.296927145  -16.460068311  1698.6144   2   7   0.0231   0.0227   0.1442  -0.0062   0.0121  -0.0147 -15.00    0.0
2024/06/03 14:10:16.000   28.296927144  -16.460068310  1698.6156   2   7   0.0231   0.0227   0.1442  -0.0062   0.0121  -0.0147 -14.00    0.0
2024/06/03 14:10:17.000   28.296927145  -16.460068308  1698.6160   2   7   0.0231   0.0227   0.1442  -0.0062   0.0121  -0.0147 -13.00    0.0
2024/06/03 14:10:18.000   28.296927145  -16.460068306  1698.6170   2   7   0.0231   0.0227   0.1442  -0.0062   0.0121  -0.0147 -12.00    0.0
2024/06/03 14:10:19.000   28.296927144  -16.460068305  1698.6182   2   7   0.0231   0.0227   0.1443  -0.0062   0.0121  -0.0147 -11.00    0.0
2024/06/03 14:10:20.000   28.296927145  -16.460068302  1698.6177   2   7   0.0231   0.0227   0.1443  -0.0062   0.0121  -0.0147 -10.00    0.0
2024/06/03 14:10:21.000   28.296927146  -16.460068297  1698.6170   2   7   0.0231   0.0227   0.1443  -0.0062   0.0121  -0.0147  -9.00    0.0
2024/06/03 14:10:22.000   28.296927148  -16.460068293  1698.6176   2   7   0.0231   0.0227   0.1443  -0.0062   0.0121  -0.0147  -8.00    0.0
2024/06/03 14:10:23.000   28.296927147  -16.460068291  1698.6214   2   7   0.0231   0.0227   0.1443  -0.0062   0.0121  -0.0148  -7.00    0.0
2024/06/03 14:10:24.000   28.296927146  -16.460068289  1698.6247   2   7   0.0231   0.0227   0.1443  -0.0062   0.0121  -0.0148  -6.00    0.0
2024/06/03 14:10:25.000   28.296927148  -16.460068284  1698.6249   2   7   0.0231   0.0227   0.1443  -0.0062   0.0120  -0.0148  -5.00    0.0
2024/06/03 14:10:26.000   28.296927150  -16.460068278  1698.6248   2   7   0.0231   0.0227   0.1443  -0.0062   0.0120  -0.0148  -4.00    0.0
2024/06/03 14:10:27.000   28.296927152  -16.460068274  1698.6265   2   7   0.0231   0.0227   0.1444  -0.0062   0.0120  -0.0148  -3.00    0.0
2024/06/03 14:10:28.000   28.296927155  -16.460068269  1698.6238   2   7   0.0231   0.0227   0.1444  -0.0062   0.0120  -0.0149  -2.00    0.0
2024/06/03 14:10:29.000   28.296927162  -16.460068258  1698.6199   2   7   0.0231   0.0227   0.1444  -0.0062   0.0120  -0.0149  -1.00    0.0
2024/06/03 14:10:30.000   28.296927167  -16.460068250  1698.6221   2   7   0.0231   0.0227   0.1445  -0.0061   0.0120  -0.0149   0.00    0.0
2024/06/03 14:10:31.000   28.296927170  -16.460068241  1698.6245   2   7   0.0231   0.0227   0.1445  -0.0061   0.0119  -0.0150   1.00    0.0
2024/06/03 14:10:32.000   28.296927175  -16.460068231  1698.6219   2   7   0.0231   0.0227   0.1446  -0.0061   0.0119  -0.0150   2.00    0.0
2024/06/03 14:10:33.000   28.296927179  -16.460068221  1698.6212   2   7   0.0231   0.0228   0.1446  -0.0061   0.0119  -0.0151   3.00    0.0
2024/06/03 14:10:34.001   28.296927184  -16.460068210  1698.6202   2   7   0.0231   0.0228   0.1446  -0.0061   0.0119  -0.0151   4.00    0.0
2024/06/03 14:10:35.000   28.296927189  -16.460068206  1698.6151   2   7   0.0231   0.0228   0.1447  -0.0061   0.0119  -0.0151   5.00    0.0
2024/06/03 14:10:36.000   28.296927190  -16.460068207  1698.6120   2   7   0.0231   0.0228   0.1447  -0.0061   0.0118  -0.0152   6.00    0.0
2024/06/03 14:10:37.000   28.296927192  -16.460068208  1698.6098   2   7   0.0231   0.0228   0.1447  -0.0061   0.0118  -0.0152   7.00    0.0
2024/06/03 14:10:38.000   28.296927193  -16.460068206  1698.6081   2   7   0.0231   0.0228   0.1448  -0.0060   0.0118  -0.0152   8.00    0.0
2024/06/03 14:10:39.000   28.296927194  -16.460068206  1698.6071   2   7   0.0231   0.0228   0.1448  -0.0060   0.0118  -0.0152   9.00    0.0
2024/06/03 14:10:40.000   28.296927193  -16.460068207  1698.6077   2   7   0.0231   0.0228   0.1448  -0.0060   0.0118  -0.0152  10.00    0.0
2024/06/03 14:10:41.000   28.296927192  -16.460068207  1698.6080   2   7   0.0231   0.0228   0.1448  -0.0060   0.0118  -0.0152  11.00    0.0
2024/06/03 14:10:42.000   28.296927192  -16.460068207  1698.6078   2   7   0.0231   0.0228   0.1448  -0.0060   0.0118  -0.0152  12.00    0.0
2024/06/03 14:10:43.000   28.296927192  -16.460068208  1698.6073   2   7   0.0231   0.0228   0.1448  -0.0060   0.0118  -0.0153  13.00    0.0
2024/06/03 14:10:44.000   28.296927192  -16.460068208  1698.6070   2   7   0.0231   0.0228   0.1448  -0.0060   0.0118  -0.0153  14.00    0.0
2024/06/03 14:10:45.000   28.296927192  -16.460068208  1698.6065   2   7   0.0231   0.0228   0.1448  -0.0060   0.0118  -0.0153 -15.00    0.0
2024/06/03 14:10:46.000   28.296927192  -16.460068207  1698.6056   2   7   0.0231   0.0228   0.1448  -0.0060   0.0117  -0.0153 -14.00    0.0
2024/06/03 14:10:47.000   28.296927193  -16.460068208  1698.6049   2   7   0.0231   0.0228   0.1448  -0.0060   0.0117  -0.0153 -13.00    0.0
2024/06/03 14:10:48.000   28.296927192  -16.460068209  1698.6054   2   7   0.0231   0.0228   0.1448  -0.0060   0.0117  -0.0153 -12.00    0.0
2024/06/03 14:10:49.000   28.296927192  -16.460068209  1698.6051   2   7   0.0231   0.0228   0.1448  -0.0060   0.0117  -0.0153 -11.00    0.0
2024/06/03 14:10:50.000   28.296927193  -16.460068210  1698.6052   2   7   0.0231   0.0228   0.1448  -0.0060   0.0117  -0.0153 -10.00    0.0
2024/06/03 14:10:51.000   28.296927192  -16.460068211  1698.6059   2   7   0.0231   0.0228   0.1448  -0.0060   0.0117  -0.0153  -9.00    0.0
2024/06/03 14:10:52.000   28.296927193  -16.460068211  1698.6051   2   7   0.0231   0.0228   0.1448  -0.0060   0.0117  -0.0153  -8.00    0.0
2024/06/03 14:10:53.000   28.296927195  -16.460068209  1698.6032   2   7   0.0231   0.0228   0.1448  -0.0060   0.0117  -0.0153  -7.00    0.0
2024/06/03 14:10:54.000   28.296927196  -16.460068210  1698.6024   2   7   0.0231   0.0228   0.1449  -0.0060   0.0117  -0.0153  -6.00    0.0
2024/06/03 14:10:55.000   28.296927196  -16.460068212  1698.6032   2   7   0.0231   0.0228   0.1449  -0.0060   0.0117  -0.0154  -5.00    0.0
2024/06/03 14:10:56.000   28.296927198  -16.460068210  1698.5998   2   7   0.0231   0.0228   0.1449  -0.0060   0.0116  -0.0154  -4.00    0.0
2024/06/03 14:10:57.000   28.296927204  -16.460068205  1698.5945   2   7   0.0231   0.0228   0.1449  -0.0060   0.0116  -0.0154  -3.00    0.0
2024/06/03 14:10:58.000   28.296927208  -16.460068202  1698.5913   2   7   0.0231   0.0228   0.1449  -0.0059   0.0116  -0.0154  -2.00    0.0
2024/06/03 14:10:59.000   28.296927211  -16.460068200  1698.5894   2   7   0.0231   0.0228   0.1449  -0.0059   0.0116  -0.0154  -1.00    0.0
2024/06/03 14:11:00.000   28.296927214  -16.460068198  1698.5865   2   7   0.0231   0.0228   0.1450  -0.0059   0.0116  -0.0155   0.00    0.0
2024/06/03 14:11:01.000   28.296927216  -16.460068198  1698.5830   2   7   0.0231   0.0228   0.1450  -0.0059   0.0116  -0.0155   1.00    0.0
2024/06/03 14:11:02.000   28.296927217  -16.460068205  1698.5787   2   7   0.0231   0.0228   0.1450  -0.0059   0.0115  -0.0155   2.00    0.0
2024/06/03 14:11:03.000   28.296927217  -16.460068202  1698.5805   2   7   0.0231   0.0228   0.1450  -0.0059   0.0115  -0.0156   3.00    0.0
2024/06/03 14:11:04.000   28.296927223  -16.460068195  1698.5760   2   7   0.0231   0.0228   0.1451  -0.0059   0.0115  -0.0156   4.00    0.0
2024/06/03 14:11:05.000   28.296927228  -16.460068191  1698.5719   2   7   0.0232   0.0228   0.1451  -0.0059   0.0115  -0.0156   5.00    0.0
2024/06/03 14:11:06.000   28.296927229  -16.460068191  1698.5707   2   7   0.0232   0.0228   0.1451  -0.0059   0.0115  -0.0156   6.00    0.0
2024/06/03 14:11:07.000   28.296927230  -16.460068193  1698.5696   2   7   0.0232   0.0228   0.1451  -0.0058   0.0115  -0.0157   7.00    0.0
2024/06/03 14:11:08.000   28.296927231  -16.460068192  1698.5677   2   7   0.0232   0.0228   0.1451  -0.0058   0.0114  -0.0157   8.00    0.0
2024/06/03 14:11:09.000   28.296927234  -16.460068190  1698.5658   2   7   0.0232   0.0228   0.1452  -0.0058   0.0114  -0.0157   9.00    0.0
2024/06/03 14:11:10.000   28.296927235  -16.460068192  1698.5647   2   7   0.0232   0.0228   0.1452  -0.0058   0.0114  -0.0157  10.00    0.0
2024/06/03 14:11:11.000   28.296927234  -16.460068194  1698.5653   2   7   0.0232   0.0228   0.1452  -0.0058   0.0114  -0.0157  11.00    0.0
2024/06/03 14:11:12.000   28.296927234  -16.460068195  1698.5652   2   7   0.0231   0.0228   0.1452  -0.0058   0.0114  -0.0157  12.00    0.0
2024/06/03 14:11:13.000   28.296927234  -16.460068196  1698.5647   2   7   0.0231   0.0228   0.1452  -0.0058   0.0114  -0.0157  13.00    0.0
2024/06/03 14:11:14.000   28.296927234  -16.460068196  1698.5647   2   7   0.0231   0.0228   0.1452  -0.0058   0.0114  -0.0157  14.00    0.0
2024/06/03 14:11:15.000   28.296927234  -16.460068199  1698.5654   2   7   0.0231   0.0228   0.1452  -0.0058   0.0114  -0.0157 -15.00    0.0
2024/06/03 14:11:16.000   28.296927233  -16.460068201  1698.5664   2   7   0.0231   0.0228   0.1452  -0.0058   0.0114  -0.0157 -14.00    0.0
2024/06/03 14:11:17.000   28.296927233  -16.460068202  1698.5662   2   7   0.0231   0.0228   0.1452  -0.0058   0.0114  -0.0157 -13.00    0.0
2024/06/03 14:11:18.000   28.296927233  -16.460068203  1698.5657   2   7   0.0231   0.0228   0.1452  -0.0058   0.0114  -0.0157 -12.00    0.0
2024/06/03 14:11:19.000   28.296927233  -16.460068205  1698.5660   2   7   0.0231   0.0228   0.1452  -0.0058   0.0114  -0.0157 -11.00    0.0
2024/06/03 14:11:20.000   28.296927232  -16.460068207  1698.5662   2   7   0.0231   0.0228   0.1452  -0.0058   0.0113  -0.0158 -10.00    0.0
2024/06/03 14:11:21.000   28.296927232  -16.460068208  1698.5655   2   7   0.0231   0.0228   0.1452  -0.0058   0.0113  -0.0158  -9.00    0.0
2024/06/03 14:11:22.000   28.296927233  -16.460068207  1698.5643   2   7   0.0231   0.0228   0.1452  -0.0058   0.0113  -0.0158  -8.00    0.0
2024/06/03 14:11:23.000   28.296927236  -16.460068204  1698.5613   2   7   0.0231   0.0228   0.1452  -0.0058   0.0113  -0.0158  -7.00    0.0
2024/06/03 14:11:24.000   28.296927239  -16.460068202  1698.5601   2   7   0.0231   0.0228   0.1452  -0.0058   0.0113  -0.0158  -6.00    0.0
2024/06/03 14:11:25.000   28.296927238  -16.460068205  1698.5620   2   7   0.0231   0.0228   0.1452  -0.0058   0.0113  -0.0158  -5.00    0.0
2024/06/03 14:11:26.000   28.296927237  -16.460068210  1698.5623   2   7   0.0231   0.0228   0.1452  -0.0058   0.0113  -0.0158  -4.00    0.0
2024/06/03 14:11:27.000   28.296927236  -16.460068217  1698.5631   2   7   0.0231   0.0228   0.1452  -0.0058   0.0113  -0.0158  -3.00    1.2
2024/06/03 14:11:28.000   28.296927234  -16.460068224  1698.5643   2   7   0.0231   0.0229   0.1452  -0.0058   0.0113  -0.0158  -2.00    1.5
2024/06/03 14:11:29.000   28.296927234  -16.460068230  1698.5622   2   7   0.0231   0.0229   0.1452  -0.0058   0.0113  -0.0158  -1.00    1.0
2024/06/03 14:11:30.000   28.296927237  -16.460068233  1698.5599   2   7   0.0231   0.0229   0.1452  -0.0057   0.0113  -0.0159   0.00    1.0
2024/06/03 14:11:31.000   28.296927237  -16.460068239  1698.5566   2   7   0.0231   0.0229   0.1452  -0.0057   0.0112  -0.0159   1.00    1.0
2024/06/03 14:11:32.000   28.296927236  -16.460068246  1698.5550   2   7   0.0231   0.0229   0.1452  -0.0057   0.0112  -0.0159   2.00    1.1
2024/06/03 14:11:33.000   28.296927236  -16.460068250  1698.5523   2   7   0.0231   0.0229   0.1452  -0.0057   0.0112  -0.0159   3.00    1.2
2024/06/03 14:11:34.000   28.296927237  -16.460068257  1698.5493   2   7   0.0231   0.0229   0.1452  -0.0057   0.0112  -0.0160   4.00    1.1
2024/06/03 14:11:35.000   28.296927235  -16.460068262  1698.5471   2   7   0.0231   0.0229   0.1453  -0.0057   0.0111  -0.0160   5.00    1.5
2024/06/03 14:11:36.000   28.296927233  -16.460068269  1698.5454   2   7   0.0231   0.0229   0.1453  -0.0057   0.0111  -0.0160   6.00    1.3
2024/06/03 14:11:37.000   28.296927232  -16.460068274  1698.5440   2   7   0.0231   0.0229   0.1453  -0.0057   0.0111  -0.0160   7.00    1.0
2024/06/03 14:11:38.000   28.296927232  -16.460068276  1698.5415   2   7   0.0231   0.0229   0.1453  -0.0057   0.0111  -0.0160   8.00    1.4
2024/06/03 14:11:39.000   28.296927235  -16.460068276  1698.5384   2   7   0.0231   0.0229   0.1453  -0.0057   0.0111  -0.0160   9.00    1.1
2024/06/03 14:11:40.000   28.296927235  -16.460068279  1698.5360   2   7   0.0231   0.0229   0.1453  -0.0057   0.0111  -0.0160  10.00    1.2
2024/06/03 14:11:41.000   28.296927235  -16.460068283  1698.5343   2   7   0.0231   0.0229   0.1453  -0.0057   0.0111  -0.0160  11.00    1.0
2024/06/03 14:11:42.000   28.296927234  -16.460068286  1698.5330   2   7   0.0231   0.0229   0.1453  -0.0057   0.0111  -0.0160  12.00    1.5
2024/06/03 14:11:43.000   28.296927233  -16.460068290  1698.5318   2   7   0.0231   0.0229   0.1453  -0.0057   0.0111  -0.0160  13.00    1.4
2024/06/03 14:11:44.000   28.296927232  -16.460068294  1698.5309   2   7   0.0231   0.0229   0.1453  -0.0057   0.0111  -0.0161  14.00    1.0
2024/06/03 14:11:45.000   28.296927231  -16.460068297  1698.5302   2   7   0.0231   0.0229   0.1453  -0.0057   0.0110  -0.0161 -15.00    1.4
2024/06/03 14:11:46.000   28.296927230  -16.460068300  1698.5293   2   7   0.0231   0.0229   0.1453  -0.0057   0.0110  -0.0161 -14.00    1.1
2024/06/03 14:11:47.000   28.296927228  -16.460068304  1698.5285   2   7   0.0231   0.0229   0.1453  -0.0056   0.0110  -0.0161 -13.00    1.2
2024/06/03 14:11:48.000   28.296927226  -16.460068309  1698.5273   2   7   0.0231   0.0229   0.1453  -0.0056   0.0110  -0.0161 -12.00    1.0
2024/06/03 14:11:49.000   28.296927224  -16.460068314  1698.5263   2   7   0.0231   0.0229   0.1453  -0.0056   0.0110  -0.0161 -11.00    1.5
2024/06/03 14:11:50.000   28.296927223  -16.460068317  1698.5244   2   7   0.0231   0.0229   0.1453  -0.0056   0.0110  -0.0161 -10.00    1.4
2024/06/03 14:11:51.000   28.296927222  -16.460068321  1698.5234   2   7   0.0231   0.0229   0.1453  -0.0056   0.0110  -0.0161  -9.00    1.0
2024/06/03 14:11:52.000   28.296927222  -16.460068324  1698.5217   2   7   0.0231   0.0229   0.1453  -0.0056   0.0110  -0.0161  -8.00    1.5
2024/06/03 14:11:53.000   28.296927223  -16.460068326  1698.5195   2   7   0.0231   0.0229   0.1453  -0.0056   0.0110  -0.0161  -7.00    1.2
2024/06/03 14:11:54.000   28.296927222  -16.460068331  1698.5185   2   7   0.0231   0.0229   0.1453  -0.0056   0.0110  -0.0161  -6.00    1.2
2024/06/03 14:11:55.000   28.296927221  -16.460068335  1698.5178   2   7   0.0231   0.0229   0.1453  -0.0056   0.0110  -0.0161  -5.00    1.0
2024/06/03 14:11:56.000   28.296927221  -16.460068338  1698.5160   2   7   0.0231   0.0229   0.1452  -0.0056   0.0109  -0.0161  -4.00    1.6
2024/06/03 14:11:57.000   28.296927220  -16.460068343  1698.5145   2   7   0.0231   0.0229   0.1452  -0.0056   0.0109  -0.0161  -3.00    1.5
2024/06/03 14:11:58.000   28.296927218  -16.460068348  1698.5126   2   7   0.0231   0.0229   0.1452  -0.0056   0.0109  -0.0161  -2.00    1.6
2024/06/03 14:11:59.000   28.296927220  -16.460068349  1698.5074   2   7   0.0231   0.0229   0.1452  -0.0056   0.0109  -0.0161  -1.00    1.2
2024/06/03 14:12:00.000   28.296927223  -16.460068347  1698.5057   2   7   0.0231   0.0229   0.1452  -0.0056   0.0109  -0.0162   0.00    1.5
2024/06/03 14:12:01.000   28.296927222  -16.460068349  1698.5075   2   7   0.0231   0.0229   0.1452  -0.0056   0.0109  -0.0162   1.00    1.3
2024/06/03 14:12:02.000   28.296927220  -16.460068352  1698.5114   2   7   0.0231   0.0229   0.1452  -0.0056   0.0108  -0.0162   2.00    1.4
2024/06/03 14:12:03.000   28.296927217  -16.460068354  1698.5155   2   7   0.0231   0.0229   0.1452  -0.0056   0.0108  -0.0162   3.00    1.2
2024/06/03 14:12:04.000   28.296927215  -16.460068356  1698.5174   2   7   0.0231   0.0229   0.1452  -0.0056   0.0108  -0.0162   4.00    1.5
2024/06/03 14:12:05.000   28.296927217  -16.460068353  1698.5172   2   7   0.0231   0.0229   0.1452  -0.0056   0.0108  -0.0162   5.00    1.0
2024/06/03 14:12:06.000   28.296927219  -16.460068351  1698.5170   2   7   0.0231   0.0229   0.1452  -0.0056   0.0108  -0.0163   6.00    1.2
2024/06/03 14:12:07.000   28.296927219  -16.460068349  1698.5183   2   7   0.0231   0.0229   0.1452  -0.0056   0.0107  -0.0163   7.00    1.2
2024/06/03 14:12:08.000   28.296927221  -16.460068346  1698.5185   2   7   0.0231   0.0229   0.1453  -0.0056   0.0107  -0.0163   8.00    1.5
2024/06/03 14:12:09.000   28.296927223  -16.460068342  1698.5183   2   7   0.0231   0.0229   0.1453  -0.0056   0.0107  -0.0163   9.00    1.5
2024/06/03 14:12:10.000   28.296927223  -16.460068341  1698.5187   2   7   0.0231   0.0229   0.1453  -0.0056   0.0107  -0.0163  10.00    1.0
2024/06/03 14:12:11.000   28.296927223  -16.460068340  1698.5200   2   7   0.0231   0.0229   0.1453  -0.0056   0.0107  -0.0163  11.00    1.3
2024/06/03 14:12:12.000   28.296927223  -16.460068339  1698.5205   2   7   0.0231   0.0229   0.1452  -0.0056   0.0107  -0.0163  12.00    1.2
2024/06/03 14:12:13.000   28.296927223  -16.460068339  1698.5208   2   7   0.0231   0.0229   0.1452  -0.0055   0.0107  -0.0163  13.00    1.3
2024/06/03 14:12:14.000   28.296927223  -16.460068339  1698.5210   2   7   0.0231   0.0229   0.1452  -0.0055   0.0107  -0.0163  14.00    1.2
2024/06/03 14:12:15.000   28.296927224  -16.460068337  1698.5209   2   7   0.0231   0.0229   0.1452  -0.0055   0.0107  -0.0163 -15.00    1.5
2024/06/03 14:12:16.000   28.296927225  -16.460068335  1698.5207   2   7   0.0231   0.0229   0.1452  -0.0055   0.0107  -0.0163 -14.00    1.5
2024/06/03 14:12:17.000   28.296927226  -16.460068332  1698.5207   2   7   0.0231   0.0229   0.1452  -0.0055   0.0106  -0.0163 -13.00    1.0
2024/06/03 14:12:18.000   28.296927227  -16.460068330  1698.5204   2   7   0.0231   0.0229   0.1452  -0.0055   0.0106  -0.0163 -12.00    1.3
2024/06/03 14:12:19.000   28.296927227  -16.460068327  1698.5201   2   7   0.0231   0.0229   0.1452  -0.0055   0.0106  -0.0163 -11.00    1.3
2024/06/03 14:12:20.000   28.296927229  -16.460068324  1698.5194   2   7   0.0231   0.0229   0.1452  -0.0055   0.0106  -0.0163 -10.00    1.3
2024/06/03 14:12:21.000   28.296927231  -16.460068321  1698.5188   2   7   0.0231   0.0229   0.1452  -0.0055   0.0106  -0.0163  -9.00    1.2
2024/06/03 14:12:22.000   28.296927230  -16.460068320  1698.5200   2   7   0.0231   0.0229   0.1452  -0.0055   0.0106  -0.0163  -8.00    1.6
2024/06/03 14:12:23.000   28.296927230  -16.460068320  1698.5209   2   7   0.0231   0.0229   0.1452  -0.0055   0.0106  -0.0163  -7.00    1.5
2024/06/03 14:12:24.000   28.296927230  -16.460068317  1698.5227   2   7   0.0231   0.0229   0.1452  -0.0055   0.0106  -0.0163  -6.00    1.0
2024/06/03 14:12:25.000   28.296927231  -16.460068314  1698.5226   2   7   0.0231   0.0229   0.1452  -0.0055   0.0106  -0.0163  -5.00    1.4
2024/06/03 14:12:26.000   28.296927231  -16.460068314  1698.5231   2   7   0.0231   0.0229   0.1451  -0.0055   0.0106  -0.0163  -4.00    1.3
2024/06/03 14:12:27.000   28.296927227  -16.460068320  1698.5294   2   7   0.0231   0.0229   0.1451  -0.0055   0.0106  -0.0163  -3.00    1.3
2024/06/03 14:12:28.000   28.296927221  -16.460068330  1698.5342   2   7   0.0231   0.0229   0.1451  -0.0055   0.0105  -0.0163  -2.00    1.2
2024/06/03 14:12:29.000   28.296927217  -16.460068337  1698.5334   2   7   0.0231   0.0229   0.1451  -0.0055   0.0105  -0.0163  -1.00    1.6
2024/06/03 14:12:30.000   28.296927217  -16.460068339  1698.5333   2   7   0.0231   0.0229   0.1451  -0.0055   0.0105  -0.0163   0.00    1.6
2024/06/03 14:12:31.000   28.296927218  -16.460068337  1698.5321   2   7   0.0231   0.0229   0.1450  -0.0055   0.0105  -0.0164   1.00    1.1
2024/06/03 14:12:32.000   28.296927217  -16.460068340  1698.5303   2   7   0.0231   0.0229   0.1450  -0.0055   0.0105  -0.0164   2.00    1.2
2024/06/03 14:12:33.000   28.296927215  -16.460068348  1698.5293   2   7   0.0231   0.0229   0.1450  -0.0055   0.0104  -0.0164   3.00    1.2
2024/06/03 14:12:34.000   28.296927210  -16.460068353  1698.5326   2   7   0.0231   0.0229   0.1450  -0.0055   0.0104  -0.0164   4.00    1.2
2024/06/03 14:12:35.000   28.296927209  -16.460068349  1698.5339   2   7   0.0231   0.0229   0.1450  -0.0055   0.0104  -0.0164   5.00    1.1
2024/06/03 14:12:36.000   28.296927214  -16.460068339  1698.5301   2   7   0.0231   0.0229   0.1450  -0.0055   0.0104  -0.0164   6.00    1.5
2024/06/03 14:12:37.000   28.296927218  -16.460068333  1698.5271   2   7   0.0231   0.0229   0.1450  -0.0055   0.0104  -0.0164   7.00    1.6
2024/06/03 14:12:38.000   28.296927220  -16.460068330  1698.5250   2   7   0.0231   0.0229   0.1450  -0.0055   0.0104  -0.0164   8.00    1.1
2024/06/03 14:12:39.000   28.296927221  -16.460068330  1698.5244   2   7   0.0231   0.0229   0.1450  -0.0055   0.0103  -0.0164   9.00    1.4
2024/06/03 14:12:40.000   28.296927220  -16.460068331  1698.5246   2   7   0.0231   0.0229   0.1450  -0.0055   0.0103  -0.0164  10.00    1.3
2024/06/03 14:12:41.000   28.296927220  -16.460068331  1698.5245   2   7   0.0231   0.0229   0.1450  -0.0055   0.0103  -0.0164  11.00    1.3
2024/06/03 14:12:42.000   28.296927221  -16.460068330  1698.5236   2   7   0.0231   0.0229   0.1450  -0.0055   0.0103  -0.0164  12.00    1.1
2024/06/03 14:12:43.000   28.296927222  -16.460068327  1698.5221   2   7   0.0231   0.0229   0.1450  -0.0055   0.0103  -0.0164  13.00    1.6
2024/06/03 14:12:44.000   28.296927223  -16.460068327  1698.5213   2   7   0.0231   0.0229   0.1450  -0.0055   0.0103  -0.0164  14.00    1.6
2024/06/03 14:12:45.000   28.296927223  -16.460068327  1698.5208   2   7   0.0231   0.0229   0.1450  -0.0055   0.0103  -0.0164 -15.00    1.1
2024/06/03 14:12:46.000   28.296927224  -16.460068326  1698.5195   2   7   0.0231   0.0229   0.1450  -0.0055   0.0103  -0.0164 -14.00    1.5
2024/06/03 14:12:47.000   28.296927225  -16.460068325  1698.5180   2   7   0.0231   0.0229   0.1450  -0.0055   0.0103  -0.0164 -13.00    1.3
2024/06/03 14:12:48.000   28.296927226  -16.460068325  1698.5171   2   7   0.0231   0.0229   0.1449  -0.0055   0.0103  -0.0164 -12.00    1.3
2024/06/03 14:12:49.000   28.296927226  -16.460068325  1698.5165   2   7   0.0231   0.0229   0.1449  -0.0055   0.0103  -0.0164 -11.00    1.1
2024/06/03 14:12:50.000   28.296927227  -16.460068326  1698.5159   2   7   0.0231   0.0229   0.1449  -0.0055   0.0103  -0.0164 -10.00    1.6
2024/06/03 14:12:51.000   28.296927228  -16.460068327  1698.5151   2   7   0.0231   0.0229   0.1449  -0.0055   0.0103  -0.0164  -9.00    1.6
2024/06/03 14:12:52.000   28.296927228  -16.460068327  1698.5148   2   7   0.0231   0.0229   0.1449  -0.0055   0.0102  -0.0164  -8.00    1.1
2024/06/03 14:12:53.000   28.296927227  -16.460068328  1698.5152   2   7   0.0231   0.0229   0.1449  -0.0055   0.0102  -0.0164  -7.00    1.5
2024/06/03 14:12:54.000   28.296927227  -16.460068330  1698.5139   2   7   0.0231   0.0229   0.1449  -0.0055   0.0102  -0.0164  -6.00    1.3
2024/06/03 14:12:55.000   28.296927228  -16.460068329  1698.5132   2   7   0.0231   0.0229   0.1448  -0.0055   0.0102  -0.0164  -5.00    1.3
2024/06/03 14:12:56.000   28.296927226  -16.460068333  1698.5165   2   7   0.0231   0.0229   0.1448  -0.0055   0.0102  -0.0164  -4.00    1.1
2024/06/03 14:12:57.000   28.296927225  -16.460068337  1698.5160   2   7   0.0231   0.0229   0.1448  -0.0055   0.0102  -0.0164  -3.00    1.6
2024/06/03 14:12:58.000   28.296927225  -16.460068339  1698.5153   2   7   0.0231   0.0229   0.1448  -0.0055   0.0102  -0.0164  -2.00    1.6
2024/06/03 14:12:59.000   28.296927223  -16.460068343  1698.5170   2   7   0.0231   0.0229   0.1447  -0.0055   0.0102  -0.0164  -1.00    1.1
2024/06/03 14:13:00.000   28.296927221  -16.460068347  1698.5191   2   7   0.0231   0.0229   0.1447  -0.0055   0.0102  -0.0164   0.00    1.5
2024/06/03 14:13:01.000   28.296927221  -16.460068342  1698.5234   2   7   0.0231   0.0229   0.1447  -0.0055   0.0101  -0.0164   1.00    1.2
2024/06/03 14:13:02.000   28.296927221  -16.460068343  1698.5242   2   7   0.0231   0.0229   0.1446  -0.0055   0.0101  -0.0164   2.00    1.2
2024/06/03 14:13:03.000   28.296927219  -16.460068346  1698.5268   2   7   0.0231   0.0229   0.1446  -0.0055   0.0101  -0.0165   3.00    1.1
2024/06/03 14:13:04.000   28.296927217  -16.460068346  1698.5296   2   7   0.0231   0.0229   0.1446  -0.0055   0.0101  -0.0165   4.00    1.3
2024/06/03 14:13:05.000   28.296927217  -16.460068343  1698.5305   2   7   0.0231   0.0229   0.1446  -0.0055   0.0100  -0.0165   5.00    1.6
2024/06/03 14:13:06.000   28.296927219  -16.460068340  1698.5304   2   7   0.0231   0.0229   0.1446  -0.0055   0.0100  -0.0165   6.00    1.0
2024/06/03 14:13:07.000   28.296927221  -16.460068338  1698.5299   2   7   0.0231   0.0229   0.1446  -0.0055   0.0100  -0.0165   7.00    1.3
2024/06/03 14:13:08.000   28.296927221  -16.460068338  1698.5302   2   7   0.0231   0.0229   0.1446  -0.0055   0.0100  -0.0165   8.00    1.2
2024/06/03 14:13:09.000   28.296927221  -16.460068337  1698.5310   2   7   0.0231   0.0229   0.1446  -0.0055   0.0100  -0.0165   9.00    1.2
2024/06/03 14:13:10.000   28.296927223  -16.460068335  1698.5313   2   7   0.0231   0.0229   0.1446  -0.0055   0.0100  -0.0165  10.00    1.1
2024/06/03 14:13:11.000   28.296927224  -16.460068333  1698.5314   2   7   0.0231   0.0229   0.1445  -0.0055   0.0100  -0.0165  11.00    1.5
2024/06/03 14:13:12.000   28.296927224  -16.460068332  1698.5325   2   7   0.0231   0.0229   0.1445  -0.0055   0.0100  -0.0165  12.00    1.6
2024/06/03 14:13:13.000   28.296927224  -16.460068331  1698.5336   2   7   0.0231   0.0229   0.1445  -0.0055   0.0100  -0.0165  13.00    1.0
2024/06/03 14:13:14.000   28.296927225  -16.460068328  1698.5336   2   7   0.0231   0.0229   0.1445  -0.0055   0.0100  -0.0165  14.00    1.4
2024/06/03 14:13:15.000   28.296927225  -16.460068328  1698.5335   2   7   0.0231   0.0229   0.1445  -0.0055   0.0100  -0.0165 -15.00    1.2
2024/06/03 14:13:16.000   28.296927225  -16.460068328  1698.5347   2   7   0.0231   0.0229   0.1445  -0.0055   0.0099  -0.0165 -14.00    1.2
2024/06/03 14:13:17.000   28.296927224  -16.460068330  1698.5362   2   7   0.0231   0.0229   0.1445  -0.0055   0.0099  -0.0165 -13.00    1.1
2024/06/03 14:13:18.000   28.296927223  -16.460068331  1698.5370   2   7   0.0231   0.0229   0.1445  -0.0055   0.0099  -0.0165 -12.00    1.5
2024/06/03 14:13:19.000   28.296927223  -16.460068332  1698.5375   2   7   0.0231   0.0229   0.1445  -0.0055   0.0099  -0.0165 -11.00    1.5
2024/06/03 14:13:20.000   28.296927221  -16.460068335  1698.5395   2   7   0.0231   0.0229   0.1445  -0.0055   0.0099  -0.0165 -10.00    1.0
2024/06/03 14:13:21.000   28.296927218  -16.460068340  1698.5417   2   7   0.0231   0.0229   0.1444  -0.0055   0.0099  -0.0165  -9.00    1.3
