% program   : RTKPOST-EX 2.5.0
% inp file  : C:\Users\SallyHenry\Desktop\Sally Internship\GNSS gravi\DATA\Survey Rover Obs\GUI25.24o
% inp file  : C:\Users\SallyHenry\Desktop\Sally Internship\GNSS gravi\DATA\BaseStations\IZAN\IZAN00ESP_R_20241550000_01D_30S_MO.rnx
% inp file  : C:\Users\SallyHenry\Desktop\Sally Internship\GNSS gravi\DATA\BaseStations\IZAN\IZAN00ESP_R_20241550000_01D_MN.rnx
% inp file  : C:\Users\SallyHenry\Desktop\Sally Internship\GNSS gravi\DATA\aux_files\Survey\IGS0OPSFIN_20241550000_01D_15M_ORB.SP3
% inp file  : C:\Users\SallyHenry\Desktop\Sally Internship\GNSS gravi\DATA\aux_files\Survey\IGS0OPSFIN_20241550000_01D_30S_CLK.CLK
% obs start : 2024/06/03 14:37:27.0 GPST (week2317 139047.0s)
% obs end   : 2024/06/03 14:52:31.0 GPST (week2317 139951.0s)
% pos mode  : Static
% freqs     : L1+L2/E5b
% solution  : Combined-No Phase Reset
% elev mask : 15.0 deg
% dynamics  : on
% tidecorr  : solid
% ionos opt : Estimate TEC
% tropo opt : Estimate ZTD+Grad
% ephemeris : Precise
% navi sys  : GPS GLONASS Galileo QZSS BDS
% amb res   : Fix and Hold
% amb glo   : Fix and Hold
% amb bds   : on
% val thres : 3.0
% antenna1  :                       ( 0.0000  0.0000  1.8000)
% antenna2  :                       ( 0.0000  0.0000  0.0000)
% ref pos   :  28.308069410  -16.499677180  2417.4044
%
% (lat/lon/height=WGS84/ellipsoidal,Q=1:fix,2:float,3:sbas,4:dgps,5:single,6:ppp,ns=# of satellites)
%  GPST                  latitude(deg) longitude(deg)  height(m)   Q  ns   sdn(m)   sde(m)   sdu(m)  sdne(m)  sdeu(m)  sdun(m) age(s)  ratio
2024/06/03 14:37:27.000   28.294206455  -16.447599559  1446.4992   2   8   0.0160   0.0252   0.1186   0.0017   0.0206   0.0256  -3.00    0.0
2024/06/03 14:37:28.000   28.294206455  -16.447599560  1446.5020   2   8   0.0160   0.0252   0.1186   0.0017   0.0205   0.0256  -2.00    0.0
2024/06/03 14:37:29.000   28.294206454  -16.447599579  1446.5010   2   8   0.0160   0.0252   0.1186   0.0017   0.0206   0.0256  -1.00    0.0
2024/06/03 14:37:30.000   28.294206456  -16.447599589  1446.5022   2   8   0.0160   0.0252   0.1186   0.0016   0.0206   0.0256   0.00    0.0
2024/06/03 14:37:31.000   28.294206461  -16.447599612  1446.5058   2   8   0.0161   0.0252   0.1186   0.0016   0.0206   0.0256   1.00    0.0
2024/06/03 14:37:32.000   28.294206466  -16.447599631  1446.5096   2   8   0.0161   0.0252   0.1186   0.0016   0.0206   0.0256   2.00    0.0
2024/06/03 14:37:33.000   28.294206467  -16.447599633  1446.5107   2   8   0.0161   0.0252   0.1186   0.0016   0.0206   0.0256   3.00    0.0
2024/06/03 14:37:34.000   28.294206470  -16.447599641  1446.5124   2   8   0.0161   0.0252   0.1186   0.0016   0.0206   0.0256   4.00    0.0
2024/06/03 14:37:35.000   28.294206469  -16.447599647  1446.5129   2   8   0.0161   0.0252   0.1186   0.0016   0.0206   0.0256   5.00    0.0
2024/06/03 14:37:36.000   28.294206466  -16.447599658  1446.5140   2   8   0.0161   0.0252   0.1186   0.0017   0.0206   0.0256   6.00    0.0
2024/06/03 14:37:37.000   28.294206462  -16.447599663  1446.5117   2   8   0.0161   0.0252   0.1186   0.0017   0.0206   0.0256   7.00    0.0
2024/06/03 14:37:38.000   28.294206462  -16.447599665  1446.5117   2   8   0.0161   0.0252   0.1186   0.0017   0.0206   0.0256   8.00    0.0
2024/06/03 14:37:39.000   28.294206462  -16.447599665  1446.5123   2   8   0.0161   0.0252   0.1186   0.0017   0.0206   0.0256   9.00    0.0
2024/06/03 14:37:40.000   28.294206463  -16.447599666  1446.5126   2   8   0.0161   0.0252   0.1186   0.0017   0.0206   0.0256  10.00    0.0
2024/06/03 14:37:41.000   28.294206463  -16.447599666  1446.5132   2   8   0.0161   0.0252   0.1186   0.0017   0.0206   0.0256  11.00    0.0
2024/06/03 14:37:42.000   28.294206463  -16.447599667  1446.5136   2   8   0.0162   0.0252   0.1186   0.0017   0.0206   0.0256  12.00    0.0
2024/06/03 14:37:43.000   28.294206462  -16.447599666  1446.5137   2   8   0.0162   0.0252   0.1185   0.0017   0.0206   0.0256  13.00    0.0
2024/06/03 14:37:44.000   28.294206462  -16.447599663  1446.5140   2   8   0.0162   0.0252   0.1185   0.0017   0.0206   0.0256  14.00    0.0
2024/06/03 14:37:45.000   28.294206462  -16.447599663  1446.5144   2   8   0.0162   0.0252   0.1185   0.0017   0.0206   0.0256 -15.00    0.0
2024/06/03 14:37:46.000   28.294206463  -16.447599662  1446.5149   2   8   0.0162   0.0252   0.1185   0.0017   0.0206   0.0256 -14.00    0.0
2024/06/03 14:37:47.000   28.294206463  -16.447599662  1446.5154   2   8   0.0162   0.0252   0.1185   0.0017   0.0206   0.0256 -13.00    0.0
2024/06/03 14:37:48.000   28.294206462  -16.447599661  1446.5158   2   8   0.0162   0.0252   0.1185   0.0017   0.0205   0.0256 -12.00    0.0
2024/06/03 14:37:49.000   28.294206462  -16.447599660  1446.5161   2   8   0.0162   0.0252   0.1185   0.0017   0.0205   0.0256 -11.00    0.0
2024/06/03 14:37:50.000   28.294206462  -16.447599656  1446.5164   2   8   0.0162   0.0252   0.1185   0.0017   0.0206   0.0256 -10.00    0.0
2024/06/03 14:37:51.000   28.294206462  -16.447599655  1446.5169   2   8   0.0162   0.0252   0.1185   0.0017   0.0206   0.0256  -9.00    0.0
2024/06/03 14:37:52.000   28.294206464  -16.447599655  1446.5175   2   8   0.0162   0.0252   0.1185   0.0018   0.0206   0.0256  -8.00    0.0
2024/06/03 14:37:53.000   28.294206463  -16.447599655  1446.5173   2   8   0.0162   0.0252   0.1185   0.0018   0.0206   0.0256  -7.00    0.0
2024/06/03 14:37:54.000   28.294206462  -16.447599652  1446.5175   2   8   0.0162   0.0252   0.1185   0.0018   0.0206   0.0256  -6.00    0.0
2024/06/03 14:37:55.000   28.294206462  -16.447599649  1446.5174   2   8   0.0162   0.0252   0.1185   0.0018   0.0206   0.0256  -5.00    0.0
2024/06/03 14:37:56.000   28.294206461  -16.447599646  1446.5169   2   8   0.0162   0.0252   0.1185   0.0018   0.0206   0.0256  -4.00    0.0
2024/06/03 14:37:57.000   28.294206457  -16.447599644  1446.5160   2   8   0.0162   0.0252   0.1185   0.0018   0.0206   0.0256  -3.00    0.0
2024/06/03 14:37:58.000   28.294206454  -16.447599638  1446.5171   2   8   0.0162   0.0252   0.1186   0.0018   0.0206   0.0256  -2.00    0.0
2024/06/03 14:37:59.000   28.294206452  -16.447599633  1446.5174   2   8   0.0162   0.0253   0.1186   0.0018   0.0206   0.0256  -1.00    0.0
2024/06/03 14:38:00.000   28.294206454  -16.447599626  1446.5232   2   8   0.0162   0.0253   0.1187   0.0018   0.0206   0.0257   0.00    0.0
2024/06/03 14:38:01.000   28.294206452  -16.447599646  1446.5174   2   8   0.0163   0.0253   0.1187   0.0018   0.0206   0.0257   1.00    0.0
2024/06/03 14:38:02.000   28.294206455  -16.447599675  1446.5203   2   8   0.0163   0.0253   0.1187   0.0018   0.0207   0.0257   2.00    0.0
2024/06/03 14:38:03.000   28.294206452  -16.447599685  1446.5197   2   8   0.0163   0.0253   0.1187   0.0018   0.0207   0.0257   3.00    0.0
2024/06/03 14:38:04.000   28.294206448  -16.447599687  1446.5190   2   8   0.0163   0.0253   0.1188   0.0019   0.0207   0.0257   4.00    0.0
2024/06/03 14:38:05.000   28.294206445  -16.447599685  1446.5190   2   8   0.0163   0.0253   0.1188   0.0019   0.0207   0.0257   5.00    0.0
2024/06/03 14:38:06.000   28.294206445  -16.447599681  1446.5195   2   8   0.0163   0.0253   0.1188   0.0019   0.0207   0.0257   6.00    0.0
2024/06/03 14:38:07.000   28.294206445  -16.447599677  1446.5202   2   8   0.0163   0.0253   0.1188   0.0019   0.0207   0.0257   7.00    0.0
2024/06/03 14:38:08.000   28.294206446  -16.447599674  1446.5208   2   8   0.0163   0.0253   0.1188   0.0019   0.0207   0.0257   8.00    0.0
2024/06/03 14:38:09.000   28.294206445  -16.447599674  1446.5204   2   8   0.0164   0.0253   0.1188   0.0019   0.0207   0.0257   9.00    0.0
2024/06/03 14:38:10.000   28.294206445  -16.447599675  1446.5204   2   8   0.0164   0.0253   0.1189   0.0019   0.0207   0.0257  10.00    0.0
2024/06/03 14:38:11.000   28.294206445  -16.447599677  1446.5201   2   8   0.0164   0.0253   0.1189   0.0019   0.0207   0.0257  11.00    0.0
2024/06/03 14:38:12.000   28.294206444  -16.447599680  1446.5194   2   8   0.0164   0.0253   0.1189   0.0019   0.0207   0.0257  12.00    0.0
2024/06/03 14:38:13.000   28.294206443  -16.447599682  1446.5186   2   8   0.0164   0.0253   0.1189   0.0019   0.0207   0.0257  13.00    0.0
2024/06/03 14:38:14.000   28.294206442  -16.447599683  1446.5178   2   8   0.0164   0.0253   0.1189   0.0020   0.0207   0.0257  14.00    0.0
2024/06/03 14:38:15.000   28.294206443  -16.447599684  1446.5175   2   8   0.0164   0.0253   0.1189   0.0020   0.0207   0.0257 -15.00    0.0
2024/06/03 14:38:16.000   28.294206443  -16.447599683  1446.5176   2   8   0.0164   0.0253   0.1189   0.0020   0.0207   0.0257 -14.00    0.0
2024/06/03 14:38:17.000   28.294206444  -16.447599683  1446.5178   2   8   0.0164   0.0253   0.1189   0.0020   0.0207   0.0257 -13.00    0.0
2024/06/03 14:38:18.000   28.294206445  -16.447599682  1446.5179   2   8   0.0164   0.0253   0.1189   0.0020   0.0207   0.0257 -12.00    0.0
2024/06/03 14:38:19.000   28.294206445  -16.447599681  1446.5178   2   8   0.0164   0.0253   0.1189   0.0020   0.0207   0.0257 -11.00    0.0
2024/06/03 14:38:20.000   28.294206446  -16.447599681  1446.5175   2   8   0.0164   0.0253   0.1189   0.0020   0.0207   0.0257 -10.00    0.0
2024/06/03 14:38:21.000   28.294206447  -16.447599680  1446.5171   2   8   0.0164   0.0253   0.1189   0.0020   0.0208   0.0257  -9.00    0.0
2024/06/03 14:38:22.000   28.294206447  -16.447599678  1446.5168   2   8   0.0164   0.0253   0.1189   0.0020   0.0208   0.0257  -8.00    0.0
2024/06/03 14:38:23.000   28.294206448  -16.447599676  1446.5161   2   8   0.0164   0.0253   0.1189   0.0020   0.0208   0.0258  -7.00    0.0
2024/06/03 14:38:24.000   28.294206449  -16.447599674  1446.5160   2   8   0.0164   0.0253   0.1189   0.0020   0.0208   0.0258  -6.00    0.0
2024/06/03 14:38:25.000   28.294206449  -16.447599675  1446.5147   2   8   0.0164   0.0253   0.1189   0.0020   0.0208   0.0258  -5.00    0.0
2024/06/03 14:38:26.000   28.294206449  -16.447599674  1446.5135   2   8   0.0164   0.0253   0.1189   0.0021   0.0208   0.0258  -4.00    0.0
2024/06/03 14:38:27.000   28.294206449  -16.447599671  1446.5119   2   8   0.0164   0.0253   0.1190   0.0021   0.0208   0.0258  -3.00    0.0
2024/06/03 14:38:28.000   28.294206450  -16.447599667  1446.5115   2   8   0.0164   0.0253   0.1190   0.0021   0.0208   0.0258  -2.00    0.0
2024/06/03 14:38:29.000   28.294206450  -16.447599663  1446.5087   2   8   0.0164   0.0253   0.1191   0.0021   0.0209   0.0258  -1.00    0.0
2024/06/03 14:38:30.000   28.294206450  -16.447599659  1446.5073   2   8   0.0165   0.0253   0.1192   0.0021   0.0209   0.0258   0.00    0.0
2024/06/03 14:38:31.000   28.294206449  -16.447599656  1446.5080   2   8   0.0165   0.0253   0.1192   0.0021   0.0209   0.0259   1.00    0.0
2024/06/03 14:38:32.000   28.294206445  -16.447599656  1446.5053   2   8   0.0165   0.0254   0.1192   0.0021   0.0209   0.0259   2.00    0.0
2024/06/03 14:38:33.000   28.294206445  -16.447599650  1446.5060   2   8   0.0165   0.0254   0.1192   0.0021   0.0209   0.0259   3.00    0.0
2024/06/03 14:38:34.000   28.294206445  -16.447599647  1446.5051   2   8   0.0165   0.0254   0.1193   0.0021   0.0209   0.0259   4.00    0.0
2024/06/03 14:38:35.000   28.294206446  -16.447599642  1446.5059   2   8   0.0165   0.0254   0.1193   0.0022   0.0209   0.0259   5.00    0.0
2024/06/03 14:38:36.000   28.294206446  -16.447599638  1446.5057   2   8   0.0165   0.0254   0.1193   0.0022   0.0209   0.0259   6.00    0.0
2024/06/03 14:38:37.000   28.294206446  -16.447599633  1446.5064   2   8   0.0166   0.0254   0.1193   0.0022   0.0209   0.0259   7.00    0.0
2024/06/03 14:38:38.000   28.294206447  -16.447599629  1446.5068   2   8   0.0166   0.0254   0.1194   0.0022   0.0210   0.0259   8.00    0.0
2024/06/03 14:38:39.000   28.294206448  -16.447599624  1446.5073   2   8   0.0166   0.0254   0.1194   0.0022   0.0210   0.0259   9.00    0.0
2024/06/03 14:38:40.000   28.294206447  -16.447599622  1446.5071   2   8   0.0166   0.0254   0.1194   0.0022   0.0210   0.0259  10.00    0.0
2024/06/03 14:38:41.000   28.294206447  -16.447599620  1446.5071   2   8   0.0166   0.0254   0.1194   0.0022   0.0210   0.0259  11.00    0.0
2024/06/03 14:38:42.000   28.294206447  -16.447599619  1446.5068   2   8   0.0166   0.0254   0.1194   0.0022   0.0210   0.0259  12.00    0.0
2024/06/03 14:38:43.000   28.294206447  -16.447599617  1446.5067   2   8   0.0166   0.0254   0.1194   0.0022   0.0210   0.0259  13.00    0.0
2024/06/03 14:38:44.000   28.294206447  -16.447599615  1446.5066   2   8   0.0166   0.0254   0.1194   0.0022   0.0210   0.0259  14.00    0.0
2024/06/03 14:38:45.000   28.294206448  -16.447599614  1446.5066   2   8   0.0166   0.0254   0.1194   0.0023   0.0210   0.0259 -15.00    0.0
2024/06/03 14:38:46.000   28.294206448  -16.447599614  1446.5064   2   8   0.0166   0.0254   0.1194   0.0023   0.0210   0.0259 -14.00    0.0
2024/06/03 14:38:47.000   28.294206448  -16.447599614  1446.5062   2   8   0.0166   0.0254   0.1194   0.0023   0.0210   0.0259 -13.00    0.0
2024/06/03 14:38:48.000   28.294206448  -16.447599615  1446.5057   2   8   0.0166   0.0254   0.1194   0.0023   0.0210   0.0259 -12.00    0.0
2024/06/03 14:38:49.000   28.294206447  -16.447599616  1446.5051   2   8   0.0166   0.0254   0.1194   0.0023   0.0210   0.0259 -11.00    0.0
2024/06/03 14:38:50.000   28.294206447  -16.447599617  1446.5046   2   8   0.0166   0.0254   0.1194   0.0023   0.0210   0.0259 -10.00    0.0
2024/06/03 14:38:51.000   28.294206448  -16.447599618  1446.5042   2   8   0.0166   0.0254   0.1194   0.0023   0.0210   0.0260  -9.00    0.0
2024/06/03 14:38:52.000   28.294206450  -16.447599618  1446.5047   2   8   0.0166   0.0254   0.1194   0.0023   0.0210   0.0260  -8.00    0.0
2024/06/03 14:38:53.000   28.294206452  -16.447599620  1446.5046   2   8   0.0166   0.0254   0.1194   0.0023   0.0210   0.0260  -7.00    0.0
2024/06/03 14:38:54.000   28.294206452  -16.447599624  1446.5036   2   8   0.0166   0.0254   0.1195   0.0023   0.0210   0.0260  -6.00    0.0
2024/06/03 14:38:55.000   28.294206452  -16.447599628  1446.5017   2   8   0.0166   0.0254   0.1195   0.0023   0.0210   0.0260  -5.00    0.0
2024/06/03 14:38:56.000   28.294206452  -16.447599627  1446.4998   2   8   0.0166   0.0254   0.1195   0.0023   0.0210   0.0260  -4.00    0.0
2024/06/03 14:38:57.000   28.294206453  -16.447599624  1446.4983   2   8   0.0166   0.0254   0.1195   0.0023   0.0210   0.0260  -3.00    0.0
2024/06/03 14:38:58.000   28.294206456  -16.447599617  1446.4975   2   8   0.0166   0.0254   0.1196   0.0024   0.0211   0.0260  -2.00    0.0
2024/06/03 14:38:59.000   28.294206457  -16.447599610  1446.4953   2   8   0.0167   0.0254   0.1196   0.0024   0.0211   0.0260  -1.00    0.0
2024/06/03 14:39:00.000   28.294206457  -16.447599606  1446.4936   2   8   0.0167   0.0254   0.1197   0.0024   0.0211   0.0261   0.00    0.0
2024/06/03 14:39:01.000   28.294206457  -16.447599600  1446.4938   2   8   0.0167   0.0254   0.1197   0.0024   0.0211   0.0261   1.00    0.0
2024/06/03 14:39:02.000   28.294206459  -16.447599595  1446.4934   2   8   0.0167   0.0254   0.1198   0.0024   0.0211   0.0261   2.00    0.0
2024/06/03 14:39:03.000   28.294206459  -16.447599595  1446.4930   2   8   0.0167   0.0254   0.1198   0.0024   0.0211   0.0261   3.00    0.0
2024/06/03 14:39:04.000   28.294206459  -16.447599595  1446.4918   2   8   0.0167   0.0254   0.1198   0.0024   0.0211   0.0261   4.00    0.0
2024/06/03 14:39:05.000   28.294206458  -16.447599595  1446.4911   2   8   0.0167   0.0254   0.1199   0.0024   0.0211   0.0261   5.00    0.0
2024/06/03 14:39:06.000   28.294206459  -16.447599595  1446.4910   2   8   0.0168   0.0254   0.1199   0.0024   0.0211   0.0261   6.00    0.0
2024/06/03 14:39:07.000   28.294206459  -16.447599595  1446.4902   2   8   0.0168   0.0254   0.1199   0.0025   0.0212   0.0261   7.00    0.0
2024/06/03 14:39:08.000   28.294206459  -16.447599594  1446.4897   2   8   0.0168   0.0254   0.1199   0.0025   0.0212   0.0261   8.00    0.0
2024/06/03 14:39:09.000   28.294206459  -16.447599591  1446.4898   2   8   0.0168   0.0254   0.1199   0.0025   0.0212   0.0261   9.00    0.0
2024/06/03 14:39:10.000   28.294206461  -16.447599588  1446.4907   2   8   0.0168   0.0254   0.1199   0.0025   0.0212   0.0261  10.00    0.0
2024/06/03 14:39:11.000   28.294206462  -16.447599583  1446.4916   2   8   0.0168   0.0254   0.1200   0.0025   0.0212   0.0261  11.00    0.0
2024/06/03 14:39:12.000   28.294206463  -16.447599580  1446.4924   2   8   0.0168   0.0254   0.1200   0.0025   0.0212   0.0261  12.00    0.0
2024/06/03 14:39:13.000   28.294206464  -16.447599578  1446.4926   2   8   0.0168   0.0254   0.1200   0.0025   0.0212   0.0261  13.00    0.0
2024/06/03 14:39:14.000   28.294206465  -16.447599576  1446.4929   2   8   0.0168   0.0254   0.1200   0.0025   0.0212   0.0261  14.00    0.0
2024/06/03 14:39:15.000   28.294206465  -16.447599574  1446.4934   2   8   0.0168   0.0254   0.1200   0.0025   0.0212   0.0261 -15.00    0.0
2024/06/03 14:39:16.000   28.294206466  -16.447599573  1446.4936   2   8   0.0168   0.0254   0.1200   0.0025   0.0212   0.0262 -14.00    0.0
2024/06/03 14:39:17.000   28.294206467  -16.447599571  1446.4941   2   8   0.0168   0.0254   0.1200   0.0025   0.0212   0.0262 -13.00    0.0
2024/06/03 14:39:18.000   28.294206469  -16.447599567  1446.4953   2   8   0.0168   0.0254   0.1200   0.0025   0.0212   0.0262 -12.00    0.0
2024/06/03 14:39:19.000   28.294206470  -16.447599563  1446.4963   2   8   0.0168   0.0254   0.1200   0.0025   0.0212   0.0262 -11.00    0.0
2024/06/03 14:39:20.000   28.294206470  -16.447599561  1446.4967   2   8   0.0168   0.0254   0.1200   0.0025   0.0212   0.0262 -10.00    0.0
2024/06/03 14:39:21.000   28.294206471  -16.447599558  1446.4975   2   8   0.0168   0.0254   0.1200   0.0025   0.0212   0.0262  -9.00    0.0
2024/06/03 14:39:22.000   28.294206471  -16.447599558  1446.4975   2   8   0.0168   0.0254   0.1200   0.0026   0.0212   0.0262  -8.00    0.0
2024/06/03 14:39:23.000   28.294206471  -16.447599556  1446.4979   2   8   0.0168   0.0254   0.1200   0.0026   0.0212   0.0262  -7.00    0.0
2024/06/03 14:39:24.000   28.294206474  -16.447599554  1446.4993   2   8   0.0168   0.0254   0.1200   0.0026   0.0212   0.0262  -6.00    0.0
2024/06/03 14:39:25.000   28.294206475  -16.447599551  1446.5003   2   8   0.0168   0.0254   0.1201   0.0026   0.0212   0.0262  -5.00    0.0
2024/06/03 14:39:26.000   28.294206477  -16.447599547  1446.5016   2   8   0.0168   0.0254   0.1201   0.0026   0.0212   0.0262  -4.00    0.0
2024/06/03 14:39:27.000   28.294206480  -16.447599543  1446.5025   2   8   0.0168   0.0254   0.1201   0.0026   0.0212   0.0262  -3.00    0.0
2024/06/03 14:39:28.000   28.294206484  -16.447599539  1446.5044   2   8   0.0168   0.0254   0.1202   0.0026   0.0212   0.0262  -2.00    0.0
2024/06/03 14:39:29.000   28.294206489  -16.447599534  1446.5051   2   8   0.0169   0.0255   0.1202   0.0026   0.0213   0.0262  -1.00    0.0
2024/06/03 14:39:30.000   28.294206492  -16.447599532  1446.5047   2   8   0.0169   0.0255   0.1203   0.0026   0.0213   0.0263   0.00    0.0
2024/06/03 14:39:31.000   28.294206500  -16.447599526  1446.5072   2   8   0.0169   0.0255   0.1203   0.0026   0.0213   0.0263   1.00    0.0
2024/06/03 14:39:32.000   28.294206507  -16.447599520  1446.5084   2   8   0.0169   0.0255   0.1203   0.0026   0.0213   0.0263   2.00    0.0
2024/06/03 14:39:33.000   28.294206515  -16.447599513  1446.5113   2   8   0.0169   0.0255   0.1204   0.0027   0.0213   0.0263   3.00    0.0
2024/06/03 14:39:34.000   28.294206523  -16.447599504  1446.5147   2   8   0.0169   0.0255   0.1204   0.0027   0.0213   0.0263   4.00    0.0
2024/06/03 14:39:35.000   28.294206531  -16.447599493  1446.5187   2   8   0.0170   0.0255   0.1204   0.0027   0.0213   0.0263   5.00    0.0
2024/06/03 14:39:36.000   28.294206536  -16.447599486  1446.5214   2   8   0.0170   0.0255   0.1205   0.0027   0.0213   0.0263   6.00    0.0
2024/06/03 14:39:37.000   28.294206540  -16.447599484  1446.5230   2   8   0.0170   0.0255   0.1205   0.0027   0.0213   0.0263   7.00    0.0
2024/06/03 14:39:38.000   28.294206543  -16.447599484  1446.5241   2   8   0.0170   0.0255   0.1205   0.0027   0.0213   0.0263   8.00    0.0
2024/06/03 14:39:39.000   28.294206544  -16.447599486  1446.5245   2   8   0.0170   0.0255   0.1205   0.0027   0.0213   0.0263   9.00    0.0
2024/06/03 14:39:40.000   28.294206546  -16.447599487  1446.5250   2   8   0.0170   0.0255   0.1205   0.0027   0.0213   0.0263  10.00    0.0
2024/06/03 14:39:41.000   28.294206548  -16.447599489  1446.5257   2   8   0.0170   0.0255   0.1205   0.0027   0.0213   0.0263  11.00    0.0
2024/06/03 14:39:42.000   28.294206551  -16.447599488  1446.5269   2   8   0.0170   0.0255   0.1205   0.0027   0.0213   0.0263  12.00    0.0
2024/06/03 14:39:43.000   28.294206553  -16.447599488  1446.5278   2   8   0.0170   0.0255   0.1205   0.0027   0.0213   0.0263  13.00    0.0
2024/06/03 14:39:44.000   28.294206554  -16.447599489  1446.5284   2   8   0.0170   0.0255   0.1205   0.0027   0.0213   0.0263  14.00    0.0
2024/06/03 14:39:45.000   28.294206555  -16.447599490  1446.5286   2   8   0.0170   0.0255   0.1205   0.0027   0.0213   0.0263 -15.00    0.0
2024/06/03 14:39:46.000   28.294206556  -16.447599490  1446.5290   2   8   0.0170   0.0255   0.1205   0.0027   0.0213   0.0263 -14.00    0.0
2024/06/03 14:39:47.000   28.294206557  -16.447599491  1446.5292   2   8   0.0170   0.0255   0.1205   0.0027   0.0213   0.0263 -13.00    0.0
2024/06/03 14:39:48.000   28.294206559  -16.447599490  1446.5298   2   8   0.0170   0.0255   0.1205   0.0027   0.0213   0.0263 -12.00    0.0
2024/06/03 14:39:49.000   28.294206561  -16.447599489  1446.5306   2   8   0.0170   0.0255   0.1205   0.0027   0.0213   0.0263 -11.00    0.0
2024/06/03 14:39:50.000   28.294206562  -16.447599490  1446.5310   2   8   0.0170   0.0255   0.1205   0.0028   0.0213   0.0263 -10.00    0.0
2024/06/03 14:39:51.000   28.294206563  -16.447599491  1446.5309   2   8   0.0170   0.0255   0.1205   0.0028   0.0213   0.0263  -9.00    0.0
2024/06/03 14:39:52.000   28.294206565  -16.447599491  1446.5312   2   8   0.0170   0.0255   0.1206   0.0028   0.0213   0.0263  -8.00    0.0
2024/06/03 14:39:53.000   28.294206567  -16.447599492  1446.5315   2   8   0.0170   0.0255   0.1206   0.0028   0.0213   0.0263  -7.00    0.0
2024/06/03 14:39:54.000   28.294206568  -16.447599494  1446.5311   2   8   0.0170   0.0255   0.1206   0.0028   0.0213   0.0263  -6.00    0.0
2024/06/03 14:39:55.000   28.294206569  -16.447599495  1446.5310   2   8   0.0170   0.0255   0.1206   0.0028   0.0213   0.0263  -5.00    0.0
2024/06/03 14:39:56.000   28.294206573  -16.447599494  1446.5323   2   8   0.0170   0.0255   0.1206   0.0028   0.0213   0.0264  -4.00    0.0
2024/06/03 14:39:57.000   28.294206579  -16.447599492  1446.5351   2   8   0.0170   0.0255   0.1206   0.0028   0.0213   0.0264  -3.00    0.0
2024/06/03 14:39:58.000   28.294206583  -16.447599495  1446.5349   2   8   0.0170   0.0255   0.1207   0.0028   0.0213   0.0264  -2.00    0.0
2024/06/03 14:39:59.000   28.294206586  -16.447599496  1446.5346   2   8   0.0171   0.0255   0.1207   0.0028   0.0213   0.0264  -1.00    0.0
2024/06/03 14:40:00.000   28.294206587  -16.447599499  1446.5331   2   8   0.0171   0.0255   0.1208   0.0028   0.0213   0.0264   0.00    0.0
2024/06/03 14:40:01.000   28.294206588  -16.447599503  1446.5359   2   8   0.0171   0.0255   0.1208   0.0028   0.0213   0.0264   1.00    0.0
2024/06/03 14:40:02.000   28.294206587  -16.447599503  1446.5377   2   8   0.0171   0.0255   0.1208   0.0028   0.0213   0.0264   2.00    0.0
2024/06/03 14:40:03.000   28.294206585  -16.447599504  1446.5369   2   8   0.0171   0.0255   0.1208   0.0028   0.0213   0.0264   3.00    0.0
2024/06/03 14:40:04.000   28.294206584  -16.447599509  1446.5388   2   8   0.0171   0.0255   0.1209   0.0028   0.0213   0.0264   4.00    0.0
2024/06/03 14:40:05.000   28.294206584  -16.447599510  1446.5410   2   8   0.0171   0.0255   0.1209   0.0028   0.0213   0.0264   5.00    0.0
2024/06/03 14:40:06.000   28.294206585  -16.447599511  1446.5431   2   8   0.0171   0.0255   0.1209   0.0029   0.0213   0.0264   6.00    0.0
2024/06/03 14:40:07.000   28.294206584  -16.447599513  1446.5437   2   8   0.0172   0.0255   0.1209   0.0029   0.0213   0.0264   7.00    0.0
2024/06/03 14:40:08.000   28.294206583  -16.447599514  1446.5443   2   8   0.0172   0.0255   0.1209   0.0029   0.0213   0.0264   8.00    0.0
2024/06/03 14:40:09.000   28.294206583  -16.447599514  1446.5455   2   8   0.0172   0.0255   0.1209   0.0029   0.0213   0.0264   9.00    0.0
2024/06/03 14:40:10.000   28.294206583  -16.447599513  1446.5467   2   8   0.0172   0.0255   0.1210   0.0029   0.0213   0.0264  10.00    0.0
2024/06/03 14:40:11.000   28.294206583  -16.447599514  1446.5477   2   8   0.0172   0.0255   0.1210   0.0029   0.0213   0.0264  11.00    0.0
2024/06/03 14:40:12.000   28.294206584  -16.447599513  1446.5485   2   8   0.0172   0.0255   0.1210   0.0029   0.0213   0.0264  12.00    0.0
2024/06/03 14:40:13.000   28.294206584  -16.447599513  1446.5493   2   8   0.0172   0.0255   0.1210   0.0029   0.0213   0.0264  13.00    0.0
2024/06/03 14:40:14.000   28.294206583  -16.447599515  1446.5494   2   8   0.0172   0.0255   0.1210   0.0029   0.0213   0.0264  14.00    0.0
2024/06/03 14:40:15.000   28.294206582  -16.447599517  1446.5497   2   8   0.0172   0.0255   0.1210   0.0029   0.0213   0.0264 -15.00    0.0
2024/06/03 14:40:16.000   28.294206582  -16.447599518  1446.5506   2   8   0.0172   0.0255   0.1210   0.0029   0.0213   0.0264 -14.00    0.0
2024/06/03 14:40:17.000   28.294206581  -16.447599520  1446.5509   2   8   0.0172   0.0255   0.1210   0.0029   0.0213   0.0264 -13.00    0.0
2024/06/03 14:40:18.000   28.294206580  -16.447599521  1446.5512   2   8   0.0172   0.0255   0.1210   0.0029   0.0213   0.0264 -12.00    0.0
2024/06/03 14:40:19.000   28.294206580  -16.447599523  1446.5520   2   8   0.0172   0.0255   0.1210   0.0029   0.0213   0.0264 -11.00    0.0
2024/06/03 14:40:20.000   28.294206580  -16.447599523  1446.5534   2   8   0.0172   0.0255   0.1210   0.0029   0.0213   0.0264 -10.00    0.0
2024/06/03 14:40:21.000   28.294206581  -16.447599523  1446.5545   2   8   0.0172   0.0255   0.1210   0.0029   0.0213   0.0264  -9.00    0.0
2024/06/03 14:40:22.000   28.294206581  -16.447599524  1446.5559   2   8   0.0172   0.0255   0.1210   0.0029   0.0213   0.0264  -8.00    0.0
2024/06/03 14:40:23.000   28.294206582  -16.447599527  1446.5575   2   8   0.0172   0.0255   0.1210   0.0029   0.0213   0.0264  -7.00    0.0
2024/06/03 14:40:24.000   28.294206583  -16.447599529  1446.5593   2   8   0.0172   0.0255   0.1210   0.0029   0.0213   0.0264  -6.00    0.0
2024/06/03 14:40:25.000   28.294206585  -16.447599531  1446.5623   2   8   0.0172   0.0255   0.1210   0.0029   0.0213   0.0264  -5.00    0.0
2024/06/03 14:40:26.000   28.294206587  -16.447599534  1446.5642   2   8   0.0172   0.0255   0.1210   0.0029   0.0213   0.0264  -4.00    0.0
2024/06/03 14:40:27.000   28.294206587  -16.447599538  1446.5664   2   8   0.0172   0.0255   0.1210   0.0030   0.0213   0.0265  -3.00    0.0
2024/06/03 14:40:28.000   28.294206588  -16.447599541  1446.5690   2   8   0.0172   0.0255   0.1211   0.0030   0.0213   0.0265  -2.00    0.0
2024/06/03 14:40:29.000   28.294206589  -16.447599545  1446.5701   2   8   0.0172   0.0255   0.1211   0.0030   0.0214   0.0265  -1.00    0.0
2024/06/03 14:40:30.000   28.294206590  -16.447599551  1446.5721   2   8   0.0172   0.0255   0.1212   0.0030   0.0214   0.0265   0.00    0.0
2024/06/03 14:40:31.000   28.294206590  -16.447599560  1446.5722   2   8   0.0173   0.0255   0.1212   0.0030   0.0214   0.0265   1.00    0.0
2024/06/03 14:40:32.000   28.294206590  -16.447599568  1446.5735   2   8   0.0173   0.0255   0.1212   0.0030   0.0214   0.0265   2.00    0.0
2024/06/03 14:40:33.000   28.294206590  -16.447599571  1446.5744   2   8   0.0173   0.0255   0.1213   0.0030   0.0214   0.0265   3.00    0.0
2024/06/03 14:40:34.000   28.294206590  -16.447599572  1446.5764   2   8   0.0173   0.0256   0.1213   0.0030   0.0214   0.0265   4.00    0.0
2024/06/03 14:40:35.000   28.294206590  -16.447599575  1446.5784   2   8   0.0173   0.0256   0.1213   0.0030   0.0214   0.0265   5.00    0.0
2024/06/03 14:40:36.000   28.294206589  -16.447599578  1446.5794   2   8   0.0173   0.0256   0.1213   0.0030   0.0214   0.0265   6.00    0.0
2024/06/03 14:40:37.000   28.294206589  -16.447599582  1446.5804   2   8   0.0173   0.0256   0.1213   0.0030   0.0214   0.0265   7.00    0.0
2024/06/03 14:40:38.001   28.294206588  -16.447599586  1446.5810   2   8   0.0173   0.0256   0.1213   0.0030   0.0214   0.0265   8.00    0.0
2024/06/03 14:40:39.000   28.294206587  -16.447599588  1446.5814   2   8   0.0173   0.0256   0.1214   0.0030   0.0214   0.0265   9.00    0.0
2024/06/03 14:40:40.000   28.294206587  -16.447599590  1446.5820   2   8   0.0173   0.0256   0.1214   0.0030   0.0214   0.0265  10.00    0.0
2024/06/03 14:40:41.000   28.294206585  -16.447599593  1446.5824   2   8   0.0173   0.0256   0.1214   0.0030   0.0214   0.0265  11.00    0.0
2024/06/03 14:40:42.000   28.294206584  -16.447599596  1446.5824   2   8   0.0173   0.0256   0.1214   0.0031   0.0214   0.0265  12.00    0.0
2024/06/03 14:40:43.000   28.294206584  -16.447599597  1446.5825   2   8   0.0173   0.0256   0.1214   0.0031   0.0214   0.0265  13.00    0.0
2024/06/03 14:40:44.000   28.294206584  -16.447599598  1446.5826   2   8   0.0173   0.0256   0.1214   0.0031   0.0214   0.0265  14.00    0.0
2024/06/03 14:40:45.000   28.294206583  -16.447599598  1446.5829   2   8   0.0173   0.0256   0.1214   0.0031   0.0214   0.0265 -15.00    0.0
2024/06/03 14:40:46.000   28.294206583  -16.447599599  1446.5832   2   8   0.0173   0.0255   0.1214   0.0031   0.0214   0.0265 -14.00    0.0
2024/06/03 14:40:47.000   28.294206583  -16.447599600  1446.5835   2   8   0.0173   0.0255   0.1214   0.0031   0.0214   0.0265 -13.00    0.0
2024/06/03 14:40:48.000   28.294206584  -16.447599599  1446.5837   2   8   0.0173   0.0255   0.1214   0.0031   0.0214   0.0265 -12.00    0.0
2024/06/03 14:40:49.000   28.294206585  -16.447599597  1446.5845   2   8   0.0173   0.0255   0.1214   0.0031   0.0214   0.0265 -11.00    0.0
2024/06/03 14:40:50.000   28.294206586  -16.447599596  1446.5853   2   8   0.0174   0.0255   0.1214   0.0031   0.0214   0.0265 -10.00    0.0
2024/06/03 14:40:51.000   28.294206587  -16.447599596  1446.5859   2   8   0.0174   0.0255   0.1214   0.0031   0.0214   0.0265  -9.00    0.0
2024/06/03 14:40:52.000   28.294206587  -16.447599595  1446.5861   2   8   0.0174   0.0255   0.1214   0.0031   0.0214   0.0265  -8.00    0.0
2024/06/03 14:40:53.000   28.294206588  -16.447599593  1446.5869   2   8   0.0174   0.0255   0.1214   0.0031   0.0214   0.0265  -7.00    0.0
2024/06/03 14:40:54.000   28.294206589  -16.447599592  1446.5882   2   8   0.0174   0.0255   0.1214   0.0031   0.0214   0.0265  -6.00    0.0
2024/06/03 14:40:55.000   28.294206590  -16.447599593  1446.5891   2   8   0.0174   0.0255   0.1214   0.0031   0.0214   0.0265  -5.00    0.0
2024/06/03 14:40:56.000   28.294206591  -16.447599592  1446.5898   2   8   0.0174   0.0255   0.1214   0.0031   0.0214   0.0265  -4.00    0.0
2024/06/03 14:40:57.000   28.294206595  -16.447599589  1446.5918   2   8   0.0174   0.0255   0.1215   0.0031   0.0214   0.0265  -3.00    0.0
2024/06/03 14:40:58.000   28.294206598  -16.447599589  1446.5943   2   8   0.0174   0.0255   0.1215   0.0031   0.0214   0.0266  -2.00    0.0
2024/06/03 14:40:59.000   28.294206599  -16.447599588  1446.5945   2   8   0.0174   0.0255   0.1215   0.0031   0.0214   0.0266  -1.00    0.0
2024/06/03 14:41:00.000   28.294206602  -16.447599587  1446.5942   2   8   0.0174   0.0256   0.1216   0.0032   0.0214   0.0266   0.00    0.0
2024/06/03 14:41:01.000   28.294206608  -16.447599580  1446.5987   2   8   0.0174   0.0256   0.1216   0.0032   0.0214   0.0266   1.00    0.0
2024/06/03 14:41:02.000   28.294206613  -16.447599571  1446.6029   2   8   0.0174   0.0256   0.1216   0.0032   0.0214   0.0266   2.00    0.0
2024/06/03 14:41:03.000   28.294206616  -16.447599567  1446.6049   2   8   0.0174   0.0256   0.1217   0.0032   0.0214   0.0266   3.00    0.0
2024/06/03 14:41:04.000   28.294206615  -16.447599567  1446.6043   2   8   0.0175   0.0256   0.1217   0.0032   0.0214   0.0266   4.00    0.0
2024/06/03 14:41:05.000   28.294206615  -16.447599566  1446.6042   2   8   0.0175   0.0256   0.1217   0.0032   0.0214   0.0266   5.00    0.0
2024/06/03 14:41:06.000   28.294206616  -16.447599562  1446.6049   2   8   0.0175   0.0256   0.1217   0.0032   0.0214   0.0266   6.00    0.0
2024/06/03 14:41:07.000   28.294206618  -16.447599561  1446.6061   2   8   0.0175   0.0256   0.1217   0.0032   0.0214   0.0266   7.00    0.0
2024/06/03 14:41:08.000   28.294206619  -16.447599560  1446.6071   2   8   0.0175   0.0256   0.1218   0.0032   0.0214   0.0266   8.00    0.0
2024/06/03 14:41:09.000   28.294206619  -16.447599561  1446.6076   2   8   0.0175   0.0256   0.1218   0.0032   0.0214   0.0266   9.00    0.0
2024/06/03 14:41:10.000   28.294206619  -16.447599562  1446.6077   2   8   0.0175   0.0256   0.1218   0.0032   0.0214   0.0266  10.00    0.0
2024/06/03 14:41:11.000   28.294206621  -16.447599562  1446.6085   2   8   0.0175   0.0256   0.1218   0.0032   0.0214   0.0266  11.00    0.0
2024/06/03 14:41:12.000   28.294206622  -16.447599562  1446.6094   2   8   0.0175   0.0256   0.1218   0.0032   0.0214   0.0266  12.00    0.0
2024/06/03 14:41:13.000   28.294206623  -16.447599561  1446.6101   2   8   0.0175   0.0256   0.1218   0.0032   0.0214   0.0266  13.00    0.0
2024/06/03 14:41:14.000   28.294206624  -16.447599561  1446.6107   2   8   0.0175   0.0256   0.1218   0.0032   0.0214   0.0266  14.00    0.0
2024/06/03 14:41:15.000   28.294206625  -16.447599562  1446.6110   2   8   0.0175   0.0256   0.1218   0.0032   0.0214   0.0266 -15.00    0.0
2024/06/03 14:41:16.000   28.294206626  -16.447599561  1446.6116   2   8   0.0175   0.0256   0.1218   0.0032   0.0214   0.0266 -14.00    0.0
2024/06/03 14:41:17.000   28.294206627  -16.447599561  1446.6122   2   8   0.0175   0.0256   0.1218   0.0032   0.0214   0.0266 -13.00    0.0
2024/06/03 14:41:18.000   28.294206629  -16.447599562  1446.6132   2   8   0.0175   0.0256   0.1218   0.0032   0.0214   0.0266 -12.00    0.0
2024/06/03 14:41:19.000   28.294206631  -16.447599562  1446.6142   2   8   0.0175   0.0256   0.1218   0.0033   0.0214   0.0266 -11.00    0.0
2024/06/03 14:41:20.000   28.294206634  -16.447599563  1446.6157   2   8   0.0175   0.0256   0.1218   0.0033   0.0214   0.0266 -10.00    0.0
2024/06/03 14:41:21.000   28.294206637  -16.447599562  1446.6175   2   8   0.0175   0.0256   0.1218   0.0033   0.0214   0.0266  -9.00    0.0
2024/06/03 14:41:22.000   28.294206640  -16.447599562  1446.6188   2   8   0.0175   0.0256   0.1218   0.0033   0.0214   0.0266  -8.00    0.0
2024/06/03 14:41:23.000   28.294206642  -16.447599563  1446.6196   2   8   0.0175   0.0256   0.1218   0.0033   0.0214   0.0266  -7.00    1.5
2024/06/03 14:41:24.000   28.294206643  -16.447599565  1446.6195   2   8   0.0175   0.0256   0.1218   0.0033   0.0214   0.0266  -6.00    1.3
2024/06/03 14:41:25.000   28.294206646  -16.447599566  1446.6202   2   8   0.0175   0.0256   0.1218   0.0033   0.0214   0.0266  -5.00    1.4
2024/06/03 14:41:26.000   28.294206649  -16.447599568  1446.6212   2   8   0.0175   0.0256   0.1218   0.0033   0.0214   0.0266  -4.00    1.4
2024/06/03 14:41:27.000   28.294206652  -16.447599569  1446.6225   2   8   0.0175   0.0256   0.1218   0.0033   0.0214   0.0266  -3.00    1.5
2024/06/03 14:41:28.000   28.294206656  -16.447599567  1446.6237   2   8   0.0175   0.0256   0.1219   0.0033   0.0214   0.0266  -2.00    1.2
2024/06/03 14:41:29.000   28.294206659  -16.447599566  1446.6257   2   8   0.0175   0.0256   0.1219   0.0033   0.0215   0.0266  -1.00    1.5
2024/06/03 14:41:30.000   28.294206662  -16.447599567  1446.6259   2   8   0.0176   0.0256   0.1220   0.0033   0.0215   0.0266   0.00    1.1
2024/06/03 14:41:31.000   28.294206668  -16.447599562  1446.6286   2   8   0.0176   0.0256   0.1220   0.0033   0.0215   0.0266   1.00    1.2
2024/06/03 14:41:32.000   28.294206672  -16.447599558  1446.6294   2   8   0.0176   0.0256   0.1220   0.0033   0.0215   0.0266   2.00    1.1
2024/06/03 14:41:33.000   28.294206676  -16.447599557  1446.6299   2   8   0.0176   0.0256   0.1220   0.0033   0.0215   0.0266   3.00    1.2
2024/06/03 14:41:34.000   28.294206681  -16.447599553  1446.6306   2   8   0.0176   0.0256   0.1221   0.0033   0.0215   0.0266   4.00    1.4
2024/06/03 14:41:35.000   28.294206684  -16.447599549  1446.6307   2   8   0.0176   0.0256   0.1221   0.0034   0.0215   0.0266   5.00    1.5
2024/06/03 14:41:36.000   28.294206685  -16.447599547  1446.6308   2   8   0.0176   0.0256   0.1221   0.0034   0.0215   0.0266   6.00    1.1
2024/06/03 14:41:37.000   28.294206687  -16.447599545  1446.6306   2   8   0.0176   0.0256   0.1221   0.0034   0.0214   0.0266   7.00    1.6
2024/06/03 14:41:38.000   28.294206687  -16.447599544  1446.6304   2   8   0.0176   0.0256   0.1221   0.0034   0.0214   0.0266   8.00    1.1
2024/06/03 14:41:39.000   28.294206687  -16.447599544  1446.6299   2   8   0.0176   0.0256   0.1221   0.0034   0.0214   0.0266   9.00    1.1
2024/06/03 14:41:40.000   28.294206687  -16.447599544  1446.6293   2   8   0.0176   0.0256   0.1221   0.0034   0.0214   0.0266  10.00    1.3
2024/06/03 14:41:41.000   28.294206688  -16.447599544  1446.6297   2   8   0.0176   0.0256   0.1221   0.0034   0.0214   0.0266  11.00    1.4
2024/06/03 14:41:42.000   28.294206690  -16.447599543  1446.6302   2   8   0.0176   0.0256   0.1221   0.0034   0.0214   0.0266  12.00    1.4
2024/06/03 14:41:43.000   28.294206691  -16.447599542  1446.6303   2   8   0.0176   0.0256   0.1221   0.0034   0.0214   0.0266  13.00    1.5
2024/06/03 14:41:44.000   28.294206691  -16.447599543  1446.6301   2   8   0.0176   0.0256   0.1221   0.0034   0.0214   0.0266  14.00    1.1
2024/06/03 14:41:45.000   28.294206691  -16.447599543  1446.6298   2   8   0.0176   0.0256   0.1221   0.0034   0.0214   0.0266 -15.00    1.6
2024/06/03 14:41:46.000   28.294206691  -16.447599543  1446.6295   2   8   0.0176   0.0256   0.1221   0.0034   0.0214   0.0266 -14.00    1.1
2024/06/03 14:41:47.000   28.294206692  -16.447599543  1446.6295   2   8   0.0176   0.0256   0.1221   0.0034   0.0214   0.0266 -13.00    1.1
2024/06/03 14:41:48.000   28.294206694  -16.447599541  1446.6300   2   8   0.0176   0.0256   0.1221   0.0034   0.0214   0.0266 -12.00    1.3
2024/06/03 14:41:49.000   28.294206696  -16.447599538  1446.6312   2   8   0.0176   0.0256   0.1221   0.0034   0.0214   0.0266 -11.00    1.5
2024/06/03 14:41:50.000   28.294206699  -16.447599534  1446.6324   2   8   0.0176   0.0256   0.1221   0.0034   0.0214   0.0266 -10.00    1.4
2024/06/03 14:41:51.000   28.294206703  -16.447599529  1446.6336   2   8   0.0176   0.0256   0.1221   0.0034   0.0214   0.0266  -9.00    1.5
2024/06/03 14:41:52.000   28.294206707  -16.447599524  1446.6347   2   8   0.0176   0.0256   0.1221   0.0034   0.0214   0.0266  -8.00    1.1
2024/06/03 14:41:53.000   28.294206710  -16.447599520  1446.6352   2   8   0.0176   0.0256   0.1221   0.0034   0.0214   0.0266  -7.00    1.7
2024/06/03 14:41:54.000   28.294206714  -16.447599516  1446.6363   2   8   0.0176   0.0255   0.1222   0.0034   0.0214   0.0266  -6.00    1.4
2024/06/03 14:41:55.000   28.294206718  -16.447599513  1446.6373   2   8   0.0176   0.0255   0.1222   0.0034   0.0214   0.0266  -5.00    1.1
2024/06/03 14:41:56.000   28.294206722  -16.447599509  1446.6391   2   8   0.0176   0.0255   0.1222   0.0034   0.0214   0.0266  -4.00    1.5
2024/06/03 14:41:57.000   28.294206728  -16.447599505  1446.6419   2   8   0.0177   0.0255   0.1222   0.0034   0.0214   0.0266  -3.00    1.5
2024/06/03 14:41:58.000   28.294206735  -16.447599501  1446.6447   2   8   0.0177   0.0255   0.1222   0.0034   0.0214   0.0266  -2.00    1.4
2024/06/03 14:41:59.000   28.294206741  -16.447599497  1446.6456   2   8   0.0177   0.0256   0.1222   0.0034   0.0214   0.0267  -1.00    1.5
2024/06/03 14:42:00.000   28.294206743  -16.447599495  1446.6455   2   8   0.0177   0.0256   0.1223   0.0035   0.0214   0.0267   0.00    1.0
2024/06/03 14:42:01.000   28.294206742  -16.447599501  1446.6434   2   8   0.0177   0.0256   0.1223   0.0035   0.0214   0.0267   1.00    1.3
2024/06/03 14:42:02.000   28.294206738  -16.447599511  1446.6413   2   8   0.0177   0.0256   0.1223   0.0035   0.0214   0.0266   2.00    1.1
2024/06/03 14:42:03.000   28.294206737  -16.447599519  1446.6408   2   8   0.0177   0.0256   0.1224   0.0035   0.0214   0.0266   3.00    1.3
2024/06/03 14:42:04.000   28.294206738  -16.447599523  1446.6411   2   8   0.0177   0.0256   0.1224   0.0035   0.0214   0.0266   4.00    1.3
2024/06/03 14:42:05.000   28.294206738  -16.447599525  1446.6409   2   8   0.0177   0.0256   0.1224   0.0035   0.0214   0.0266   5.00    1.6
2024/06/03 14:42:06.000   28.294206736  -16.447599528  1446.6399   2   8   0.0177   0.0256   0.1224   0.0035   0.0214   0.0266   6.00    1.7
2024/06/03 14:42:07.000   28.294206735  -16.447599532  1446.6400   2   8   0.0177   0.0256   0.1224   0.0035   0.0214   0.0266   7.00    1.0
2024/06/03 14:42:08.000   28.294206733  -16.447599536  1446.6392   2   8   0.0177   0.0256   0.1224   0.0035   0.0214   0.0266   8.00    1.5
2024/06/03 14:42:09.000   28.294206732  -16.447599540  1446.6390   2   8   0.0177   0.0256   0.1224   0.0035   0.0214   0.0266   9.00    1.2
2024/06/03 14:42:10.000   28.294206730  -16.447599544  1446.6384   2   8   0.0177   0.0256   0.1224   0.0035   0.0214   0.0266  10.00    1.1
2024/06/03 14:42:11.000   28.294206728  -16.447599549  1446.6370   2   8   0.0177   0.0256   0.1224   0.0035   0.0214   0.0266  11.00    1.2
2024/06/03 14:42:12.000   28.294206724  -16.447599556  1446.6355   2   8   0.0177   0.0256   0.1224   0.0035   0.0214   0.0266  12.00    1.2
2024/06/03 14:42:13.000   28.294206721  -16.447599563  1446.6339   2   8   0.0177   0.0256   0.1224   0.0035   0.0214   0.0266  13.00    1.0
2024/06/03 14:42:14.000   28.294206719  -16.447599568  1446.6328   2   8   0.0177   0.0256   0.1224   0.0035   0.0214   0.0266  14.00    1.6
2024/06/03 14:42:15.000   28.294206717  -16.447599571  1446.6323   2   8   0.0177   0.0256   0.1224   0.0035   0.0214   0.0266 -15.00    1.1
2024/06/03 14:42:16.000   28.294206717  -16.447599572  1446.6326   2   8   0.0177   0.0255   0.1224   0.0035   0.0214   0.0266 -14.00    1.6
2024/06/03 14:42:17.000   28.294206717  -16.447599573  1446.6328   2   8   0.0177   0.0255   0.1224   0.0035   0.0214   0.0266 -13.00    1.1
2024/06/03 14:42:18.000   28.294206718  -16.447599574  1446.6331   2   8   0.0177   0.0255   0.1224   0.0035   0.0214   0.0266 -12.00    1.6
2024/06/03 14:42:19.000   28.294206718  -16.447599575  1446.6333   2   8   0.0177   0.0255   0.1224   0.0035   0.0214   0.0266 -11.00    1.1
2024/06/03 14:42:20.000   28.294206717  -16.447599577  1446.6331   2   8   0.0177   0.0255   0.1224   0.0035   0.0214   0.0266 -10.00    1.8
2024/06/03 14:42:21.000   28.294206716  -16.447599581  1446.6323   2   8   0.0177   0.0255   0.1224   0.0035   0.0214   0.0266  -9.00    1.1
2024/06/03 14:42:22.000   28.294206713  -16.447599587  1446.6310   2   8   0.0177   0.0255   0.1224   0.0035   0.0214   0.0266  -8.00    1.2
2024/06/03 14:42:23.000   28.294206710  -16.447599594  1446.6284   2   8   0.0177   0.0255   0.1224   0.0035   0.0214   0.0266  -7.00    1.3
2024/06/03 14:42:24.000   28.294206707  -16.447599598  1446.6269   2   8   0.0177   0.0255   0.1224   0.0035   0.0214   0.0266  -6.00    1.8
2024/06/03 14:42:25.000   28.294206706  -16.447599601  1446.6262   2   8   0.0177   0.0255   0.1224   0.0035   0.0214   0.0266  -5.00    1.0
2024/06/03 14:42:26.000   28.294206705  -16.447599606  1446.6246   2   8   0.0178   0.0255   0.1224   0.0035   0.0214   0.0266  -4.00    1.3
2024/06/03 14:42:27.000   28.294206704  -16.447599609  1446.6231   2   8   0.0178   0.0255   0.1225   0.0035   0.0214   0.0266  -3.00    1.6
2024/06/03 14:42:28.000   28.294206705  -16.447599609  1446.6215   2   8   0.0178   0.0255   0.1225   0.0035   0.0214   0.0266  -2.00    1.1
2024/06/03 14:42:29.000   28.294206709  -16.447599603  1446.6215   2   8   0.0178   0.0255   0.1225   0.0036   0.0214   0.0266  -1.00    1.2
2024/06/03 14:42:30.000   28.294206713  -16.447599594  1446.6225   2   8   0.0178   0.0255   0.1226   0.0036   0.0214   0.0267   0.00    1.5
2024/06/03 14:42:31.000   28.294206717  -16.447599589  1446.6254   2   8   0.0178   0.0255   0.1226   0.0036   0.0214   0.0266   1.00    1.5
2024/06/03 14:42:32.000   28.294206718  -16.447599588  1446.6251   2   8   0.0178   0.0255   0.1226   0.0036   0.0214   0.0266   2.00    1.8
2024/06/03 14:42:33.000   28.294206719  -16.447599581  1446.6252   2   8   0.0178   0.0255   0.1226   0.0036   0.0214   0.0266   3.00    1.0
2024/06/03 14:42:34.000   28.294206724  -16.447599573  1446.6274   2   8   0.0178   0.0255   0.1227   0.0036   0.0214   0.0266   4.00    1.5
2024/06/03 14:42:35.000   28.294206729  -16.447599565  1446.6290   2   8   0.0178   0.0255   0.1227   0.0036   0.0214   0.0266   5.00    1.4
2024/06/03 14:42:36.000   28.294206735  -16.447599553  1446.6314   2   8   0.0178   0.0255   0.1227   0.0036   0.0214   0.0266   6.00    1.2
2024/06/03 14:42:37.000   28.294206740  -16.447599545  1446.6335   2   8   0.0178   0.0255   0.1227   0.0036   0.0214   0.0266   7.00    1.2
2024/06/03 14:42:38.000   28.294206743  -16.447599542  1446.6350   2   8   0.0178   0.0255   0.1227   0.0036   0.0214   0.0266   8.00    1.3
2024/06/03 14:42:39.000   28.294206746  -16.447599542  1446.6368   2   8   0.0178   0.0255   0.1227   0.0036   0.0214   0.0266   9.00    1.7
2024/06/03 14:42:40.000   28.294206748  -16.447599542  1446.6383   2   8   0.0178   0.0255   0.1227   0.0036   0.0214   0.0266  10.00    1.8
2024/06/03 14:42:41.000   28.294206748  -16.447599542  1446.6387   2   8   0.0178   0.0255   0.1227   0.0036   0.0214   0.0266  11.00    1.0
2024/06/03 14:42:42.000   28.294206748  -16.447599542  1446.6387   2   8   0.0178   0.0255   0.1227   0.0036   0.0214   0.0266  12.00    1.5
2024/06/03 14:42:43.000   28.294206748  -16.447599543  1446.6388   2   8   0.0178   0.0255   0.1227   0.0036   0.0214   0.0266  13.00    1.4
2024/06/03 14:42:44.000   28.294206749  -16.447599542  1446.6390   2   8   0.0178   0.0255   0.1227   0.0036   0.0214   0.0266  14.00    1.1
2024/06/03 14:42:45.000   28.294206750  -16.447599542  1446.6391   2   8   0.0178   0.0255   0.1227   0.0036   0.0214   0.0266 -15.00    1.2
2024/06/03 14:42:46.000   28.294206750  -16.447599541  1446.6393   2   8   0.0178   0.0255   0.1227   0.0036   0.0214   0.0266 -14.00    1.3
2024/06/03 14:42:47.000   28.294206750  -16.447599541  1446.6393   2   8   0.0178   0.0255   0.1227   0.0036   0.0214   0.0266 -13.00    1.7
2024/06/03 14:42:48.000   28.294206749  -16.447599542  1446.6390   2   8   0.0178   0.0255   0.1227   0.0036   0.0214   0.0266 -12.00    1.8
2024/06/03 14:42:49.000   28.294206750  -16.447599541  1446.6393   2   8   0.0178   0.0255   0.1227   0.0036   0.0214   0.0266 -11.00    1.0
2024/06/03 14:42:50.000   28.294206750  -16.447599540  1446.6395   2   8   0.0178   0.0255   0.1227   0.0036   0.0214   0.0266 -10.00    1.5
2024/06/03 14:42:51.000   28.294206749  -16.447599540  1446.6389   2   8   0.0178   0.0255   0.1227   0.0036   0.0214   0.0266  -9.00    1.4
2024/06/03 14:42:52.000   28.294206749  -16.447599539  1446.6381   2   8   0.0178   0.0255   0.1227   0.0036   0.0214   0.0266  -8.00    1.1
2024/06/03 14:42:53.000   28.294206747  -16.447599540  1446.6361   2   8   0.0178   0.0255   0.1227   0.0036   0.0213   0.0266  -7.00    1.2
2024/06/03 14:42:54.000   28.294206743  -16.447599543  1446.6332   2   8   0.0178   0.0255   0.1227   0.0036   0.0213   0.0266  -6.00    1.3
2024/06/03 14:42:55.000   28.294206740  -16.447599551  1446.6313   2   8   0.0178   0.0255   0.1227   0.0036   0.0213   0.0266  -5.00    1.7
2024/06/03 14:42:56.000   28.294206740  -16.447599566  1446.6337   2   8   0.0178   0.0255   0.1227   0.0036   0.0213   0.0266  -4.00    1.8
2024/06/03 14:42:57.000   28.294206743  -16.447599579  1446.6351   2   8   0.0178   0.0255   0.1227   0.0036   0.0213   0.0266  -3.00    1.0
2024/06/03 14:42:58.000   28.294206746  -16.447599581  1446.6365   2   8   0.0178   0.0255   0.1227   0.0036   0.0213   0.0266  -2.00    1.4
2024/06/03 14:42:59.000   28.294206745  -16.447599582  1446.6362   2   8   0.0178   0.0255   0.1227   0.0036   0.0213   0.0266  -1.00    1.5
2024/06/03 14:43:00.000   28.294206744  -16.447599585  1446.6347   2   8   0.0178   0.0255   0.1227   0.0037   0.0213   0.0266   0.00    1.0
2024/06/03 14:43:01.000   28.294206747  -16.447599583  1446.6382   2   8   0.0178   0.0255   0.1228   0.0037   0.0213   0.0266   1.00    1.1
2024/06/03 14:43:02.000   28.294206751  -16.447599577  1446.6411   2   8   0.0178   0.0255   0.1228   0.0037   0.0213   0.0266   2.00    1.0
2024/06/03 14:43:03.000   28.294206752  -16.447599574  1446.6418   2   8   0.0179   0.0255   0.1228   0.0037   0.0213   0.0266   3.00    1.6
2024/06/03 14:43:04.000   28.294206751  -16.447599573  1446.6415   2   8   0.0179   0.0255   0.1228   0.0037   0.0213   0.0266   4.00    1.4
2024/06/03 14:43:05.000   28.294206750  -16.447599573  1446.6408   2   8   0.0179   0.0255   0.1228   0.0037   0.0212   0.0265   5.00    1.7
2024/06/03 14:43:06.000   28.294206750  -16.447599574  1446.6409   2   8   0.0179   0.0255   0.1228   0.0037   0.0212   0.0265   6.00    1.0
2024/06/03 14:43:07.000   28.294206749  -16.447599572  1446.6417   2   8   0.0179   0.0255   0.1228   0.0037   0.0212   0.0265   7.00    1.4
2024/06/03 14:43:08.000   28.294206749  -16.447599571  1446.6416   2   8   0.0179   0.0255   0.1228   0.0037   0.0212   0.0265   8.00    1.1
2024/06/03 14:43:09.000   28.294206748  -16.447599571  1446.6412   2   8   0.0179   0.0255   0.1228   0.0037   0.0212   0.0265   9.00    1.0
2024/06/03 14:43:10.000   28.294206747  -16.447599570  1446.6416   2   8   0.0179   0.0255   0.1228   0.0037   0.0212   0.0265  10.00    1.3
2024/06/03 14:43:11.000   28.294206747  -16.447599569  1446.6417   2   8   0.0179   0.0255   0.1228   0.0037   0.0212   0.0265  11.00    1.4
2024/06/03 14:43:12.000   28.294206747  -16.447599568  1446.6422   2   8   0.0179   0.0255   0.1228   0.0037   0.0212   0.0265  12.00    1.8
2024/06/03 14:43:13.000   28.294206747  -16.447599567  1446.6425   2   8   0.0179   0.0255   0.1228   0.0037   0.0212   0.0265  13.00    1.0
2024/06/03 14:43:14.000   28.294206747  -16.447599566  1446.6424   2   8   0.0179   0.0255   0.1228   0.0037   0.0212   0.0265  14.00    1.4
2024/06/03 14:43:15.000   28.294206746  -16.447599567  1446.6417   2   8   0.0179   0.0255   0.1228   0.0037   0.0212   0.0265 -15.00    1.0
2024/06/03 14:43:16.000   28.294206744  -16.447599568  1446.6406   2   8   0.0179   0.0255   0.1228   0.0037   0.0212   0.0265 -14.00    1.1
2024/06/03 14:43:17.000   28.294206744  -16.447599567  1446.6408   2   8   0.0179   0.0255   0.1228   0.0037   0.0212   0.0265 -13.00    1.1
2024/06/03 14:43:18.000   28.294206745  -16.447599563  1446.6415   2   8   0.0179   0.0255   0.1228   0.0037   0.0212   0.0265 -12.00    1.6
2024/06/03 14:43:19.000   28.294206747  -16.447599559  1446.6422   2   8   0.0179   0.0255   0.1228   0.0037   0.0212   0.0265 -11.00    1.7
2024/06/03 14:43:20.000   28.294206747  -16.447599555  1446.6421   2   8   0.0179   0.0255   0.1228   0.0037   0.0212   0.0265 -10.00    1.1
2024/06/03 14:43:21.000   28.294206748  -16.447599548  1446.6420   2   8   0.0179   0.0255   0.1228   0.0037   0.0212   0.0265  -9.00    1.4
2024/06/03 14:43:22.000   28.294206749  -16.447599543  1446.6421   2   8   0.0179   0.0255   0.1228   0.0037   0.0212   0.0265  -8.00    1.5
2024/06/03 14:43:23.000   28.294206749  -16.447599542  1446.6420   2   8   0.0179   0.0255   0.1228   0.0037   0.0212   0.0265  -7.00    1.0
2024/06/03 14:43:24.000   28.294206746  -16.447599545  1446.6417   2   8   0.0179   0.0255   0.1228   0.0037   0.0212   0.0265  -6.00    1.1
2024/06/03 14:43:25.000   28.294206742  -16.447599557  1446.6421   2   8   0.0179   0.0255   0.1228   0.0037   0.0212   0.0265  -5.00    1.2
2024/06/03 14:43:26.000   28.294206741  -16.447599565  1446.6433   2   8   0.0179   0.0254   0.1228   0.0037   0.0212   0.0265  -4.00    1.6
2024/06/03 14:43:27.000   28.294206742  -16.447599564  1446.6455   2   8   0.0179   0.0254   0.1228   0.0037   0.0212   0.0265  -3.00    1.7
2024/06/03 14:43:28.000   28.294206742  -16.447599558  1446.6470   2   8   0.0179   0.0254   0.1228   0.0037   0.0212   0.0265  -2.00    1.1
2024/06/03 14:43:29.000   28.294206739  -16.447599556  1446.6468   2   8   0.0179   0.0254   0.1229   0.0037   0.0211   0.0265  -1.00    1.4
2024/06/03 14:43:30.000   28.294206734  -16.447599558  1446.6462   2   8   0.0179   0.0254   0.1229   0.0037   0.0211   0.0265   0.00    1.4
2024/06/03 14:43:31.000   28.294206731  -16.447599558  1446.6478   2   8   0.0179   0.0254   0.1229   0.0037   0.0211   0.0265   1.00    1.1
2024/06/03 14:43:32.000   28.294206728  -16.447599560  1446.6496   2   8   0.0179   0.0254   0.1229   0.0037   0.0211   0.0265   2.00    1.0
2024/06/03 14:43:33.000   28.294206725  -16.447599561  1446.6507   2   8   0.0179   0.0254   0.1229   0.0037   0.0211   0.0265   3.00    1.0
2024/06/03 14:43:34.000   28.294206722  -16.447599566  1446.6514   2   8   0.0179   0.0254   0.1229   0.0037   0.0211   0.0265   4.00    1.5
2024/06/03 14:43:35.000   28.294206723  -16.447599568  1446.6553   2   8   0.0179   0.0254   0.1230   0.0037   0.0211   0.0264   5.00    1.6
2024/06/03 14:43:36.000   28.294206725  -16.447599566  1446.6590   2   8   0.0179   0.0254   0.1230   0.0037   0.0211   0.0264   6.00    1.0
2024/06/03 14:43:37.000   28.294206725  -16.447599565  1446.6610   2   8   0.0179   0.0254   0.1230   0.0037   0.0211   0.0264   7.00    1.6
2024/06/03 14:43:38.000   28.294206726  -16.447599564  1446.6625   2   8   0.0179   0.0254   0.1230   0.0037   0.0211   0.0264   8.00    1.3
2024/06/03 14:43:39.000   28.294206726  -16.447599563  1446.6637   2   8   0.0179   0.0254   0.1230   0.0037   0.0211   0.0264   9.00    1.2
2024/06/03 14:43:40.000   28.294206726  -16.447599563  1446.6636   2   8   0.0179   0.0254   0.1230   0.0037   0.0211   0.0264  10.00    1.2
2024/06/03 14:43:41.000   28.294206724  -16.447599562  1446.6632   2   8   0.0179   0.0254   0.1230   0.0037   0.0211   0.0264  11.00    1.3
2024/06/03 14:43:42.000   28.294206724  -16.447599560  1446.6629   2   8   0.0179   0.0254   0.1230   0.0037   0.0210   0.0264  12.00    1.0
2024/06/03 14:43:43.000   28.294206723  -16.447599559  1446.6626   2   8   0.0179   0.0254   0.1230   0.0037   0.0210   0.0264  13.00    1.7
2024/06/03 14:43:44.000   28.294206723  -16.447599558  1446.6626   2   8   0.0179   0.0254   0.1230   0.0037   0.0210   0.0264  14.00    1.1
2024/06/03 14:43:45.000   28.294206722  -16.447599557  1446.6624   2   8   0.0179   0.0254   0.1230   0.0037   0.0210   0.0264 -15.00    1.7
2024/06/03 14:43:46.000   28.294206722  -16.447599556  1446.6622   2   8   0.0179   0.0254   0.1230   0.0037   0.0210   0.0264 -14.00    1.2
2024/06/03 14:43:47.000   28.294206722  -16.447599555  1446.6620   2   8   0.0179   0.0254   0.1230   0.0037   0.0210   0.0264 -13.00    1.7
2024/06/03 14:43:48.000   28.294206721  -16.447599554  1446.6619   2   8   0.0179   0.0254   0.1230   0.0037   0.0210   0.0264 -12.00    1.0
2024/06/03 14:43:49.000   28.294206721  -16.447599552  1446.6614   2   8   0.0179   0.0254   0.1230   0.0037   0.0210   0.0264 -11.00    1.6
2024/06/03 14:43:50.000   28.294206719  -16.447599550  1446.6603   2   8   0.0179   0.0254   0.1230   0.0037   0.0210   0.0264 -10.00    1.1
2024/06/03 14:43:51.000   28.294206719  -16.447599550  1446.6605   2   8   0.0179   0.0254   0.1230   0.0037   0.0210   0.0264  -9.00    1.2
2024/06/03 14:43:52.000   28.294206720  -16.447599548  1446.6614   2   8   0.0179   0.0254   0.1230   0.0037   0.0210   0.0264  -8.00    1.3
2024/06/03 14:43:53.000   28.294206722  -16.447599545  1446.6624   2   8   0.0179   0.0254   0.1230   0.0037   0.0210   0.0264  -7.00    1.6
2024/06/03 14:43:54.000   28.294206725  -16.447599541  1446.6651   2   8   0.0179   0.0254   0.1230   0.0037   0.0210   0.0264  -6.00    1.1
2024/06/03 14:43:55.000   28.294206727  -16.447599536  1446.6674   2   8   0.0179   0.0254   0.1229   0.0037   0.0210   0.0264  -5.00    1.6
2024/06/03 14:43:56.000   28.294206729  -16.447599530  1446.6705   2   8   0.0179   0.0254   0.1229   0.0037   0.0210   0.0264  -4.00    1.2
2024/06/03 14:43:57.000   28.294206733  -16.447599522  1446.6740   2   8   0.0179   0.0254   0.1229   0.0037   0.0210   0.0264  -3.00    1.1
2024/06/03 14:43:58.000   28.294206735  -16.447599513  1446.6766   2   8   0.0179   0.0254   0.1229   0.0037   0.0210   0.0264  -2.00    1.0
2024/06/03 14:43:59.000   28.294206736  -16.447599504  1446.6783   2   8   0.0179   0.0254   0.1230   0.0037   0.0210   0.0264  -1.00    1.4
2024/06/03 14:44:00.000   28.294206736  -16.447599502  1446.6792   2   8   0.0179   0.0254   0.1230   0.0037   0.0210   0.0264   0.00    1.6
2024/06/03 14:44:01.000   28.294206734  -16.447599499  1446.6787   2   8   0.0179   0.0254   0.1230   0.0037   0.0210   0.0264   1.00    1.6
2024/06/03 14:44:02.000   28.294206731  -16.447599493  1446.6772   2   8   0.0179   0.0254   0.1230   0.0037   0.0209   0.0264   2.00    1.1
2024/06/03 14:44:03.000   28.294206728  -16.447599489  1446.6752   2   8   0.0179   0.0254   0.1230   0.0037   0.0209   0.0263   3.00    1.5
2024/06/03 14:44:04.000   28.294206727  -16.447599488  1446.6741   2   8   0.0179   0.0254   0.1230   0.0037   0.0209   0.0263   4.00    1.2
2024/06/03 14:44:05.000   28.294206727  -16.447599487  1446.6742   2   8   0.0179   0.0254   0.1231   0.0037   0.0209   0.0263   5.00    1.0
2024/06/03 14:44:06.000   28.294206726  -16.447599485  1446.6734   2   8   0.0179   0.0254   0.1231   0.0037   0.0209   0.0263   6.00    1.1
2024/06/03 14:44:07.000   28.294206726  -16.447599485  1446.6732   2   8   0.0179   0.0254   0.1231   0.0037   0.0209   0.0263   7.00    1.1
2024/06/03 14:44:08.000   28.294206727  -16.447599488  1446.6737   2   8   0.0179   0.0254   0.1231   0.0037   0.0209   0.0263   8.00    1.5
2024/06/03 14:44:09.000   28.294206727  -16.447599491  1446.6740   2   8   0.0179   0.0254   0.1231   0.0037   0.0209   0.0263   9.00    1.6
2024/06/03 14:44:10.000   28.294206728  -16.447599493  1446.6745   2   8   0.0179   0.0254   0.1231   0.0037   0.0209   0.0263  10.00    1.1
2024/06/03 14:44:11.000   28.294206728  -16.447599493  1446.6749   2   8   0.0179   0.0254   0.1231   0.0037   0.0209   0.0263  11.00    1.5
2024/06/03 14:44:12.000   28.294206729  -16.447599493  1446.6749   2   8   0.0179   0.0253   0.1231   0.0037   0.0209   0.0263  12.00    1.2
2024/06/03 14:44:13.000   28.294206729  -16.447599493  1446.6746   2   8   0.0179   0.0253   0.1231   0.0037   0.0209   0.0263  13.00    1.1
2024/06/03 14:44:14.000   28.294206729  -16.447599493  1446.6744   2   8   0.0179   0.0253   0.1231   0.0037   0.0209   0.0263  14.00    1.0
2024/06/03 14:44:15.000   28.294206729  -16.447599494  1446.6739   2   8   0.0179   0.0253   0.1231   0.0037   0.0209   0.0263 -15.00    1.2
2024/06/03 14:44:16.000   28.294206728  -16.447599495  1446.6733   2   8   0.0179   0.0253   0.1231   0.0037   0.0209   0.0263 -14.00    1.6
2024/06/03 14:44:17.000   28.294206727  -16.447599495  1446.6722   2   8   0.0179   0.0253   0.1231   0.0037   0.0209   0.0263 -13.00    1.6
