% program   : RTKPOST-EX 2.5.0
% inp file  : C:\Users\SallyHenry\Desktop\Sally Internship\GNSS gravi\DATA\Survey Rover Obs\GUI32.24o
% inp file  : C:\Users\SallyHenry\Desktop\Sally Internship\GNSS gravi\DATA\BaseStations\IZAN\IZAN00ESP_R_20242810000_01D_30S_MO.rnx
% inp file  : C:\Users\SallyHenry\Desktop\Sally Internship\GNSS gravi\DATA\BaseStations\IZAN\IZAN00ESP_R_20242810000_01D_MN.rnx
% inp file  : C:\Users\SallyHenry\Desktop\Sally Internship\GNSS gravi\DATA\aux_files\Survey\IGS0OPSFIN_20242810000_01D_15M_ORB.SP3
% inp file  : C:\Users\SallyHenry\Desktop\Sally Internship\GNSS gravi\DATA\aux_files\Survey\IGS0OPSFIN_20242810000_01D_30S_CLK.CLK
% obs start : 2024/10/07 11:35:42.0 GPST (week2335 128142.0s)
% obs end   : 2024/10/07 11:50:43.0 GPST (week2335 129043.0s)
% pos mode  : Static
% freqs     : L1+L2/E5b
% solution  : Combined-No Phase Reset
% elev mask : 15.0 deg
% dynamics  : on
% tidecorr  : solid
% ionos opt : Estimate TEC
% tropo opt : Estimate ZTD+Grad
% ephemeris : Precise
% navi sys  : GPS GLONASS Galileo QZSS BDS
% amb res   : Fix and Hold
% amb glo   : Fix and Hold
% amb bds   : on
% val thres : 3.0
% antenna1  :                       ( 0.0000  0.0000  1.8000)
% antenna2  :                       ( 0.0000  0.0000  0.0000)
% ref pos   :  28.308069410  -16.499677180  2417.4044
%
% (lat/lon/height=WGS84/ellipsoidal,Q=1:fix,2:float,3:sbas,4:dgps,5:single,6:ppp,ns=# of satellites)
%  GPST                  latitude(deg) longitude(deg)  height(m)   Q  ns   sdn(m)   sde(m)   sdu(m)  sdne(m)  sdeu(m)  sdun(m) age(s)  ratio
2024/10/07 11:35:42.000   28.312409034  -16.480176909  1837.9084   1   6   0.0020   0.0014   0.0300  -0.0006  -0.0013  -0.0043  12.00   12.4
2024/10/07 11:35:43.000   28.312409034  -16.480176909  1837.9083   1   6   0.0020   0.0014   0.0300  -0.0006  -0.0013  -0.0043  13.00   12.1
2024/10/07 11:35:44.000   28.312409034  -16.480176908  1837.9082   1   6   0.0020   0.0014   0.0300  -0.0006  -0.0013  -0.0043  14.00   11.9
2024/10/07 11:35:45.000   28.312409034  -16.480176908  1837.9082   1   6   0.0020   0.0014   0.0300  -0.0006  -0.0013  -0.0043  15.00   11.7
2024/10/07 11:35:46.000   28.312409034  -16.480176908  1837.9081   1   6   0.0020   0.0014   0.0300  -0.0006  -0.0013  -0.0043 -14.00   11.6
2024/10/07 11:35:47.000   28.312409034  -16.480176908  1837.9082   1   6   0.0020   0.0014   0.0300  -0.0006  -0.0013  -0.0043 -13.00   11.4
2024/10/07 11:35:48.000   28.312409034  -16.480176908  1837.9082   1   6   0.0020   0.0014   0.0300  -0.0006  -0.0013  -0.0043 -12.00   11.2
2024/10/07 11:35:49.000   28.312409034  -16.480176907  1837.9082   1   6   0.0020   0.0014   0.0300  -0.0006  -0.0013  -0.0043 -11.00   11.0
2024/10/07 11:35:50.000   28.312409034  -16.480176907  1837.9084   1   6   0.0021   0.0014   0.0300  -0.0006  -0.0013  -0.0043 -10.00   10.7
2024/10/07 11:35:51.000   28.312409034  -16.480176907  1837.9085   1   6   0.0021   0.0014   0.0301  -0.0006  -0.0014  -0.0043  -9.00   10.3
2024/10/07 11:35:52.000   28.312409034  -16.480176907  1837.9082   1   6   0.0021   0.0014   0.0301  -0.0006  -0.0014  -0.0043  -8.00    9.9
2024/10/07 11:35:53.000   28.312409034  -16.480176906  1837.9075   1   6   0.0021   0.0014   0.0301  -0.0006  -0.0014  -0.0043  -7.00    9.4
2024/10/07 11:35:54.000   28.312409035  -16.480176906  1837.9069   1   6   0.0021   0.0014   0.0301  -0.0006  -0.0014  -0.0043  -6.00    8.8
2024/10/07 11:35:55.000   28.312409035  -16.480176905  1837.9057   1   6   0.0021   0.0014   0.0302  -0.0006  -0.0014  -0.0043  -5.00    8.0
2024/10/07 11:35:56.000   28.312409034  -16.480176904  1837.9036   1   6   0.0021   0.0014   0.0302  -0.0006  -0.0014  -0.0043  -4.00    6.4
2024/10/07 11:35:57.000   28.312409035  -16.480176903  1837.9019   1   6   0.0021   0.0014   0.0303  -0.0006  -0.0014  -0.0043  -3.00    5.6
2024/10/07 11:35:58.000   28.312409037  -16.480176902  1837.9004   1   6   0.0021   0.0014   0.0304  -0.0006  -0.0015  -0.0043  -2.00   43.5
2024/10/07 11:35:59.000   28.312409038  -16.480176901  1837.8978   1   6   0.0021   0.0014   0.0305  -0.0006  -0.0015  -0.0043  -1.00   43.2
2024/10/07 11:36:00.000   28.312409046  -16.480176902  1837.8966   1   6   0.0020   0.0014   0.0305  -0.0005  -0.0014  -0.0044   0.00   16.9
2024/10/07 11:36:01.000   28.312409048  -16.480176901  1837.8935   1   6   0.0020   0.0014   0.0306  -0.0005  -0.0014  -0.0044   1.00   16.6
2024/10/07 11:36:02.000   28.312409049  -16.480176900  1837.8902   1   6   0.0020   0.0014   0.0307  -0.0005  -0.0015  -0.0044   2.00   16.3
2024/10/07 11:36:03.000   28.312409051  -16.480176899  1837.8875   1   6   0.0020   0.0014   0.0308  -0.0005  -0.0015  -0.0044   3.00   16.0
2024/10/07 11:36:04.000   28.312409052  -16.480176898  1837.8845   1   6   0.0021   0.0014   0.0309  -0.0005  -0.0015  -0.0044   4.00   15.3
2024/10/07 11:36:05.000   28.312409053  -16.480176897  1837.8821   1   6   0.0021   0.0015   0.0310  -0.0005  -0.0015  -0.0044   5.00   14.6
2024/10/07 11:36:06.000   28.312409054  -16.480176897  1837.8795   1   6   0.0021   0.0015   0.0310  -0.0005  -0.0015  -0.0044   6.00   14.1
2024/10/07 11:36:07.000   28.312409055  -16.480176896  1837.8772   1   6   0.0021   0.0015   0.0311  -0.0005  -0.0016  -0.0044   7.00   13.7
2024/10/07 11:36:08.000   28.312409055  -16.480176895  1837.8749   1   6   0.0021   0.0015   0.0311  -0.0006  -0.0016  -0.0044   8.00   13.3
2024/10/07 11:36:09.000   28.312409055  -16.480176895  1837.8736   1   6   0.0021   0.0015   0.0311  -0.0006  -0.0016  -0.0044   9.00   13.0
2024/10/07 11:36:10.000   28.312409056  -16.480176895  1837.8723   1   6   0.0021   0.0015   0.0312  -0.0006  -0.0016  -0.0044  10.00   12.7
2024/10/07 11:36:11.000   28.312409056  -16.480176894  1837.8711   1   6   0.0021   0.0015   0.0312  -0.0006  -0.0016  -0.0044  11.00   12.5
2024/10/07 11:36:12.000   28.312409056  -16.480176894  1837.8702   1   6   0.0021   0.0015   0.0312  -0.0006  -0.0016  -0.0044  12.00   12.2
2024/10/07 11:36:13.000   28.312409056  -16.480176894  1837.8695   1   6   0.0021   0.0015   0.0312  -0.0006  -0.0016  -0.0044  13.00   12.0
2024/10/07 11:36:14.000   28.312409056  -16.480176893  1837.8689   1   6   0.0021   0.0015   0.0312  -0.0006  -0.0016  -0.0044  14.00   11.8
2024/10/07 11:36:15.000   28.312409056  -16.480176893  1837.8683   1   6   0.0021   0.0014   0.0312  -0.0006  -0.0016  -0.0044  15.00   11.6
2024/10/07 11:36:16.000   28.312409056  -16.480176893  1837.8679   1   6   0.0021   0.0014   0.0312  -0.0006  -0.0016  -0.0044 -14.00   11.4
2024/10/07 11:36:17.000   28.312409056  -16.480176893  1837.8673   1   6   0.0021   0.0014   0.0313  -0.0006  -0.0016  -0.0044 -13.00   11.2
2024/10/07 11:36:18.000   28.312409056  -16.480176893  1837.8669   1   6   0.0021   0.0014   0.0313  -0.0006  -0.0016  -0.0044 -12.00   10.9
2024/10/07 11:36:19.000   28.312409056  -16.480176892  1837.8660   1   6   0.0021   0.0014   0.0313  -0.0006  -0.0017  -0.0044 -11.00   10.6
2024/10/07 11:36:20.000   28.312409057  -16.480176892  1837.8651   1   6   0.0021   0.0014   0.0313  -0.0006  -0.0017  -0.0044 -10.00   10.3
2024/10/07 11:36:21.000   28.312409057  -16.480176892  1837.8641   1   6   0.0021   0.0014   0.0313  -0.0006  -0.0017  -0.0044  -9.00   10.0
2024/10/07 11:36:22.000   28.312409057  -16.480176891  1837.8626   1   6   0.0021   0.0014   0.0313  -0.0006  -0.0017  -0.0044  -8.00    9.6
2024/10/07 11:36:23.000   28.312409058  -16.480176891  1837.8611   1   6   0.0021   0.0014   0.0314  -0.0006  -0.0017  -0.0044  -7.00    9.1
2024/10/07 11:36:24.000   28.312409058  -16.480176890  1837.8593   1   6   0.0021   0.0014   0.0314  -0.0006  -0.0017  -0.0044  -6.00    8.5
2024/10/07 11:36:25.000   28.312409059  -16.480176889  1837.8568   1   6   0.0021   0.0014   0.0315  -0.0006  -0.0017  -0.0044  -5.00    7.8
2024/10/07 11:36:26.000   28.312409057  -16.480176888  1837.8527   1   6   0.0021   0.0014   0.0315  -0.0006  -0.0017  -0.0044  -4.00    6.5
2024/10/07 11:36:27.000   28.312409059  -16.480176887  1837.8487   1   6   0.0021   0.0014   0.0316  -0.0006  -0.0018  -0.0044  -3.00    5.6
2024/10/07 11:36:28.000   28.312409059  -16.480176886  1837.8442   1   6   0.0021   0.0015   0.0317  -0.0006  -0.0018  -0.0044  -2.00   35.3
2024/10/07 11:36:29.000   28.312409061  -16.480176884  1837.8385   1   6   0.0021   0.0015   0.0318  -0.0006  -0.0018  -0.0044  -1.00   35.3
2024/10/07 11:36:30.000   28.312409075  -16.480176887  1837.8388   1   6   0.0020   0.0014   0.0318  -0.0005  -0.0017  -0.0045   0.00   18.0
2024/10/07 11:36:31.000   28.312409077  -16.480176885  1837.8313   1   6   0.0020   0.0014   0.0320  -0.0005  -0.0018  -0.0045   1.00   17.7
2024/10/07 11:36:32.000   28.312409078  -16.480176883  1837.8249   1   6   0.0021   0.0015   0.0321  -0.0005  -0.0018  -0.0045   2.00   17.0
2024/10/07 11:36:33.000   28.312409080  -16.480176881  1837.8190   1   6   0.0021   0.0015   0.0322  -0.0005  -0.0018  -0.0045   3.00   16.3
2024/10/07 11:36:34.000   28.312409081  -16.480176879  1837.8137   1   6   0.0021   0.0015   0.0323  -0.0005  -0.0018  -0.0045   4.00   15.7
2024/10/07 11:36:35.000   28.312409081  -16.480176878  1837.8100   1   6   0.0021   0.0015   0.0324  -0.0005  -0.0018  -0.0045   5.00   15.1
2024/10/07 11:36:36.000   28.312409082  -16.480176877  1837.8068   1   6   0.0021   0.0015   0.0324  -0.0005  -0.0019  -0.0045   6.00   14.6
2024/10/07 11:36:37.000   28.312409082  -16.480176876  1837.8046   1   6   0.0021   0.0015   0.0325  -0.0005  -0.0019  -0.0045   7.00   14.2
2024/10/07 11:36:38.000   28.312409082  -16.480176875  1837.8027   1   6   0.0021   0.0015   0.0325  -0.0005  -0.0019  -0.0045   8.00   13.8
2024/10/07 11:36:39.000   28.312409083  -16.480176875  1837.8010   1   6   0.0021   0.0015   0.0326  -0.0005  -0.0019  -0.0045   9.00   13.5
2024/10/07 11:36:40.000   28.312409082  -16.480176874  1837.8001   1   6   0.0021   0.0015   0.0326  -0.0006  -0.0019  -0.0045  10.00   13.2
2024/10/07 11:36:41.000   28.312409083  -16.480176874  1837.7993   1   6   0.0021   0.0015   0.0326  -0.0006  -0.0019  -0.0045  11.00   12.8
2024/10/07 11:36:42.000   28.312409082  -16.480176873  1837.7990   1   6   0.0021   0.0015   0.0326  -0.0006  -0.0019  -0.0045  12.00   12.5
2024/10/07 11:36:43.000   28.312409082  -16.480176873  1837.7988   1   6   0.0021   0.0015   0.0327  -0.0006  -0.0019  -0.0045  13.00   12.2
2024/10/07 11:36:44.000   28.312409082  -16.480176873  1837.7986   1   6   0.0021   0.0015   0.0327  -0.0006  -0.0020  -0.0045  14.00   11.9
2024/10/07 11:36:45.000   28.312409082  -16.480176872  1837.7985   1   6   0.0021   0.0015   0.0327  -0.0006  -0.0020  -0.0045  15.00   11.7
2024/10/07 11:36:46.000   28.312409082  -16.480176872  1837.7984   1   6   0.0021   0.0015   0.0327  -0.0006  -0.0020  -0.0045 -14.00   11.5
2024/10/07 11:36:47.000   28.312409082  -16.480176872  1837.7982   1   6   0.0021   0.0015   0.0327  -0.0006  -0.0020  -0.0045 -13.00   11.2
2024/10/07 11:36:48.000   28.312409082  -16.480176872  1837.7980   1   6   0.0021   0.0015   0.0327  -0.0006  -0.0020  -0.0045 -12.00   10.9
2024/10/07 11:36:49.000   28.312409082  -16.480176871  1837.7978   1   6   0.0021   0.0015   0.0328  -0.0006  -0.0020  -0.0045 -11.00   10.6
2024/10/07 11:36:50.000   28.312409082  -16.480176871  1837.7975   1   6   0.0021   0.0015   0.0328  -0.0006  -0.0020  -0.0045 -10.00   10.3
2024/10/07 11:36:51.000   28.312409082  -16.480176871  1837.7973   1   6   0.0021   0.0015   0.0328  -0.0006  -0.0020  -0.0045  -9.00    9.9
2024/10/07 11:36:52.000   28.312409082  -16.480176870  1837.7968   1   6   0.0021   0.0015   0.0328  -0.0006  -0.0020  -0.0045  -8.00    9.5
2024/10/07 11:36:53.000   28.312409082  -16.480176869  1837.7961   1   6   0.0021   0.0015   0.0329  -0.0006  -0.0020  -0.0045  -7.00    9.0
2024/10/07 11:36:54.000   28.312409082  -16.480176869  1837.7949   1   6   0.0021   0.0015   0.0329  -0.0006  -0.0020  -0.0045  -6.00    8.4
2024/10/07 11:36:55.000   28.312409082  -16.480176868  1837.7932   1   6   0.0021   0.0015   0.0330  -0.0006  -0.0021  -0.0045  -5.00    7.7
2024/10/07 11:36:56.000   28.312409080  -16.480176866  1837.7902   1   6   0.0021   0.0015   0.0331  -0.0006  -0.0021  -0.0045  -4.00    6.5
2024/10/07 11:36:57.000   28.312409080  -16.480176865  1837.7872   1   6   0.0021   0.0015   0.0332  -0.0006  -0.0021  -0.0045  -3.00    5.7
2024/10/07 11:36:58.000   28.312409080  -16.480176864  1837.7831   1   6   0.0021   0.0015   0.0333  -0.0006  -0.0021  -0.0045  -2.00   25.9
2024/10/07 11:36:59.000   28.312409082  -16.480176862  1837.7788   1   6   0.0021   0.0015   0.0334  -0.0006  -0.0021  -0.0045  -1.00   25.6
2024/10/07 11:37:00.000   28.312409103  -16.480176868  1837.7853   1   6   0.0021   0.0015   0.0334  -0.0005  -0.0021  -0.0046   0.00   17.6
2024/10/07 11:37:01.000   28.312409104  -16.480176866  1837.7787   1   6   0.0021   0.0015   0.0336  -0.0005  -0.0021  -0.0047   1.00   17.0
2024/10/07 11:37:02.000   28.312409105  -16.480176864  1837.7725   1   6   0.0021   0.0015   0.0337  -0.0005  -0.0021  -0.0047   2.00   16.3
2024/10/07 11:37:03.000   28.312409106  -16.480176863  1837.7661   1   6   0.0021   0.0015   0.0338  -0.0005  -0.0022  -0.0047   3.00   15.6
2024/10/07 11:37:04.000   28.312409107  -16.480176862  1837.7611   1   6   0.0021   0.0015   0.0339  -0.0005  -0.0022  -0.0047   4.00   15.0
2024/10/07 11:37:05.000   28.312409108  -16.480176861  1837.7560   1   6   0.0021   0.0015   0.0340  -0.0005  -0.0022  -0.0047   5.00   14.5
2024/10/07 11:37:06.000   28.312409108  -16.480176859  1837.7515   1   6   0.0021   0.0015   0.0341  -0.0005  -0.0022  -0.0047   6.00   13.9
2024/10/07 11:37:07.000   28.312409109  -16.480176858  1837.7480   1   6   0.0021   0.0015   0.0342  -0.0005  -0.0022  -0.0047   7.00   13.3
2024/10/07 11:37:08.000   28.312409109  -16.480176858  1837.7457   1   6   0.0021   0.0015   0.0342  -0.0005  -0.0023  -0.0047   8.00   12.8
2024/10/07 11:37:09.000   28.312409109  -16.480176857  1837.7431   1   6   0.0021   0.0015   0.0343  -0.0005  -0.0023  -0.0047   9.00   12.4
2024/10/07 11:37:10.000   28.312409109  -16.480176856  1837.7405   1   6   0.0021   0.0015   0.0343  -0.0005  -0.0023  -0.0047  10.00   12.1
2024/10/07 11:37:11.000   28.312409109  -16.480176856  1837.7383   1   6   0.0021   0.0015   0.0344  -0.0005  -0.0023  -0.0047  11.00   11.7
2024/10/07 11:37:12.000   28.312409109  -16.480176855  1837.7361   1   6   0.0021   0.0015   0.0344  -0.0005  -0.0023  -0.0047  12.00   11.5
2024/10/07 11:37:13.000   28.312409109  -16.480176854  1837.7342   1   6   0.0021   0.0015   0.0344  -0.0005  -0.0023  -0.0047  13.00   11.2
2024/10/07 11:37:14.000   28.312409109  -16.480176854  1837.7327   1   6   0.0021   0.0015   0.0344  -0.0005  -0.0023  -0.0047  14.00   11.0
2024/10/07 11:37:15.000   28.312409109  -16.480176854  1837.7315   1   6   0.0021   0.0015   0.0345  -0.0005  -0.0023  -0.0047  15.00   10.8
2024/10/07 11:37:16.000   28.312409109  -16.480176853  1837.7306   1   6   0.0021   0.0015   0.0345  -0.0005  -0.0023  -0.0047 -14.00   10.6
2024/10/07 11:37:17.000   28.312409109  -16.480176853  1837.7293   1   6   0.0021   0.0015   0.0345  -0.0005  -0.0023  -0.0047 -13.00   10.4
2024/10/07 11:37:18.000   28.312409109  -16.480176852  1837.7280   1   6   0.0021   0.0015   0.0345  -0.0005  -0.0024  -0.0047 -12.00   10.1
2024/10/07 11:37:19.000   28.312409109  -16.480176852  1837.7263   1   6   0.0021   0.0015   0.0345  -0.0006  -0.0024  -0.0046 -11.00    9.9
2024/10/07 11:37:20.000   28.312409109  -16.480176851  1837.7242   1   6   0.0021   0.0015   0.0346  -0.0006  -0.0024  -0.0046 -10.00    9.6
2024/10/07 11:37:21.000   28.312409109  -16.480176851  1837.7216   1   6   0.0021   0.0015   0.0346  -0.0006  -0.0024  -0.0046  -9.00    9.3
2024/10/07 11:37:22.000   28.312409109  -16.480176850  1837.7184   1   6   0.0021   0.0015   0.0346  -0.0006  -0.0024  -0.0046  -8.00    9.0
2024/10/07 11:37:23.000   28.312409109  -16.480176849  1837.7146   1   6   0.0021   0.0015   0.0347  -0.0006  -0.0024  -0.0046  -7.00    8.6
2024/10/07 11:37:24.000   28.312409108  -16.480176848  1837.7099   1   6   0.0021   0.0015   0.0348  -0.0006  -0.0024  -0.0046  -6.00    8.1
2024/10/07 11:37:25.000   28.312409108  -16.480176847  1837.7045   1   6   0.0021   0.0015   0.0348  -0.0006  -0.0024  -0.0046  -5.00    7.6
2024/10/07 11:37:26.000   28.312409105  -16.480176844  1837.6975   1   6   0.0021   0.0015   0.0349  -0.0006  -0.0025  -0.0046  -4.00    6.6
2024/10/07 11:37:27.000   28.312409106  -16.480176843  1837.6906   1   6   0.0021   0.0015   0.0350  -0.0006  -0.0025  -0.0046  -3.00    5.7
2024/10/07 11:37:28.000   28.312409105  -16.480176841  1837.6804   1   6   0.0021   0.0015   0.0352  -0.0006  -0.0025  -0.0046  -2.00   16.2
2024/10/07 11:37:29.000   28.312409106  -16.480176840  1837.6712   1   6   0.0021   0.0015   0.0353  -0.0006  -0.0025  -0.0046  -1.00   16.1
2024/10/07 11:37:30.000   28.312409129  -16.480176845  1837.6781   1   6   0.0021   0.0015   0.0354  -0.0005  -0.0025  -0.0048   0.00   14.0
2024/10/07 11:37:31.000   28.312409130  -16.480176844  1837.6678   1   6   0.0021   0.0015   0.0355  -0.0005  -0.0025  -0.0048   1.00   13.8
2024/10/07 11:37:32.000   28.312409130  -16.480176842  1837.6575   1   6   0.0021   0.0015   0.0357  -0.0005  -0.0025  -0.0048   2.00   13.5
2024/10/07 11:37:33.000   28.312409131  -16.480176840  1837.6478   1   6   0.0021   0.0015   0.0359  -0.0005  -0.0026  -0.0048   3.00   13.1
2024/10/07 11:37:34.000   28.312409131  -16.480176838  1837.6391   1   6   0.0021   0.0015   0.0360  -0.0005  -0.0026  -0.0048   4.00   12.8
2024/10/07 11:37:35.000   28.312409131  -16.480176836  1837.6311   1   6   0.0021   0.0015   0.0361  -0.0005  -0.0026  -0.0048   5.00   12.4
2024/10/07 11:37:36.000   28.312409131  -16.480176835  1837.6240   1   6   0.0021   0.0015   0.0362  -0.0005  -0.0026  -0.0048   6.00   12.1
2024/10/07 11:37:37.000   28.312409131  -16.480176834  1837.6181   1   6   0.0021   0.0015   0.0363  -0.0005  -0.0027  -0.0048   7.00   11.8
2024/10/07 11:37:38.000   28.312409131  -16.480176833  1837.6126   1   6   0.0021   0.0015   0.0364  -0.0005  -0.0027  -0.0048   8.00   11.5
2024/10/07 11:37:39.000   28.312409131  -16.480176832  1837.6078   1   6   0.0021   0.0015   0.0365  -0.0005  -0.0027  -0.0048   9.00   11.1
2024/10/07 11:37:40.000   28.312409130  -16.480176831  1837.6038   1   6   0.0021   0.0015   0.0365  -0.0005  -0.0027  -0.0048  10.00   10.7
2024/10/07 11:37:41.001   28.312409130  -16.480176830  1837.6004   1   6   0.0021   0.0015   0.0366  -0.0005  -0.0027  -0.0048  11.00   10.3
2024/10/07 11:37:42.000   28.312409130  -16.480176830  1837.5972   1   6   0.0021   0.0015   0.0366  -0.0005  -0.0027  -0.0048  12.00   10.0
2024/10/07 11:37:43.000   28.312409130  -16.480176829  1837.5944   1   6   0.0021   0.0015   0.0366  -0.0005  -0.0027  -0.0048  13.00    9.6
2024/10/07 11:37:44.000   28.312409130  -16.480176829  1837.5919   1   6   0.0021   0.0015   0.0367  -0.0005  -0.0028  -0.0048  14.00    9.2
2024/10/07 11:37:45.000   28.312409130  -16.480176828  1837.5896   1   6   0.0021   0.0015   0.0367  -0.0005  -0.0028  -0.0048  15.00    8.8
2024/10/07 11:37:46.000   28.312409130  -16.480176828  1837.5877   1   6   0.0021   0.0015   0.0367  -0.0005  -0.0028  -0.0048 -14.00    8.4
2024/10/07 11:37:47.000   28.312409130  -16.480176827  1837.5857   1   6   0.0021   0.0015   0.0367  -0.0005  -0.0028  -0.0048 -13.00    7.9
2024/10/07 11:37:48.000   28.312409130  -16.480176827  1837.5832   1   6   0.0021   0.0015   0.0368  -0.0005  -0.0028  -0.0048 -12.00    7.5
2024/10/07 11:37:49.000   28.312409129  -16.480176826  1837.5805   1   6   0.0021   0.0015   0.0368  -0.0005  -0.0028  -0.0048 -11.00    7.1
2024/10/07 11:37:50.000   28.312409129  -16.480176826  1837.5776   1   6   0.0021   0.0015   0.0368  -0.0005  -0.0028  -0.0048 -10.00    6.6
2024/10/07 11:37:51.000   28.312409129  -16.480176825  1837.5740   1   6   0.0021   0.0015   0.0369  -0.0005  -0.0028  -0.0048  -9.00    6.1
2024/10/07 11:37:52.000   28.312409126  -16.480176823  1837.5680   1   6   0.0021   0.0015   0.0370  -0.0006  -0.0028  -0.0048  -8.00    5.8
2024/10/07 11:37:53.000   28.312409126  -16.480176823  1837.5625   1   6   0.0021   0.0015   0.0370  -0.0006  -0.0029  -0.0048  -7.00    5.3
2024/10/07 11:37:54.000   28.312409121  -16.480176820  1837.5475   1   6   0.0021   0.0015   0.0372  -0.0006  -0.0029  -0.0047  -6.00    5.4
2024/10/07 11:37:55.000   28.312409122  -16.480176819  1837.5392   1   6   0.0021   0.0015   0.0373  -0.0006  -0.0029  -0.0047  -5.00    5.0
2024/10/07 11:37:56.000   28.312409123  -16.480176819  1837.5337   1   6   0.0021   0.0015   0.0375  -0.0006  -0.0029  -0.0047  -4.00    3.9
2024/10/07 11:37:57.000   28.312409124  -16.480176818  1837.5193   1   6   0.0021   0.0015   0.0376  -0.0006  -0.0030  -0.0047  -3.00    3.8
2024/10/07 11:37:58.000   28.312409128  -16.480176812  1837.4680   1   6   0.0021   0.0015   0.0381  -0.0006  -0.0030  -0.0048  -2.00  387.2
2024/10/07 11:37:59.000   28.312409129  -16.480176813  1837.4676   1   6   0.0021   0.0015   0.0381  -0.0006  -0.0030  -0.0048  -1.00  389.8
2024/10/07 11:38:00.000   28.312409142  -16.480176827  1837.5457   1   6   0.0021   0.0015   0.0370  -0.0005  -0.0028  -0.0049   0.00   14.8
2024/10/07 11:38:01.000   28.312409142  -16.480176826  1837.5327   1   6   0.0021   0.0015   0.0372  -0.0005  -0.0028  -0.0049   1.00   14.4
2024/10/07 11:38:02.000   28.312409142  -16.480176824  1837.5187   1   6   0.0021   0.0015   0.0374  -0.0005  -0.0029  -0.0049   2.00   14.3
2024/10/07 11:38:03.000   28.312409143  -16.480176821  1837.5031   1   6   0.0021   0.0015   0.0376  -0.0005  -0.0029  -0.0049   3.00   15.0
2024/10/07 11:38:04.000   28.312409143  -16.480176820  1837.4909   1   6   0.0021   0.0015   0.0377  -0.0005  -0.0029  -0.0049   4.00   14.7
2024/10/07 11:38:05.000   28.312409149  -16.480176814  1837.4627   1   7   0.0021   0.0015   0.0369  -0.0006  -0.0027  -0.0046   5.00   12.8
2024/10/07 11:38:06.000   28.312409147  -16.480176812  1837.4548   1   7   0.0021   0.0015   0.0370  -0.0006  -0.0027  -0.0046   6.00   10.2
2024/10/07 11:38:07.000   28.312409146  -16.480176811  1837.4465   1   7   0.0021   0.0015   0.0371  -0.0006  -0.0027  -0.0046   7.00    8.4
2024/10/07 11:38:08.000   28.312409166  -16.480176796  1837.3785   1   7   0.0020   0.0014   0.0323  -0.0008  -0.0002  -0.0030   8.00    5.2
2024/10/07 11:38:09.000   28.312409166  -16.480176795  1837.3732   1   7   0.0020   0.0014   0.0323  -0.0008  -0.0003  -0.0030   9.00    3.5
2024/10/07 11:38:10.000   28.312409165  -16.480176794  1837.3624   1   7   0.0020   0.0014   0.0325  -0.0008  -0.0005  -0.0030  10.00   65.2
2024/10/07 11:38:11.000   28.312409165  -16.480176794  1837.3619   1   7   0.0020   0.0014   0.0325  -0.0008  -0.0005  -0.0030  11.00   63.2
2024/10/07 11:38:12.000   28.312409165  -16.480176794  1837.3613   1   6   0.0020   0.0014   0.0324  -0.0008  -0.0005  -0.0030  12.00   61.3
2024/10/07 11:38:13.000   28.312409165  -16.480176793  1837.3609   1   6   0.0020   0.0014   0.0324  -0.0008  -0.0005  -0.0030  13.00   59.5
2024/10/07 11:38:14.000   28.312409165  -16.480176793  1837.3604   1   6   0.0020   0.0014   0.0324  -0.0008  -0.0005  -0.0030  14.00   57.8
2024/10/07 11:38:15.000   28.312409165  -16.480176793  1837.3600   1   6   0.0020   0.0014   0.0324  -0.0008  -0.0005  -0.0030  15.00   56.2
2024/10/07 11:38:16.000   28.312409165  -16.480176793  1837.3598   1   6   0.0020   0.0014   0.0324  -0.0008  -0.0006  -0.0030 -14.00   54.7
2024/10/07 11:38:17.000   28.312409165  -16.480176793  1837.3594   1   6   0.0020   0.0014   0.0324  -0.0008  -0.0006  -0.0029 -13.00   53.1
2024/10/07 11:38:18.000   28.312409165  -16.480176793  1837.3591   1   6   0.0020   0.0014   0.0324  -0.0008  -0.0006  -0.0029 -12.00   51.4
2024/10/07 11:38:19.000   28.312409165  -16.480176793  1837.3588   1   6   0.0020   0.0014   0.0324  -0.0008  -0.0006  -0.0029 -11.00   49.6
2024/10/07 11:38:20.000   28.312409165  -16.480176793  1837.3583   1   6   0.0020   0.0014   0.0324  -0.0008  -0.0006  -0.0029 -10.00   47.7
2024/10/07 11:38:21.000   28.312409165  -16.480176793  1837.3579   1   6   0.0020   0.0014   0.0324  -0.0008  -0.0006  -0.0029  -9.00   45.5
2024/10/07 11:38:22.000   28.312409165  -16.480176793  1837.3572   1   6   0.0020   0.0014   0.0324  -0.0008  -0.0006  -0.0029  -8.00   43.1
2024/10/07 11:38:23.000   28.312409165  -16.480176793  1837.3565   1   6   0.0020   0.0014   0.0324  -0.0008  -0.0006  -0.0029  -7.00   40.2
2024/10/07 11:38:24.000   28.312409165  -16.480176793  1837.3557   1   6   0.0020   0.0014   0.0324  -0.0008  -0.0007  -0.0029  -6.00   37.1
2024/10/07 11:38:25.000   28.312409165  -16.480176793  1837.3548   1   6   0.0020   0.0014   0.0324  -0.0008  -0.0007  -0.0029  -5.00   33.2
2024/10/07 11:38:26.000   28.312409166  -16.480176793  1837.3536   1   6   0.0020   0.0014   0.0324  -0.0008  -0.0007  -0.0029  -4.00   28.8
2024/10/07 11:38:27.000   28.312409166  -16.480176793  1837.3522   1   6   0.0020   0.0014   0.0325  -0.0008  -0.0007  -0.0029  -3.00   23.4
2024/10/07 11:38:28.000   28.312409166  -16.480176793  1837.3498   1   6   0.0020   0.0014   0.0325  -0.0008  -0.0007  -0.0029  -2.00   17.1
2024/10/07 11:38:29.000   28.312409167  -16.480176793  1837.3469   1   6   0.0020   0.0014   0.0325  -0.0008  -0.0008  -0.0029  -1.00    9.5
2024/10/07 11:38:30.000   28.312409170  -16.480176794  1837.3456   1   6   0.0020   0.0014   0.0325  -0.0008  -0.0006  -0.0031   0.00   98.1
2024/10/07 11:38:31.000   28.312409171  -16.480176794  1837.3424   1   6   0.0020   0.0014   0.0325  -0.0008  -0.0006  -0.0031   1.00   92.9
2024/10/07 11:38:32.000   28.312409172  -16.480176794  1837.3399   1   6   0.0020   0.0014   0.0325  -0.0008  -0.0006  -0.0031   2.00   87.9
2024/10/07 11:38:33.000   28.312409172  -16.480176795  1837.3373   1   6   0.0020   0.0014   0.0326  -0.0008  -0.0006  -0.0031   3.00   83.5
2024/10/07 11:38:34.000   28.312409173  -16.480176795  1837.3356   1   6   0.0020   0.0014   0.0326  -0.0008  -0.0007  -0.0030   4.00   79.3
2024/10/07 11:38:35.000   28.312409173  -16.480176795  1837.3340   1   6   0.0020   0.0014   0.0326  -0.0008  -0.0007  -0.0030   5.00   75.5
2024/10/07 11:38:36.000   28.312409173  -16.480176795  1837.3327   1   6   0.0020   0.0014   0.0326  -0.0008  -0.0007  -0.0030   6.00   72.2
2024/10/07 11:38:37.000   28.312409174  -16.480176796  1837.3317   1   6   0.0020   0.0014   0.0326  -0.0008  -0.0007  -0.0030   7.00   69.4
2024/10/07 11:38:38.000   28.312409174  -16.480176796  1837.3310   1   6   0.0020   0.0014   0.0326  -0.0008  -0.0007  -0.0030   8.00   66.9
2024/10/07 11:38:39.000   28.312409174  -16.480176796  1837.3304   1   6   0.0020   0.0014   0.0326  -0.0008  -0.0008  -0.0030   9.00   64.6
2024/10/07 11:38:40.000   28.312409174  -16.480176796  1837.3299   1   6   0.0020   0.0014   0.0326  -0.0008  -0.0008  -0.0030  10.00   62.2
2024/10/07 11:38:41.000   28.312409174  -16.480176796  1837.3295   1   6   0.0020   0.0014   0.0326  -0.0008  -0.0008  -0.0030  11.00   60.1
2024/10/07 11:38:42.000   28.312409174  -16.480176796  1837.3291   1   6   0.0020   0.0014   0.0326  -0.0008  -0.0008  -0.0030  12.00   58.1
2024/10/07 11:38:43.000   28.312409174  -16.480176796  1837.3288   1   6   0.0020   0.0014   0.0326  -0.0008  -0.0008  -0.0030  13.00   56.2
2024/10/07 11:38:44.000   28.312409174  -16.480176796  1837.3285   1   6   0.0020   0.0014   0.0326  -0.0008  -0.0008  -0.0030  14.00   54.6
2024/10/07 11:38:45.000   28.312409174  -16.480176796  1837.3282   1   6   0.0020   0.0014   0.0326  -0.0008  -0.0008  -0.0030  15.00   53.0
2024/10/07 11:38:46.000   28.312409174  -16.480176796  1837.3280   1   6   0.0020   0.0014   0.0326  -0.0008  -0.0008  -0.0030 -14.00   51.4
2024/10/07 11:38:47.000   28.312409174  -16.480176796  1837.3277   1   6   0.0020   0.0014   0.0326  -0.0008  -0.0008  -0.0030 -13.00   49.8
2024/10/07 11:38:48.000   28.312409174  -16.480176796  1837.3275   1   6   0.0020   0.0014   0.0326  -0.0008  -0.0008  -0.0030 -12.00   48.1
2024/10/07 11:38:49.000   28.312409175  -16.480176796  1837.3271   1   6   0.0020   0.0014   0.0326  -0.0008  -0.0008  -0.0030 -11.00   46.3
2024/10/07 11:38:50.000   28.312409175  -16.480176796  1837.3268   1   6   0.0020   0.0014   0.0326  -0.0008  -0.0009  -0.0030 -10.00   44.3
2024/10/07 11:38:51.000   28.312409175  -16.480176796  1837.3264   1   6   0.0020   0.0014   0.0326  -0.0008  -0.0009  -0.0030  -9.00   42.1
2024/10/07 11:38:52.000   28.312409175  -16.480176796  1837.3258   1   6   0.0020   0.0014   0.0326  -0.0008  -0.0009  -0.0030  -8.00   39.8
2024/10/07 11:38:53.000   28.312409175  -16.480176796  1837.3252   1   6   0.0020   0.0014   0.0326  -0.0008  -0.0009  -0.0030  -7.00   37.1
2024/10/07 11:38:54.000   28.312409176  -16.480176796  1837.3245   1   6   0.0020   0.0014   0.0326  -0.0008  -0.0009  -0.0030  -6.00   34.0
2024/10/07 11:38:55.000   28.312409176  -16.480176796  1837.3233   1   6   0.0020   0.0014   0.0326  -0.0008  -0.0009  -0.0030  -5.00   30.5
2024/10/07 11:38:56.000   28.312409176  -16.480176797  1837.3219   1   6   0.0020   0.0014   0.0326  -0.0008  -0.0009  -0.0030  -4.00   26.5
2024/10/07 11:38:57.000   28.312409177  -16.480176797  1837.3206   1   6   0.0020   0.0014   0.0327  -0.0008  -0.0009  -0.0030  -3.00   21.6
2024/10/07 11:38:58.000   28.312409177  -16.480176798  1837.3189   1   6   0.0020   0.0014   0.0327  -0.0008  -0.0010  -0.0030  -2.00   15.7
2024/10/07 11:38:59.000   28.312409178  -16.480176798  1837.3166   1   6   0.0020   0.0014   0.0327  -0.0008  -0.0010  -0.0029  -1.00    8.6
2024/10/07 11:39:00.000   28.312409179  -16.480176799  1837.3138   1   6   0.0020   0.0014   0.0326  -0.0008  -0.0008  -0.0031   0.00   70.2
2024/10/07 11:39:01.000   28.312409181  -16.480176800  1837.3115   1   6   0.0020   0.0014   0.0327  -0.0008  -0.0008  -0.0031   1.00   68.0
2024/10/07 11:39:02.000   28.312409182  -16.480176800  1837.3084   1   6   0.0020   0.0014   0.0327  -0.0008  -0.0008  -0.0031   2.00   65.7
2024/10/07 11:39:03.000   28.312409183  -16.480176801  1837.3056   1   6   0.0020   0.0014   0.0327  -0.0008  -0.0009  -0.0031   3.00   63.3
2024/10/07 11:39:04.000   28.312409184  -16.480176801  1837.3034   1   6   0.0020   0.0014   0.0328  -0.0008  -0.0009  -0.0031   4.00   60.6
2024/10/07 11:39:05.000   28.312409147  -16.480176871  1837.3456   1   6   0.0019   0.0013   0.0323  -0.0009   0.0012  -0.0030   5.00    3.1
2024/10/07 11:39:06.000   28.312409148  -16.480176871  1837.3443   1   6   0.0019   0.0013   0.0323  -0.0009   0.0012  -0.0030   6.00    3.1
2024/10/07 11:39:07.000   28.312409149  -16.480176871  1837.3433   1   6   0.0019   0.0013   0.0323  -0.0009   0.0012  -0.0030   7.00    3.1
2024/10/07 11:39:08.000   28.312409149  -16.480176871  1837.3425   1   6   0.0019   0.0013   0.0323  -0.0009   0.0012  -0.0030   8.00    3.2
2024/10/07 11:39:09.000   28.312409150  -16.480176871  1837.3420   1   6   0.0019   0.0013   0.0323  -0.0009   0.0012  -0.0030   9.00    3.2
2024/10/07 11:39:10.000   28.312409150  -16.480176871  1837.3414   1   6   0.0019   0.0013   0.0323  -0.0009   0.0012  -0.0030  10.00    3.2
2024/10/07 11:39:11.000   28.312409150  -16.480176871  1837.3409   1   6   0.0019   0.0013   0.0323  -0.0009   0.0012  -0.0030  11.00    3.3
2024/10/07 11:39:12.000   28.312409150  -16.480176871  1837.3405   1   6   0.0019   0.0013   0.0323  -0.0009   0.0012  -0.0030  12.00    3.3
2024/10/07 11:39:13.000   28.312409142  -16.480176863  1837.2872   1   7   0.0019   0.0013   0.0301  -0.0009   0.0019  -0.0034  13.00    3.3
2024/10/07 11:39:14.000   28.312409129  -16.480176850  1837.2079   1   7   0.0019   0.0012   0.0277  -0.0009   0.0024  -0.0037  14.00    3.3
2024/10/07 11:39:15.000   28.312409129  -16.480176850  1837.2076   1   7   0.0019   0.0012   0.0277  -0.0009   0.0024  -0.0037 -15.00    3.3
2024/10/07 11:39:16.000   28.312409129  -16.480176850  1837.2072   1   7   0.0019   0.0012   0.0277  -0.0009   0.0024  -0.0037 -14.00    3.3
2024/10/07 11:39:17.000   28.312409128  -16.480176849  1837.2086   1   7   0.0019   0.0012   0.0276  -0.0008   0.0023  -0.0036 -13.00    3.7
2024/10/07 11:39:18.000   28.312409128  -16.480176849  1837.2084   1   7   0.0019   0.0012   0.0276  -0.0008   0.0023  -0.0036 -12.00    3.7
2024/10/07 11:39:19.000   28.312409128  -16.480176849  1837.2081   1   7   0.0019   0.0012   0.0276  -0.0008   0.0023  -0.0036 -11.00    3.7
2024/10/07 11:39:20.000   28.312409129  -16.480176849  1837.2080   1   7   0.0019   0.0012   0.0276  -0.0008   0.0023  -0.0036 -10.00    3.7
2024/10/07 11:39:21.000   28.312409129  -16.480176849  1837.2077   1   7   0.0019   0.0012   0.0276  -0.0008   0.0023  -0.0036  -9.00    3.7
2024/10/07 11:39:22.000   28.312409129  -16.480176849  1837.2075   1   7   0.0019   0.0012   0.0276  -0.0008   0.0023  -0.0036  -8.00    3.7
2024/10/07 11:39:23.000   28.312409130  -16.480176849  1837.2073   1   7   0.0019   0.0012   0.0276  -0.0008   0.0023  -0.0036  -7.00    3.7
2024/10/07 11:39:24.000   28.312409131  -16.480176849  1837.2070   1   7   0.0019   0.0012   0.0276  -0.0008   0.0023  -0.0036  -6.00    3.7
2024/10/07 11:39:25.000   28.312409039  -16.480176803  1837.3057   1   7   0.0017   0.0012   0.0267  -0.0007   0.0018  -0.0028  -5.00    3.1
2024/10/07 11:39:26.000   28.312409039  -16.480176803  1837.3063   1   7   0.0017   0.0012   0.0268  -0.0007   0.0018  -0.0028  -4.00    4.2
2024/10/07 11:39:27.000   28.312409039  -16.480176803  1837.3070   1   7   0.0017   0.0012   0.0268  -0.0007   0.0018  -0.0028  -3.00    4.8
2024/10/07 11:39:28.000   28.312409040  -16.480176803  1837.3078   1   7   0.0017   0.0012   0.0268  -0.0007   0.0017  -0.0028  -2.00    5.2
2024/10/07 11:39:29.000   28.312409040  -16.480176804  1837.3080   1   7   0.0017   0.0012   0.0269  -0.0007   0.0017  -0.0028  -1.00    5.7
2024/10/07 11:39:30.000   28.312409045  -16.480176805  1837.3124   1   7   0.0017   0.0012   0.0268  -0.0007   0.0018  -0.0029   0.00    6.1
2024/10/07 11:39:31.000   28.312409037  -16.480176803  1837.3115   1   7   0.0017   0.0012   0.0269  -0.0007   0.0018  -0.0029   1.00    6.8
2024/10/07 11:39:32.000   28.312409038  -16.480176803  1837.3120   1   7   0.0017   0.0012   0.0269  -0.0007   0.0018  -0.0029   2.00    7.2
2024/10/07 11:39:33.000   28.312409038  -16.480176803  1837.3121   1   7   0.0017   0.0012   0.0269  -0.0007   0.0018  -0.0029   3.00    7.6
2024/10/07 11:39:34.000   28.312409038  -16.480176804  1837.3122   1   7   0.0017   0.0012   0.0270  -0.0007   0.0018  -0.0028   4.00    8.0
2024/10/07 11:39:35.000   28.312409038  -16.480176804  1837.3121   1   7   0.0017   0.0012   0.0270  -0.0007   0.0017  -0.0028   5.00    8.4
2024/10/07 11:39:36.000   28.312409039  -16.480176804  1837.3122   1   7   0.0017   0.0012   0.0270  -0.0007   0.0017  -0.0028   6.00    8.7
2024/10/07 11:39:37.000   28.312409039  -16.480176804  1837.3120   1   7   0.0017   0.0012   0.0270  -0.0007   0.0017  -0.0028   7.00    9.1
2024/10/07 11:39:38.000   28.312409039  -16.480176804  1837.3118   1   7   0.0017   0.0012   0.0271  -0.0007   0.0017  -0.0028   8.00    9.5
2024/10/07 11:39:39.000   28.312409039  -16.480176804  1837.3117   1   7   0.0017   0.0012   0.0271  -0.0007   0.0017  -0.0028   9.00    9.9
2024/10/07 11:39:40.000   28.312409039  -16.480176804  1837.3114   1   7   0.0017   0.0012   0.0271  -0.0007   0.0017  -0.0028  10.00   10.3
2024/10/07 11:39:41.000   28.312409040  -16.480176804  1837.3110   1   7   0.0017   0.0012   0.0271  -0.0007   0.0017  -0.0028  11.00   10.7
2024/10/07 11:39:42.000   28.312409040  -16.480176804  1837.3107   1   7   0.0017   0.0012   0.0271  -0.0007   0.0017  -0.0028  12.00   11.2
2024/10/07 11:39:43.000   28.312409040  -16.480176804  1837.3102   1   7   0.0017   0.0012   0.0271  -0.0007   0.0017  -0.0028  13.00   11.6
2024/10/07 11:39:44.000   28.312409040  -16.480176804  1837.3099   1   7   0.0017   0.0012   0.0271  -0.0007   0.0017  -0.0028  14.00   12.0
2024/10/07 11:39:45.000   28.312409041  -16.480176804  1837.3095   1   7   0.0017   0.0012   0.0271  -0.0007   0.0017  -0.0028 -15.00   12.4
2024/10/07 11:39:46.000   28.312409041  -16.480176803  1837.3091   1   7   0.0017   0.0012   0.0271  -0.0007   0.0017  -0.0028 -14.00   12.8
2024/10/07 11:39:47.000   28.312409041  -16.480176803  1837.3085   1   7   0.0017   0.0012   0.0270  -0.0007   0.0017  -0.0028 -13.00   13.2
2024/10/07 11:39:48.000   28.312409041  -16.480176803  1837.3080   1   7   0.0017   0.0012   0.0270  -0.0007   0.0017  -0.0028 -12.00   13.6
2024/10/07 11:39:49.000   28.312409041  -16.480176803  1837.3074   1   7   0.0017   0.0012   0.0270  -0.0007   0.0017  -0.0028 -11.00   14.0
2024/10/07 11:39:50.000   28.312409042  -16.480176803  1837.3067   1   7   0.0017   0.0012   0.0270  -0.0007   0.0017  -0.0028 -10.00   14.4
2024/10/07 11:39:51.000   28.312409042  -16.480176803  1837.3059   1   7   0.0017   0.0012   0.0270  -0.0007   0.0017  -0.0028  -9.00   14.8
2024/10/07 11:39:52.000   28.312409042  -16.480176803  1837.3050   1   7   0.0017   0.0012   0.0270  -0.0007   0.0017  -0.0028  -8.00   15.1
2024/10/07 11:39:53.000   28.312409043  -16.480176803  1837.3043   1   7   0.0017   0.0012   0.0271  -0.0007   0.0017  -0.0028  -7.00   15.5
2024/10/07 11:39:54.000   28.312409043  -16.480176803  1837.3036   1   7   0.0017   0.0012   0.0271  -0.0007   0.0017  -0.0028  -6.00   15.9
2024/10/07 11:39:55.000   28.312409043  -16.480176803  1837.3028   1   7   0.0017   0.0012   0.0271  -0.0007   0.0017  -0.0028  -5.00   16.3
2024/10/07 11:39:56.000   28.312409044  -16.480176803  1837.3023   1   7   0.0017   0.0012   0.0271  -0.0007   0.0017  -0.0028  -4.00   16.9
2024/10/07 11:39:57.000   28.312409044  -16.480176803  1837.3017   1   7   0.0017   0.0012   0.0271  -0.0007   0.0017  -0.0027  -3.00   17.6
2024/10/07 11:39:58.000   28.312409044  -16.480176803  1837.3017   1   7   0.0017   0.0012   0.0272  -0.0007   0.0017  -0.0027  -2.00   18.5
2024/10/07 11:39:59.000   28.312409045  -16.480176803  1837.3013   1   7   0.0017   0.0012   0.0272  -0.0007   0.0017  -0.0027  -1.00   19.5
2024/10/07 11:40:00.000   28.312409049  -16.480176804  1837.3044   1   7   0.0017   0.0012   0.0271  -0.0007   0.0017  -0.0029   0.00   20.4
2024/10/07 11:40:01.000   28.312409042  -16.480176802  1837.3032   1   7   0.0017   0.0012   0.0272  -0.0007   0.0017  -0.0028   1.00   11.4
2024/10/07 11:40:02.000   28.312409042  -16.480176802  1837.3033   1   7   0.0017   0.0012   0.0272  -0.0007   0.0017  -0.0028   2.00   20.8
2024/10/07 11:40:03.000   28.312409042  -16.480176802  1837.3037   1   7   0.0017   0.0012   0.0273  -0.0007   0.0017  -0.0028   3.00   23.9
2024/10/07 11:40:04.000   28.312409043  -16.480176803  1837.3041   1   7   0.0017   0.0012   0.0273  -0.0007   0.0017  -0.0028   4.00   24.8
2024/10/07 11:40:05.000   28.312409043  -16.480176803  1837.3041   1   7   0.0017   0.0012   0.0273  -0.0007   0.0017  -0.0028   5.00   25.8
2024/10/07 11:40:06.000   28.312409043  -16.480176803  1837.3044   1   7   0.0017   0.0012   0.0274  -0.0007   0.0017  -0.0028   6.00   26.6
2024/10/07 11:40:07.000   28.312409043  -16.480176803  1837.3043   1   7   0.0017   0.0012   0.0274  -0.0007   0.0016  -0.0028   7.00   27.5
2024/10/07 11:40:08.000   28.312409044  -16.480176803  1837.3047   1   7   0.0017   0.0012   0.0274  -0.0007   0.0016  -0.0028   8.00   28.4
2024/10/07 11:40:09.000   28.312409044  -16.480176803  1837.3049   1   7   0.0017   0.0012   0.0274  -0.0007   0.0016  -0.0028   9.00   29.2
2024/10/07 11:40:10.000   28.312409044  -16.480176803  1837.3051   1   7   0.0017   0.0012   0.0274  -0.0007   0.0016  -0.0028  10.00   30.0
2024/10/07 11:40:11.000   28.312409044  -16.480176803  1837.3051   1   7   0.0017   0.0012   0.0274  -0.0007   0.0016  -0.0028  11.00   30.7
2024/10/07 11:40:12.000   28.312409044  -16.480176803  1837.3050   1   7   0.0017   0.0012   0.0274  -0.0007   0.0016  -0.0027  12.00   31.5
2024/10/07 11:40:13.000   28.312409044  -16.480176803  1837.3048   1   7   0.0017   0.0012   0.0274  -0.0007   0.0016  -0.0027  13.00   32.2
2024/10/07 11:40:14.000   28.312409045  -16.480176803  1837.3047   1   7   0.0017   0.0012   0.0274  -0.0007   0.0016  -0.0027  14.00   32.9
2024/10/07 11:40:15.000   28.312409045  -16.480176803  1837.3045   1   7   0.0017   0.0012   0.0274  -0.0007   0.0016  -0.0027 -15.00   33.6
2024/10/07 11:40:16.000   28.312409045  -16.480176803  1837.3044   1   7   0.0017   0.0012   0.0274  -0.0007   0.0016  -0.0027 -14.00   34.4
2024/10/07 11:40:17.000   28.312409045  -16.480176803  1837.3046   1   7   0.0017   0.0012   0.0274  -0.0007   0.0016  -0.0027 -13.00   35.2
2024/10/07 11:40:18.000   28.312409045  -16.480176803  1837.3047   1   7   0.0017   0.0012   0.0274  -0.0007   0.0016  -0.0027 -12.00   36.0
2024/10/07 11:40:19.000   28.312409046  -16.480176803  1837.3048   1   7   0.0017   0.0012   0.0274  -0.0007   0.0016  -0.0027 -11.00   36.8
2024/10/07 11:40:20.000   28.312409046  -16.480176803  1837.3049   1   7   0.0017   0.0012   0.0274  -0.0007   0.0016  -0.0027 -10.00   37.7
2024/10/07 11:40:21.000   28.312409046  -16.480176803  1837.3053   1   7   0.0017   0.0012   0.0274  -0.0007   0.0016  -0.0027  -9.00   38.5
2024/10/07 11:40:22.000   28.312409046  -16.480176803  1837.3057   1   7   0.0017   0.0012   0.0274  -0.0007   0.0016  -0.0027  -8.00   39.5
2024/10/07 11:40:23.000   28.312409046  -16.480176803  1837.3066   1   7   0.0017   0.0012   0.0274  -0.0007   0.0016  -0.0027  -7.00   40.3
2024/10/07 11:40:24.000   28.312409047  -16.480176803  1837.3073   1   7   0.0017   0.0012   0.0274  -0.0007   0.0016  -0.0027  -6.00   41.3
2024/10/07 11:40:25.000   28.312409047  -16.480176803  1837.3084   1   7   0.0017   0.0012   0.0274  -0.0007   0.0016  -0.0027  -5.00   42.1
2024/10/07 11:40:26.000   28.312409048  -16.480176803  1837.3090   1   7   0.0017   0.0012   0.0274  -0.0007   0.0016  -0.0027  -4.00   43.5
2024/10/07 11:40:27.000   28.312409048  -16.480176803  1837.3099   1   7   0.0017   0.0011   0.0274  -0.0007   0.0016  -0.0027  -3.00   44.9
2024/10/07 11:40:28.000   28.312409048  -16.480176803  1837.3109   1   7   0.0017   0.0011   0.0275  -0.0007   0.0016  -0.0027  -2.00   46.2
2024/10/07 11:40:29.000   28.312409048  -16.480176803  1837.3102   1   7   0.0017   0.0011   0.0275  -0.0007   0.0016  -0.0027  -1.00   48.0
2024/10/07 11:40:30.000   28.312409053  -16.480176804  1837.3155   1   7   0.0017   0.0011   0.0275  -0.0007   0.0016  -0.0028   0.00   49.2
2024/10/07 11:40:31.000   28.312409048  -16.480176803  1837.3143   1   7   0.0017   0.0011   0.0275  -0.0007   0.0016  -0.0028   1.00   14.4
2024/10/07 11:40:32.000   28.312409048  -16.480176803  1837.3142   1   7   0.0017   0.0011   0.0275  -0.0007   0.0016  -0.0028   2.00   27.3
2024/10/07 11:40:33.000   28.312409049  -16.480176803  1837.3141   1   7   0.0017   0.0011   0.0276  -0.0007   0.0016  -0.0027   3.00   37.1
2024/10/07 11:40:34.000   28.312409049  -16.480176803  1837.3140   1   7   0.0017   0.0011   0.0276  -0.0007   0.0016  -0.0027   4.00   44.7
2024/10/07 11:40:35.000   28.312409050  -16.480176803  1837.3136   1   7   0.0017   0.0011   0.0276  -0.0007   0.0016  -0.0027   5.00   46.8
2024/10/07 11:40:36.000   28.312409050  -16.480176803  1837.3135   1   7   0.0017   0.0011   0.0277  -0.0007   0.0016  -0.0027   6.00   47.8
2024/10/07 11:40:37.000   28.312409050  -16.480176803  1837.3134   1   7   0.0017   0.0011   0.0277  -0.0007   0.0015  -0.0027   7.00   48.2
2024/10/07 11:40:38.000   28.312409050  -16.480176803  1837.3129   1   7   0.0017   0.0011   0.0277  -0.0007   0.0015  -0.0027   8.00   49.0
2024/10/07 11:40:39.000   28.312409051  -16.480176803  1837.3126   1   7   0.0017   0.0011   0.0277  -0.0007   0.0015  -0.0027   9.00   49.8
2024/10/07 11:40:40.000   28.312409051  -16.480176803  1837.3123   1   7   0.0017   0.0011   0.0277  -0.0007   0.0015  -0.0027  10.00   50.6
2024/10/07 11:40:41.000   28.312409051  -16.480176803  1837.3120   1   7   0.0017   0.0011   0.0277  -0.0007   0.0015  -0.0027  11.00   51.2
2024/10/07 11:40:42.000   28.312409051  -16.480176803  1837.3116   1   7   0.0017   0.0011   0.0277  -0.0007   0.0015  -0.0027  12.00   51.9
2024/10/07 11:40:43.000   28.312409051  -16.480176803  1837.3113   1   7   0.0017   0.0011   0.0277  -0.0007   0.0015  -0.0027  13.00   52.6
2024/10/07 11:40:44.000   28.312409052  -16.480176803  1837.3110   1   7   0.0017   0.0011   0.0277  -0.0007   0.0015  -0.0027  14.00   53.1
2024/10/07 11:40:45.000   28.312409052  -16.480176803  1837.3106   1   7   0.0017   0.0011   0.0277  -0.0007   0.0015  -0.0027 -15.00   53.7
2024/10/07 11:40:46.000   28.312409052  -16.480176803  1837.3102   1   7   0.0017   0.0011   0.0277  -0.0007   0.0015  -0.0027 -14.00   54.2
2024/10/07 11:40:47.000   28.312409052  -16.480176803  1837.3097   1   7   0.0017   0.0011   0.0277  -0.0007   0.0015  -0.0027 -13.00   54.8
2024/10/07 11:40:48.000   28.312409052  -16.480176803  1837.3092   1   7   0.0017   0.0011   0.0277  -0.0007   0.0015  -0.0027 -12.00   55.3
2024/10/07 11:40:49.000   28.312409053  -16.480176803  1837.3087   1   7   0.0017   0.0011   0.0277  -0.0007   0.0015  -0.0027 -11.00   55.8
2024/10/07 11:40:50.000   28.312409053  -16.480176803  1837.3083   1   7   0.0017   0.0011   0.0277  -0.0007   0.0015  -0.0027 -10.00   56.4
2024/10/07 11:40:51.000   28.312409053  -16.480176803  1837.3080   1   7   0.0017   0.0011   0.0277  -0.0007   0.0015  -0.0027  -9.00   57.0
2024/10/07 11:40:52.000   28.312409054  -16.480176803  1837.3076   1   7   0.0017   0.0011   0.0277  -0.0007   0.0015  -0.0027  -8.00   57.7
2024/10/07 11:40:53.000   28.312409054  -16.480176803  1837.3074   1   7   0.0017   0.0011   0.0277  -0.0007   0.0015  -0.0027  -7.00   58.2
2024/10/07 11:40:54.000   28.312409054  -16.480176803  1837.3070   1   7   0.0017   0.0011   0.0277  -0.0007   0.0015  -0.0027  -6.00   59.1
2024/10/07 11:40:55.000   28.312409054  -16.480176803  1837.3070   1   7   0.0017   0.0011   0.0277  -0.0007   0.0015  -0.0027  -5.00   59.9
2024/10/07 11:40:56.000   28.312409055  -16.480176803  1837.3068   1   7   0.0017   0.0011   0.0277  -0.0007   0.0015  -0.0027  -4.00   60.9
2024/10/07 11:40:57.000   28.312409055  -16.480176803  1837.3067   1   7   0.0017   0.0011   0.0278  -0.0007   0.0015  -0.0026  -3.00   61.8
2024/10/07 11:40:58.000   28.312409056  -16.480176803  1837.3069   1   7   0.0017   0.0011   0.0278  -0.0007   0.0015  -0.0026  -2.00   63.2
2024/10/07 11:40:59.000   28.312409056  -16.480176803  1837.3067   1   7   0.0017   0.0011   0.0278  -0.0007   0.0014  -0.0026  -1.00   64.0
2024/10/07 11:41:00.000   28.312409063  -16.480176805  1837.3139   1   7   0.0016   0.0011   0.0278  -0.0007   0.0015  -0.0028   0.00   64.8
2024/10/07 11:41:01.000   28.312409058  -16.480176804  1837.3133   1   7   0.0017   0.0011   0.0278  -0.0007   0.0015  -0.0027   1.00   16.5
2024/10/07 11:41:02.000   28.312409058  -16.480176804  1837.3135   1   7   0.0017   0.0011   0.0279  -0.0007   0.0015  -0.0027   2.00   30.0
2024/10/07 11:41:03.000   28.312409059  -16.480176804  1837.3133   1   7   0.0017   0.0011   0.0279  -0.0007   0.0015  -0.0027   3.00   39.8
2024/10/07 11:41:04.000   28.312409059  -16.480176804  1837.3130   1   7   0.0017   0.0011   0.0279  -0.0007   0.0015  -0.0027   4.00   47.4
2024/10/07 11:41:05.000   28.312409059  -16.480176804  1837.3125   1   7   0.0017   0.0011   0.0280  -0.0007   0.0015  -0.0027   5.00   53.5
2024/10/07 11:41:06.000   28.312409060  -16.480176804  1837.3119   1   7   0.0017   0.0011   0.0280  -0.0007   0.0014  -0.0027   6.00   58.6
2024/10/07 11:41:07.000   28.312409060  -16.480176804  1837.3113   1   7   0.0017   0.0011   0.0280  -0.0007   0.0014  -0.0027   7.00   63.1
2024/10/07 11:41:08.000   28.312409060  -16.480176804  1837.3106   1   7   0.0017   0.0011   0.0280  -0.0007   0.0014  -0.0027   8.00   64.5
2024/10/07 11:41:09.000   28.312409060  -16.480176804  1837.3101   1   7   0.0017   0.0011   0.0280  -0.0007   0.0014  -0.0027   9.00   64.9
2024/10/07 11:41:10.000   28.312409060  -16.480176804  1837.3095   1   7   0.0017   0.0011   0.0280  -0.0007   0.0014  -0.0027  10.00   65.1
2024/10/07 11:41:11.000   28.312409061  -16.480176804  1837.3088   1   7   0.0017   0.0011   0.0280  -0.0007   0.0014  -0.0027  11.00   65.4
2024/10/07 11:41:12.000   28.312409061  -16.480176804  1837.3081   1   7   0.0017   0.0011   0.0280  -0.0007   0.0014  -0.0027  12.00   65.8
2024/10/07 11:41:13.000   28.312409061  -16.480176804  1837.3076   1   7   0.0017   0.0011   0.0280  -0.0007   0.0014  -0.0027  13.00   66.2
2024/10/07 11:41:14.000   28.312409061  -16.480176804  1837.3070   1   7   0.0017   0.0011   0.0280  -0.0007   0.0014  -0.0027  14.00   66.6
2024/10/07 11:41:15.000   28.312409061  -16.480176804  1837.3066   1   7   0.0017   0.0011   0.0280  -0.0007   0.0014  -0.0027 -15.00   67.1
2024/10/07 11:41:16.000   28.312409062  -16.480176804  1837.3061   1   7   0.0017   0.0011   0.0280  -0.0007   0.0014  -0.0027 -14.00   67.6
2024/10/07 11:41:17.000   28.312409062  -16.480176804  1837.3056   1   7   0.0017   0.0011   0.0280  -0.0007   0.0014  -0.0026 -13.00   68.1
2024/10/07 11:41:18.000   28.312409062  -16.480176804  1837.3052   1   7   0.0017   0.0011   0.0280  -0.0007   0.0014  -0.0026 -12.00   68.7
2024/10/07 11:41:19.000   28.312409062  -16.480176804  1837.3047   1   7   0.0017   0.0011   0.0280  -0.0007   0.0014  -0.0026 -11.00   69.1
2024/10/07 11:41:20.000   28.312409063  -16.480176804  1837.3043   1   7   0.0017   0.0011   0.0280  -0.0007   0.0014  -0.0026 -10.00   69.5
2024/10/07 11:41:21.000   28.312409063  -16.480176804  1837.3038   1   7   0.0017   0.0011   0.0280  -0.0007   0.0014  -0.0026  -9.00   69.9
2024/10/07 11:41:22.000   28.312409063  -16.480176804  1837.3034   1   7   0.0017   0.0011   0.0280  -0.0007   0.0014  -0.0026  -8.00   70.5
2024/10/07 11:41:23.000   28.312409063  -16.480176804  1837.3033   1   7   0.0017   0.0011   0.0280  -0.0007   0.0014  -0.0026  -7.00   71.1
2024/10/07 11:41:24.000   28.312409064  -16.480176804  1837.3034   1   7   0.0017   0.0011   0.0280  -0.0007   0.0014  -0.0026  -6.00   71.3
2024/10/07 11:41:25.000   28.312409064  -16.480176804  1837.3034   1   7   0.0017   0.0011   0.0280  -0.0007   0.0014  -0.0026  -5.00   71.7
2024/10/07 11:41:26.000   28.312409065  -16.480176804  1837.3039   1   7   0.0017   0.0011   0.0280  -0.0007   0.0014  -0.0026  -4.00   72.1
2024/10/07 11:41:27.000   28.312409065  -16.480176804  1837.3041   1   7   0.0017   0.0011   0.0281  -0.0007   0.0013  -0.0026  -3.00   72.4
2024/10/07 11:41:28.000   28.312409065  -16.480176804  1837.3048   1   7   0.0017   0.0011   0.0281  -0.0007   0.0013  -0.0026  -2.00   72.2
2024/10/07 11:41:29.000   28.312409066  -16.480176804  1837.3046   1   7   0.0017   0.0011   0.0281  -0.0007   0.0013  -0.0026  -1.00   71.7
2024/10/07 11:41:30.000   28.312409074  -16.480176807  1837.3105   1   7   0.0016   0.0011   0.0281  -0.0007   0.0014  -0.0027   0.00   70.6
2024/10/07 11:41:31.000   28.312409067  -16.480176805  1837.3106   1   7   0.0017   0.0011   0.0281  -0.0007   0.0014  -0.0027   1.00   16.5
2024/10/07 11:41:32.000   28.312409068  -16.480176805  1837.3121   1   7   0.0017   0.0011   0.0282  -0.0007   0.0014  -0.0027   2.00   28.9
2024/10/07 11:41:33.000   28.312409068  -16.480176805  1837.3137   1   7   0.0017   0.0011   0.0282  -0.0007   0.0013  -0.0027   3.00   38.3
2024/10/07 11:41:34.000   28.312409068  -16.480176805  1837.3149   1   7   0.0017   0.0011   0.0282  -0.0007   0.0013  -0.0027   4.00   45.4
2024/10/07 11:41:35.000   28.312409068  -16.480176805  1837.3161   1   7   0.0017   0.0011   0.0283  -0.0007   0.0013  -0.0026   5.00   51.2
2024/10/07 11:41:36.000   28.312409068  -16.480176805  1837.3172   1   7   0.0017   0.0011   0.0283  -0.0007   0.0013  -0.0026   6.00   55.9
2024/10/07 11:41:37.000   28.312409069  -16.480176805  1837.3183   1   7   0.0017   0.0011   0.0283  -0.0007   0.0013  -0.0026   7.00   59.7
2024/10/07 11:41:38.000   28.312409069  -16.480176805  1837.3189   1   7   0.0017   0.0011   0.0283  -0.0007   0.0013  -0.0026   8.00   63.0
2024/10/07 11:41:39.000   28.312409069  -16.480176806  1837.3193   1   7   0.0017   0.0011   0.0283  -0.0007   0.0013  -0.0026   9.00   65.8
2024/10/07 11:41:40.000   28.312409069  -16.480176806  1837.3195   1   7   0.0017   0.0011   0.0283  -0.0007   0.0013  -0.0026  10.00   68.3
2024/10/07 11:41:41.000   28.312409069  -16.480176806  1837.3196   1   7   0.0017   0.0011   0.0283  -0.0007   0.0013  -0.0026  11.00   70.8
2024/10/07 11:41:42.000   28.312409069  -16.480176806  1837.3197   1   7   0.0017   0.0011   0.0283  -0.0007   0.0013  -0.0026  12.00   72.0
2024/10/07 11:41:43.000   28.312409070  -16.480176806  1837.3196   1   7   0.0017   0.0011   0.0283  -0.0007   0.0013  -0.0026  13.00   72.2
2024/10/07 11:41:44.000   28.312409070  -16.480176806  1837.3194   1   7   0.0017   0.0011   0.0283  -0.0007   0.0013  -0.0026  14.00   72.5
2024/10/07 11:41:45.000   28.312409070  -16.480176806  1837.3192   1   7   0.0017   0.0011   0.0283  -0.0007   0.0013  -0.0026 -15.00   72.9
2024/10/07 11:41:46.000   28.312409070  -16.480176806  1837.3190   1   7   0.0017   0.0011   0.0283  -0.0007   0.0013  -0.0026 -14.00   73.1
2024/10/07 11:41:47.000   28.312409071  -16.480176806  1837.3188   1   7   0.0017   0.0011   0.0283  -0.0007   0.0013  -0.0026 -13.00   73.4
2024/10/07 11:41:48.000   28.312409071  -16.480176806  1837.3186   1   7   0.0017   0.0011   0.0283  -0.0007   0.0013  -0.0026 -12.00   73.5
2024/10/07 11:41:49.000   28.312409071  -16.480176806  1837.3185   1   7   0.0017   0.0011   0.0283  -0.0007   0.0013  -0.0026 -11.00   73.6
2024/10/07 11:41:50.000   28.312409071  -16.480176806  1837.3186   1   7   0.0017   0.0011   0.0283  -0.0007   0.0013  -0.0026 -10.00   73.8
2024/10/07 11:41:51.000   28.312409071  -16.480176806  1837.3187   1   7   0.0017   0.0011   0.0283  -0.0007   0.0013  -0.0026  -9.00   73.8
2024/10/07 11:41:52.000   28.312409072  -16.480176806  1837.3189   1   7   0.0017   0.0011   0.0283  -0.0007   0.0013  -0.0026  -8.00   73.6
2024/10/07 11:41:53.000   28.312409072  -16.480176806  1837.3190   1   7   0.0017   0.0011   0.0283  -0.0007   0.0012  -0.0026  -7.00   73.1
2024/10/07 11:41:54.000   28.312409072  -16.480176806  1837.3194   1   7   0.0017   0.0011   0.0283  -0.0007   0.0012  -0.0026  -6.00   72.7
2024/10/07 11:41:55.000   28.312409073  -16.480176806  1837.3200   1   7   0.0017   0.0011   0.0283  -0.0007   0.0012  -0.0026  -5.00   72.1
2024/10/07 11:41:56.000   28.312409073  -16.480176806  1837.3206   1   7   0.0017   0.0011   0.0283  -0.0007   0.0012  -0.0026  -4.00   71.3
2024/10/07 11:41:57.000   28.312409074  -16.480176806  1837.3216   1   7   0.0017   0.0011   0.0284  -0.0007   0.0012  -0.0026  -3.00   70.0
2024/10/07 11:41:58.000   28.312409074  -16.480176806  1837.3228   1   7   0.0017   0.0011   0.0284  -0.0007   0.0012  -0.0026  -2.00   69.4
2024/10/07 11:41:59.000   28.312409075  -16.480176806  1837.3243   1   7   0.0017   0.0011   0.0284  -0.0007   0.0012  -0.0026  -1.00   68.2
2024/10/07 11:42:00.000   28.312409087  -16.480176811  1837.3338   1   7   0.0016   0.0011   0.0284  -0.0007   0.0013  -0.0027   0.00   67.1
2024/10/07 11:42:01.000   28.312409080  -16.480176809  1837.3336   1   7   0.0017   0.0011   0.0284  -0.0007   0.0012  -0.0027   1.00   12.8
2024/10/07 11:42:02.000   28.312409080  -16.480176809  1837.3347   1   7   0.0017   0.0011   0.0285  -0.0007   0.0012  -0.0026   2.00   22.6
2024/10/07 11:42:03.000   28.312409080  -16.480176809  1837.3358   1   7   0.0017   0.0011   0.0285  -0.0007   0.0012  -0.0026   3.00   29.6
2024/10/07 11:42:04.000   28.312409080  -16.480176809  1837.3369   1   7   0.0017   0.0011   0.0285  -0.0007   0.0012  -0.0026   4.00   35.3
2024/10/07 11:42:05.000   28.312409080  -16.480176809  1837.3376   1   7   0.0017   0.0011   0.0286  -0.0007   0.0012  -0.0026   5.00   40.0
2024/10/07 11:42:06.000   28.312409081  -16.480176809  1837.3382   1   7   0.0017   0.0011   0.0286  -0.0007   0.0012  -0.0026   6.00   43.5
2024/10/07 11:42:07.000   28.312409081  -16.480176809  1837.3387   1   7   0.0017   0.0011   0.0286  -0.0007   0.0012  -0.0026   7.00   47.0
2024/10/07 11:42:08.000   28.312409081  -16.480176810  1837.3394   1   7   0.0017   0.0011   0.0286  -0.0007   0.0012  -0.0026   8.00   49.7
2024/10/07 11:42:09.000   28.312409081  -16.480176810  1837.3395   1   7   0.0017   0.0011   0.0286  -0.0007   0.0012  -0.0026   9.00   52.2
2024/10/07 11:42:10.000   28.312409081  -16.480176810  1837.3395   1   7   0.0017   0.0011   0.0286  -0.0007   0.0012  -0.0026  10.00   54.5
2024/10/07 11:42:11.000   28.312409082  -16.480176810  1837.3396   1   7   0.0017   0.0011   0.0286  -0.0007   0.0011  -0.0026  11.00   56.6
2024/10/07 11:42:12.000   28.312409082  -16.480176810  1837.3396   1   7   0.0017   0.0011   0.0286  -0.0007   0.0011  -0.0026  12.00   58.5
2024/10/07 11:42:13.000   28.312409082  -16.480176810  1837.3394   1   7   0.0017   0.0011   0.0286  -0.0007   0.0011  -0.0026  13.00   60.4
2024/10/07 11:42:14.000   28.312409082  -16.480176810  1837.3391   1   7   0.0017   0.0011   0.0286  -0.0007   0.0011  -0.0026  14.00   62.0
2024/10/07 11:42:15.000   28.312409082  -16.480176810  1837.3387   1   7   0.0017   0.0011   0.0286  -0.0007   0.0011  -0.0026 -15.00   63.7
2024/10/07 11:42:16.000   28.312409083  -16.480176810  1837.3381   1   7   0.0017   0.0011   0.0286  -0.0007   0.0011  -0.0026 -14.00   65.4
2024/10/07 11:42:17.000   28.312409083  -16.480176810  1837.3376   1   7   0.0017   0.0011   0.0286  -0.0007   0.0011  -0.0026 -13.00   67.2
2024/10/07 11:42:18.000   28.312409083  -16.480176810  1837.3370   1   7   0.0017   0.0011   0.0286  -0.0007   0.0011  -0.0026 -12.00   68.9
2024/10/07 11:42:19.000   28.312409083  -16.480176810  1837.3366   1   7   0.0017   0.0011   0.0286  -0.0007   0.0011  -0.0026 -11.00   70.7
2024/10/07 11:42:20.000   28.312409083  -16.480176810  1837.3361   1   7   0.0017   0.0011   0.0286  -0.0007   0.0011  -0.0026 -10.00   71.4
2024/10/07 11:42:21.000   28.312409084  -16.480176810  1837.3356   1   7   0.0017   0.0011   0.0286  -0.0007   0.0011  -0.0026  -9.00   71.5
2024/10/07 11:42:22.000   28.312409084  -16.480176810  1837.3355   1   7   0.0017   0.0011   0.0286  -0.0007   0.0011  -0.0026  -8.00   71.3
2024/10/07 11:42:23.000   28.312409084  -16.480176810  1837.3354   1   7   0.0016   0.0011   0.0286  -0.0007   0.0011  -0.0026  -7.00   71.2
2024/10/07 11:42:24.000   28.312409085  -16.480176810  1837.3355   1   7   0.0016   0.0011   0.0286  -0.0007   0.0011  -0.0026  -6.00   70.6
2024/10/07 11:42:25.000   28.312409085  -16.480176811  1837.3357   1   7   0.0016   0.0011   0.0286  -0.0007   0.0011  -0.0026  -5.00   70.1
2024/10/07 11:42:26.000   28.312409085  -16.480176811  1837.3367   1   7   0.0016   0.0011   0.0286  -0.0007   0.0011  -0.0026  -4.00   69.4
2024/10/07 11:42:27.000   28.312409086  -16.480176811  1837.3370   1   7   0.0016   0.0011   0.0287  -0.0007   0.0011  -0.0026  -3.00   68.0
2024/10/07 11:42:28.000   28.312409086  -16.480176811  1837.3383   1   7   0.0016   0.0011   0.0287  -0.0007   0.0010  -0.0025  -2.00   66.5
2024/10/07 11:42:29.000   28.312409087  -16.480176812  1837.3394   1   7   0.0016   0.0011   0.0287  -0.0007   0.0010  -0.0025  -1.00   64.6
2024/10/07 11:42:30.000   28.312409104  -16.480176818  1837.3517   1   7   0.0016   0.0011   0.0287  -0.0007   0.0011  -0.0027   0.00   63.2
2024/10/07 11:42:31.000   28.312409093  -16.480176815  1837.3508   1   7   0.0016   0.0011   0.0287  -0.0007   0.0011  -0.0026   1.00   11.4
2024/10/07 11:42:32.000   28.312409093  -16.480176815  1837.3524   1   7   0.0016   0.0011   0.0287  -0.0007   0.0011  -0.0026   2.00   19.0
