% program   : RTKPOST-EX 2.5.0
% inp file  : C:\Users\SallyHenry\Desktop\Sally Internship\GNSS gravi\DATA\Survey Rover Obs\GUI30.24o
% inp file  : C:\Users\SallyHenry\Desktop\Sally Internship\GNSS gravi\DATA\BaseStations\IZAN\IZAN00ESP_R_20242810000_01D_30S_MO.rnx
% inp file  : C:\Users\SallyHenry\Desktop\Sally Internship\GNSS gravi\DATA\BaseStations\IZAN\IZAN00ESP_R_20242810000_01D_MN.rnx
% inp file  : C:\Users\SallyHenry\Desktop\Sally Internship\GNSS gravi\DATA\aux_files\Survey\IGS0OPSFIN_20242810000_01D_15M_ORB.SP3
% inp file  : C:\Users\SallyHenry\Desktop\Sally Internship\GNSS gravi\DATA\aux_files\Survey\IGS0OPSFIN_20242810000_01D_30S_CLK.CLK
% obs start : 2024/10/07 10:23:48.0 GPST (week2335 123828.0s)
% obs end   : 2024/10/07 10:38:47.0 GPST (week2335 124727.0s)
% pos mode  : Static
% freqs     : L1+L2/E5b
% solution  : Combined-No Phase Reset
% elev mask : 15.0 deg
% dynamics  : on
% tidecorr  : solid
% ionos opt : Estimate TEC
% tropo opt : Estimate ZTD+Grad
% ephemeris : Precise
% navi sys  : GPS GLONASS Galileo QZSS BDS
% amb res   : Fix and Hold
% amb glo   : Fix and Hold
% amb bds   : on
% val thres : 3.0
% antenna1  :                       ( 0.0000  0.0000  1.8000)
% antenna2  :                       ( 0.0000  0.0000  0.0000)
% ref pos   :  28.308069410  -16.499677180  2417.4044
%
% (lat/lon/height=WGS84/ellipsoidal,Q=1:fix,2:float,3:sbas,4:dgps,5:single,6:ppp,ns=# of satellites)
%  GPST                  latitude(deg) longitude(deg)  height(m)   Q  ns   sdn(m)   sde(m)   sdu(m)  sdne(m)  sdeu(m)  sdun(m) age(s)  ratio
2024/10/07 10:23:48.000   28.314157582  -16.495699983  2228.0017   2   7   0.0098   0.0278   0.0357   0.0088   0.0075  -0.0084 -12.00    0.0
2024/10/07 10:23:49.000   28.314157581  -16.495699984  2228.0021   2   7   0.0098   0.0278   0.0357   0.0088   0.0075  -0.0084 -11.00    0.0
2024/10/07 10:23:50.000   28.314157581  -16.495699985  2228.0026   2   7   0.0098   0.0278   0.0357   0.0088   0.0075  -0.0084 -10.00    0.0
2024/10/07 10:23:51.000   28.314157580  -16.495699987  2228.0031   2   7   0.0098   0.0278   0.0357   0.0088   0.0075  -0.0084  -9.00    0.0
2024/10/07 10:23:52.000   28.314157580  -16.495699989  2228.0035   2   7   0.0098   0.0278   0.0357   0.0088   0.0075  -0.0084  -8.00    0.0
2024/10/07 10:23:53.000   28.314157580  -16.495699991  2228.0039   2   7   0.0098   0.0278   0.0357   0.0088   0.0075  -0.0085  -7.00    0.0
2024/10/07 10:23:54.000   28.314157580  -16.495699993  2228.0044   2   7   0.0098   0.0278   0.0357   0.0088   0.0075  -0.0085  -6.00    0.0
2024/10/07 10:23:55.000   28.314157580  -16.495699997  2228.0050   2   7   0.0098   0.0278   0.0357   0.0088   0.0075  -0.0085  -5.00    0.0
2024/10/07 10:23:56.000   28.314157579  -16.495700001  2228.0059   2   7   0.0098   0.0278   0.0357   0.0088   0.0075  -0.0085  -4.00    0.0
2024/10/07 10:23:57.000   28.314157578  -16.495700005  2228.0069   2   7   0.0098   0.0278   0.0357   0.0088   0.0075  -0.0085  -3.00    0.0
2024/10/07 10:23:58.000   28.314157577  -16.495700011  2228.0082   2   7   0.0098   0.0278   0.0357   0.0088   0.0074  -0.0085  -2.00    0.0
2024/10/07 10:23:59.000   28.314157575  -16.495700017  2228.0099   2   7   0.0098   0.0278   0.0357   0.0088   0.0074  -0.0085  -1.00    0.0
2024/10/07 10:24:00.000   28.314157571  -16.495700025  2228.0118   2   7   0.0098   0.0278   0.0357   0.0088   0.0074  -0.0085   0.00    0.0
2024/10/07 10:24:01.000   28.314157589  -16.495699999  2228.0075   2   7   0.0098   0.0278   0.0358   0.0088   0.0074  -0.0086   1.00    0.0
2024/10/07 10:24:02.000   28.314157601  -16.495699976  2228.0039   2   7   0.0098   0.0278   0.0358   0.0088   0.0073  -0.0086   2.00    0.0
2024/10/07 10:24:03.000   28.314157611  -16.495699952  2228.0006   2   7   0.0098   0.0278   0.0358   0.0088   0.0073  -0.0086   3.00    0.0
2024/10/07 10:24:04.000   28.314157615  -16.495699931  2227.9980   2   7   0.0098   0.0278   0.0358   0.0088   0.0073  -0.0086   4.00    0.0
2024/10/07 10:24:05.000   28.314157616  -16.495699912  2227.9961   2   7   0.0099   0.0278   0.0359   0.0088   0.0073  -0.0086   5.00    0.0
2024/10/07 10:24:06.000   28.314157616  -16.495699898  2227.9945   2   7   0.0099   0.0278   0.0359   0.0088   0.0073  -0.0086   6.00    0.0
2024/10/07 10:24:07.000   28.314157613  -16.495699887  2227.9933   2   7   0.0099   0.0279   0.0359   0.0088   0.0073  -0.0086   7.00    0.0
2024/10/07 10:24:08.000   28.314157610  -16.495699878  2227.9922   2   7   0.0099   0.0279   0.0359   0.0088   0.0073  -0.0086   8.00    0.0
2024/10/07 10:24:09.000   28.314157608  -16.495699869  2227.9910   2   7   0.0099   0.0279   0.0359   0.0088   0.0073  -0.0086   9.00    0.0
2024/10/07 10:24:10.000   28.314157605  -16.495699863  2227.9901   2   7   0.0099   0.0279   0.0359   0.0088   0.0073  -0.0086  10.00    0.0
2024/10/07 10:24:11.000   28.314157602  -16.495699858  2227.9894   2   7   0.0099   0.0279   0.0359   0.0088   0.0072  -0.0086  11.00    0.0
2024/10/07 10:24:12.000   28.314157600  -16.495699854  2227.9887   2   7   0.0099   0.0279   0.0359   0.0088   0.0072  -0.0086  12.00    0.0
2024/10/07 10:24:13.000   28.314157597  -16.495699850  2227.9880   2   7   0.0099   0.0279   0.0359   0.0088   0.0072  -0.0086  13.00    0.0
2024/10/07 10:24:14.000   28.314157595  -16.495699848  2227.9875   2   7   0.0099   0.0279   0.0359   0.0088   0.0072  -0.0086  14.00    0.0
2024/10/07 10:24:15.000   28.314157593  -16.495699846  2227.9870   2   7   0.0099   0.0279   0.0359   0.0088   0.0072  -0.0087 -15.00    0.0
2024/10/07 10:24:16.000   28.314157591  -16.495699844  2227.9864   2   7   0.0099   0.0279   0.0359   0.0088   0.0072  -0.0087 -14.00    0.0
2024/10/07 10:24:17.000   28.314157589  -16.495699843  2227.9859   2   7   0.0099   0.0279   0.0359   0.0088   0.0072  -0.0087 -13.00    0.0
2024/10/07 10:24:18.000   28.314157587  -16.495699843  2227.9857   2   7   0.0099   0.0279   0.0359   0.0088   0.0072  -0.0087 -12.00    0.0
2024/10/07 10:24:19.000   28.314157586  -16.495699842  2227.9861   2   7   0.0099   0.0279   0.0359   0.0088   0.0072  -0.0087 -11.00    0.0
2024/10/07 10:24:20.000   28.314157583  -16.495699839  2227.9873   2   7   0.0099   0.0279   0.0359   0.0088   0.0072  -0.0087 -10.00    0.0
2024/10/07 10:24:21.000   28.314157581  -16.495699830  2227.9905   2   7   0.0099   0.0279   0.0359   0.0088   0.0072  -0.0087  -9.00    0.0
2024/10/07 10:24:22.000   28.314157578  -16.495699819  2227.9946   2   7   0.0099   0.0279   0.0359   0.0088   0.0072  -0.0087  -8.00    0.0
2024/10/07 10:24:23.000   28.314157575  -16.495699814  2227.9979   2   7   0.0099   0.0279   0.0359   0.0088   0.0072  -0.0087  -7.00    0.0
2024/10/07 10:24:24.000   28.314157571  -16.495699815  2228.0001   2   7   0.0099   0.0279   0.0359   0.0088   0.0072  -0.0087  -6.00    0.0
2024/10/07 10:24:25.000   28.314157566  -16.495699819  2228.0018   2   7   0.0099   0.0279   0.0359   0.0088   0.0072  -0.0087  -5.00    0.0
2024/10/07 10:24:26.000   28.314157561  -16.495699824  2228.0035   2   7   0.0099   0.0279   0.0359   0.0088   0.0072  -0.0087  -4.00    0.0
2024/10/07 10:24:27.000   28.314157554  -16.495699829  2228.0052   2   7   0.0099   0.0279   0.0359   0.0088   0.0072  -0.0087  -3.00    0.0
2024/10/07 10:24:28.000   28.314157547  -16.495699835  2228.0070   2   7   0.0099   0.0279   0.0360   0.0088   0.0072  -0.0087  -2.00    0.0
2024/10/07 10:24:29.000   28.314157537  -16.495699841  2228.0091   2   7   0.0099   0.0279   0.0360   0.0088   0.0072  -0.0087  -1.00    0.0
2024/10/07 10:24:30.000   28.314157529  -16.495699848  2228.0111   2   7   0.0099   0.0279   0.0360   0.0088   0.0071  -0.0087   0.00    0.0
2024/10/07 10:24:31.000   28.314157523  -16.495699840  2228.0122   2   7   0.0099   0.0279   0.0360   0.0088   0.0071  -0.0087   1.00    0.0
2024/10/07 10:24:32.000   28.314157517  -16.495699834  2228.0130   2   7   0.0099   0.0279   0.0360   0.0088   0.0071  -0.0087   2.00    0.0
2024/10/07 10:24:33.000   28.314157511  -16.495699827  2228.0137   2   7   0.0099   0.0279   0.0360   0.0088   0.0071  -0.0087   3.00    0.0
2024/10/07 10:24:34.000   28.314157508  -16.495699822  2228.0142   2   7   0.0099   0.0279   0.0361   0.0088   0.0071  -0.0087   4.00    0.0
2024/10/07 10:24:35.000   28.314157506  -16.495699817  2228.0148   2   7   0.0100   0.0279   0.0361   0.0088   0.0070  -0.0088   5.00    0.0
2024/10/07 10:24:36.000   28.314157503  -16.495699813  2228.0154   2   7   0.0100   0.0279   0.0361   0.0088   0.0070  -0.0088   6.00    0.0
2024/10/07 10:24:37.000   28.314157502  -16.495699810  2228.0157   2   7   0.0100   0.0279   0.0361   0.0088   0.0070  -0.0088   7.00    0.0
2024/10/07 10:24:38.000   28.314157500  -16.495699807  2228.0159   2   7   0.0100   0.0279   0.0361   0.0088   0.0070  -0.0088   8.00    0.0
2024/10/07 10:24:39.000   28.314157499  -16.495699805  2228.0163   2   7   0.0100   0.0279   0.0361   0.0088   0.0070  -0.0088   9.00    0.0
2024/10/07 10:24:40.000   28.314157498  -16.495699802  2228.0167   2   7   0.0100   0.0279   0.0361   0.0088   0.0070  -0.0088  10.00    0.0
2024/10/07 10:24:41.000   28.314157498  -16.495699800  2228.0170   2   7   0.0100   0.0279   0.0361   0.0088   0.0070  -0.0088  11.00    0.0
2024/10/07 10:24:42.000   28.314157497  -16.495699798  2228.0172   2   7   0.0100   0.0279   0.0361   0.0088   0.0070  -0.0088  12.00    0.0
2024/10/07 10:24:43.000   28.314157496  -16.495699796  2228.0175   2   7   0.0100   0.0279   0.0361   0.0088   0.0070  -0.0088  13.00    0.0
2024/10/07 10:24:44.000   28.314157496  -16.495699794  2228.0178   2   7   0.0100   0.0279   0.0361   0.0088   0.0070  -0.0088  14.00    0.0
2024/10/07 10:24:45.000   28.314157495  -16.495699793  2228.0180   2   7   0.0100   0.0279   0.0361   0.0088   0.0070  -0.0088 -15.00    0.0
2024/10/07 10:24:46.000   28.314157495  -16.495699791  2228.0183   2   7   0.0100   0.0279   0.0361   0.0088   0.0070  -0.0088 -14.00    0.0
2024/10/07 10:24:47.000   28.314157494  -16.495699790  2228.0185   2   7   0.0100   0.0279   0.0361   0.0088   0.0070  -0.0088 -13.00    0.0
2024/10/07 10:24:48.000   28.314157494  -16.495699788  2228.0188   2   7   0.0100   0.0279   0.0361   0.0088   0.0070  -0.0088 -12.00    0.0
2024/10/07 10:24:49.000   28.314157494  -16.495699787  2228.0191   2   7   0.0100   0.0279   0.0361   0.0088   0.0070  -0.0088 -11.00    0.0
2024/10/07 10:24:50.000   28.314157493  -16.495699786  2228.0194   2   7   0.0100   0.0279   0.0361   0.0088   0.0070  -0.0088 -10.00    0.0
2024/10/07 10:24:51.000   28.314157493  -16.495699785  2228.0199   2   7   0.0100   0.0279   0.0361   0.0088   0.0069  -0.0088  -9.00    0.0
2024/10/07 10:24:52.000   28.314157493  -16.495699784  2228.0204   2   7   0.0100   0.0279   0.0361   0.0088   0.0069  -0.0088  -8.00    0.0
2024/10/07 10:24:53.000   28.314157493  -16.495699783  2228.0209   2   7   0.0100   0.0279   0.0361   0.0088   0.0069  -0.0088  -7.00    0.0
2024/10/07 10:24:54.000   28.314157493  -16.495699782  2228.0215   2   7   0.0100   0.0279   0.0361   0.0088   0.0069  -0.0088  -6.00    1.2
2024/10/07 10:24:55.000   28.314157492  -16.495699780  2228.0223   2   7   0.0100   0.0279   0.0361   0.0088   0.0069  -0.0088  -5.00    1.4
2024/10/07 10:24:56.000   28.314157490  -16.495699778  2228.0234   2   7   0.0100   0.0279   0.0361   0.0088   0.0069  -0.0088  -4.00    1.5
2024/10/07 10:24:57.000   28.314157488  -16.495699776  2228.0248   2   7   0.0100   0.0279   0.0361   0.0088   0.0069  -0.0088  -3.00    1.1
2024/10/07 10:24:58.000   28.314157485  -16.495699773  2228.0264   2   7   0.0100   0.0279   0.0361   0.0088   0.0069  -0.0088  -2.00    1.1
2024/10/07 10:24:59.000   28.314157481  -16.495699768  2228.0279   2   7   0.0100   0.0279   0.0361   0.0088   0.0069  -0.0088  -1.00    1.3
2024/10/07 10:25:00.000   28.314157477  -16.495699763  2228.0297   2   7   0.0100   0.0279   0.0362   0.0088   0.0068  -0.0089   0.00    1.0
2024/10/07 10:25:01.000   28.314157469  -16.495699759  2228.0313   2   7   0.0100   0.0279   0.0362   0.0088   0.0068  -0.0089   1.00    1.4
2024/10/07 10:25:02.000   28.314157463  -16.495699756  2228.0324   2   7   0.0100   0.0279   0.0362   0.0088   0.0068  -0.0089   2.00    1.1
2024/10/07 10:25:03.000   28.314157458  -16.495699754  2228.0335   2   7   0.0100   0.0279   0.0362   0.0088   0.0068  -0.0089   3.00    1.1
2024/10/07 10:25:04.000   28.314157453  -16.495699750  2228.0344   2   7   0.0100   0.0279   0.0362   0.0088   0.0067  -0.0089   4.00    1.5
2024/10/07 10:25:05.000   28.314157449  -16.495699748  2228.0351   2   7   0.0100   0.0279   0.0362   0.0088   0.0067  -0.0089   5.00    1.1
2024/10/07 10:25:06.000   28.314157446  -16.495699745  2228.0356   2   7   0.0100   0.0279   0.0362   0.0088   0.0067  -0.0089   6.00    1.2
2024/10/07 10:25:07.000   28.314157444  -16.495699743  2228.0361   2   7   0.0100   0.0279   0.0362   0.0088   0.0067  -0.0089   7.00    1.1
2024/10/07 10:25:08.000   28.314157442  -16.495699741  2228.0364   2   7   0.0101   0.0280   0.0362   0.0088   0.0067  -0.0089   8.00    1.5
2024/10/07 10:25:09.000   28.314157441  -16.495699739  2228.0366   2   7   0.0101   0.0280   0.0363   0.0088   0.0067  -0.0089   9.00    1.3
2024/10/07 10:25:10.000   28.314157440  -16.495699737  2228.0367   2   7   0.0101   0.0280   0.0363   0.0088   0.0067  -0.0089  10.00    1.2
2024/10/07 10:25:11.000   28.314157439  -16.495699735  2228.0368   2   7   0.0101   0.0280   0.0363   0.0088   0.0067  -0.0089  11.00    1.3
2024/10/07 10:25:12.000   28.314157438  -16.495699733  2228.0369   2   7   0.0101   0.0280   0.0363   0.0088   0.0067  -0.0089  12.00    1.0
2024/10/07 10:25:13.000   28.314157437  -16.495699733  2228.0370   2   7   0.0101   0.0280   0.0363   0.0088   0.0067  -0.0089  13.00    1.0
2024/10/07 10:25:14.000   28.314157437  -16.495699731  2228.0371   2   7   0.0101   0.0280   0.0363   0.0088   0.0067  -0.0089  14.00    1.1
2024/10/07 10:25:15.000   28.314157436  -16.495699730  2228.0371   2   7   0.0101   0.0280   0.0363   0.0088   0.0067  -0.0090 -15.00    1.4
2024/10/07 10:25:16.000   28.314157436  -16.495699728  2228.0372   2   7   0.0101   0.0280   0.0363   0.0088   0.0067  -0.0090 -14.00    1.3
2024/10/07 10:25:17.000   28.314157435  -16.495699728  2228.0372   2   7   0.0101   0.0280   0.0363   0.0088   0.0067  -0.0090 -13.00    1.1
2024/10/07 10:25:18.000   28.314157435  -16.495699727  2228.0373   2   7   0.0101   0.0280   0.0363   0.0088   0.0067  -0.0090 -12.00    1.2
2024/10/07 10:25:19.000   28.314157435  -16.495699725  2228.0374   2   7   0.0101   0.0280   0.0363   0.0088   0.0067  -0.0090 -11.00    1.1
2024/10/07 10:25:20.000   28.314157434  -16.495699725  2228.0375   2   7   0.0101   0.0280   0.0363   0.0088   0.0066  -0.0090 -10.00    1.1
2024/10/07 10:25:21.000   28.314157433  -16.495699723  2228.0376   2   7   0.0101   0.0280   0.0363   0.0088   0.0066  -0.0090  -9.00    1.0
2024/10/07 10:25:22.000   28.314157433  -16.495699722  2228.0376   2   7   0.0101   0.0280   0.0363   0.0088   0.0066  -0.0090  -8.00    1.3
2024/10/07 10:25:23.000   28.314157432  -16.495699720  2228.0377   2   7   0.0101   0.0280   0.0363   0.0088   0.0066  -0.0090  -7.00    1.4
2024/10/07 10:25:24.000   28.314157431  -16.495699720  2228.0380   2   7   0.0101   0.0280   0.0363   0.0088   0.0066  -0.0090  -6.00    1.0
2024/10/07 10:25:25.000   28.314157428  -16.495699720  2228.0384   2   7   0.0101   0.0280   0.0363   0.0088   0.0066  -0.0090  -5.00    1.1
2024/10/07 10:25:26.000   28.314157426  -16.495699720  2228.0390   2   7   0.0101   0.0280   0.0363   0.0088   0.0066  -0.0090  -4.00    1.1
2024/10/07 10:25:27.000   28.314157423  -16.495699720  2228.0391   2   7   0.0101   0.0280   0.0363   0.0088   0.0066  -0.0090  -3.00    1.0
2024/10/07 10:25:28.000   28.314157420  -16.495699718  2228.0396   2   7   0.0101   0.0280   0.0363   0.0088   0.0066  -0.0090  -2.00    1.1
2024/10/07 10:25:29.000   28.314157413  -16.495699719  2228.0402   2   7   0.0101   0.0280   0.0363   0.0088   0.0066  -0.0090  -1.00    1.1
2024/10/07 10:25:30.000   28.314157406  -16.495699720  2228.0410   2   7   0.0101   0.0280   0.0363   0.0088   0.0066  -0.0090   0.00    1.2
2024/10/07 10:25:31.000   28.314157401  -16.495699714  2228.0436   2   7   0.0101   0.0280   0.0363   0.0088   0.0065  -0.0090   1.00    1.0
2024/10/07 10:25:32.000   28.314157395  -16.495699709  2228.0458   2   7   0.0101   0.0280   0.0363   0.0088   0.0065  -0.0090   2.00    1.1
2024/10/07 10:25:33.000   28.314157390  -16.495699705  2228.0475   2   7   0.0101   0.0280   0.0364   0.0088   0.0065  -0.0090   3.00    1.2
2024/10/07 10:25:34.000   28.314157384  -16.495699701  2228.0494   2   7   0.0101   0.0280   0.0364   0.0088   0.0065  -0.0090   4.00    1.2
2024/10/07 10:25:35.000   28.314157380  -16.495699700  2228.0509   2   7   0.0101   0.0280   0.0364   0.0088   0.0065  -0.0091   5.00    1.2
2024/10/07 10:25:36.000   28.314157376  -16.495699698  2228.0521   2   7   0.0101   0.0280   0.0364   0.0088   0.0065  -0.0091   6.00    1.2
2024/10/07 10:25:37.000   28.314157373  -16.495699695  2228.0532   2   7   0.0101   0.0280   0.0364   0.0089   0.0064  -0.0091   7.00    1.0
2024/10/07 10:25:38.000   28.314157372  -16.495699693  2228.0540   2   7   0.0101   0.0280   0.0364   0.0089   0.0064  -0.0091   8.00    1.1
2024/10/07 10:25:39.000   28.314157370  -16.495699691  2228.0547   2   7   0.0101   0.0280   0.0364   0.0089   0.0064  -0.0091   9.00    1.1
2024/10/07 10:25:40.000   28.314157369  -16.495699690  2228.0551   2   7   0.0101   0.0280   0.0364   0.0089   0.0064  -0.0091  10.00    1.2
2024/10/07 10:25:41.000   28.314157378  -16.495699690  2228.0571   2   7   0.0101   0.0280   0.0364   0.0089   0.0064  -0.0091  11.00    1.3
2024/10/07 10:25:42.000   28.314157403  -16.495699716  2228.0554   2   7   0.0101   0.0280   0.0364   0.0089   0.0064  -0.0091  12.00    1.1
2024/10/07 10:25:43.000   28.314157425  -16.495699741  2228.0532   2   7   0.0101   0.0280   0.0364   0.0089   0.0064  -0.0091  13.00    1.3
2024/10/07 10:25:44.000   28.314157434  -16.495699751  2228.0524   2   7   0.0101   0.0280   0.0364   0.0089   0.0064  -0.0091  14.00    1.2
2024/10/07 10:25:45.000   28.314157436  -16.495699751  2228.0528   2   7   0.0101   0.0280   0.0364   0.0089   0.0064  -0.0091 -15.00    1.2
2024/10/07 10:25:46.000   28.314157437  -16.495699748  2228.0533   2   7   0.0101   0.0280   0.0364   0.0089   0.0064  -0.0091 -14.00    1.1
2024/10/07 10:25:47.000   28.314157438  -16.495699746  2228.0539   2   7   0.0101   0.0280   0.0364   0.0089   0.0064  -0.0091 -13.00    1.2
2024/10/07 10:25:48.000   28.314157439  -16.495699743  2228.0547   2   7   0.0101   0.0280   0.0364   0.0089   0.0064  -0.0091 -12.00    1.3
2024/10/07 10:25:49.000   28.314157441  -16.495699740  2228.0555   2   7   0.0101   0.0280   0.0364   0.0089   0.0064  -0.0091 -11.00    1.1
2024/10/07 10:25:50.000   28.314157442  -16.495699737  2228.0566   2   7   0.0101   0.0280   0.0364   0.0089   0.0064  -0.0091 -10.00    1.4
2024/10/07 10:25:51.000   28.314157444  -16.495699732  2228.0579   2   7   0.0101   0.0280   0.0364   0.0088   0.0064  -0.0091  -9.00    1.2
2024/10/07 10:25:52.000   28.314157446  -16.495699727  2228.0595   2   7   0.0101   0.0280   0.0364   0.0088   0.0064  -0.0091  -8.00    1.1
2024/10/07 10:25:53.000   28.314157448  -16.495699722  2228.0617   2   7   0.0101   0.0280   0.0364   0.0088   0.0064  -0.0091  -7.00    1.1
2024/10/07 10:25:54.000   28.314157450  -16.495699714  2228.0646   2   7   0.0101   0.0280   0.0364   0.0088   0.0064  -0.0091  -6.00    1.1
2024/10/07 10:25:55.000   28.314157452  -16.495699707  2228.0679   2   7   0.0102   0.0280   0.0364   0.0088   0.0064  -0.0091  -5.00    1.4
2024/10/07 10:25:56.000   28.314157454  -16.495699700  2228.0718   2   7   0.0102   0.0280   0.0364   0.0088   0.0063  -0.0091  -4.00    1.3
2024/10/07 10:25:57.000   28.314157457  -16.495699694  2228.0758   2   7   0.0102   0.0280   0.0364   0.0088   0.0063  -0.0091  -3.00    1.4
2024/10/07 10:25:58.000   28.314157458  -16.495699693  2228.0800   2   7   0.0102   0.0280   0.0364   0.0088   0.0063  -0.0091  -2.00    1.3
2024/10/07 10:25:59.000   28.314157458  -16.495699695  2228.0838   2   7   0.0102   0.0280   0.0364   0.0088   0.0063  -0.0091  -1.00    1.1
2024/10/07 10:26:00.000   28.314157458  -16.495699697  2228.0869   2   7   0.0102   0.0280   0.0364   0.0088   0.0063  -0.0091   0.00    1.0
2024/10/07 10:26:01.000   28.314157455  -16.495699702  2228.0882   2   7   0.0102   0.0280   0.0364   0.0088   0.0063  -0.0091   1.00    1.0
2024/10/07 10:26:02.000   28.314157451  -16.495699709  2228.0897   2   7   0.0102   0.0280   0.0365   0.0088   0.0062  -0.0092   2.00    1.3
2024/10/07 10:26:03.000   28.314157449  -16.495699715  2228.0909   2   7   0.0102   0.0280   0.0365   0.0088   0.0062  -0.0092   3.00    1.1
2024/10/07 10:26:04.000   28.314157447  -16.495699720  2228.0919   2   7   0.0102   0.0280   0.0365   0.0089   0.0062  -0.0092   4.00    1.4
2024/10/07 10:26:05.000   28.314157444  -16.495699723  2228.0929   2   7   0.0102   0.0280   0.0365   0.0089   0.0062  -0.0092   5.00    1.2
2024/10/07 10:26:06.000   28.314157442  -16.495699725  2228.0938   2   7   0.0102   0.0280   0.0365   0.0089   0.0062  -0.0092   6.00    1.2
2024/10/07 10:26:07.000   28.314157439  -16.495699726  2228.0948   2   7   0.0102   0.0280   0.0365   0.0089   0.0062  -0.0092   7.00    1.1
2024/10/07 10:26:08.000   28.314157437  -16.495699727  2228.0956   2   7   0.0102   0.0280   0.0365   0.0089   0.0062  -0.0092   8.00    1.1
2024/10/07 10:26:09.000   28.314157435  -16.495699726  2228.0963   2   7   0.0102   0.0280   0.0365   0.0089   0.0062  -0.0092   9.00    1.4
2024/10/07 10:26:10.000   28.314157432  -16.495699726  2228.0970   2   7   0.0102   0.0280   0.0365   0.0089   0.0062  -0.0092  10.00    1.0
2024/10/07 10:26:11.000   28.314157431  -16.495699727  2228.0976   2   7   0.0102   0.0280   0.0365   0.0089   0.0062  -0.0092  11.00    1.3
2024/10/07 10:26:12.000   28.314157429  -16.495699728  2228.0982   2   7   0.0102   0.0280   0.0365   0.0089   0.0062  -0.0092  12.00    1.2
2024/10/07 10:26:13.000   28.314157428  -16.495699728  2228.0987   2   7   0.0102   0.0280   0.0365   0.0089   0.0062  -0.0092  13.00    1.3
2024/10/07 10:26:14.000   28.314157426  -16.495699729  2228.0992   2   7   0.0102   0.0280   0.0365   0.0089   0.0062  -0.0092  14.00    1.0
2024/10/07 10:26:15.000   28.314157425  -16.495699730  2228.0996   2   7   0.0102   0.0280   0.0365   0.0089   0.0062  -0.0092 -15.00    1.2
2024/10/07 10:26:16.000   28.314157424  -16.495699730  2228.1001   2   7   0.0102   0.0280   0.0365   0.0089   0.0062  -0.0092 -14.00    1.4
2024/10/07 10:26:17.000   28.314157423  -16.495699731  2228.1006   2   7   0.0102   0.0280   0.0365   0.0089   0.0062  -0.0092 -13.00    1.1
2024/10/07 10:26:18.000   28.314157422  -16.495699731  2228.1012   2   7   0.0102   0.0280   0.0365   0.0089   0.0062  -0.0092 -12.00    1.2
2024/10/07 10:26:19.000   28.314157421  -16.495699732  2228.1018   2   7   0.0102   0.0280   0.0365   0.0089   0.0062  -0.0092 -11.00    1.2
2024/10/07 10:26:20.000   28.314157420  -16.495699732  2228.1025   2   7   0.0102   0.0280   0.0365   0.0089   0.0061  -0.0092 -10.00    1.3
2024/10/07 10:26:21.000   28.314157419  -16.495699732  2228.1033   2   7   0.0102   0.0281   0.0365   0.0088   0.0061  -0.0092  -9.00    1.0
2024/10/07 10:26:22.000   28.314157418  -16.495699734  2228.1041   2   7   0.0102   0.0281   0.0365   0.0088   0.0061  -0.0092  -8.00    1.2
2024/10/07 10:26:23.000   28.314157419  -16.495699735  2228.1049   2   7   0.0102   0.0281   0.0365   0.0088   0.0061  -0.0092  -7.00    1.5
2024/10/07 10:26:24.000   28.314157420  -16.495699737  2228.1058   2   7   0.0102   0.0281   0.0365   0.0088   0.0061  -0.0092  -6.00    1.1
2024/10/07 10:26:25.000   28.314157422  -16.495699739  2228.1069   2   7   0.0102   0.0281   0.0365   0.0088   0.0061  -0.0092  -5.00    1.1
2024/10/07 10:26:26.000   28.314157424  -16.495699741  2228.1083   2   7   0.0102   0.0281   0.0365   0.0088   0.0061  -0.0092  -4.00    1.3
2024/10/07 10:26:27.000   28.314157427  -16.495699743  2228.1099   2   7   0.0102   0.0281   0.0366   0.0088   0.0061  -0.0092  -3.00    1.5
2024/10/07 10:26:28.000   28.314157433  -16.495699747  2228.1116   2   7   0.0102   0.0281   0.0366   0.0088   0.0061  -0.0092  -2.00    1.0
2024/10/07 10:26:29.000   28.314157439  -16.495699751  2228.1137   2   7   0.0102   0.0281   0.0366   0.0088   0.0061  -0.0092  -1.00    1.2
2024/10/07 10:26:30.000   28.314157447  -16.495699755  2228.1156   2   7   0.0102   0.0281   0.0366   0.0088   0.0061  -0.0093   0.00    1.4
2024/10/07 10:26:31.000   28.314157458  -16.495699748  2228.1159   2   7   0.0103   0.0281   0.0366   0.0088   0.0061  -0.0093   1.00    1.0
2024/10/07 10:26:32.000   28.314157467  -16.495699738  2228.1164   2   7   0.0103   0.0281   0.0366   0.0088   0.0060  -0.0093   2.00    1.0
2024/10/07 10:26:33.000   28.314157475  -16.495699729  2228.1166   2   7   0.0103   0.0281   0.0366   0.0088   0.0060  -0.0093   3.00    1.1
2024/10/07 10:26:34.000   28.314157484  -16.495699719  2228.1165   2   7   0.0103   0.0281   0.0366   0.0088   0.0060  -0.0093   4.00    1.2
2024/10/07 10:26:35.000   28.314157491  -16.495699710  2228.1163   2   7   0.0103   0.0281   0.0366   0.0088   0.0060  -0.0093   5.00    1.0
2024/10/07 10:26:36.000   28.314157497  -16.495699703  2228.1164   2   7   0.0103   0.0281   0.0366   0.0089   0.0060  -0.0093   6.00    1.2
2024/10/07 10:26:37.000   28.314157502  -16.495699696  2228.1161   2   7   0.0103   0.0281   0.0367   0.0089   0.0060  -0.0093   7.00    1.3
2024/10/07 10:26:38.000   28.314157506  -16.495699690  2228.1160   2   7   0.0103   0.0281   0.0367   0.0089   0.0060  -0.0093   8.00    1.1
2024/10/07 10:26:39.000   28.314157509  -16.495699686  2228.1159   2   7   0.0103   0.0281   0.0367   0.0089   0.0060  -0.0093   9.00    1.1
2024/10/07 10:26:40.000   28.314157512  -16.495699681  2228.1158   2   7   0.0103   0.0281   0.0367   0.0089   0.0060  -0.0093  10.00    1.1
2024/10/07 10:26:41.000   28.314157514  -16.495699677  2228.1158   2   7   0.0103   0.0281   0.0367   0.0089   0.0060  -0.0093  11.00    1.4
2024/10/07 10:26:42.000   28.314157516  -16.495699673  2228.1157   2   7   0.0103   0.0281   0.0367   0.0089   0.0060  -0.0093  12.00    1.0
2024/10/07 10:26:43.000   28.314157517  -16.495699670  2228.1157   2   7   0.0103   0.0281   0.0367   0.0089   0.0060  -0.0093  13.00    1.3
2024/10/07 10:26:44.000   28.314157519  -16.495699667  2228.1156   2   7   0.0103   0.0281   0.0367   0.0089   0.0060  -0.0093  14.00    1.3
2024/10/07 10:26:45.000   28.314157520  -16.495699666  2228.1156   2   7   0.0103   0.0281   0.0367   0.0089   0.0060  -0.0093 -15.00    1.1
2024/10/07 10:26:46.000   28.314157520  -16.495699666  2228.1156   2   7   0.0103   0.0281   0.0367   0.0089   0.0060  -0.0093 -14.00    1.1
2024/10/07 10:26:47.000   28.314157521  -16.495699665  2228.1158   2   7   0.0103   0.0281   0.0367   0.0089   0.0060  -0.0093 -13.00    1.1
2024/10/07 10:26:48.000   28.314157522  -16.495699666  2228.1159   2   7   0.0103   0.0281   0.0367   0.0089   0.0060  -0.0093 -12.00    1.4
2024/10/07 10:26:49.000   28.314157522  -16.495699667  2228.1161   2   7   0.0103   0.0281   0.0367   0.0089   0.0060  -0.0093 -11.00    1.1
2024/10/07 10:26:50.000   28.314157523  -16.495699669  2228.1163   2   7   0.0103   0.0281   0.0367   0.0089   0.0060  -0.0093 -10.00    1.3
2024/10/07 10:26:51.000   28.314157523  -16.495699671  2228.1166   2   7   0.0103   0.0281   0.0367   0.0089   0.0060  -0.0093  -9.00    1.2
2024/10/07 10:26:52.000   28.314157524  -16.495699674  2228.1170   2   7   0.0103   0.0281   0.0367   0.0088   0.0060  -0.0093  -8.00    1.2
2024/10/07 10:26:53.000   28.314157524  -16.495699678  2228.1176   2   7   0.0103   0.0281   0.0367   0.0088   0.0060  -0.0093  -7.00    1.1
2024/10/07 10:26:54.000   28.314157524  -16.495699684  2228.1182   2   7   0.0103   0.0281   0.0367   0.0088   0.0060  -0.0093  -6.00    1.1
2024/10/07 10:26:55.000   28.314157524  -16.495699692  2228.1192   2   7   0.0103   0.0281   0.0367   0.0088   0.0060  -0.0093  -5.00    1.5
2024/10/07 10:26:56.000   28.314157525  -16.495699700  2228.1204   2   7   0.0103   0.0281   0.0367   0.0088   0.0060  -0.0093  -4.00    1.1
2024/10/07 10:26:57.000   28.314157525  -16.495699709  2228.1217   2   7   0.0103   0.0281   0.0367   0.0088   0.0060  -0.0093  -3.00    1.2
2024/10/07 10:26:58.000   28.314157525  -16.495699720  2228.1231   2   7   0.0103   0.0281   0.0367   0.0088   0.0060  -0.0093  -2.00    1.1
2024/10/07 10:26:59.000   28.314157526  -16.495699733  2228.1246   2   7   0.0103   0.0281   0.0367   0.0088   0.0060  -0.0093  -1.00    1.2
2024/10/07 10:27:00.000   28.314157525  -16.495699747  2228.1265   2   7   0.0103   0.0281   0.0367   0.0088   0.0060  -0.0093   0.00    1.0
2024/10/07 10:27:01.000   28.314157531  -16.495699737  2228.1287   2   7   0.0103   0.0281   0.0367   0.0088   0.0059  -0.0093   1.00    1.1
2024/10/07 10:27:02.000   28.314157537  -16.495699729  2228.1301   2   7   0.0103   0.0281   0.0367   0.0088   0.0059  -0.0094   2.00    1.1
2024/10/07 10:27:03.000   28.314157542  -16.495699724  2228.1310   2   7   0.0103   0.0281   0.0367   0.0088   0.0059  -0.0094   3.00    1.1
2024/10/07 10:27:04.000   28.314157546  -16.495699722  2228.1318   2   7   0.0103   0.0281   0.0367   0.0088   0.0059  -0.0094   4.00    1.3
2024/10/07 10:27:05.000   28.314157550  -16.495699720  2228.1323   2   7   0.0103   0.0281   0.0368   0.0088   0.0059  -0.0094   5.00    1.3
2024/10/07 10:27:06.000   28.314157553  -16.495699718  2228.1328   2   7   0.0103   0.0281   0.0368   0.0088   0.0059  -0.0094   6.00    1.2
2024/10/07 10:27:07.000   28.314157556  -16.495699717  2228.1331   2   7   0.0104   0.0281   0.0368   0.0088   0.0058  -0.0094   7.00    1.0
2024/10/07 10:27:08.000   28.314157558  -16.495699717  2228.1332   2   7   0.0104   0.0281   0.0368   0.0088   0.0058  -0.0094   8.00    1.1
2024/10/07 10:27:09.000   28.314157560  -16.495699716  2228.1334   2   7   0.0104   0.0281   0.0368   0.0088   0.0058  -0.0094   9.00    1.4
2024/10/07 10:27:10.000   28.314157561  -16.495699716  2228.1337   2   7   0.0104   0.0281   0.0368   0.0088   0.0058  -0.0094  10.00    1.1
2024/10/07 10:27:11.000   28.314157562  -16.495699716  2228.1341   2   7   0.0104   0.0281   0.0368   0.0088   0.0058  -0.0094  11.00    1.2
2024/10/07 10:27:12.000   28.314157563  -16.495699715  2228.1343   2   7   0.0104   0.0281   0.0368   0.0088   0.0058  -0.0094  12.00    1.2
2024/10/07 10:27:13.000   28.314157563  -16.495699716  2228.1346   2   7   0.0104   0.0281   0.0368   0.0088   0.0058  -0.0094  13.00    1.1
2024/10/07 10:27:14.000   28.314157564  -16.495699715  2228.1348   2   7   0.0104   0.0281   0.0368   0.0088   0.0058  -0.0094  14.00    1.0
2024/10/07 10:27:15.000   28.314157564  -16.495699716  2228.1349   2   7   0.0104   0.0281   0.0368   0.0088   0.0058  -0.0094 -15.00    1.1
2024/10/07 10:27:16.000   28.314157564  -16.495699717  2228.1352   2   7   0.0104   0.0281   0.0368   0.0088   0.0058  -0.0094 -14.00    1.4
2024/10/07 10:27:17.000   28.314157564  -16.495699718  2228.1354   2   7   0.0104   0.0281   0.0368   0.0088   0.0058  -0.0094 -13.00    1.1
2024/10/07 10:27:18.000   28.314157564  -16.495699719  2228.1356   2   7   0.0104   0.0281   0.0368   0.0088   0.0058  -0.0094 -12.00    1.2
2024/10/07 10:27:19.000   28.314157565  -16.495699720  2228.1360   2   7   0.0104   0.0281   0.0368   0.0088   0.0058  -0.0094 -11.00    1.2
2024/10/07 10:27:20.000   28.314157566  -16.495699723  2228.1363   2   7   0.0104   0.0281   0.0368   0.0088   0.0058  -0.0094 -10.00    1.1
2024/10/07 10:27:21.000   28.314157567  -16.495699726  2228.1366   2   7   0.0104   0.0281   0.0368   0.0088   0.0058  -0.0094  -9.00    1.0
2024/10/07 10:27:22.000   28.314157568  -16.495699728  2228.1369   2   7   0.0104   0.0281   0.0368   0.0088   0.0058  -0.0094  -8.00    1.1
2024/10/07 10:27:23.000   28.314157569  -16.495699732  2228.1373   2   7   0.0104   0.0281   0.0368   0.0088   0.0058  -0.0094  -7.00    1.5
2024/10/07 10:27:24.000   28.314157572  -16.495699736  2228.1379   2   7   0.0104   0.0281   0.0368   0.0088   0.0058  -0.0094  -6.00    1.1
2024/10/07 10:27:25.000   28.314157575  -16.495699741  2228.1386   2   7   0.0104   0.0281   0.0368   0.0088   0.0058  -0.0094  -5.00    1.1
2024/10/07 10:27:26.000   28.314157579  -16.495699746  2228.1393   2   7   0.0104   0.0281   0.0368   0.0088   0.0058  -0.0094  -4.00    1.1
2024/10/07 10:27:27.000   28.314157584  -16.495699751  2228.1401   2   7   0.0104   0.0281   0.0368   0.0088   0.0058  -0.0094  -3.00    1.0
2024/10/07 10:27:28.000   28.314157590  -16.495699757  2228.1407   2   7   0.0104   0.0281   0.0368   0.0088   0.0058  -0.0094  -2.00    1.1
2024/10/07 10:27:29.000   28.314157597  -16.495699763  2228.1411   2   7   0.0104   0.0281   0.0368   0.0088   0.0058  -0.0094  -1.00    1.1
2024/10/07 10:27:30.000   28.314157605  -16.495699770  2228.1414   2   8   0.0104   0.0281   0.0368   0.0088   0.0058  -0.0094   0.00    1.2
2024/10/07 10:27:31.000   28.314157614  -16.495699774  2228.1425   2   8   0.0104   0.0281   0.0368   0.0088   0.0058  -0.0094   1.00    1.1
2024/10/07 10:27:32.000   28.314157624  -16.495699777  2228.1432   2   8   0.0104   0.0281   0.0369   0.0088   0.0058  -0.0094   2.00    1.2
2024/10/07 10:27:33.000   28.314157633  -16.495699772  2228.1437   2   8   0.0104   0.0281   0.0369   0.0088   0.0058  -0.0094   3.00    1.1
2024/10/07 10:27:34.000   28.314157641  -16.495699770  2228.1440   2   8   0.0104   0.0282   0.0369   0.0088   0.0058  -0.0094   4.00    1.0
2024/10/07 10:27:35.000   28.314157649  -16.495699767  2228.1442   2   8   0.0104   0.0282   0.0369   0.0088   0.0058  -0.0094   5.00    1.3
2024/10/07 10:27:36.000   28.314157655  -16.495699766  2228.1447   2   8   0.0104   0.0282   0.0369   0.0088   0.0058  -0.0094   6.00    1.2
2024/10/07 10:27:37.000   28.314157661  -16.495699766  2228.1447   2   8   0.0104   0.0282   0.0369   0.0088   0.0059  -0.0094   7.00    1.2
2024/10/07 10:27:38.000   28.314157666  -16.495699764  2228.1448   2   8   0.0104   0.0282   0.0369   0.0088   0.0059  -0.0094   8.00    1.0
2024/10/07 10:27:39.000   28.314157671  -16.495699764  2228.1449   2   8   0.0104   0.0282   0.0369   0.0088   0.0059  -0.0094   9.00    1.1
2024/10/07 10:27:40.000   28.314157674  -16.495699764  2228.1448   2   8   0.0104   0.0282   0.0369   0.0088   0.0059  -0.0094  10.00    1.2
2024/10/07 10:27:41.000   28.314157678  -16.495699764  2228.1449   2   8   0.0104   0.0282   0.0370   0.0088   0.0059  -0.0094  11.00    1.0
2024/10/07 10:27:42.000   28.314157681  -16.495699765  2228.1448   2   8   0.0104   0.0282   0.0370   0.0088   0.0059  -0.0094  12.00    1.0
2024/10/07 10:27:43.000   28.314157683  -16.495699765  2228.1448   2   8   0.0104   0.0282   0.0370   0.0088   0.0059  -0.0094  13.00    1.2
2024/10/07 10:27:44.000   28.314157685  -16.495699765  2228.1449   2   8   0.0104   0.0282   0.0370   0.0088   0.0059  -0.0094  14.00    1.3
2024/10/07 10:27:45.000   28.314157686  -16.495699766  2228.1449   2   8   0.0104   0.0282   0.0370   0.0088   0.0059  -0.0094 -15.00    1.2
2024/10/07 10:27:46.000   28.314157687  -16.495699766  2228.1450   2   8   0.0104   0.0282   0.0370   0.0088   0.0059  -0.0094 -14.00    1.1
2024/10/07 10:27:47.000   28.314157688  -16.495699768  2228.1450   2   8   0.0104   0.0282   0.0370   0.0088   0.0059  -0.0094 -13.00    1.0
2024/10/07 10:27:48.000   28.314157689  -16.495699768  2228.1451   2   8   0.0104   0.0282   0.0370   0.0088   0.0059  -0.0094 -12.00    1.1
2024/10/07 10:27:49.000   28.314157691  -16.495699769  2228.1453   2   8   0.0104   0.0282   0.0370   0.0088   0.0059  -0.0094 -11.00    1.1
2024/10/07 10:27:50.000   28.314157692  -16.495699771  2228.1454   2   8   0.0104   0.0282   0.0370   0.0088   0.0059  -0.0094 -10.00    1.0
2024/10/07 10:27:51.000   28.314157693  -16.495699774  2228.1453   2   8   0.0104   0.0282   0.0370   0.0088   0.0059  -0.0094  -9.00    1.1
2024/10/07 10:27:52.000   28.314157695  -16.495699776  2228.1452   2   8   0.0104   0.0282   0.0370   0.0088   0.0059  -0.0094  -8.00    1.3
2024/10/07 10:27:53.000   28.314157697  -16.495699779  2228.1451   2   8   0.0104   0.0282   0.0370   0.0088   0.0060  -0.0094  -7.00    1.2
2024/10/07 10:27:54.000   28.314157699  -16.495699781  2228.1453   2   8   0.0104   0.0282   0.0370   0.0088   0.0060  -0.0094  -6.00    1.2
2024/10/07 10:27:55.000   28.314157703  -16.495699786  2228.1455   2   8   0.0104   0.0282   0.0370   0.0088   0.0060  -0.0094  -5.00    1.0
2024/10/07 10:27:56.000   28.314157707  -16.495699791  2228.1457   2   8   0.0104   0.0282   0.0370   0.0088   0.0060  -0.0094  -4.00    1.1
2024/10/07 10:27:57.000   28.314157713  -16.495699794  2228.1466   2   8   0.0104   0.0282   0.0370   0.0088   0.0060  -0.0094  -3.00    1.2
2024/10/07 10:27:58.000   28.314157720  -16.495699798  2228.1477   2   8   0.0104   0.0282   0.0370   0.0089   0.0060  -0.0094  -2.00    1.0
2024/10/07 10:27:59.000   28.314157729  -16.495699805  2228.1486   2   8   0.0104   0.0282   0.0370   0.0089   0.0061  -0.0094  -1.00    1.1
2024/10/07 10:28:00.000   28.314157741  -16.495699809  2228.1498   2   8   0.0104   0.0282   0.0371   0.0089   0.0061  -0.0094   0.00    1.2
2024/10/07 10:28:01.000   28.314157756  -16.495699806  2228.1509   2   8   0.0104   0.0282   0.0371   0.0089   0.0061  -0.0094   1.00    1.0
2024/10/07 10:28:02.000   28.314157771  -16.495699801  2228.1516   2   8   0.0104   0.0282   0.0371   0.0089   0.0061  -0.0094   2.00    1.1
2024/10/07 10:28:03.000   28.314157783  -16.495699794  2228.1520   2   8   0.0104   0.0282   0.0371   0.0089   0.0061  -0.0095   3.00    1.0
2024/10/07 10:28:04.000   28.314157790  -16.495699786  2228.1538   2   8   0.0105   0.0282   0.0371   0.0089   0.0061  -0.0095   4.00    1.2
2024/10/07 10:28:05.000   28.314157794  -16.495699779  2228.1556   2   8   0.0105   0.0282   0.0371   0.0089   0.0061  -0.0095   5.00    1.1
2024/10/07 10:28:06.000   28.314157798  -16.495699773  2228.1563   2   8   0.0105   0.0282   0.0371   0.0089   0.0061  -0.0095   6.00    1.1
2024/10/07 10:28:07.000   28.314157801  -16.495699767  2228.1567   2   8   0.0105   0.0282   0.0371   0.0089   0.0061  -0.0095   7.00    1.1
2024/10/07 10:28:08.000   28.314157804  -16.495699763  2228.1571   2   8   0.0105   0.0282   0.0371   0.0089   0.0061  -0.0095   8.00    1.1
2024/10/07 10:28:09.000   28.314157807  -16.495699757  2228.1575   2   8   0.0105   0.0282   0.0371   0.0089   0.0061  -0.0095   9.00    1.1
2024/10/07 10:28:10.000   28.314157809  -16.495699754  2228.1577   2   8   0.0105   0.0282   0.0371   0.0089   0.0061  -0.0095  10.00    1.0
2024/10/07 10:28:11.000   28.314157810  -16.495699752  2228.1578   2   8   0.0105   0.0282   0.0372   0.0089   0.0061  -0.0095  11.00    1.0
2024/10/07 10:28:12.000   28.314157811  -16.495699749  2228.1578   2   8   0.0105   0.0282   0.0372   0.0089   0.0061  -0.0095  12.00    1.1
2024/10/07 10:28:13.000   28.314157812  -16.495699747  2228.1577   2   8   0.0105   0.0282   0.0372   0.0089   0.0061  -0.0095  13.00    1.2
2024/10/07 10:28:14.000   28.314157812  -16.495699747  2228.1576   2   8   0.0105   0.0282   0.0372   0.0089   0.0062  -0.0095  14.00    1.1
2024/10/07 10:28:15.000   28.314157812  -16.495699746  2228.1576   2   8   0.0105   0.0282   0.0372   0.0089   0.0062  -0.0095 -15.00    1.2
2024/10/07 10:28:16.000   28.314157812  -16.495699745  2228.1575   2   8   0.0105   0.0282   0.0372   0.0089   0.0062  -0.0095 -14.00    1.0
2024/10/07 10:28:17.000   28.314157813  -16.495699744  2228.1573   2   8   0.0105   0.0282   0.0372   0.0089   0.0062  -0.0095 -13.00    1.2
2024/10/07 10:28:18.000   28.314157812  -16.495699745  2228.1571   2   8   0.0105   0.0282   0.0372   0.0089   0.0062  -0.0095 -12.00    1.0
2024/10/07 10:28:19.000   28.314157812  -16.495699745  2228.1567   2   8   0.0105   0.0282   0.0372   0.0089   0.0062  -0.0095 -11.00    1.0
2024/10/07 10:28:20.000   28.314157812  -16.495699745  2228.1564   2   8   0.0105   0.0282   0.0372   0.0089   0.0062  -0.0095 -10.00    1.0
2024/10/07 10:28:21.000   28.314157812  -16.495699747  2228.1562   2   8   0.0105   0.0282   0.0372   0.0089   0.0062  -0.0095  -9.00    1.3
2024/10/07 10:28:22.000   28.314157811  -16.495699748  2228.1559   2   8   0.0105   0.0282   0.0372   0.0089   0.0062  -0.0095  -8.00    1.0
2024/10/07 10:28:23.000   28.314157811  -16.495699752  2228.1554   2   8   0.0105   0.0282   0.0372   0.0089   0.0062  -0.0095  -7.00    1.3
2024/10/07 10:28:24.000   28.314157812  -16.495699757  2228.1551   2   8   0.0105   0.0283   0.0372   0.0089   0.0063  -0.0095  -6.00    1.0
2024/10/07 10:28:25.000   28.314157812  -16.495699763  2228.1549   2   8   0.0105   0.0283   0.0372   0.0089   0.0063  -0.0094  -5.00    1.2
2024/10/07 10:28:26.000   28.314157813  -16.495699772  2228.1545   2   8   0.0105   0.0283   0.0372   0.0089   0.0063  -0.0094  -4.00    1.0
2024/10/07 10:28:27.000   28.314157813  -16.495699781  2228.1543   2   8   0.0105   0.0283   0.0372   0.0089   0.0064  -0.0094  -3.00    1.1
2024/10/07 10:28:28.000   28.314157813  -16.495699794  2228.1542   2   8   0.0105   0.0283   0.0373   0.0089   0.0064  -0.0094  -2.00    1.1
2024/10/07 10:28:29.000   28.314157814  -16.495699807  2228.1544   2   8   0.0105   0.0283   0.0373   0.0089   0.0065  -0.0094  -1.00    1.3
2024/10/07 10:28:30.000   28.314157819  -16.495699823  2228.1540   2   8   0.0105   0.0283   0.0373   0.0089   0.0065  -0.0094   0.00    1.0
2024/10/07 10:28:31.000   28.314157833  -16.495699801  2228.1609   2   8   0.0105   0.0283   0.0373   0.0089   0.0065  -0.0094   1.00    1.9
2024/10/07 10:28:32.000   28.314157842  -16.495699780  2228.1684   2   8   0.0105   0.0283   0.0373   0.0089   0.0065  -0.0094   2.00    1.5
2024/10/07 10:28:33.000   28.314157851  -16.495699762  2228.1750   2   8   0.0105   0.0283   0.0373   0.0089   0.0065  -0.0094   3.00    1.4
2024/10/07 10:28:34.000   28.314157860  -16.495699749  2228.1798   2   8   0.0105   0.0283   0.0373   0.0089   0.0065  -0.0095   4.00    1.1
2024/10/07 10:28:35.000   28.314157866  -16.495699739  2228.1834   2   8   0.0105   0.0283   0.0374   0.0089   0.0065  -0.0095   5.00    2.3
2024/10/07 10:28:36.000   28.314157870  -16.495699731  2228.1864   2   8   0.0105   0.0283   0.0374   0.0089   0.0065  -0.0094   6.00    2.0
2024/10/07 10:28:37.000   28.314157873  -16.495699727  2228.1882   2   8   0.0105   0.0283   0.0374   0.0089   0.0065  -0.0094   7.00    2.3
2024/10/07 10:28:38.000   28.314157876  -16.495699723  2228.1897   2   8   0.0105   0.0283   0.0374   0.0089   0.0066  -0.0094   8.00    2.1
2024/10/07 10:28:39.000   28.314157878  -16.495699722  2228.1909   2   8   0.0105   0.0283   0.0374   0.0089   0.0066  -0.0094   9.00    2.4
2024/10/07 10:28:40.000   28.314157880  -16.495699721  2228.1917   2   8   0.0105   0.0283   0.0374   0.0089   0.0066  -0.0094  10.00    1.4
2024/10/07 10:28:41.000   28.314157882  -16.495699720  2228.1923   2   8   0.0105   0.0283   0.0374   0.0089   0.0066  -0.0094  11.00    2.4
2024/10/07 10:28:42.000   28.314157883  -16.495699720  2228.1928   2   8   0.0105   0.0283   0.0374   0.0089   0.0066  -0.0094  12.00    1.6
2024/10/07 10:28:43.000   28.314157883  -16.495699721  2228.1931   2   8   0.0105   0.0283   0.0374   0.0089   0.0066  -0.0094  13.00    1.1
2024/10/07 10:28:44.000   28.314157883  -16.495699723  2228.1932   2   8   0.0105   0.0283   0.0374   0.0089   0.0066  -0.0094  14.00    1.1
2024/10/07 10:28:45.000   28.314157883  -16.495699724  2228.1932   2   8   0.0105   0.0283   0.0374   0.0089   0.0067  -0.0094 -15.00    1.0
2024/10/07 10:28:46.000   28.314157883  -16.495699726  2228.1930   2   8   0.0105   0.0283   0.0375   0.0089   0.0067  -0.0094 -14.00    1.1
2024/10/07 10:28:47.000   28.314157883  -16.495699729  2228.1928   2   8   0.0105   0.0283   0.0375   0.0089   0.0067  -0.0094 -13.00    1.2
2024/10/07 10:28:48.000   28.314157882  -16.495699734  2228.1922   2   8   0.0105   0.0283   0.0375   0.0089   0.0067  -0.0094 -12.00    1.3
2024/10/07 10:28:49.000   28.314157881  -16.495699741  2228.1913   2   8   0.0105   0.0283   0.0375   0.0089   0.0067  -0.0094 -11.00    1.0
2024/10/07 10:28:50.000   28.314157880  -16.495699748  2228.1904   2   8   0.0105   0.0283   0.0375   0.0089   0.0067  -0.0094 -10.00    1.8
2024/10/07 10:28:51.000   28.314157879  -16.495699758  2228.1892   2   8   0.0105   0.0283   0.0375   0.0089   0.0067  -0.0094  -9.00    1.7
2024/10/07 10:28:52.000   28.314157877  -16.495699770  2228.1878   2   8   0.0105   0.0283   0.0375   0.0089   0.0068  -0.0094  -8.00    1.4
2024/10/07 10:28:53.000   28.314157876  -16.495699782  2228.1865   2   8   0.0105   0.0283   0.0375   0.0089   0.0068  -0.0094  -7.00    1.2
2024/10/07 10:28:54.000   28.314157875  -16.495699796  2228.1846   2   8   0.0105   0.0283   0.0375   0.0089   0.0068  -0.0094  -6.00    2.8
2024/10/07 10:28:55.000   28.314157873  -16.495699813  2228.1826   2   8   0.0105   0.0283   0.0375   0.0089   0.0069  -0.0094  -5.00    2.2
2024/10/07 10:28:56.000   28.314157872  -16.495699832  2228.1812   2   8   0.0105   0.0283   0.0376   0.0089   0.0069  -0.0093  -4.00    2.9
2024/10/07 10:28:57.000   28.314157872  -16.495699854  2228.1794   2   8   0.0105   0.0283   0.0376   0.0089   0.0070  -0.0093  -3.00    2.4
2024/10/07 10:28:58.000   28.314157872  -16.495699879  2228.1769   2   8   0.0105   0.0283   0.0376   0.0089   0.0070  -0.0093  -2.00    2.9
2024/10/07 10:28:59.000   28.314157873  -16.495699904  2228.1747   2   8   0.0105   0.0284   0.0377   0.0089   0.0071  -0.0093  -1.00    1.2
2024/10/07 10:29:00.000   28.314157875  -16.495699931  2228.1724   2   8   0.0105   0.0284   0.0377   0.0089   0.0072  -0.0093   0.00    2.8
2024/10/07 10:29:01.000   28.314157889  -16.495699909  2228.1800   2   8   0.0105   0.0284   0.0377   0.0089   0.0071  -0.0093   1.00    1.5
2024/10/07 10:29:02.000   28.314157902  -16.495699894  2228.1853   2   8   0.0105   0.0284   0.0377   0.0089   0.0070  -0.0093   2.00    1.2
2024/10/07 10:29:03.000   28.314157912  -16.495699885  2228.1887   2   8   0.0105   0.0284   0.0376   0.0089   0.0070  -0.0093   3.00    1.0
2024/10/07 10:29:04.000   28.314157922  -16.495699879  2228.1910   2   8   0.0106   0.0284   0.0376   0.0089   0.0070  -0.0093   4.00    1.2
2024/10/07 10:29:05.000   28.314157930  -16.495699877  2228.1923   2   8   0.0106   0.0283   0.0376   0.0089   0.0069  -0.0093   5.00    1.1
2024/10/07 10:29:06.000   28.314157934  -16.495699878  2228.1926   2   8   0.0106   0.0283   0.0376   0.0089   0.0069  -0.0093   6.00    1.3
2024/10/07 10:29:07.000   28.314157936  -16.495699880  2228.1929   2   8   0.0106   0.0283   0.0376   0.0089   0.0069  -0.0093   7.00    1.1
2024/10/07 10:29:08.000   28.314157938  -16.495699883  2228.1923   2   8   0.0106   0.0283   0.0376   0.0089   0.0069  -0.0093   8.00    1.7
2024/10/07 10:29:09.000   28.314157940  -16.495699888  2228.1913   2   8   0.0106   0.0283   0.0376   0.0089   0.0069  -0.0093   9.00    1.4
2024/10/07 10:29:10.000   28.314157941  -16.495699895  2228.1900   2   8   0.0106   0.0283   0.0376   0.0089   0.0069  -0.0093  10.00    1.6
2024/10/07 10:29:11.000   28.314157941  -16.495699903  2228.1886   2   8   0.0106   0.0283   0.0376   0.0089   0.0069  -0.0093  11.00    1.1
2024/10/07 10:29:12.000   28.314157942  -16.495699910  2228.1872   2   8   0.0106   0.0283   0.0376   0.0089   0.0068  -0.0093  12.00    2.1
2024/10/07 10:29:13.000   28.314157941  -16.495699918  2228.1857   2   8   0.0106   0.0283   0.0376   0.0089   0.0068  -0.0093  13.00    1.4
2024/10/07 10:29:14.000   28.314157941  -16.495699925  2228.1843   2   8   0.0106   0.0283   0.0376   0.0089   0.0068  -0.0093  14.00    2.1
2024/10/07 10:29:15.000   28.314157941  -16.495699931  2228.1829   2   8   0.0106   0.0283   0.0376   0.0089   0.0068  -0.0093 -15.00    1.6
2024/10/07 10:29:16.000   28.314157940  -16.495699939  2228.1813   2   8   0.0106   0.0283   0.0376   0.0089   0.0068  -0.0093 -14.00    1.9
2024/10/07 10:29:17.000   28.314157939  -16.495699947  2228.1795   2   8   0.0106   0.0283   0.0376   0.0089   0.0068  -0.0093 -13.00    1.5
2024/10/07 10:29:18.000   28.314157938  -16.495699956  2228.1775   2   8   0.0106   0.0283   0.0376   0.0089   0.0068  -0.0093 -12.00    1.8
2024/10/07 10:29:19.000   28.314157936  -16.495699966  2228.1753   2   8   0.0106   0.0283   0.0376   0.0089   0.0068  -0.0093 -11.00    1.0
2024/10/07 10:29:20.000   28.314157934  -16.495699979  2228.1726   2   8   0.0106   0.0283   0.0376   0.0089   0.0068  -0.0093 -10.00    1.2
2024/10/07 10:29:21.000   28.314157931  -16.495699995  2228.1694   2   8   0.0106   0.0283   0.0376   0.0089   0.0068  -0.0093  -9.00    1.4
2024/10/07 10:29:22.000   28.314157927  -16.495700013  2228.1657   2   8   0.0106   0.0283   0.0376   0.0089   0.0068  -0.0093  -8.00    1.2
2024/10/07 10:29:23.000   28.314157923  -16.495700034  2228.1615   2   8   0.0106   0.0283   0.0376   0.0089   0.0068  -0.0093  -7.00    1.3
2024/10/07 10:29:24.000   28.314157917  -16.495700059  2228.1572   2   8   0.0106   0.0283   0.0376   0.0089   0.0068  -0.0093  -6.00    1.5
2024/10/07 10:29:25.000   28.314157912  -16.495700084  2228.1527   2   8   0.0106   0.0283   0.0376   0.0089   0.0068  -0.0093  -5.00    1.5
2024/10/07 10:29:26.000   28.314157908  -16.495700107  2228.1485   2   8   0.0106   0.0283   0.0376   0.0089   0.0068  -0.0093  -4.00    1.1
2024/10/07 10:29:27.000   28.314157903  -16.495700131  2228.1457   2   8   0.0106   0.0283   0.0376   0.0089   0.0068  -0.0093  -3.00    1.6
2024/10/07 10:29:28.000   28.314157900  -16.495700156  2228.1437   2   8   0.0106   0.0283   0.0376   0.0089   0.0068  -0.0093  -2.00    1.2
2024/10/07 10:29:29.000   28.314157897  -16.495700184  2228.1410   2   8   0.0106   0.0283   0.0376   0.0089   0.0068  -0.0093  -1.00    1.5
2024/10/07 10:29:30.000   28.314157894  -16.495700212  2228.1387   2   8   0.0106   0.0283   0.0376   0.0089   0.0068  -0.0093   0.00    1.4
2024/10/07 10:29:31.000   28.314157905  -16.495700200  2228.1443   2   8   0.0106   0.0283   0.0376   0.0089   0.0068  -0.0093   1.00    1.1
2024/10/07 10:29:32.000   28.314157915  -16.495700190  2228.1486   2   8   0.0106   0.0283   0.0376   0.0089   0.0068  -0.0093   2.00    1.3
2024/10/07 10:29:33.000   28.314157923  -16.495700182  2228.1525   2   8   0.0106   0.0283   0.0376   0.0089   0.0067  -0.0093   3.00    1.5
2024/10/07 10:29:34.000   28.314157928  -16.495700179  2228.1556   2   8   0.0106   0.0283   0.0376   0.0089   0.0067  -0.0093   4.00    1.3
2024/10/07 10:29:35.000   28.314157932  -16.495700173  2228.1581   2   8   0.0106   0.0283   0.0376   0.0089   0.0067  -0.0093   5.00    1.3
2024/10/07 10:29:36.000   28.314157936  -16.495700167  2228.1601   2   8   0.0106   0.0283   0.0376   0.0089   0.0067  -0.0093   6.00    1.4
2024/10/07 10:29:37.000   28.314157939  -16.495700163  2228.1616   2   8   0.0106   0.0283   0.0376   0.0089   0.0067  -0.0093   7.00    1.1
2024/10/07 10:29:38.000   28.314157941  -16.495700160  2228.1627   2   8   0.0106   0.0283   0.0376   0.0089   0.0067  -0.0093   8.00    1.2
2024/10/07 10:29:39.000   28.314157942  -16.495700157  2228.1637   2   8   0.0106   0.0283   0.0376   0.0089   0.0067  -0.0093   9.00    1.1
2024/10/07 10:29:40.000   28.314157943  -16.495700155  2228.1645   2   8   0.0106   0.0283   0.0376   0.0089   0.0067  -0.0093  10.00    1.3
2024/10/07 10:29:41.000   28.314157944  -16.495700154  2228.1653   2   8   0.0106   0.0283   0.0376   0.0089   0.0067  -0.0093  11.00    1.4
2024/10/07 10:29:42.000   28.314157944  -16.495700154  2228.1658   2   8   0.0106   0.0283   0.0376   0.0089   0.0066  -0.0093  12.00    1.4
2024/10/07 10:29:43.000   28.314157944  -16.495700153  2228.1661   2   8   0.0106   0.0283   0.0376   0.0089   0.0066  -0.0093  13.00    1.3
2024/10/07 10:29:44.000   28.314157944  -16.495700153  2228.1664   2   8   0.0106   0.0283   0.0376   0.0089   0.0066  -0.0093  14.00    1.3
2024/10/07 10:29:45.000   28.314157944  -16.495700154  2228.1667   2   8   0.0106   0.0283   0.0376   0.0089   0.0066  -0.0093 -15.00    1.2
2024/10/07 10:29:46.000   28.314157944  -16.495700155  2228.1669   2   8   0.0106   0.0283   0.0376   0.0089   0.0066  -0.0093 -14.00    1.1
2024/10/07 10:29:47.000   28.314157943  -16.495700155  2228.1671   2   8   0.0106   0.0283   0.0376   0.0089   0.0066  -0.0093 -13.00    1.2
2024/10/07 10:29:48.000   28.314157942  -16.495700157  2228.1672   2   8   0.0106   0.0283   0.0376   0.0089   0.0066  -0.0093 -12.00    1.4
2024/10/07 10:29:49.000   28.314157941  -16.495700158  2228.1672   2   8   0.0106   0.0283   0.0376   0.0089   0.0066  -0.0093 -11.00    1.4
2024/10/07 10:29:50.000   28.314157940  -16.495700160  2228.1672   2   8   0.0106   0.0283   0.0376   0.0089   0.0066  -0.0093 -10.00    1.3
2024/10/07 10:29:51.000   28.314157938  -16.495700162  2228.1671   2   8   0.0106   0.0283   0.0376   0.0089   0.0066  -0.0093  -9.00    1.4
2024/10/07 10:29:52.000   28.314157936  -16.495700165  2228.1672   2   8   0.0106   0.0283   0.0376   0.0089   0.0066  -0.0093  -8.00    1.2
2024/10/07 10:29:53.000   28.314157933  -16.495700168  2228.1671   2   8   0.0106   0.0283   0.0376   0.0089   0.0066  -0.0093  -7.00    1.2
2024/10/07 10:29:54.000   28.314157931  -16.495700172  2228.1669   2   8   0.0106   0.0283   0.0376   0.0089   0.0066  -0.0093  -6.00    1.0
2024/10/07 10:29:55.000   28.314157928  -16.495700178  2228.1670   2   8   0.0106   0.0283   0.0376   0.0089   0.0066  -0.0093  -5.00    1.3
2024/10/07 10:29:56.000   28.314157925  -16.495700183  2228.1671   2   8   0.0106   0.0283   0.0376   0.0089   0.0066  -0.0093  -4.00    1.5
2024/10/07 10:29:57.000   28.314157921  -16.495700187  2228.1671   2   8   0.0106   0.0283   0.0376   0.0089   0.0066  -0.0093  -3.00    1.4
2024/10/07 10:29:58.000   28.314157916  -16.495700190  2228.1685   2   8   0.0106   0.0283   0.0376   0.0089   0.0066  -0.0093  -2.00    1.2
2024/10/07 10:29:59.000   28.314157910  -16.495700193  2228.1702   2   8   0.0106   0.0283   0.0375   0.0089   0.0066  -0.0093  -1.00    1.6
2024/10/07 10:30:00.000   28.314157905  -16.495700198  2228.1717   2   8   0.0106   0.0283   0.0375   0.0089   0.0066  -0.0093   0.00    1.0
2024/10/07 10:30:01.000   28.314157910  -16.495700175  2228.1773   2   8   0.0106   0.0283   0.0375   0.0089   0.0066  -0.0093   1.00    1.1
2024/10/07 10:30:02.000   28.314157912  -16.495700155  2228.1827   2   8   0.0106   0.0283   0.0375   0.0089   0.0065  -0.0093   2.00    1.1
2024/10/07 10:30:03.000   28.314157912  -16.495700140  2228.1868   2   8   0.0106   0.0283   0.0375   0.0089   0.0065  -0.0093   3.00    1.2
2024/10/07 10:30:04.000   28.314157912  -16.495700128  2228.1901   2   8   0.0106   0.0283   0.0375   0.0089   0.0065  -0.0093   4.00    1.4
2024/10/07 10:30:05.000   28.314157914  -16.495700120  2228.1929   2   8   0.0106   0.0283   0.0375   0.0089   0.0065  -0.0093   5.00    1.3
2024/10/07 10:30:06.000   28.314157914  -16.495700113  2228.1950   2   8   0.0106   0.0283   0.0375   0.0089   0.0065  -0.0093   6.00    1.3
2024/10/07 10:30:07.000   28.314157914  -16.495700108  2228.1968   2   8   0.0106   0.0283   0.0375   0.0089   0.0065  -0.0093   7.00    1.4
2024/10/07 10:30:08.000   28.314157915  -16.495700105  2228.1982   2   8   0.0106   0.0283   0.0375   0.0089   0.0065  -0.0093   8.00    1.1
2024/10/07 10:30:09.000   28.314157915  -16.495700102  2228.1993   2   8   0.0106   0.0283   0.0375   0.0089   0.0065  -0.0093   9.00    1.2
2024/10/07 10:30:10.000   28.314157916  -16.495700101  2228.2001   2   8   0.0106   0.0283   0.0375   0.0089   0.0065  -0.0093  10.00    1.2
2024/10/07 10:30:11.000   28.314157916  -16.495700101  2228.2007   2   8   0.0106   0.0283   0.0375   0.0089   0.0065  -0.0093  11.00    1.2
2024/10/07 10:30:12.000   28.314157916  -16.495700102  2228.2014   2   8   0.0106   0.0283   0.0375   0.0089   0.0065  -0.0093  12.00    1.4
2024/10/07 10:30:13.000   28.314157917  -16.495700101  2228.2021   2   8   0.0106   0.0283   0.0375   0.0089   0.0065  -0.0093  13.00    1.3
2024/10/07 10:30:14.000   28.314157918  -16.495700102  2228.2026   2   8   0.0106   0.0283   0.0375   0.0089   0.0065  -0.0093  14.00    1.2
2024/10/07 10:30:15.000   28.314157918  -16.495700101  2228.2030   2   8   0.0106   0.0283   0.0375   0.0089   0.0065  -0.0093 -15.00    1.4
2024/10/07 10:30:16.000   28.314157919  -16.495700101  2228.2034   2   8   0.0106   0.0283   0.0375   0.0089   0.0065  -0.0093 -14.00    1.0
2024/10/07 10:30:17.000   28.314157919  -16.495700101  2228.2038   2   8   0.0106   0.0283   0.0375   0.0089   0.0065  -0.0093 -13.00    1.2
2024/10/07 10:30:18.000   28.314157919  -16.495700101  2228.2041   2   8   0.0106   0.0283   0.0375   0.0089   0.0065  -0.0093 -12.00    1.2
2024/10/07 10:30:19.000   28.314157920  -16.495700101  2228.2044   2   8   0.0106   0.0283   0.0375   0.0089   0.0065  -0.0093 -11.00    1.2
2024/10/07 10:30:20.000   28.314157920  -16.495700100  2228.2049   2   8   0.0106   0.0283   0.0375   0.0089   0.0065  -0.0093 -10.00    1.4
2024/10/07 10:30:21.000   28.314157920  -16.495700099  2228.2054   2   8   0.0106   0.0283   0.0375   0.0089   0.0065  -0.0093  -9.00    1.3
2024/10/07 10:30:22.000   28.314157920  -16.495700098  2228.2059   2   8   0.0106   0.0283   0.0375   0.0089   0.0064  -0.0093  -8.00    1.2
2024/10/07 10:30:23.000   28.314157920  -16.495700099  2228.2063   2   8   0.0106   0.0283   0.0375   0.0089   0.0064  -0.0093  -7.00    1.4
2024/10/07 10:30:24.000   28.314157919  -16.495700100  2228.2067   2   8   0.0106   0.0283   0.0375   0.0089   0.0064  -0.0093  -6.00    1.0
2024/10/07 10:30:25.000   28.314157918  -16.495700101  2228.2071   2   8   0.0106   0.0283   0.0375   0.0089   0.0064  -0.0093  -5.00    1.2
2024/10/07 10:30:26.000   28.314157918  -16.495700101  2228.2079   2   8   0.0106   0.0283   0.0375   0.0089   0.0064  -0.0093  -4.00    1.2
2024/10/07 10:30:27.000   28.314157917  -16.495700101  2228.2092   2   8   0.0106   0.0283   0.0375   0.0089   0.0064  -0.0093  -3.00    1.2
2024/10/07 10:30:28.000   28.314157917  -16.495700104  2228.2111   2   8   0.0106   0.0283   0.0375   0.0089   0.0065  -0.0093  -2.00    1.4
2024/10/07 10:30:29.000   28.314157917  -16.495700106  2228.2131   2   8   0.0106   0.0283   0.0375   0.0089   0.0065  -0.0093  -1.00    1.3
2024/10/07 10:30:30.000   28.314157915  -16.495700106  2228.2148   2   8   0.0106   0.0283   0.0375   0.0089   0.0065  -0.0093   0.00    1.1
2024/10/07 10:30:31.000   28.314157917  -16.495700097  2228.2155   2   8   0.0106   0.0283   0.0375   0.0089   0.0065  -0.0093   1.00    1.2
2024/10/07 10:30:32.000   28.314157921  -16.495700089  2228.2163   2   8   0.0106   0.0283   0.0375   0.0089   0.0065  -0.0093   2.00    1.2
2024/10/07 10:30:33.000   28.314157926  -16.495700081  2228.2171   2   8   0.0106   0.0283   0.0375   0.0089   0.0064  -0.0093   3.00    1.5
2024/10/07 10:30:34.000   28.314157931  -16.495700071  2228.2178   2   8   0.0106   0.0283   0.0375   0.0089   0.0064  -0.0093   4.00    1.2
2024/10/07 10:30:35.000   28.314157935  -16.495700064  2228.2185   2   8   0.0106   0.0283   0.0375   0.0089   0.0064  -0.0093   5.00    1.5
2024/10/07 10:30:36.000   28.314157938  -16.495700057  2228.2187   2   8   0.0106   0.0283   0.0375   0.0089   0.0064  -0.0093   6.00    1.0
2024/10/07 10:30:37.000   28.314157940  -16.495700051  2228.2189   2   8   0.0106   0.0283   0.0375   0.0089   0.0064  -0.0093   7.00    1.2
2024/10/07 10:30:38.000   28.314157941  -16.495700047  2228.2191   2   8   0.0106   0.0283   0.0375   0.0089   0.0064  -0.0093   8.00    1.3
