% program   : RTKPOST-EX 2.5.0
% inp file  : C:\Users\SallyHenry\Desktop\Sally Internship\GNSS gravi\DATA\Survey Rover Obs\GUI31.24o
% inp file  : C:\Users\SallyHenry\Desktop\Sally Internship\GNSS gravi\DATA\BaseStations\IZAN\IZAN00ESP_R_20242810000_01D_30S_MO.rnx
% inp file  : C:\Users\SallyHenry\Desktop\Sally Internship\GNSS gravi\DATA\BaseStations\IZAN\IZAN00ESP_R_20242810000_01D_MN.rnx
% inp file  : C:\Users\SallyHenry\Desktop\Sally Internship\GNSS gravi\DATA\aux_files\Survey\IGS0OPSFIN_20242810000_01D_15M_ORB.SP3
% inp file  : C:\Users\SallyHenry\Desktop\Sally Internship\GNSS gravi\DATA\aux_files\Survey\IGS0OPSFIN_20242810000_01D_30S_CLK.CLK
% obs start : 2024/10/07 11:13:27.0 GPST (week2335 126807.0s)
% obs end   : 2024/10/07 11:28:27.0 GPST (week2335 127707.0s)
% pos mode  : Static
% freqs     : L1+L2/E5b
% solution  : Combined-No Phase Reset
% elev mask : 15.0 deg
% dynamics  : on
% tidecorr  : solid
% ionos opt : Estimate TEC
% tropo opt : Estimate ZTD+Grad
% ephemeris : Precise
% navi sys  : GPS GLONASS Galileo QZSS BDS
% amb res   : Fix and Hold
% amb glo   : Fix and Hold
% amb bds   : on
% val thres : 3.0
% antenna1  :                       ( 0.0000  0.0000  1.8000)
% antenna2  :                       ( 0.0000  0.0000  0.0000)
% ref pos   :  28.308069410  -16.499677180  2417.4044
%
% (lat/lon/height=WGS84/ellipsoidal,Q=1:fix,2:float,3:sbas,4:dgps,5:single,6:ppp,ns=# of satellites)
%  GPST                  latitude(deg) longitude(deg)  height(m)   Q  ns   sdn(m)   sde(m)   sdu(m)  sdne(m)  sdeu(m)  sdun(m) age(s)  ratio
2024/10/07 11:13:27.000   28.316327865  -16.472389209  1719.5335   1   7   0.0026   0.0020   0.0306   0.0001   0.0044   0.0044  -3.00   53.5
2024/10/07 11:13:28.000   28.316327865  -16.472389209  1719.5331   1   7   0.0026   0.0020   0.0306   0.0001   0.0044   0.0045  -2.00   51.8
2024/10/07 11:13:29.000   28.316327865  -16.472389209  1719.5326   1   7   0.0026   0.0020   0.0307   0.0001   0.0044   0.0045  -1.00   49.3
2024/10/07 11:13:30.000   28.316327864  -16.472389209  1719.5314   1   7   0.0026   0.0020   0.0307   0.0001   0.0044   0.0045   0.00   46.1
2024/10/07 11:13:31.000   28.316327864  -16.472389209  1719.5322   1   7   0.0026   0.0020   0.0307   0.0001   0.0044   0.0045   1.00   42.8
2024/10/07 11:13:32.000   28.316327865  -16.472389208  1719.5329   1   7   0.0026   0.0020   0.0308   0.0001   0.0044   0.0045   2.00   39.5
2024/10/07 11:13:33.000   28.316327865  -16.472389208  1719.5337   1   7   0.0026   0.0020   0.0308   0.0002   0.0045   0.0045   3.00   36.7
2024/10/07 11:13:34.000   28.316327865  -16.472389208  1719.5346   1   7   0.0026   0.0020   0.0308   0.0002   0.0045   0.0045   4.00   34.2
2024/10/07 11:13:35.000   28.316327866  -16.472389208  1719.5352   1   7   0.0026   0.0020   0.0308   0.0002   0.0045   0.0046   5.00   32.2
2024/10/07 11:13:36.000   28.316327866  -16.472389208  1719.5359   1   7   0.0026   0.0020   0.0309   0.0002   0.0045   0.0046   6.00   30.4
2024/10/07 11:13:37.000   28.316327866  -16.472389208  1719.5363   1   7   0.0026   0.0020   0.0309   0.0002   0.0045   0.0046   7.00   29.0
2024/10/07 11:13:38.000   28.316327866  -16.472389208  1719.5368   1   7   0.0026   0.0020   0.0309   0.0002   0.0045   0.0046   8.00   27.6
2024/10/07 11:13:39.000   28.316327867  -16.472389208  1719.5371   1   7   0.0026   0.0020   0.0309   0.0002   0.0045   0.0046   9.00   26.5
2024/10/07 11:13:40.000   28.316327867  -16.472389208  1719.5374   1   7   0.0026   0.0020   0.0309   0.0002   0.0045   0.0046  10.00   25.4
2024/10/07 11:13:41.000   28.316327867  -16.472389208  1719.5376   1   7   0.0026   0.0020   0.0309   0.0002   0.0045   0.0046  11.00   24.5
2024/10/07 11:13:42.000   28.316327867  -16.472389208  1719.5377   1   7   0.0026   0.0020   0.0309   0.0002   0.0045   0.0046  12.00   23.7
2024/10/07 11:13:43.000   28.316327867  -16.472389208  1719.5379   1   7   0.0026   0.0020   0.0309   0.0002   0.0045   0.0046  13.00   22.9
2024/10/07 11:13:44.000   28.316327867  -16.472389208  1719.5379   1   7   0.0026   0.0020   0.0309   0.0002   0.0045   0.0046  14.00   22.1
2024/10/07 11:13:45.000   28.316327868  -16.472389208  1719.5380   1   7   0.0026   0.0020   0.0309   0.0002   0.0045   0.0046  15.00   21.5
2024/10/07 11:13:46.000   28.316327868  -16.472389208  1719.5381   1   7   0.0026   0.0020   0.0309   0.0002   0.0045   0.0046 -14.00   20.8
2024/10/07 11:13:47.000   28.316327868  -16.472389208  1719.5381   1   7   0.0026   0.0020   0.0309   0.0002   0.0045   0.0046 -13.00   20.1
2024/10/07 11:13:48.000   28.316327868  -16.472389208  1719.5382   1   7   0.0026   0.0020   0.0309   0.0002   0.0045   0.0046 -12.00   19.4
2024/10/07 11:13:49.000   28.316327868  -16.472389208  1719.5382   1   7   0.0026   0.0020   0.0309   0.0002   0.0045   0.0046 -11.00   18.6
2024/10/07 11:13:50.000   28.316327868  -16.472389208  1719.5384   1   7   0.0026   0.0020   0.0309   0.0002   0.0045   0.0046 -10.00   17.8
2024/10/07 11:13:51.000   28.316327869  -16.472389208  1719.5386   1   7   0.0026   0.0020   0.0309   0.0002   0.0045   0.0046  -9.00   16.9
2024/10/07 11:13:52.000   28.316327869  -16.472389208  1719.5389   1   7   0.0026   0.0020   0.0309   0.0002   0.0045   0.0046  -8.00   16.0
2024/10/07 11:13:53.000   28.316327869  -16.472389207  1719.5393   1   7   0.0026   0.0020   0.0309   0.0002   0.0045   0.0046  -7.00   14.9
2024/10/07 11:13:54.000   28.316327870  -16.472389207  1719.5398   1   7   0.0026   0.0020   0.0309   0.0002   0.0045   0.0046  -6.00   13.6
2024/10/07 11:13:55.000   28.316327871  -16.472389207  1719.5406   1   7   0.0026   0.0020   0.0309   0.0002   0.0045   0.0047  -5.00   12.1
2024/10/07 11:13:56.000   28.316327871  -16.472389207  1719.5414   1   7   0.0026   0.0020   0.0309   0.0002   0.0045   0.0047  -4.00   10.3
2024/10/07 11:13:57.000   28.316327873  -16.472389207  1719.5427   1   7   0.0026   0.0020   0.0309   0.0002   0.0045   0.0047  -3.00    8.0
2024/10/07 11:13:58.000   28.316327874  -16.472389206  1719.5441   1   7   0.0026   0.0020   0.0310   0.0002   0.0045   0.0047  -2.00    4.9
2024/10/07 11:13:59.000   28.316327876  -16.472389206  1719.5459   1   7   0.0026   0.0020   0.0310   0.0003   0.0045   0.0047  -1.00   74.4
2024/10/07 11:14:00.000   28.316327875  -16.472389206  1719.5446   1   7   0.0026   0.0020   0.0310   0.0003   0.0045   0.0047   0.00   74.6
2024/10/07 11:14:01.000   28.316327711  -16.472389273  1719.2912   1   7   0.0025   0.0019   0.0289  -0.0004   0.0041   0.0036   1.00   17.2
2024/10/07 11:14:02.000   28.316327712  -16.472389273  1719.2931   1   7   0.0025   0.0019   0.0289  -0.0004   0.0041   0.0036   2.00   17.3
2024/10/07 11:14:03.000   28.316327713  -16.472389272  1719.2945   1   7   0.0025   0.0019   0.0290  -0.0004   0.0041   0.0036   3.00   17.3
2024/10/07 11:14:04.000   28.316327713  -16.472389272  1719.2956   1   7   0.0025   0.0019   0.0290  -0.0004   0.0041   0.0036   4.00   17.3
2024/10/07 11:14:05.000   28.316327714  -16.472389272  1719.2964   1   7   0.0025   0.0019   0.0290  -0.0004   0.0041   0.0036   5.00   17.3
2024/10/07 11:14:06.000   28.316327714  -16.472389272  1719.2971   1   7   0.0025   0.0019   0.0290  -0.0004   0.0041   0.0036   6.00   17.3
2024/10/07 11:14:07.000   28.316327715  -16.472389271  1719.2977   1   7   0.0025   0.0019   0.0290  -0.0004   0.0041   0.0037   7.00   17.3
2024/10/07 11:14:08.000   28.316327715  -16.472389271  1719.2980   1   7   0.0025   0.0019   0.0290  -0.0004   0.0041   0.0037   8.00   17.3
2024/10/07 11:14:09.000   28.316327715  -16.472389271  1719.2982   1   7   0.0025   0.0019   0.0290  -0.0004   0.0041   0.0037   9.00   17.3
2024/10/07 11:14:10.000   28.316327715  -16.472389271  1719.2984   1   7   0.0025   0.0019   0.0290  -0.0004   0.0041   0.0037  10.00   17.3
2024/10/07 11:14:11.000   28.316327716  -16.472389271  1719.2984   1   7   0.0025   0.0019   0.0290  -0.0004   0.0041   0.0037  11.00   17.3
2024/10/07 11:14:12.000   28.316327716  -16.472389271  1719.2984   1   7   0.0025   0.0019   0.0290  -0.0004   0.0041   0.0037  12.00   17.3
2024/10/07 11:14:13.000   28.316327716  -16.472389271  1719.2983   1   7   0.0025   0.0019   0.0290  -0.0004   0.0041   0.0037  13.00   17.2
2024/10/07 11:14:14.000   28.316327716  -16.472389271  1719.2982   1   7   0.0025   0.0019   0.0290  -0.0004   0.0041   0.0037  14.00   17.2
2024/10/07 11:14:15.000   28.316327716  -16.472389271  1719.2981   1   7   0.0025   0.0019   0.0290  -0.0004   0.0041   0.0037  15.00   17.2
2024/10/07 11:14:16.000   28.316327716  -16.472389272  1719.2980   1   7   0.0025   0.0019   0.0290  -0.0004   0.0041   0.0037 -14.00   17.2
2024/10/07 11:14:17.000   28.316327716  -16.472389272  1719.2978   1   7   0.0025   0.0019   0.0290  -0.0004   0.0041   0.0037 -13.00   17.2
2024/10/07 11:14:18.000   28.316327717  -16.472389272  1719.2977   1   7   0.0025   0.0019   0.0290  -0.0004   0.0041   0.0037 -12.00   17.1
2024/10/07 11:14:19.000   28.316327717  -16.472389272  1719.2976   1   7   0.0025   0.0019   0.0289  -0.0004   0.0041   0.0037 -11.00   17.1
2024/10/07 11:14:20.000   28.316327717  -16.472389272  1719.2975   1   7   0.0025   0.0019   0.0289  -0.0004   0.0041   0.0037 -10.00   17.1
2024/10/07 11:14:21.000   28.316327717  -16.472389272  1719.2976   1   7   0.0025   0.0019   0.0289  -0.0004   0.0041   0.0037  -9.00   17.1
2024/10/07 11:14:22.000   28.316327717  -16.472389272  1719.2977   1   7   0.0025   0.0019   0.0289  -0.0004   0.0041   0.0037  -8.00   17.1
2024/10/07 11:14:23.000   28.316327718  -16.472389272  1719.2979   1   7   0.0025   0.0019   0.0289  -0.0004   0.0041   0.0037  -7.00   17.1
2024/10/07 11:14:24.000   28.316327718  -16.472389272  1719.2983   1   7   0.0025   0.0019   0.0289  -0.0004   0.0041   0.0037  -6.00   17.2
2024/10/07 11:14:25.000   28.316327719  -16.472389271  1719.2989   1   7   0.0025   0.0019   0.0289  -0.0004   0.0041   0.0037  -5.00   17.2
2024/10/07 11:14:26.000   28.316327720  -16.472389271  1719.2997   1   7   0.0025   0.0019   0.0290  -0.0004   0.0041   0.0037  -4.00   17.3
2024/10/07 11:14:27.000   28.316327721  -16.472389271  1719.3012   1   7   0.0025   0.0019   0.0290  -0.0004   0.0041   0.0037  -3.00   17.4
2024/10/07 11:14:28.000   28.316327722  -16.472389270  1719.3021   1   7   0.0025   0.0019   0.0290  -0.0004   0.0041   0.0037  -2.00   17.6
2024/10/07 11:14:29.000   28.316327723  -16.472389269  1719.3039   1   7   0.0025   0.0019   0.0290  -0.0004   0.0041   0.0037  -1.00   17.8
2024/10/07 11:14:30.000   28.316327724  -16.472389269  1719.3051   1   7   0.0025   0.0019   0.0290  -0.0004   0.0041   0.0037   0.00   18.0
2024/10/07 11:14:31.000   28.316327726  -16.472389268  1719.3084   1   7   0.0025   0.0019   0.0291  -0.0004   0.0041   0.0038   1.00   18.3
2024/10/07 11:14:32.000   28.316327728  -16.472389267  1719.3118   1   7   0.0025   0.0019   0.0291  -0.0004   0.0041   0.0038   2.00   18.6
2024/10/07 11:14:33.000   28.316327730  -16.472389266  1719.3145   1   7   0.0025   0.0019   0.0291  -0.0004   0.0041   0.0038   3.00   18.8
2024/10/07 11:14:34.000   28.316327731  -16.472389265  1719.3169   1   7   0.0025   0.0019   0.0291  -0.0004   0.0041   0.0038   4.00   19.0
2024/10/07 11:14:35.000   28.316327732  -16.472389265  1719.3188   1   7   0.0025   0.0019   0.0291  -0.0004   0.0041   0.0038   5.00   19.1
2024/10/07 11:14:36.000   28.316327733  -16.472389264  1719.3203   1   7   0.0025   0.0019   0.0291  -0.0004   0.0041   0.0038   6.00   19.2
2024/10/07 11:14:37.000   28.316327734  -16.472389264  1719.3217   1   7   0.0025   0.0019   0.0291  -0.0004   0.0041   0.0038   7.00   19.3
2024/10/07 11:14:38.000   28.316327735  -16.472389264  1719.3227   1   7   0.0025   0.0019   0.0291  -0.0004   0.0041   0.0038   8.00   19.4
2024/10/07 11:14:39.000   28.316327735  -16.472389263  1719.3236   1   7   0.0025   0.0019   0.0291  -0.0004   0.0041   0.0038   9.00   19.5
2024/10/07 11:14:40.000   28.316327736  -16.472389263  1719.3243   1   7   0.0025   0.0019   0.0291  -0.0004   0.0041   0.0038  10.00   19.5
2024/10/07 11:14:41.000   28.316327736  -16.472389263  1719.3249   1   7   0.0025   0.0019   0.0291  -0.0004   0.0041   0.0038  11.00   19.5
2024/10/07 11:14:42.000   28.316327737  -16.472389263  1719.3253   1   7   0.0025   0.0019   0.0291  -0.0004   0.0041   0.0038  12.00   19.5
2024/10/07 11:14:43.000   28.316327737  -16.472389263  1719.3256   1   7   0.0025   0.0019   0.0291  -0.0004   0.0041   0.0038  13.00   19.5
2024/10/07 11:14:44.000   28.316327737  -16.472389263  1719.3258   1   7   0.0025   0.0019   0.0291  -0.0004   0.0041   0.0038  14.00   19.5
2024/10/07 11:14:45.000   28.316327738  -16.472389263  1719.3260   1   7   0.0025   0.0019   0.0291  -0.0004   0.0041   0.0038  15.00   19.5
2024/10/07 11:14:46.000   28.316327738  -16.472389263  1719.3260   1   7   0.0025   0.0019   0.0291  -0.0004   0.0041   0.0038 -14.00   19.5
2024/10/07 11:14:47.000   28.316327738  -16.472389263  1719.3261   1   7   0.0025   0.0019   0.0291  -0.0004   0.0041   0.0038 -13.00   19.5
2024/10/07 11:14:48.000   28.316327738  -16.472389263  1719.3264   1   7   0.0025   0.0019   0.0291  -0.0004   0.0041   0.0038 -12.00   19.5
2024/10/07 11:14:49.000   28.316327739  -16.472389263  1719.3266   1   7   0.0025   0.0019   0.0291  -0.0004   0.0041   0.0038 -11.00   19.5
2024/10/07 11:14:50.000   28.316327739  -16.472389263  1719.3270   1   7   0.0025   0.0019   0.0291  -0.0004   0.0041   0.0038 -10.00   19.5
2024/10/07 11:14:51.000   28.316327740  -16.472389263  1719.3273   1   7   0.0025   0.0019   0.0291  -0.0004   0.0041   0.0038  -9.00   19.6
2024/10/07 11:14:52.000   28.316327740  -16.472389263  1719.3278   1   7   0.0025   0.0019   0.0291  -0.0004   0.0041   0.0038  -8.00   19.6
2024/10/07 11:14:53.000   28.316327741  -16.472389263  1719.3285   1   7   0.0025   0.0019   0.0291  -0.0004   0.0041   0.0038  -7.00   19.6
2024/10/07 11:14:54.000   28.316327741  -16.472389262  1719.3293   1   7   0.0025   0.0019   0.0291  -0.0004   0.0041   0.0039  -6.00   19.7
2024/10/07 11:14:55.000   28.316327742  -16.472389262  1719.3306   1   7   0.0025   0.0019   0.0291  -0.0004   0.0041   0.0039  -5.00   19.8
2024/10/07 11:14:56.000   28.316327743  -16.472389261  1719.3322   1   7   0.0025   0.0019   0.0291  -0.0004   0.0041   0.0039  -4.00   19.9
2024/10/07 11:14:57.000   28.316327744  -16.472389261  1719.3341   1   7   0.0025   0.0019   0.0291  -0.0004   0.0041   0.0039  -3.00   20.1
2024/10/07 11:14:58.000   28.316327746  -16.472389260  1719.3367   1   7   0.0025   0.0019   0.0291  -0.0003   0.0041   0.0039  -2.00   20.4
2024/10/07 11:14:59.000   28.316327748  -16.472389259  1719.3392   1   7   0.0025   0.0019   0.0292  -0.0003   0.0041   0.0039  -1.00   20.8
2024/10/07 11:15:00.000   28.316327750  -16.472389258  1719.3421   1   7   0.0025   0.0019   0.0292  -0.0003   0.0041   0.0039   0.00   21.2
2024/10/07 11:15:01.000   28.316327752  -16.472389256  1719.3468   1   7   0.0025   0.0019   0.0292  -0.0003   0.0042   0.0039   1.00   21.7
2024/10/07 11:15:02.000   28.316327755  -16.472389255  1719.3514   1   7   0.0025   0.0019   0.0292  -0.0003   0.0042   0.0039   2.00   22.3
2024/10/07 11:15:03.000   28.316327757  -16.472389254  1719.3553   1   7   0.0025   0.0019   0.0293  -0.0003   0.0042   0.0039   3.00   22.7
2024/10/07 11:15:04.000   28.316327759  -16.472389253  1719.3582   1   7   0.0025   0.0019   0.0293  -0.0003   0.0042   0.0039   4.00   23.1
2024/10/07 11:15:05.000   28.316327760  -16.472389252  1719.3607   1   7   0.0025   0.0019   0.0293  -0.0003   0.0042   0.0039   5.00   23.3
2024/10/07 11:15:06.000   28.316327761  -16.472389252  1719.3625   1   7   0.0025   0.0019   0.0293  -0.0003   0.0042   0.0039   6.00   23.6
2024/10/07 11:15:07.000   28.316327762  -16.472389251  1719.3638   1   7   0.0025   0.0019   0.0293  -0.0003   0.0042   0.0040   7.00   23.7
2024/10/07 11:15:08.000   28.316327763  -16.472389251  1719.3650   1   7   0.0025   0.0019   0.0293  -0.0003   0.0042   0.0040   8.00   23.8
2024/10/07 11:15:09.000   28.316327764  -16.472389251  1719.3658   1   7   0.0025   0.0019   0.0293  -0.0003   0.0042   0.0040   9.00   23.9
2024/10/07 11:15:10.000   28.316327764  -16.472389251  1719.3665   1   7   0.0025   0.0019   0.0293  -0.0003   0.0042   0.0040  10.00   24.0
2024/10/07 11:15:11.000   28.316327765  -16.472389251  1719.3669   1   7   0.0025   0.0019   0.0293  -0.0003   0.0042   0.0040  11.00   24.1
2024/10/07 11:15:12.000   28.316327765  -16.472389250  1719.3672   1   7   0.0025   0.0019   0.0293  -0.0003   0.0042   0.0040  12.00   24.1
2024/10/07 11:15:13.000   28.316327765  -16.472389250  1719.3674   1   7   0.0025   0.0019   0.0293  -0.0003   0.0042   0.0040  13.00   24.1
2024/10/07 11:15:14.000   28.316327766  -16.472389250  1719.3675   1   7   0.0025   0.0019   0.0293  -0.0003   0.0042   0.0040  14.00   24.1
2024/10/07 11:15:15.000   28.316327766  -16.472389250  1719.3676   1   7   0.0025   0.0019   0.0293  -0.0003   0.0042   0.0040  15.00   24.1
2024/10/07 11:15:16.000   28.316327766  -16.472389250  1719.3676   1   7   0.0025   0.0019   0.0293  -0.0003   0.0042   0.0040 -14.00   24.1
2024/10/07 11:15:17.000   28.316327767  -16.472389250  1719.3677   1   7   0.0025   0.0019   0.0293  -0.0003   0.0042   0.0040 -13.00   24.2
2024/10/07 11:15:18.000   28.316327767  -16.472389250  1719.3678   1   7   0.0025   0.0019   0.0293  -0.0003   0.0042   0.0040 -12.00   24.2
2024/10/07 11:15:19.000   28.316327767  -16.472389250  1719.3680   1   7   0.0025   0.0019   0.0293  -0.0003   0.0042   0.0040 -11.00   24.2
2024/10/07 11:15:20.000   28.316327768  -16.472389250  1719.3682   1   7   0.0025   0.0019   0.0293  -0.0003   0.0042   0.0040 -10.00   24.2
2024/10/07 11:15:21.000   28.316327768  -16.472389250  1719.3685   1   7   0.0025   0.0019   0.0293  -0.0003   0.0042   0.0040  -9.00   24.3
2024/10/07 11:15:22.000   28.316327769  -16.472389250  1719.3689   1   7   0.0025   0.0019   0.0293  -0.0003   0.0042   0.0040  -8.00   24.3
2024/10/07 11:15:23.000   28.316327769  -16.472389250  1719.3695   1   7   0.0025   0.0019   0.0293  -0.0003   0.0042   0.0040  -7.00   24.4
2024/10/07 11:15:24.000   28.316327770  -16.472389250  1719.3702   1   7   0.0025   0.0019   0.0293  -0.0003   0.0042   0.0040  -6.00   24.5
2024/10/07 11:15:25.000   28.316327771  -16.472389249  1719.3714   1   7   0.0025   0.0019   0.0293  -0.0003   0.0042   0.0040  -5.00   24.7
2024/10/07 11:15:26.000   28.316327772  -16.472389249  1719.3731   1   7   0.0025   0.0019   0.0293  -0.0003   0.0042   0.0040  -4.00   25.0
2024/10/07 11:15:27.000   28.316327773  -16.472389248  1719.3751   1   7   0.0025   0.0019   0.0293  -0.0003   0.0042   0.0040  -3.00   25.3
2024/10/07 11:15:28.000   28.316327775  -16.472389248  1719.3773   1   7   0.0025   0.0019   0.0293  -0.0003   0.0042   0.0040  -2.00   25.7
2024/10/07 11:15:29.000   28.316327776  -16.472389247  1719.3804   1   7   0.0025   0.0019   0.0293  -0.0003   0.0042   0.0040  -1.00   26.3
2024/10/07 11:15:30.000   28.316327778  -16.472389246  1719.3837   1   7   0.0025   0.0019   0.0294  -0.0003   0.0042   0.0041   0.00   27.0
2024/10/07 11:15:31.000   28.316327781  -16.472389244  1719.3891   1   7   0.0025   0.0019   0.0294  -0.0003   0.0042   0.0041   1.00   28.0
2024/10/07 11:15:32.000   28.316327784  -16.472389243  1719.3941   1   7   0.0025   0.0019   0.0294  -0.0003   0.0042   0.0041   2.00   28.8
2024/10/07 11:15:33.000   28.316327786  -16.472389242  1719.3983   1   7   0.0025   0.0019   0.0295  -0.0003   0.0042   0.0041   3.00   29.5
2024/10/07 11:15:34.000   28.316327788  -16.472389241  1719.4016   1   7   0.0025   0.0019   0.0295  -0.0003   0.0042   0.0041   4.00   30.1
2024/10/07 11:15:35.000   28.316327790  -16.472389240  1719.4043   1   7   0.0025   0.0019   0.0295  -0.0003   0.0042   0.0041   5.00   30.6
2024/10/07 11:15:36.000   28.316327791  -16.472389240  1719.4064   1   7   0.0025   0.0019   0.0295  -0.0003   0.0042   0.0041   6.00   31.0
2024/10/07 11:15:37.000   28.316327792  -16.472389239  1719.4083   1   7   0.0025   0.0019   0.0295  -0.0003   0.0042   0.0041   7.00   31.3
2024/10/07 11:15:38.000   28.316327793  -16.472389239  1719.4098   1   7   0.0025   0.0019   0.0295  -0.0003   0.0042   0.0041   8.00   31.5
2024/10/07 11:15:39.000   28.316327793  -16.472389239  1719.4108   1   7   0.0025   0.0019   0.0295  -0.0003   0.0042   0.0041   9.00   31.7
2024/10/07 11:15:40.000   28.316327794  -16.472389238  1719.4118   1   7   0.0025   0.0019   0.0295  -0.0003   0.0042   0.0041  10.00   31.8
2024/10/07 11:15:41.000   28.316327794  -16.472389238  1719.4125   1   7   0.0025   0.0019   0.0295  -0.0003   0.0042   0.0041  11.00   32.0
2024/10/07 11:15:42.000   28.316327795  -16.472389238  1719.4131   1   7   0.0025   0.0019   0.0295  -0.0003   0.0042   0.0041  12.00   32.0
2024/10/07 11:15:43.000   28.316327795  -16.472389238  1719.4135   1   7   0.0025   0.0019   0.0295  -0.0003   0.0042   0.0041  13.00   32.1
2024/10/07 11:15:44.000   28.316327796  -16.472389238  1719.4139   1   7   0.0025   0.0019   0.0295  -0.0003   0.0042   0.0041  14.00   32.2
2024/10/07 11:15:45.000   28.316327796  -16.472389238  1719.4141   1   7   0.0025   0.0019   0.0295  -0.0003   0.0042   0.0041  15.00   32.2
2024/10/07 11:15:46.000   28.316327796  -16.472389238  1719.4143   1   7   0.0025   0.0019   0.0295  -0.0003   0.0042   0.0041 -14.00   32.2
2024/10/07 11:15:47.000   28.316327796  -16.472389238  1719.4145   1   7   0.0025   0.0019   0.0295  -0.0003   0.0042   0.0041 -13.00   32.3
2024/10/07 11:15:48.000   28.316327797  -16.472389238  1719.4148   1   7   0.0025   0.0019   0.0295  -0.0003   0.0042   0.0041 -12.00   32.3
2024/10/07 11:15:49.000   28.316327797  -16.472389238  1719.4151   1   7   0.0025   0.0019   0.0295  -0.0003   0.0042   0.0041 -11.00   32.4
2024/10/07 11:15:50.000   28.316327798  -16.472389237  1719.4156   1   7   0.0025   0.0019   0.0295  -0.0003   0.0042   0.0042 -10.00   32.5
2024/10/07 11:15:51.000   28.316327798  -16.472389237  1719.4162   1   7   0.0025   0.0019   0.0295  -0.0003   0.0042   0.0042  -9.00   32.6
2024/10/07 11:15:52.000   28.316327799  -16.472389237  1719.4171   1   7   0.0025   0.0019   0.0295  -0.0003   0.0042   0.0042  -8.00   32.8
2024/10/07 11:15:53.000   28.316327799  -16.472389237  1719.4180   1   7   0.0025   0.0019   0.0295  -0.0003   0.0042   0.0042  -7.00   32.9
2024/10/07 11:15:54.000   28.316327800  -16.472389236  1719.4195   1   7   0.0025   0.0019   0.0295  -0.0003   0.0042   0.0042  -6.00   33.2
2024/10/07 11:15:55.000   28.316327801  -16.472389236  1719.4212   1   7   0.0025   0.0019   0.0295  -0.0003   0.0042   0.0042  -5.00   33.5
2024/10/07 11:15:56.000   28.316327803  -16.472389235  1719.4234   1   7   0.0025   0.0019   0.0295  -0.0002   0.0042   0.0042  -4.00   34.0
2024/10/07 11:15:57.000   28.316327804  -16.472389234  1719.4261   1   7   0.0025   0.0019   0.0295  -0.0002   0.0042   0.0042  -3.00   34.5
2024/10/07 11:15:58.000   28.316327806  -16.472389233  1719.4290   1   7   0.0025   0.0019   0.0295  -0.0002   0.0042   0.0042  -2.00   35.2
2024/10/07 11:15:59.000   28.316327808  -16.472389232  1719.4326   1   7   0.0025   0.0019   0.0296  -0.0002   0.0042   0.0042  -1.00   36.2
2024/10/07 11:16:00.000   28.316327810  -16.472389231  1719.4364   1   7   0.0025   0.0019   0.0296  -0.0002   0.0042   0.0042   0.00   37.4
2024/10/07 11:16:01.000   28.316327813  -16.472389229  1719.4418   1   7   0.0025   0.0019   0.0296  -0.0002   0.0042   0.0042   1.00   38.8
2024/10/07 11:16:02.000   28.316327815  -16.472389227  1719.4472   1   7   0.0025   0.0019   0.0297  -0.0002   0.0042   0.0042   2.00   40.3
2024/10/07 11:16:03.000   28.316327818  -16.472389226  1719.4517   1   7   0.0025   0.0019   0.0297  -0.0002   0.0042   0.0042   3.00   41.5
2024/10/07 11:16:04.000   28.316327820  -16.472389225  1719.4555   1   7   0.0025   0.0019   0.0297  -0.0002   0.0042   0.0043   4.00   42.7
2024/10/07 11:16:05.000   28.316327821  -16.472389224  1719.4586   1   7   0.0025   0.0019   0.0297  -0.0002   0.0042   0.0043   5.00   43.5
2024/10/07 11:16:06.000   28.316327823  -16.472389224  1719.4609   1   7   0.0025   0.0019   0.0297  -0.0002   0.0042   0.0043   6.00   44.2
2024/10/07 11:16:07.000   28.316327824  -16.472389223  1719.4628   1   7   0.0025   0.0019   0.0297  -0.0002   0.0042   0.0043   7.00   44.8
2024/10/07 11:16:08.000   28.316327825  -16.472389223  1719.4644   1   7   0.0025   0.0019   0.0297  -0.0002   0.0042   0.0043   8.00   45.3
2024/10/07 11:16:09.000   28.316327826  -16.472389222  1719.4656   1   7   0.0025   0.0019   0.0297  -0.0002   0.0042   0.0043   9.00   45.6
2024/10/07 11:16:10.000   28.316327826  -16.472389222  1719.4665   1   7   0.0025   0.0019   0.0297  -0.0002   0.0042   0.0043  10.00   45.9
2024/10/07 11:16:11.000   28.316327826  -16.472389222  1719.4672   1   7   0.0025   0.0019   0.0297  -0.0002   0.0042   0.0043  11.00   46.0
2024/10/07 11:16:12.000   28.316327827  -16.472389222  1719.4677   1   7   0.0025   0.0019   0.0297  -0.0002   0.0042   0.0043  12.00   46.2
2024/10/07 11:16:13.000   28.316327827  -16.472389221  1719.4682   1   7   0.0025   0.0019   0.0297  -0.0002   0.0042   0.0043  13.00   46.3
2024/10/07 11:16:14.000   28.316327827  -16.472389221  1719.4685   1   7   0.0025   0.0019   0.0297  -0.0002   0.0042   0.0043  14.00   46.4
2024/10/07 11:16:15.000   28.316327828  -16.472389221  1719.4688   1   7   0.0025   0.0019   0.0297  -0.0002   0.0042   0.0043  15.00   46.5
2024/10/07 11:16:16.000   28.316327828  -16.472389221  1719.4689   1   7   0.0025   0.0019   0.0297  -0.0002   0.0042   0.0043 -14.00   46.5
2024/10/07 11:16:17.000   28.316327828  -16.472389221  1719.4691   1   7   0.0025   0.0019   0.0297  -0.0002   0.0042   0.0043 -13.00   46.6
2024/10/07 11:16:18.000   28.316327829  -16.472389221  1719.4693   1   7   0.0025   0.0019   0.0297  -0.0002   0.0042   0.0043 -12.00   46.6
2024/10/07 11:16:19.000   28.316327829  -16.472389221  1719.4696   1   7   0.0025   0.0019   0.0297  -0.0002   0.0042   0.0043 -11.00   46.7
2024/10/07 11:16:20.000   28.316327829  -16.472389221  1719.4700   1   7   0.0025   0.0019   0.0297  -0.0002   0.0042   0.0043 -10.00   46.8
2024/10/07 11:16:21.000   28.316327829  -16.472389221  1719.4704   1   7   0.0025   0.0019   0.0297  -0.0002   0.0042   0.0043  -9.00   46.9
2024/10/07 11:16:22.000   28.316327830  -16.472389220  1719.4708   1   7   0.0025   0.0019   0.0297  -0.0002   0.0042   0.0043  -8.00   47.0
2024/10/07 11:16:23.000   28.316327830  -16.472389220  1719.4712   1   7   0.0025   0.0019   0.0297  -0.0002   0.0042   0.0043  -7.00   47.1
2024/10/07 11:16:24.000   28.316327830  -16.472389220  1719.4715   1   7   0.0025   0.0019   0.0297  -0.0002   0.0042   0.0043  -6.00   47.1
2024/10/07 11:16:25.000   28.316327830  -16.472389220  1719.4720   1   7   0.0025   0.0019   0.0297  -0.0002   0.0042   0.0043  -5.00   47.3
2024/10/07 11:16:26.000   28.316327830  -16.472389219  1719.4728   1   7   0.0025   0.0019   0.0297  -0.0002   0.0042   0.0043  -4.00   47.5
2024/10/07 11:16:27.000   28.316327830  -16.472389219  1719.4733   1   7   0.0025   0.0019   0.0298  -0.0002   0.0042   0.0044  -3.00   47.6
2024/10/07 11:16:28.000   28.316327831  -16.472389218  1719.4748   1   7   0.0025   0.0019   0.0298  -0.0002   0.0042   0.0044  -2.00   48.2
2024/10/07 11:16:29.000   28.316327831  -16.472389218  1719.4760   1   7   0.0025   0.0019   0.0298  -0.0002   0.0042   0.0044  -1.00   48.8
2024/10/07 11:16:30.000   28.316327831  -16.472389217  1719.4769   1   7   0.0025   0.0019   0.0298  -0.0001   0.0042   0.0044   0.00   49.6
2024/10/07 11:16:31.000   28.316327831  -16.472389216  1719.4797   1   7   0.0025   0.0019   0.0299  -0.0001   0.0042   0.0044   1.00   50.1
2024/10/07 11:16:32.000   28.316327832  -16.472389215  1719.4825   1   7   0.0025   0.0019   0.0299  -0.0001   0.0043   0.0044   2.00   50.9
2024/10/07 11:16:33.000   28.316327833  -16.472389214  1719.4851   1   7   0.0025   0.0019   0.0299  -0.0001   0.0043   0.0044   3.00   51.5
2024/10/07 11:16:34.000   28.316327834  -16.472389213  1719.4877   1   7   0.0025   0.0019   0.0300  -0.0001   0.0043   0.0044   4.00   52.2
2024/10/07 11:16:35.000   28.316327835  -16.472389213  1719.4895   1   7   0.0025   0.0019   0.0300  -0.0001   0.0043   0.0044   5.00   52.6
2024/10/07 11:16:36.000   28.316327835  -16.472389212  1719.4906   1   7   0.0025   0.0019   0.0300  -0.0001   0.0043   0.0044   6.00   52.8
2024/10/07 11:16:37.000   28.316327835  -16.472389212  1719.4915   1   7   0.0025   0.0019   0.0300  -0.0001   0.0043   0.0044   7.00   52.9
2024/10/07 11:16:38.000   28.316327835  -16.472389212  1719.4920   1   7   0.0025   0.0019   0.0300  -0.0001   0.0043   0.0045   8.00   52.9
2024/10/07 11:16:39.000   28.316327836  -16.472389212  1719.4927   1   7   0.0025   0.0019   0.0300  -0.0001   0.0043   0.0045   9.00   52.9
2024/10/07 11:16:40.000   28.316327836  -16.472389212  1719.4932   1   7   0.0025   0.0019   0.0300  -0.0001   0.0043   0.0045  10.00   52.9
2024/10/07 11:16:41.000   28.316327836  -16.472389211  1719.4938   1   7   0.0025   0.0019   0.0300  -0.0001   0.0043   0.0045  11.00   53.1
2024/10/07 11:16:42.000   28.316327837  -16.472389211  1719.4944   1   7   0.0025   0.0019   0.0300  -0.0001   0.0043   0.0045  12.00   53.3
2024/10/07 11:16:43.000   28.316327837  -16.472389211  1719.4950   1   7   0.0025   0.0019   0.0300  -0.0001   0.0043   0.0045  13.00   53.5
2024/10/07 11:16:44.000   28.316327837  -16.472389211  1719.4955   1   7   0.0025   0.0019   0.0300  -0.0001   0.0043   0.0045  14.00   53.7
2024/10/07 11:16:45.000   28.316327838  -16.472389211  1719.4959   1   7   0.0025   0.0019   0.0300  -0.0001   0.0043   0.0045  15.00   53.8
2024/10/07 11:16:46.000   28.316327838  -16.472389211  1719.4962   1   7   0.0025   0.0019   0.0300  -0.0001   0.0043   0.0045 -14.00   53.9
2024/10/07 11:16:47.000   28.316327838  -16.472389211  1719.4966   1   7   0.0025   0.0019   0.0300  -0.0000   0.0043   0.0045 -13.00   54.1
2024/10/07 11:16:48.000   28.316327839  -16.472389210  1719.4970   1   7   0.0025   0.0019   0.0300  -0.0000   0.0043   0.0045 -12.00   54.2
2024/10/07 11:16:49.000   28.316327839  -16.472389210  1719.4975   1   7   0.0025   0.0019   0.0300  -0.0000   0.0043   0.0045 -11.00   54.5
2024/10/07 11:16:50.000   28.316327840  -16.472389210  1719.4980   1   7   0.0025   0.0019   0.0300   0.0000   0.0043   0.0045 -10.00   54.7
2024/10/07 11:16:51.000   28.316327840  -16.472389210  1719.4987   1   7   0.0025   0.0019   0.0300   0.0000   0.0043   0.0045  -9.00   55.0
2024/10/07 11:16:52.000   28.316327841  -16.472389210  1719.4997   1   7   0.0025   0.0019   0.0300   0.0001   0.0043   0.0045  -8.00   55.5
2024/10/07 11:16:53.000   28.316327842  -16.472389209  1719.5007   1   7   0.0025   0.0019   0.0300   0.0001   0.0043   0.0045  -7.00   56.0
2024/10/07 11:16:54.000   28.316327843  -16.472389209  1719.5020   1   7   0.0025   0.0019   0.0300   0.0001   0.0043   0.0045  -6.00   56.8
2024/10/07 11:16:55.000   28.316327844  -16.472389208  1719.5036   1   7   0.0025   0.0019   0.0300   0.0001   0.0043   0.0045  -5.00   57.7
2024/10/07 11:16:56.000   28.316327846  -16.472389208  1719.5055   1   7   0.0025   0.0019   0.0300   0.0001   0.0043   0.0045  -4.00   58.9
2024/10/07 11:16:57.000   28.316327848  -16.472389207  1719.5080   1   7   0.0025   0.0019   0.0300   0.0001   0.0043   0.0045  -3.00   60.5
2024/10/07 11:16:58.000   28.316327850  -16.472389206  1719.5106   1   7   0.0025   0.0019   0.0301   0.0001   0.0043   0.0045  -2.00   62.4
2024/10/07 11:16:59.000   28.316327852  -16.472389205  1719.5135   1   7   0.0025   0.0019   0.0301   0.0001   0.0043   0.0046  -1.00   64.8
2024/10/07 11:17:00.000   28.316327854  -16.472389204  1719.5163   1   7   0.0025   0.0019   0.0301   0.0001   0.0043   0.0046   0.00   67.6
2024/10/07 11:17:01.000   28.316327857  -16.472389202  1719.5210   1   7   0.0025   0.0019   0.0302   0.0001   0.0043   0.0046   1.00   70.8
2024/10/07 11:17:02.000   28.316327859  -16.472389201  1719.5251   1   7   0.0025   0.0019   0.0302   0.0001   0.0043   0.0046   2.00   73.8
2024/10/07 11:17:03.000   28.316327861  -16.472389200  1719.5283   1   7   0.0025   0.0019   0.0302   0.0001   0.0043   0.0046   3.00   76.1
2024/10/07 11:17:04.000   28.316327862  -16.472389199  1719.5314   1   7   0.0025   0.0019   0.0303   0.0001   0.0043   0.0046   4.00   78.2
2024/10/07 11:17:05.000   28.316327864  -16.472389199  1719.5337   1   7   0.0025   0.0019   0.0303   0.0002   0.0043   0.0046   5.00   79.8
2024/10/07 11:17:06.000   28.316327865  -16.472389198  1719.5355   1   7   0.0025   0.0019   0.0303   0.0002   0.0043   0.0046   6.00   80.9
2024/10/07 11:17:07.000   28.316327865  -16.472389198  1719.5371   1   7   0.0025   0.0019   0.0303   0.0002   0.0043   0.0046   7.00   82.1
2024/10/07 11:17:08.000   28.316327866  -16.472389198  1719.5384   1   7   0.0025   0.0019   0.0303   0.0002   0.0043   0.0046   8.00   82.8
2024/10/07 11:17:09.000   28.316327867  -16.472389197  1719.5394   1   7   0.0025   0.0019   0.0303   0.0002   0.0043   0.0046   9.00   83.4
2024/10/07 11:17:10.000   28.316327867  -16.472389197  1719.5403   1   7   0.0025   0.0019   0.0303   0.0002   0.0043   0.0046  10.00   83.9
2024/10/07 11:17:11.000   28.316327867  -16.472389197  1719.5409   1   7   0.0025   0.0019   0.0303   0.0002   0.0043   0.0047  11.00   84.2
2024/10/07 11:17:12.000   28.316327868  -16.472389197  1719.5414   1   7   0.0025   0.0019   0.0303   0.0002   0.0043   0.0047  12.00   84.5
2024/10/07 11:17:13.000   28.316327868  -16.472389197  1719.5416   1   7   0.0025   0.0019   0.0303   0.0002   0.0043   0.0047  13.00   84.6
2024/10/07 11:17:14.000   28.316327868  -16.472389197  1719.5419   1   7   0.0025   0.0019   0.0303   0.0002   0.0043   0.0047  14.00   84.7
2024/10/07 11:17:15.000   28.316327868  -16.472389197  1719.5421   1   7   0.0025   0.0019   0.0303   0.0002   0.0043   0.0047  15.00   84.7
2024/10/07 11:17:16.000   28.316327868  -16.472389197  1719.5423   1   7   0.0025   0.0019   0.0303   0.0002   0.0043   0.0047 -14.00   84.7
2024/10/07 11:17:17.000   28.316327869  -16.472389197  1719.5425   1   7   0.0025   0.0019   0.0303   0.0002   0.0043   0.0047 -13.00   84.8
2024/10/07 11:17:18.000   28.316327869  -16.472389197  1719.5426   1   7   0.0025   0.0019   0.0303   0.0002   0.0043   0.0047 -12.00   84.8
2024/10/07 11:17:19.000   28.316327869  -16.472389197  1719.5428   1   7   0.0025   0.0019   0.0303   0.0002   0.0043   0.0047 -11.00   84.9
2024/10/07 11:17:20.000   28.316327869  -16.472389197  1719.5431   1   7   0.0025   0.0019   0.0303   0.0002   0.0043   0.0047 -10.00   85.1
2024/10/07 11:17:21.000   28.316327870  -16.472389196  1719.5436   1   7   0.0025   0.0019   0.0303   0.0002   0.0043   0.0047  -9.00   85.3
2024/10/07 11:17:22.000   28.316327870  -16.472389196  1719.5439   1   7   0.0025   0.0018   0.0303   0.0002   0.0043   0.0047  -8.00   85.6
2024/10/07 11:17:23.000   28.316327870  -16.472389196  1719.5444   1   7   0.0025   0.0018   0.0303   0.0002   0.0043   0.0047  -7.00   85.8
2024/10/07 11:17:24.000   28.316327871  -16.472389196  1719.5451   1   7   0.0025   0.0018   0.0303   0.0002   0.0043   0.0047  -6.00   86.4
2024/10/07 11:17:25.000   28.316327871  -16.472389196  1719.5460   1   7   0.0025   0.0018   0.0303   0.0002   0.0043   0.0047  -5.00   87.1
2024/10/07 11:17:26.000   28.316327872  -16.472389195  1719.5471   1   7   0.0025   0.0018   0.0303   0.0002   0.0043   0.0047  -4.00   87.8
2024/10/07 11:17:27.000   28.316327873  -16.472389195  1719.5485   1   7   0.0025   0.0018   0.0304   0.0002   0.0043   0.0047  -3.00   89.4
2024/10/07 11:17:28.000   28.316327874  -16.472389194  1719.5499   1   7   0.0025   0.0018   0.0304   0.0002   0.0043   0.0047  -2.00   91.2
2024/10/07 11:17:29.000   28.316327875  -16.472389193  1719.5518   1   7   0.0025   0.0018   0.0304   0.0002   0.0043   0.0047  -1.00   94.3
2024/10/07 11:17:30.000   28.316327876  -16.472389193  1719.5526   1   7   0.0025   0.0018   0.0305   0.0002   0.0043   0.0048   0.00   96.9
2024/10/07 11:17:31.000   28.316327878  -16.472389192  1719.5555   1   7   0.0025   0.0018   0.0305   0.0002   0.0043   0.0048   1.00   99.3
2024/10/07 11:17:32.000   28.316327879  -16.472389191  1719.5586   1   7   0.0025   0.0018   0.0305   0.0002   0.0043   0.0048   2.00  102.1
2024/10/07 11:17:33.000   28.316327880  -16.472389190  1719.5603   1   7   0.0025   0.0018   0.0306   0.0002   0.0043   0.0048   3.00  103.4
2024/10/07 11:17:34.000   28.316327881  -16.472389189  1719.5628   1   7   0.0025   0.0018   0.0306   0.0002   0.0043   0.0048   4.00  105.4
2024/10/07 11:17:35.000   28.316327882  -16.472389189  1719.5645   1   7   0.0025   0.0018   0.0306   0.0003   0.0044   0.0048   5.00  106.8
2024/10/07 11:17:36.000   28.316327883  -16.472389188  1719.5661   1   7   0.0025   0.0018   0.0306   0.0003   0.0044   0.0048   6.00  107.9
2024/10/07 11:17:37.000   28.316327884  -16.472389188  1719.5672   1   7   0.0025   0.0018   0.0307   0.0003   0.0044   0.0048   7.00  108.6
2024/10/07 11:17:38.000   28.316327884  -16.472389188  1719.5681   1   7   0.0025   0.0018   0.0307   0.0003   0.0044   0.0048   8.00  109.1
2024/10/07 11:17:39.000   28.316327885  -16.472389187  1719.5689   1   7   0.0025   0.0018   0.0307   0.0003   0.0044   0.0048   9.00  109.6
2024/10/07 11:17:40.000   28.316327885  -16.472389187  1719.5696   1   7   0.0025   0.0018   0.0307   0.0003   0.0044   0.0049  10.00  110.0
2024/10/07 11:17:41.000   28.316327885  -16.472389187  1719.5701   1   7   0.0025   0.0018   0.0307   0.0003   0.0044   0.0049  11.00  110.2
2024/10/07 11:17:42.000   28.316327886  -16.472389187  1719.5707   1   7   0.0025   0.0018   0.0307   0.0003   0.0044   0.0049  12.00  110.5
2024/10/07 11:17:43.000   28.316327886  -16.472389187  1719.5712   1   7   0.0025   0.0018   0.0307   0.0003   0.0044   0.0049  13.00  110.9
2024/10/07 11:17:44.000   28.316327886  -16.472389187  1719.5717   1   7   0.0025   0.0018   0.0307   0.0003   0.0044   0.0049  14.00  111.1
2024/10/07 11:17:45.000   28.316327887  -16.472389187  1719.5721   1   7   0.0025   0.0018   0.0307   0.0003   0.0044   0.0049  15.00  111.4
2024/10/07 11:17:46.000   28.316327887  -16.472389187  1719.5724   1   7   0.0025   0.0018   0.0307   0.0003   0.0044   0.0049 -14.00  111.6
2024/10/07 11:17:47.000   28.316327887  -16.472389186  1719.5727   1   7   0.0025   0.0018   0.0307   0.0003   0.0044   0.0049 -13.00  111.9
2024/10/07 11:17:48.000   28.316327888  -16.472389186  1719.5731   1   7   0.0025   0.0018   0.0307   0.0003   0.0044   0.0049 -12.00  112.1
2024/10/07 11:17:49.000   28.316327888  -16.472389186  1719.5735   1   7   0.0025   0.0018   0.0307   0.0003   0.0044   0.0049 -11.00  112.2
2024/10/07 11:17:50.000   28.316327888  -16.472389186  1719.5737   1   7   0.0025   0.0018   0.0307   0.0003   0.0044   0.0049 -10.00  112.3
2024/10/07 11:17:51.000   28.316327888  -16.472389186  1719.5742   1   7   0.0025   0.0018   0.0307   0.0003   0.0044   0.0049  -9.00  112.5
2024/10/07 11:17:52.000   28.316327889  -16.472389186  1719.5744   1   7   0.0025   0.0018   0.0307   0.0003   0.0044   0.0049  -8.00  112.5
2024/10/07 11:17:53.000   28.316327889  -16.472389186  1719.5750   1   7   0.0025   0.0018   0.0307   0.0003   0.0044   0.0049  -7.00  112.8
2024/10/07 11:17:54.000   28.316327889  -16.472389185  1719.5755   1   7   0.0025   0.0018   0.0307   0.0003   0.0044   0.0049  -6.00  113.1
2024/10/07 11:17:55.000   28.316327890  -16.472389185  1719.5763   1   7   0.0025   0.0018   0.0307   0.0003   0.0044   0.0049  -5.00  113.8
2024/10/07 11:17:56.000   28.316327890  -16.472389185  1719.5771   1   7   0.0025   0.0018   0.0307   0.0003   0.0044   0.0049  -4.00  114.4
2024/10/07 11:17:57.000   28.316327891  -16.472389185  1719.5781   1   7   0.0025   0.0018   0.0307   0.0003   0.0044   0.0049  -3.00  115.4
2024/10/07 11:17:58.000   28.316327892  -16.472389184  1719.5792   1   7   0.0025   0.0018   0.0308   0.0003   0.0044   0.0049  -2.00  117.0
2024/10/07 11:17:59.000   28.316327893  -16.472389184  1719.5802   1   7   0.0025   0.0018   0.0308   0.0003   0.0044   0.0050  -1.00  116.8
2024/10/07 11:18:00.000   28.316327894  -16.472389183  1719.5809   1   7   0.0025   0.0018   0.0309   0.0003   0.0044   0.0050   0.00  116.3
2024/10/07 11:18:01.000   28.316327896  -16.472389183  1719.5832   1   7   0.0025   0.0018   0.0309   0.0003   0.0044   0.0050   1.00  115.6
2024/10/07 11:18:02.000   28.316327898  -16.472389182  1719.5853   1   7   0.0025   0.0018   0.0309   0.0003   0.0044   0.0050   2.00  115.0
2024/10/07 11:18:03.000   28.316327899  -16.472389181  1719.5872   1   7   0.0025   0.0018   0.0310   0.0003   0.0044   0.0050   3.00  114.4
2024/10/07 11:18:04.000   28.316327901  -16.472389181  1719.5890   1   7   0.0025   0.0018   0.0310   0.0003   0.0044   0.0050   4.00  114.0
2024/10/07 11:18:05.000   28.316327902  -16.472389180  1719.5904   1   7   0.0025   0.0018   0.0310   0.0003   0.0044   0.0050   5.00  112.5
2024/10/07 11:18:06.000   28.316327902  -16.472389180  1719.5915   1   7   0.0025   0.0018   0.0311   0.0003   0.0044   0.0051   6.00  111.2
2024/10/07 11:18:07.000   28.316327903  -16.472389180  1719.5922   1   7   0.0025   0.0018   0.0311   0.0003   0.0044   0.0051   7.00  109.6
2024/10/07 11:18:08.000   28.316327903  -16.472389180  1719.5926   1   7   0.0025   0.0018   0.0311   0.0003   0.0044   0.0051   8.00  107.9
2024/10/07 11:18:09.000   28.316327904  -16.472389179  1719.5930   1   7   0.0025   0.0018   0.0311   0.0003   0.0044   0.0051   9.00  106.1
2024/10/07 11:18:10.000   28.316327904  -16.472389179  1719.5933   1   7   0.0025   0.0018   0.0311   0.0003   0.0044   0.0051  10.00  104.2
2024/10/07 11:18:11.001   28.316327904  -16.472389179  1719.5934   1   7   0.0025   0.0018   0.0311   0.0003   0.0044   0.0051  11.00  102.3
2024/10/07 11:18:12.000   28.316327904  -16.472389179  1719.5935   1   7   0.0025   0.0018   0.0311   0.0003   0.0044   0.0051  12.00  100.5
2024/10/07 11:18:13.000   28.316327904  -16.472389179  1719.5937   1   7   0.0025   0.0018   0.0311   0.0003   0.0044   0.0051  13.00   99.1
2024/10/07 11:18:14.000   28.316327905  -16.472389179  1719.5938   1   7   0.0025   0.0018   0.0311   0.0003   0.0044   0.0051  14.00   97.7
2024/10/07 11:18:15.000   28.316327905  -16.472389179  1719.5939   1   7   0.0025   0.0018   0.0311   0.0003   0.0044   0.0051  15.00   96.4
2024/10/07 11:18:16.000   28.316327905  -16.472389179  1719.5940   1   7   0.0025   0.0018   0.0311   0.0003   0.0044   0.0051 -14.00   95.2
2024/10/07 11:18:17.000   28.316327905  -16.472389179  1719.5941   1   7   0.0025   0.0018   0.0311   0.0003   0.0044   0.0051 -13.00   93.9
2024/10/07 11:18:18.000   28.316327905  -16.472389179  1719.5942   1   7   0.0025   0.0018   0.0311   0.0004   0.0044   0.0051 -12.00   92.6
2024/10/07 11:18:19.000   28.316327905  -16.472389179  1719.5943   1   7   0.0025   0.0018   0.0311   0.0004   0.0044   0.0051 -11.00   91.2
2024/10/07 11:18:20.000   28.316327906  -16.472389179  1719.5944   1   7   0.0025   0.0018   0.0311   0.0004   0.0044   0.0051 -10.00   89.7
2024/10/07 11:18:21.000   28.316327906  -16.472389179  1719.5945   1   7   0.0025   0.0018   0.0311   0.0004   0.0044   0.0051  -9.00   88.1
2024/10/07 11:18:22.000   28.316327906  -16.472389179  1719.5949   1   7   0.0025   0.0018   0.0311   0.0004   0.0044   0.0051  -8.00   86.7
2024/10/07 11:18:23.000   28.316327907  -16.472389179  1719.5953   1   7   0.0025   0.0018   0.0311   0.0004   0.0044   0.0051  -7.00   85.0
2024/10/07 11:18:24.000   28.316327907  -16.472389179  1719.5954   1   7   0.0025   0.0018   0.0311   0.0004   0.0044   0.0051  -6.00   82.6
2024/10/07 11:18:25.000   28.316327908  -16.472389178  1719.5958   1   7   0.0025   0.0018   0.0311   0.0004   0.0044   0.0051  -5.00   80.1
2024/10/07 11:18:26.000   28.316327908  -16.472389178  1719.5961   1   7   0.0025   0.0018   0.0312   0.0004   0.0044   0.0052  -4.00   77.0
2024/10/07 11:18:27.000   28.316327909  -16.472389178  1719.5962   1   7   0.0025   0.0018   0.0312   0.0004   0.0044   0.0052  -3.00   73.0
2024/10/07 11:18:28.000   28.316327909  -16.472389178  1719.5962   1   7   0.0025   0.0018   0.0312   0.0004   0.0044   0.0052  -2.00   67.5
2024/10/07 11:18:29.000   28.316327910  -16.472389177  1719.5962   1   7   0.0025   0.0018   0.0313   0.0004   0.0044   0.0052  -1.00   61.8
2024/10/07 11:18:30.000   28.316327911  -16.472389177  1719.5965   1   7   0.0025   0.0018   0.0313   0.0004   0.0044   0.0052   0.00   54.9
2024/10/07 11:18:31.000   28.316327912  -16.472389177  1719.5973   1   7   0.0025   0.0018   0.0314   0.0004   0.0044   0.0052   1.00   47.1
2024/10/07 11:18:32.000   28.316327913  -16.472389176  1719.5978   1   7   0.0025   0.0018   0.0314   0.0004   0.0044   0.0053   2.00   39.5
2024/10/07 11:18:33.000   28.316327914  -16.472389176  1719.5979   1   7   0.0025   0.0018   0.0315   0.0004   0.0045   0.0053   3.00   31.4
2024/10/07 11:18:34.000   28.316327914  -16.472389176  1719.5972   1   7   0.0025   0.0018   0.0315   0.0004   0.0045   0.0053   4.00   25.4
2024/10/07 11:18:35.000   28.316327914  -16.472389176  1719.5972   1   7   0.0025   0.0018   0.0315   0.0004   0.0045   0.0053   5.00   20.3
2024/10/07 11:18:36.000   28.316327915  -16.472389176  1719.5975   1   7   0.0025   0.0018   0.0315   0.0004   0.0045   0.0053   6.00   15.4
2024/10/07 11:18:37.000   28.316327915  -16.472389176  1719.5976   1   7   0.0025   0.0018   0.0316   0.0004   0.0045   0.0053   7.00   10.7
2024/10/07 11:18:38.000   28.316327916  -16.472389175  1719.5988   1   7   0.0026   0.0018   0.0316   0.0004   0.0045   0.0054   8.00  124.7
2024/10/07 11:18:39.000   28.316327917  -16.472389175  1719.5988   1   7   0.0026   0.0018   0.0316   0.0004   0.0045   0.0054   9.00  124.3
2024/10/07 11:18:40.000   28.316327917  -16.472389175  1719.5988   1   7   0.0026   0.0018   0.0316   0.0004   0.0045   0.0054  10.00  124.0
2024/10/07 11:18:41.000   28.316327917  -16.472389175  1719.5988   1   7   0.0026   0.0018   0.0316   0.0004   0.0045   0.0054  11.00  123.6
2024/10/07 11:18:42.000   28.316327917  -16.472389175  1719.5987   1   7   0.0026   0.0018   0.0316   0.0004   0.0045   0.0054  12.00  123.4
2024/10/07 11:18:43.000   28.316327915  -16.472389176  1719.5962   1   7   0.0025   0.0018   0.0315   0.0004   0.0045   0.0053  13.00   28.1
2024/10/07 11:18:44.000   28.316327915  -16.472389176  1719.5963   1   7   0.0025   0.0018   0.0315   0.0004   0.0045   0.0053  14.00   26.4
2024/10/07 11:18:45.000   28.316327916  -16.472389175  1719.5965   1   7   0.0025   0.0018   0.0315   0.0004   0.0045   0.0053  15.00   24.9
2024/10/07 11:18:46.000   28.316327916  -16.472389175  1719.5966   1   7   0.0025   0.0018   0.0315   0.0004   0.0045   0.0053 -14.00   23.4
2024/10/07 11:18:47.000   28.316327916  -16.472389175  1719.5967   1   7   0.0025   0.0018   0.0315   0.0004   0.0045   0.0053 -13.00   21.9
2024/10/07 11:18:48.000   28.316327916  -16.472389175  1719.5971   1   7   0.0025   0.0018   0.0315   0.0004   0.0045   0.0053 -12.00   20.5
2024/10/07 11:18:49.000   28.316327917  -16.472389175  1719.5974   1   7   0.0025   0.0018   0.0315   0.0004   0.0045   0.0053 -11.00   18.7
2024/10/07 11:18:50.000   28.316327917  -16.472389175  1719.5977   1   7   0.0025   0.0018   0.0315   0.0004   0.0045   0.0054 -10.00   16.8
2024/10/07 11:18:51.000   28.316327918  -16.472389175  1719.5979   1   7   0.0025   0.0018   0.0315   0.0004   0.0045   0.0054  -9.00   14.5
2024/10/07 11:18:52.000   28.316327918  -16.472389175  1719.5982   1   7   0.0025   0.0018   0.0316   0.0004   0.0045   0.0054  -8.00   11.7
2024/10/07 11:18:53.000   28.316327918  -16.472389175  1719.5982   1   7   0.0025   0.0018   0.0316   0.0004   0.0045   0.0054  -7.00    8.6
2024/10/07 11:18:54.000   28.316327919  -16.472389175  1719.5981   1   7   0.0025   0.0018   0.0316   0.0004   0.0045   0.0054  -6.00    4.4
2024/10/07 11:18:55.000   28.316327919  -16.472389174  1719.5982   1   6   0.0025   0.0018   0.0316   0.0004   0.0045   0.0054  -5.00  122.4
2024/10/07 11:18:56.000   28.316327919  -16.472389174  1719.5976   1   6   0.0025   0.0018   0.0316   0.0004   0.0045   0.0054  -4.00  122.5
2024/10/07 11:18:57.000   28.316327919  -16.472389174  1719.5971   1   6   0.0025   0.0018   0.0316   0.0004   0.0045   0.0054  -3.00  122.4
2024/10/07 11:18:58.000   28.316327919  -16.472389174  1719.5963   1   6   0.0025   0.0018   0.0316   0.0004   0.0045   0.0054  -2.00  122.6
2024/10/07 11:18:59.000   28.316327919  -16.472389174  1719.5954   1   6   0.0025   0.0018   0.0316   0.0004   0.0045   0.0054  -1.00  123.0
2024/10/07 11:19:00.000   28.316327919  -16.472389174  1719.5938   1   6   0.0025   0.0018   0.0316   0.0004   0.0045   0.0054   0.00  123.4
2024/10/07 11:19:01.000   28.316327920  -16.472389173  1719.5933   1   6   0.0025   0.0018   0.0316   0.0004   0.0045   0.0054   1.00  122.8
2024/10/07 11:19:02.000   28.316327920  -16.472389173  1719.5930   1   6   0.0025   0.0018   0.0316   0.0004   0.0045   0.0054   2.00  122.2
2024/10/07 11:19:03.000   28.316327921  -16.472389173  1719.5927   1   6   0.0025   0.0018   0.0316   0.0004   0.0045   0.0054   3.00  121.5
2024/10/07 11:19:04.000   28.316327921  -16.472389172  1719.5925   1   6   0.0025   0.0018   0.0316   0.0004   0.0045   0.0054   4.00  120.9
2024/10/07 11:19:05.000   28.316327921  -16.472389172  1719.5924   1   6   0.0025   0.0018   0.0317   0.0004   0.0045   0.0054   5.00  120.1
2024/10/07 11:19:06.000   28.316327922  -16.472389172  1719.5923   1   6   0.0025   0.0018   0.0317   0.0004   0.0045   0.0054   6.00  119.5
2024/10/07 11:19:07.000   28.316327922  -16.472389172  1719.5921   1   6   0.0025   0.0018   0.0317   0.0004   0.0045   0.0054   7.00  118.8
2024/10/07 11:19:08.000   28.316327922  -16.472389172  1719.5921   1   6   0.0025   0.0018   0.0316   0.0004   0.0045   0.0054   8.00  118.3
2024/10/07 11:19:09.000   28.316327922  -16.472389172  1719.5920   1   6   0.0025   0.0018   0.0316   0.0004   0.0045   0.0054   9.00  117.7
2024/10/07 11:19:10.000   28.316327923  -16.472389172  1719.5920   1   6   0.0025   0.0018   0.0316   0.0004   0.0045   0.0054  10.00  117.2
2024/10/07 11:19:11.000   28.316327923  -16.472389172  1719.5919   1   6   0.0025   0.0018   0.0316   0.0004   0.0045   0.0054  11.00  116.8
2024/10/07 11:19:12.000   28.316327923  -16.472389172  1719.5919   1   6   0.0025   0.0018   0.0316   0.0004   0.0045   0.0054  12.00  116.3
2024/10/07 11:19:13.000   28.316327923  -16.472389172  1719.5918   1   6   0.0025   0.0018   0.0316   0.0004   0.0045   0.0054  13.00  115.9
2024/10/07 11:19:14.000   28.316327923  -16.472389172  1719.5918   1   6   0.0025   0.0018   0.0316   0.0004   0.0045   0.0054  14.00  115.6
2024/10/07 11:19:15.000   28.316327923  -16.472389172  1719.5917   1   6   0.0025   0.0018   0.0316   0.0004   0.0045   0.0054  15.00  115.2
2024/10/07 11:19:16.000   28.316327924  -16.472389172  1719.5917   1   6   0.0025   0.0018   0.0316   0.0004   0.0045   0.0054 -14.00  114.9
2024/10/07 11:19:17.000   28.316327924  -16.472389172  1719.5916   1   6   0.0025   0.0018   0.0316   0.0004   0.0045   0.0054 -13.00  114.5
2024/10/07 11:19:18.000   28.316327924  -16.472389172  1719.5914   1   6   0.0025   0.0018   0.0316   0.0004   0.0045   0.0054 -12.00  114.2
2024/10/07 11:19:19.000   28.316327924  -16.472389172  1719.5913   1   6   0.0025   0.0018   0.0316   0.0004   0.0045   0.0054 -11.00  113.9
2024/10/07 11:19:20.000   28.316327924  -16.472389172  1719.5911   1   6   0.0025   0.0018   0.0316   0.0004   0.0045   0.0054 -10.00  113.5
2024/10/07 11:19:21.000   28.316327912  -16.472389176  1719.5717   1   7   0.0025   0.0018   0.0309   0.0003   0.0043   0.0051  -9.00  103.9
2024/10/07 11:19:22.000   28.316327912  -16.472389176  1719.5712   1   7   0.0025   0.0018   0.0308   0.0003   0.0043   0.0051  -8.00  103.3
2024/10/07 11:19:23.000   28.316327912  -16.472389176  1719.5706   1   7   0.0025   0.0018   0.0308   0.0003   0.0043   0.0051  -7.00  102.7
2024/10/07 11:19:24.000   28.316327912  -16.472389176  1719.5698   1   7   0.0025   0.0018   0.0308   0.0003   0.0043   0.0051  -6.00  102.0
2024/10/07 11:19:25.000   28.316327912  -16.472389177  1719.5690   1   7   0.0025   0.0018   0.0308   0.0003   0.0043   0.0051  -5.00  101.1
2024/10/07 11:19:26.000   28.316327865  -16.472389187  1719.5034   1   7   0.0024   0.0018   0.0293  -0.0001   0.0042   0.0043  -4.00   85.2
2024/10/07 11:19:27.000   28.316327864  -16.472389188  1719.5013   1   7   0.0024   0.0018   0.0293  -0.0001   0.0042   0.0043  -3.00   83.8
2024/10/07 11:19:28.000   28.316327863  -16.472389188  1719.4987   1   7   0.0024   0.0018   0.0293  -0.0001   0.0042   0.0043  -2.00   82.3
2024/10/07 11:19:29.000   28.316327862  -16.472389189  1719.4949   1   7   0.0024   0.0018   0.0294  -0.0001   0.0042   0.0043  -1.00   80.4
2024/10/07 11:19:30.000   28.316327861  -16.472389190  1719.4904   1   7   0.0024   0.0018   0.0294  -0.0001   0.0042   0.0043   0.00   78.5
2024/10/07 11:19:31.000   28.316327860  -16.472389190  1719.4880   1   7   0.0024   0.0018   0.0294  -0.0001   0.0042   0.0043   1.00   76.3
2024/10/07 11:19:32.000   28.316327859  -16.472389191  1719.4850   1   7   0.0024   0.0018   0.0295  -0.0001   0.0042   0.0043   2.00   73.8
2024/10/07 11:19:33.000   28.316327859  -16.472389191  1719.4829   1   7   0.0024   0.0018   0.0295  -0.0000   0.0042   0.0043   3.00   72.2
2024/10/07 11:19:34.000   28.316327859  -16.472389192  1719.4809   1   7   0.0024   0.0018   0.0295  -0.0000   0.0042   0.0043   4.00   70.6
2024/10/07 11:19:35.000   28.316327858  -16.472389192  1719.4794   1   7   0.0024   0.0018   0.0295  -0.0000   0.0042   0.0044   5.00   69.4
2024/10/07 11:19:36.000   28.316327858  -16.472389192  1719.4782   1   7   0.0024   0.0018   0.0296   0.0000   0.0042   0.0044   6.00   68.4
2024/10/07 11:19:37.000   28.316327858  -16.472389193  1719.4771   1   7   0.0024   0.0018   0.0296   0.0000   0.0042   0.0044   7.00   67.5
2024/10/07 11:19:38.000   28.316327858  -16.472389193  1719.4764   1   7   0.0024   0.0018   0.0296   0.0000   0.0042   0.0044   8.00   66.8
2024/10/07 11:19:39.000   28.316327858  -16.472389193  1719.4758   1   7   0.0024   0.0018   0.0296   0.0001   0.0042   0.0044   9.00   66.3
2024/10/07 11:19:40.000   28.316327858  -16.472389193  1719.4753   1   7   0.0024   0.0018   0.0296   0.0001   0.0042   0.0044  10.00   65.8
2024/10/07 11:19:41.000   28.316327858  -16.472389193  1719.4748   1   7   0.0024   0.0018   0.0296   0.0001   0.0042   0.0044  11.00   65.4
2024/10/07 11:19:42.000   28.316327858  -16.472389193  1719.4744   1   7   0.0024   0.0018   0.0296   0.0001   0.0042   0.0044  12.00   65.0
2024/10/07 11:19:43.000   28.316327858  -16.472389193  1719.4739   1   7   0.0024   0.0018   0.0296   0.0001   0.0042   0.0044  13.00   64.6
2024/10/07 11:19:44.000   28.316327858  -16.472389194  1719.4735   1   7   0.0024   0.0018   0.0296   0.0001   0.0042   0.0044  14.00   64.2
2024/10/07 11:19:45.000   28.316327858  -16.472389194  1719.4732   1   7   0.0024   0.0018   0.0295   0.0001   0.0042   0.0044  15.00   63.9
2024/10/07 11:19:46.000   28.316327858  -16.472389194  1719.4728   1   7   0.0024   0.0018   0.0295   0.0001   0.0042   0.0044 -14.00   63.6
2024/10/07 11:19:47.000   28.316327858  -16.472389194  1719.4724   1   7   0.0024   0.0018   0.0295   0.0001   0.0042   0.0044 -13.00   63.2
2024/10/07 11:19:48.000   28.316327858  -16.472389194  1719.4719   1   7   0.0024   0.0018   0.0295   0.0001   0.0042   0.0044 -12.00   62.9
2024/10/07 11:19:49.000   28.316327858  -16.472389194  1719.4714   1   7   0.0024   0.0018   0.0295   0.0001   0.0042   0.0044 -11.00   62.5
2024/10/07 11:19:50.000   28.316327858  -16.472389194  1719.4707   1   7   0.0024   0.0018   0.0295   0.0001   0.0042   0.0044 -10.00   62.0
2024/10/07 11:19:51.000   28.316327858  -16.472389195  1719.4700   1   7   0.0024   0.0018   0.0295   0.0001   0.0042   0.0044  -9.00   61.6
2024/10/07 11:19:52.000   28.316327858  -16.472389195  1719.4691   1   7   0.0024   0.0018   0.0295   0.0001   0.0042   0.0044  -8.00   61.1
2024/10/07 11:19:53.000   28.316327858  -16.472389195  1719.4682   1   7   0.0024   0.0018   0.0295   0.0001   0.0042   0.0044  -7.00   60.6
2024/10/07 11:19:54.000   28.316327857  -16.472389195  1719.4670   1   7   0.0024   0.0018   0.0295   0.0001   0.0042   0.0044  -6.00   60.0
2024/10/07 11:19:55.000   28.316327857  -16.472389196  1719.4657   1   7   0.0024   0.0018   0.0295   0.0001   0.0042   0.0044  -5.00   59.3
2024/10/07 11:19:56.000   28.316327857  -16.472389196  1719.4638   1   7   0.0024   0.0018   0.0296   0.0001   0.0042   0.0044  -4.00   58.5
2024/10/07 11:19:57.000   28.316327856  -16.472389197  1719.4616   1   7   0.0024   0.0018   0.0296   0.0001   0.0042   0.0044  -3.00   57.6
2024/10/07 11:19:58.000   28.316327855  -16.472389197  1719.4580   1   7   0.0024   0.0018   0.0296   0.0001   0.0042   0.0044  -2.00   56.5
2024/10/07 11:19:59.000   28.316327854  -16.472389198  1719.4544   1   7   0.0024   0.0018   0.0296   0.0001   0.0042   0.0045  -1.00   55.2
2024/10/07 11:20:00.000   28.316327853  -16.472389199  1719.4500   1   7   0.0024   0.0018   0.0297   0.0001   0.0042   0.0045   0.00   53.8
2024/10/07 11:20:01.000   28.316327852  -16.472389200  1719.4471   1   7   0.0024   0.0018   0.0297   0.0001   0.0042   0.0045   1.00   52.4
2024/10/07 11:20:02.000   28.316327852  -16.472389200  1719.4449   1   7   0.0024   0.0018   0.0297   0.0002   0.0042   0.0045   2.00   51.2
2024/10/07 11:20:03.000   28.316327852  -16.472389200  1719.4430   1   7   0.0024   0.0018   0.0298   0.0002   0.0042   0.0045   3.00   50.2
2024/10/07 11:20:04.000   28.316327851  -16.472389201  1719.4416   1   7   0.0024   0.0018   0.0298   0.0002   0.0042   0.0045   4.00   49.2
2024/10/07 11:20:05.000   28.316327851  -16.472389201  1719.4406   1   7   0.0024   0.0018   0.0298   0.0002   0.0042   0.0045   5.00   48.5
2024/10/07 11:20:06.000   28.316327851  -16.472389201  1719.4399   1   7   0.0024   0.0018   0.0298   0.0002   0.0042   0.0045   6.00   47.9
2024/10/07 11:20:07.000   28.316327851  -16.472389201  1719.4393   1   7   0.0024   0.0018   0.0298   0.0002   0.0042   0.0045   7.00   47.3
2024/10/07 11:20:08.000   28.316327851  -16.472389201  1719.4390   1   7   0.0024   0.0018   0.0298   0.0002   0.0042   0.0045   8.00   47.0
2024/10/07 11:20:09.000   28.316327850  -16.472389201  1719.4387   1   7   0.0024   0.0018   0.0298   0.0002   0.0042   0.0045   9.00   46.6
2024/10/07 11:20:10.000   28.316327850  -16.472389201  1719.4385   1   7   0.0024   0.0018   0.0298   0.0002   0.0042   0.0045  10.00   46.3
2024/10/07 11:20:11.000   28.316327850  -16.472389201  1719.4384   1   7   0.0024   0.0018   0.0298   0.0002   0.0042   0.0045  11.00   46.1
2024/10/07 11:20:12.000   28.316327851  -16.472389201  1719.4383   1   7   0.0024   0.0018   0.0298   0.0002   0.0042   0.0045  12.00   45.9
2024/10/07 11:20:13.000   28.316327851  -16.472389201  1719.4383   1   7   0.0024   0.0018   0.0298   0.0002   0.0042   0.0045  13.00   45.7
2024/10/07 11:20:14.000   28.316327851  -16.472389201  1719.4382   1   7   0.0024   0.0018   0.0298   0.0002   0.0042   0.0045  14.00   45.5
2024/10/07 11:20:15.000   28.316327851  -16.472389201  1719.4381   1   7   0.0024   0.0018   0.0298   0.0002   0.0042   0.0045  15.00   45.3
2024/10/07 11:20:16.000   28.316327851  -16.472389201  1719.4380   1   7   0.0024   0.0018   0.0298   0.0002   0.0042   0.0045 -14.00   45.1
2024/10/07 11:20:17.000   28.316327851  -16.472389201  1719.4379   1   7   0.0024   0.0018   0.0298   0.0002   0.0042   0.0045 -13.00   44.9
