% program   : RTKPOST-EX 2.5.0
% inp file  : C:\Users\SallyHenry\Desktop\Sally Internship\GNSS gravi\DATA\Survey Rover Obs\GUI34.24o
% inp file  : C:\Users\SallyHenry\Desktop\Sally Internship\GNSS gravi\DATA\BaseStations\IZAN\IZAN00ESP_R_20242810000_01D_30S_MO.rnx
% inp file  : C:\Users\SallyHenry\Desktop\Sally Internship\GNSS gravi\DATA\BaseStations\IZAN\IZAN00ESP_R_20242810000_01D_MN.rnx
% inp file  : C:\Users\SallyHenry\Desktop\Sally Internship\GNSS gravi\DATA\aux_files\Survey\IGS0OPSFIN_20242810000_01D_15M_ORB.SP3
% inp file  : C:\Users\SallyHenry\Desktop\Sally Internship\GNSS gravi\DATA\aux_files\Survey\IGS0OPSFIN_20242810000_01D_30S_CLK.CLK
% obs start : 2024/10/07 12:24:53.0 GPST (week2335 131093.0s)
% obs end   : 2024/10/07 12:39:53.0 GPST (week2335 131993.0s)
% pos mode  : Static
% freqs     : L1+L2/E5b
% solution  : Combined-No Phase Reset
% elev mask : 15.0 deg
% dynamics  : on
% tidecorr  : solid
% ionos opt : Estimate TEC
% tropo opt : Estimate ZTD+Grad
% ephemeris : Precise
% navi sys  : GPS GLONASS Galileo QZSS BDS
% amb res   : Fix and Hold
% amb glo   : Fix and Hold
% amb bds   : on
% val thres : 3.0
% antenna1  :                       ( 0.0000  0.0000  1.8000)
% antenna2  :                       ( 0.0000  0.0000  0.0000)
% ref pos   :  28.308069410  -16.499677180  2417.4044
%
% (lat/lon/height=WGS84/ellipsoidal,Q=1:fix,2:float,3:sbas,4:dgps,5:single,6:ppp,ns=# of satellites)
%  GPST                  latitude(deg) longitude(deg)  height(m)   Q  ns   sdn(m)   sde(m)   sdu(m)  sdne(m)  sdeu(m)  sdun(m) age(s)  ratio
2024/10/07 12:24:53.000   28.323690802  -16.484730666  2093.4884   2   8   0.0110   0.0327   0.0522  -0.0063  -0.0296   0.0090  -7.00    0.0
2024/10/07 12:24:54.000   28.323690802  -16.484730667  2093.4882   2   8   0.0110   0.0327   0.0522  -0.0063  -0.0295   0.0090  -6.00    0.0
2024/10/07 12:24:55.000   28.323690803  -16.484730668  2093.4882   2   8   0.0110   0.0327   0.0522  -0.0063  -0.0295   0.0090  -5.00    0.0
2024/10/07 12:24:56.000   28.323690803  -16.484730667  2093.4876   2   8   0.0111   0.0327   0.0523  -0.0063  -0.0295   0.0090  -4.00    0.0
2024/10/07 12:24:57.000   28.323690803  -16.484730666  2093.4872   2   8   0.0111   0.0327   0.0523  -0.0063  -0.0295   0.0090  -3.00    0.0
2024/10/07 12:24:58.000   28.323690803  -16.484730666  2093.4864   2   8   0.0111   0.0327   0.0523  -0.0063  -0.0295   0.0091  -2.00    0.0
2024/10/07 12:24:59.000   28.323690803  -16.484730667  2093.4852   2   8   0.0111   0.0327   0.0523  -0.0063  -0.0295   0.0091  -1.00    0.0
2024/10/07 12:25:00.000   28.323690804  -16.484730671  2093.4851   2   8   0.0111   0.0327   0.0524  -0.0063  -0.0295   0.0091   0.00    0.0
2024/10/07 12:25:01.000   28.323690807  -16.484730679  2093.4856   2   8   0.0111   0.0327   0.0524  -0.0063  -0.0295   0.0091   1.00    0.0
2024/10/07 12:25:02.000   28.323690810  -16.484730686  2093.4858   2   8   0.0111   0.0327   0.0524  -0.0063  -0.0295   0.0091   2.00    0.0
2024/10/07 12:25:03.000   28.323690810  -16.484730688  2093.4853   2   8   0.0111   0.0327   0.0524  -0.0063  -0.0295   0.0091   3.00    0.0
2024/10/07 12:25:04.000   28.323690813  -16.484730688  2093.4864   2   8   0.0111   0.0327   0.0524  -0.0063  -0.0295   0.0091   4.00    0.0
2024/10/07 12:25:05.000   28.323690816  -16.484730688  2093.4879   2   8   0.0112   0.0327   0.0525  -0.0063  -0.0295   0.0091   5.00    0.0
2024/10/07 12:25:06.000   28.323690818  -16.484730690  2093.4888   2   8   0.0112   0.0327   0.0525  -0.0063  -0.0295   0.0091   6.00    0.0
2024/10/07 12:25:07.000   28.323690819  -16.484730691  2093.4892   2   8   0.0112   0.0327   0.0525  -0.0063  -0.0295   0.0091   7.00    0.0
2024/10/07 12:25:08.000   28.323690820  -16.484730690  2093.4895   2   8   0.0112   0.0327   0.0525  -0.0063  -0.0295   0.0091   8.00    0.0
2024/10/07 12:25:09.000   28.323690821  -16.484730691  2093.4899   2   8   0.0112   0.0327   0.0525  -0.0063  -0.0295   0.0091   9.00    0.0
2024/10/07 12:25:10.000   28.323690822  -16.484730691  2093.4902   2   8   0.0112   0.0327   0.0525  -0.0063  -0.0295   0.0091  10.00    0.0
2024/10/07 12:25:11.000   28.323690823  -16.484730690  2093.4904   2   8   0.0112   0.0327   0.0525  -0.0063  -0.0295   0.0091  11.00    0.0
2024/10/07 12:25:12.000   28.323690824  -16.484730689  2093.4905   2   8   0.0112   0.0327   0.0525  -0.0063  -0.0295   0.0091  12.00    0.0
2024/10/07 12:25:13.000   28.323690824  -16.484730690  2093.4907   2   8   0.0112   0.0327   0.0525  -0.0063  -0.0295   0.0091  13.00    0.0
2024/10/07 12:25:14.000   28.323690825  -16.484730689  2093.4908   2   8   0.0112   0.0327   0.0525  -0.0063  -0.0295   0.0091  14.00    0.0
2024/10/07 12:25:15.000   28.323690825  -16.484730688  2093.4908   2   8   0.0112   0.0327   0.0525  -0.0063  -0.0295   0.0091 -15.00    0.0
2024/10/07 12:25:16.000   28.323690825  -16.484730688  2093.4909   2   8   0.0112   0.0327   0.0525  -0.0063  -0.0295   0.0091 -14.00    0.0
2024/10/07 12:25:17.000   28.323690826  -16.484730687  2093.4911   2   8   0.0112   0.0327   0.0525  -0.0063  -0.0295   0.0091 -13.00    0.0
2024/10/07 12:25:18.000   28.323690826  -16.484730686  2093.4912   2   8   0.0112   0.0327   0.0525  -0.0063  -0.0295   0.0091 -12.00    0.0
2024/10/07 12:25:19.000   28.323690826  -16.484730685  2093.4914   2   8   0.0112   0.0327   0.0525  -0.0063  -0.0295   0.0091 -11.00    0.0
2024/10/07 12:25:20.000   28.323690826  -16.484730684  2093.4916   2   8   0.0112   0.0327   0.0525  -0.0063  -0.0295   0.0091 -10.00    0.0
2024/10/07 12:25:21.000   28.323690827  -16.484730683  2093.4918   2   8   0.0112   0.0327   0.0525  -0.0063  -0.0295   0.0091  -9.00    0.0
2024/10/07 12:25:22.000   28.323690827  -16.484730682  2093.4920   2   8   0.0112   0.0327   0.0525  -0.0063  -0.0295   0.0091  -8.00    0.0
2024/10/07 12:25:23.000   28.323690828  -16.484730682  2093.4921   2   8   0.0112   0.0327   0.0525  -0.0063  -0.0295   0.0091  -7.00    0.0
2024/10/07 12:25:24.000   28.323690828  -16.484730681  2093.4922   2   8   0.0112   0.0327   0.0525  -0.0063  -0.0295   0.0091  -6.00    0.0
2024/10/07 12:25:25.000   28.323690829  -16.484730682  2093.4925   2   8   0.0112   0.0327   0.0525  -0.0064  -0.0295   0.0092  -5.00    0.0
2024/10/07 12:25:26.000   28.323690829  -16.484730683  2093.4925   2   8   0.0112   0.0327   0.0525  -0.0064  -0.0295   0.0092  -4.00    0.0
2024/10/07 12:25:27.000   28.323690832  -16.484730687  2093.4925   2   8   0.0112   0.0327   0.0525  -0.0064  -0.0295   0.0092  -3.00    0.0
2024/10/07 12:25:28.000   28.323690834  -16.484730692  2093.4932   2   8   0.0112   0.0327   0.0526  -0.0064  -0.0295   0.0092  -2.00    0.0
2024/10/07 12:25:29.000   28.323690838  -16.484730695  2093.4942   2   8   0.0112   0.0327   0.0526  -0.0064  -0.0295   0.0092  -1.00    0.0
2024/10/07 12:25:30.000   28.323690842  -16.484730698  2093.4950   2   8   0.0113   0.0327   0.0526  -0.0064  -0.0295   0.0092   0.00    0.0
2024/10/07 12:25:31.000   28.323690846  -16.484730702  2093.4948   2   8   0.0113   0.0327   0.0526  -0.0064  -0.0294   0.0092   1.00    0.0
2024/10/07 12:25:32.000   28.323690849  -16.484730694  2093.4944   2   8   0.0113   0.0327   0.0526  -0.0064  -0.0294   0.0092   2.00    0.0
2024/10/07 12:25:33.000   28.323690854  -16.484730688  2093.4961   2   8   0.0113   0.0327   0.0527  -0.0064  -0.0294   0.0092   3.00    0.0
2024/10/07 12:25:34.000   28.323690855  -16.484730683  2093.4959   2   8   0.0113   0.0327   0.0527  -0.0064  -0.0294   0.0092   4.00    0.0
2024/10/07 12:25:35.000   28.323690857  -16.484730679  2093.4959   2   8   0.0113   0.0327   0.0527  -0.0064  -0.0294   0.0092   5.00    0.0
2024/10/07 12:25:36.000   28.323690859  -16.484730675  2093.4955   2   8   0.0113   0.0327   0.0527  -0.0064  -0.0294   0.0092   6.00    0.0
2024/10/07 12:25:37.000   28.323690859  -16.484730672  2093.4953   2   8   0.0113   0.0327   0.0527  -0.0064  -0.0294   0.0092   7.00    0.0
2024/10/07 12:25:38.000   28.323690860  -16.484730671  2093.4950   2   8   0.0113   0.0327   0.0527  -0.0064  -0.0294   0.0092   8.00    0.0
2024/10/07 12:25:39.000   28.323690860  -16.484730670  2093.4948   2   8   0.0113   0.0327   0.0527  -0.0064  -0.0294   0.0092   9.00    0.0
2024/10/07 12:25:40.000   28.323690860  -16.484730669  2093.4945   2   8   0.0113   0.0327   0.0527  -0.0064  -0.0294   0.0092  10.00    0.0
2024/10/07 12:25:41.000   28.323690860  -16.484730667  2093.4941   2   8   0.0113   0.0327   0.0527  -0.0064  -0.0294   0.0092  11.00    0.0
2024/10/07 12:25:42.000   28.323690860  -16.484730666  2093.4938   2   8   0.0113   0.0327   0.0527  -0.0064  -0.0294   0.0092  12.00    0.0
2024/10/07 12:25:43.000   28.323690860  -16.484730666  2093.4935   2   8   0.0113   0.0327   0.0527  -0.0064  -0.0294   0.0092  13.00    0.0
2024/10/07 12:25:44.000   28.323690860  -16.484730665  2093.4934   2   8   0.0113   0.0327   0.0527  -0.0064  -0.0294   0.0092  14.00    0.0
2024/10/07 12:25:45.000   28.323690859  -16.484730664  2093.4931   2   8   0.0113   0.0327   0.0527  -0.0064  -0.0294   0.0092 -15.00    0.0
2024/10/07 12:25:46.000   28.323690859  -16.484730663  2093.4929   2   8   0.0114   0.0327   0.0527  -0.0064  -0.0294   0.0092 -14.00    0.0
2024/10/07 12:25:47.000   28.323690859  -16.484730663  2093.4927   2   8   0.0114   0.0327   0.0527  -0.0064  -0.0294   0.0092 -13.00    0.0
2024/10/07 12:25:48.000   28.323690858  -16.484730663  2093.4925   2   8   0.0114   0.0327   0.0527  -0.0064  -0.0294   0.0092 -12.00    0.0
2024/10/07 12:25:49.000   28.323690858  -16.484730662  2093.4922   2   8   0.0114   0.0327   0.0527  -0.0064  -0.0294   0.0092 -11.00    0.0
2024/10/07 12:25:50.000   28.323690857  -16.484730660  2093.4919   2   8   0.0114   0.0327   0.0527  -0.0064  -0.0294   0.0092 -10.00    0.0
2024/10/07 12:25:51.000   28.323690857  -16.484730659  2093.4917   2   8   0.0114   0.0327   0.0527  -0.0064  -0.0294   0.0092  -9.00    0.0
2024/10/07 12:25:52.000   28.323690856  -16.484730657  2093.4914   2   8   0.0114   0.0327   0.0528  -0.0064  -0.0294   0.0092  -8.00    0.0
2024/10/07 12:25:53.000   28.323690855  -16.484730657  2093.4912   2   8   0.0114   0.0327   0.0528  -0.0064  -0.0294   0.0093  -7.00    0.0
2024/10/07 12:25:54.000   28.323690854  -16.484730657  2093.4910   2   8   0.0114   0.0327   0.0528  -0.0064  -0.0294   0.0093  -6.00    0.0
2024/10/07 12:25:55.000   28.323690853  -16.484730656  2093.4907   2   8   0.0114   0.0327   0.0528  -0.0064  -0.0294   0.0093  -5.00    0.0
2024/10/07 12:25:56.000   28.323690852  -16.484730654  2093.4902   2   8   0.0114   0.0327   0.0528  -0.0064  -0.0294   0.0093  -4.00    0.0
2024/10/07 12:25:57.000   28.323690850  -16.484730651  2093.4897   2   8   0.0114   0.0327   0.0528  -0.0064  -0.0294   0.0093  -3.00    0.0
2024/10/07 12:25:58.000   28.323690848  -16.484730647  2093.4888   2   8   0.0114   0.0327   0.0528  -0.0064  -0.0294   0.0093  -2.00    0.0
2024/10/07 12:25:59.000   28.323690845  -16.484730641  2093.4879   2   8   0.0114   0.0327   0.0528  -0.0064  -0.0294   0.0093  -1.00    0.0
2024/10/07 12:26:00.000   28.323690842  -16.484730634  2093.4867   2   8   0.0114   0.0327   0.0528  -0.0063  -0.0294   0.0093   0.00    0.0
2024/10/07 12:26:01.000   28.323690840  -16.484730631  2093.4856   2   8   0.0114   0.0327   0.0528  -0.0063  -0.0294   0.0093   1.00    0.0
2024/10/07 12:26:02.000   28.323690839  -16.484730626  2093.4849   2   8   0.0114   0.0327   0.0528  -0.0063  -0.0294   0.0093   2.00    0.0
2024/10/07 12:26:03.000   28.323690839  -16.484730622  2093.4847   2   8   0.0114   0.0327   0.0529  -0.0063  -0.0294   0.0093   3.00    0.0
2024/10/07 12:26:04.000   28.323690838  -16.484730618  2093.4846   2   8   0.0115   0.0327   0.0529  -0.0063  -0.0294   0.0093   4.00    0.0
2024/10/07 12:26:05.000   28.323690837  -16.484730615  2093.4841   2   8   0.0115   0.0327   0.0529  -0.0063  -0.0294   0.0093   5.00    0.0
2024/10/07 12:26:06.000   28.323690836  -16.484730613  2093.4836   2   8   0.0115   0.0327   0.0529  -0.0063  -0.0293   0.0093   6.00    0.0
2024/10/07 12:26:07.000   28.323690836  -16.484730610  2093.4833   2   8   0.0115   0.0327   0.0529  -0.0063  -0.0293   0.0093   7.00    0.0
2024/10/07 12:26:08.000   28.323690836  -16.484730607  2093.4829   2   8   0.0115   0.0327   0.0529  -0.0063  -0.0293   0.0093   8.00    0.0
2024/10/07 12:26:09.000   28.323690836  -16.484730605  2093.4827   2   8   0.0115   0.0327   0.0529  -0.0063  -0.0293   0.0093   9.00    0.0
2024/10/07 12:26:10.000   28.323690835  -16.484730603  2093.4825   2   8   0.0115   0.0327   0.0529  -0.0063  -0.0293   0.0093  10.00    0.0
2024/10/07 12:26:11.000   28.323690835  -16.484730603  2093.4822   2   8   0.0115   0.0327   0.0529  -0.0063  -0.0293   0.0093  11.00    0.0
2024/10/07 12:26:12.000   28.323690835  -16.484730602  2093.4820   2   8   0.0115   0.0327   0.0530  -0.0063  -0.0293   0.0093  12.00    0.0
2024/10/07 12:26:13.000   28.323690834  -16.484730601  2093.4818   2   8   0.0115   0.0327   0.0530  -0.0063  -0.0293   0.0093  13.00    0.0
2024/10/07 12:26:14.000   28.323690834  -16.484730600  2093.4816   2   8   0.0115   0.0327   0.0530  -0.0063  -0.0293   0.0093  14.00    0.0
2024/10/07 12:26:15.000   28.323690833  -16.484730599  2093.4814   2   8   0.0115   0.0327   0.0530  -0.0063  -0.0293   0.0093 -15.00    0.0
2024/10/07 12:26:16.000   28.323690833  -16.484730598  2093.4812   2   8   0.0115   0.0327   0.0530  -0.0063  -0.0293   0.0093 -14.00    0.0
2024/10/07 12:26:17.000   28.323690833  -16.484730597  2093.4809   2   8   0.0115   0.0327   0.0530  -0.0063  -0.0293   0.0093 -13.00    0.0
2024/10/07 12:26:18.000   28.323690832  -16.484730596  2093.4806   2   8   0.0115   0.0327   0.0530  -0.0063  -0.0293   0.0093 -12.00    0.0
2024/10/07 12:26:19.000   28.323690832  -16.484730596  2093.4802   2   8   0.0115   0.0327   0.0530  -0.0063  -0.0293   0.0093 -11.00    0.0
2024/10/07 12:26:20.000   28.323690832  -16.484730596  2093.4798   2   8   0.0115   0.0327   0.0530  -0.0063  -0.0293   0.0093 -10.00    0.0
2024/10/07 12:26:21.000   28.323690832  -16.484730596  2093.4793   2   8   0.0115   0.0327   0.0530  -0.0063  -0.0293   0.0093  -9.00    0.0
2024/10/07 12:26:22.000   28.323690832  -16.484730596  2093.4788   2   8   0.0115   0.0327   0.0530  -0.0063  -0.0293   0.0094  -8.00    0.0
2024/10/07 12:26:23.000   28.323690832  -16.484730595  2093.4784   2   8   0.0115   0.0327   0.0530  -0.0063  -0.0293   0.0094  -7.00    0.0
2024/10/07 12:26:24.000   28.323690832  -16.484730595  2093.4777   2   8   0.0115   0.0327   0.0530  -0.0063  -0.0293   0.0094  -6.00    0.0
2024/10/07 12:26:25.000   28.323690832  -16.484730594  2093.4772   2   8   0.0115   0.0327   0.0530  -0.0063  -0.0293   0.0094  -5.00    0.0
2024/10/07 12:26:26.000   28.323690831  -16.484730594  2093.4767   2   8   0.0115   0.0327   0.0530  -0.0063  -0.0293   0.0094  -4.00    0.0
2024/10/07 12:26:27.000   28.323690831  -16.484730592  2093.4761   2   8   0.0115   0.0327   0.0530  -0.0063  -0.0293   0.0094  -3.00    0.0
2024/10/07 12:26:28.000   28.323690831  -16.484730589  2093.4756   2   8   0.0115   0.0327   0.0530  -0.0063  -0.0293   0.0094  -2.00    1.4
2024/10/07 12:26:29.000   28.323690830  -16.484730586  2093.4751   2   8   0.0115   0.0327   0.0530  -0.0063  -0.0293   0.0094  -1.00    1.3
2024/10/07 12:26:30.000   28.323690829  -16.484730587  2093.4747   2   8   0.0116   0.0327   0.0530  -0.0063  -0.0293   0.0094   0.00    1.3
2024/10/07 12:26:31.000   28.323690828  -16.484730587  2093.4738   2   8   0.0116   0.0327   0.0530  -0.0063  -0.0293   0.0094   1.00    1.0
2024/10/07 12:26:32.000   28.323690827  -16.484730584  2093.4735   2   8   0.0116   0.0327   0.0531  -0.0063  -0.0293   0.0094   2.00    1.1
2024/10/07 12:26:33.000   28.323690826  -16.484730581  2093.4732   2   8   0.0116   0.0327   0.0531  -0.0063  -0.0293   0.0094   3.00    1.2
2024/10/07 12:26:34.000   28.323690826  -16.484730578  2093.4732   2   8   0.0116   0.0327   0.0531  -0.0063  -0.0293   0.0094   4.00    1.1
2024/10/07 12:26:35.000   28.323690825  -16.484730576  2093.4732   2   8   0.0116   0.0327   0.0531  -0.0063  -0.0293   0.0094   5.00    1.4
2024/10/07 12:26:36.000   28.323690826  -16.484730573  2093.4733   2   8   0.0116   0.0327   0.0531  -0.0063  -0.0293   0.0094   6.00    1.2
2024/10/07 12:26:37.000   28.323690827  -16.484730571  2093.4736   2   8   0.0116   0.0327   0.0531  -0.0063  -0.0293   0.0094   7.00    1.2
2024/10/07 12:26:38.000   28.323690828  -16.484730568  2093.4738   2   8   0.0116   0.0327   0.0532  -0.0063  -0.0293   0.0094   8.00    1.1
2024/10/07 12:26:39.000   28.323690829  -16.484730566  2093.4740   2   8   0.0116   0.0327   0.0532  -0.0063  -0.0293   0.0094   9.00    1.1
2024/10/07 12:26:40.000   28.323690830  -16.484730564  2093.4742   2   8   0.0116   0.0327   0.0532  -0.0063  -0.0293   0.0095  10.00    1.2
2024/10/07 12:26:41.000   28.323690830  -16.484730562  2093.4742   2   8   0.0116   0.0327   0.0532  -0.0063  -0.0293   0.0095  11.00    1.3
2024/10/07 12:26:42.000   28.323690831  -16.484730560  2093.4743   2   8   0.0116   0.0327   0.0532  -0.0063  -0.0293   0.0095  12.00    1.1
2024/10/07 12:26:43.000   28.323690831  -16.484730558  2093.4742   2   8   0.0116   0.0327   0.0532  -0.0063  -0.0293   0.0095  13.00    1.5
2024/10/07 12:26:44.000   28.323690831  -16.484730556  2093.4743   2   8   0.0116   0.0327   0.0532  -0.0063  -0.0293   0.0095  14.00    1.2
2024/10/07 12:26:45.000   28.323690831  -16.484730554  2093.4743   2   8   0.0116   0.0327   0.0532  -0.0063  -0.0293   0.0095 -15.00    1.3
2024/10/07 12:26:46.000   28.323690831  -16.484730552  2093.4743   2   8   0.0116   0.0327   0.0532  -0.0063  -0.0293   0.0095 -14.00    1.1
2024/10/07 12:26:47.000   28.323690831  -16.484730551  2093.4743   2   8   0.0116   0.0327   0.0532  -0.0063  -0.0293   0.0095 -13.00    1.1
2024/10/07 12:26:48.000   28.323690831  -16.484730548  2093.4743   2   8   0.0116   0.0327   0.0532  -0.0063  -0.0293   0.0095 -12.00    1.2
2024/10/07 12:26:49.000   28.323690830  -16.484730545  2093.4745   2   8   0.0116   0.0327   0.0532  -0.0063  -0.0293   0.0095 -11.00    1.3
2024/10/07 12:26:50.000   28.323690829  -16.484730542  2093.4746   2   8   0.0116   0.0327   0.0532  -0.0063  -0.0293   0.0095 -10.00    1.1
2024/10/07 12:26:51.000   28.323690828  -16.484730539  2093.4748   2   8   0.0116   0.0327   0.0532  -0.0063  -0.0293   0.0095  -9.00    1.5
2024/10/07 12:26:52.000   28.323690828  -16.484730535  2093.4749   2   8   0.0116   0.0327   0.0532  -0.0063  -0.0293   0.0095  -8.00    1.2
2024/10/07 12:26:53.000   28.323690827  -16.484730531  2093.4750   2   8   0.0116   0.0327   0.0532  -0.0063  -0.0293   0.0095  -7.00    1.3
2024/10/07 12:26:54.000   28.323690826  -16.484730528  2093.4750   2   8   0.0117   0.0327   0.0532  -0.0063  -0.0293   0.0095  -6.00    1.1
2024/10/07 12:26:55.000   28.323690826  -16.484730525  2093.4750   2   8   0.0117   0.0327   0.0532  -0.0063  -0.0293   0.0095  -5.00    1.1
2024/10/07 12:26:56.000   28.323690827  -16.484730524  2093.4747   2   8   0.0117   0.0327   0.0532  -0.0063  -0.0293   0.0095  -4.00    1.2
2024/10/07 12:26:57.000   28.323690826  -16.484730522  2093.4745   2   8   0.0117   0.0327   0.0532  -0.0063  -0.0293   0.0095  -3.00    1.3
2024/10/07 12:26:58.000   28.323690826  -16.484730522  2093.4739   2   8   0.0117   0.0327   0.0532  -0.0063  -0.0293   0.0095  -2.00    1.2
2024/10/07 12:26:59.000   28.323690826  -16.484730524  2093.4730   2   8   0.0117   0.0327   0.0532  -0.0063  -0.0293   0.0095  -1.00    1.5
2024/10/07 12:27:00.000   28.323690826  -16.484730526  2093.4720   2   8   0.0117   0.0327   0.0532  -0.0063  -0.0293   0.0095   0.00    1.3
2024/10/07 12:27:01.000   28.323690825  -16.484730532  2093.4708   2   8   0.0117   0.0327   0.0533  -0.0063  -0.0293   0.0095   1.00    1.0
2024/10/07 12:27:02.000   28.323690824  -16.484730535  2093.4699   2   8   0.0117   0.0327   0.0533  -0.0063  -0.0293   0.0095   2.00    1.1
2024/10/07 12:27:03.000   28.323690822  -16.484730537  2093.4693   2   8   0.0117   0.0327   0.0533  -0.0063  -0.0293   0.0095   3.00    1.0
2024/10/07 12:27:04.000   28.323690820  -16.484730539  2093.4690   2   8   0.0117   0.0327   0.0533  -0.0063  -0.0293   0.0096   4.00    1.2
2024/10/07 12:27:05.000   28.323690818  -16.484730541  2093.4687   2   8   0.0117   0.0327   0.0534  -0.0063  -0.0293   0.0096   5.00    1.2
2024/10/07 12:27:06.000   28.323690815  -16.484730541  2093.4687   2   8   0.0117   0.0327   0.0534  -0.0063  -0.0293   0.0096   6.00    1.1
2024/10/07 12:27:07.000   28.323690813  -16.484730542  2093.4686   2   8   0.0117   0.0327   0.0534  -0.0063  -0.0293   0.0096   7.00    1.4
2024/10/07 12:27:08.000   28.323690811  -16.484730543  2093.4687   2   8   0.0118   0.0327   0.0534  -0.0063  -0.0293   0.0096   8.00    1.2
2024/10/07 12:27:09.000   28.323690810  -16.484730543  2093.4687   2   8   0.0118   0.0327   0.0534  -0.0063  -0.0292   0.0096   9.00    1.2
2024/10/07 12:27:10.000   28.323690809  -16.484730543  2093.4688   2   8   0.0118   0.0327   0.0534  -0.0063  -0.0292   0.0096  10.00    1.0
2024/10/07 12:27:11.000   28.323690808  -16.484730543  2093.4687   2   8   0.0118   0.0327   0.0534  -0.0063  -0.0292   0.0096  11.00    1.1
2024/10/07 12:27:12.000   28.323690807  -16.484730543  2093.4686   2   8   0.0118   0.0327   0.0534  -0.0063  -0.0292   0.0096  12.00    1.2
2024/10/07 12:27:13.000   28.323690806  -16.484730542  2093.4686   2   8   0.0118   0.0327   0.0534  -0.0063  -0.0292   0.0096  13.00    1.3
2024/10/07 12:27:14.000   28.323690805  -16.484730542  2093.4685   2   8   0.0118   0.0327   0.0534  -0.0063  -0.0292   0.0096  14.00    1.2
2024/10/07 12:27:15.000   28.323690804  -16.484730542  2093.4685   2   8   0.0118   0.0327   0.0534  -0.0063  -0.0292   0.0096 -15.00    1.4
2024/10/07 12:27:16.000   28.323690804  -16.484730542  2093.4684   2   8   0.0118   0.0327   0.0534  -0.0063  -0.0292   0.0096 -14.00    1.2
2024/10/07 12:27:17.000   28.323690803  -16.484730542  2093.4684   2   8   0.0118   0.0327   0.0534  -0.0063  -0.0292   0.0096 -13.00    1.3
2024/10/07 12:27:18.000   28.323690802  -16.484730543  2093.4684   2   8   0.0118   0.0327   0.0534  -0.0063  -0.0292   0.0096 -12.00    1.0
2024/10/07 12:27:19.000   28.323690801  -16.484730543  2093.4682   2   8   0.0118   0.0327   0.0534  -0.0063  -0.0292   0.0096 -11.00    1.2
2024/10/07 12:27:20.000   28.323690799  -16.484730544  2093.4681   2   8   0.0118   0.0327   0.0534  -0.0063  -0.0292   0.0096 -10.00    1.2
2024/10/07 12:27:21.000   28.323690798  -16.484730545  2093.4678   2   8   0.0118   0.0327   0.0534  -0.0063  -0.0292   0.0096  -9.00    1.3
2024/10/07 12:27:22.000   28.323690796  -16.484730548  2093.4674   2   8   0.0118   0.0327   0.0534  -0.0063  -0.0292   0.0096  -8.00    1.1
2024/10/07 12:27:23.000   28.323690795  -16.484730550  2093.4671   2   8   0.0118   0.0327   0.0534  -0.0063  -0.0292   0.0096  -7.00    1.4
2024/10/07 12:27:24.000   28.323690794  -16.484730552  2093.4668   2   8   0.0118   0.0327   0.0534  -0.0063  -0.0292   0.0096  -6.00    1.2
2024/10/07 12:27:25.000   28.323690793  -16.484730555  2093.4663   2   8   0.0118   0.0327   0.0534  -0.0063  -0.0292   0.0096  -5.00    1.3
2024/10/07 12:27:26.000   28.323690792  -16.484730559  2093.4658   2   8   0.0118   0.0327   0.0534  -0.0063  -0.0292   0.0096  -4.00    1.1
2024/10/07 12:27:27.000   28.323690792  -16.484730562  2093.4648   2   8   0.0118   0.0327   0.0535  -0.0063  -0.0292   0.0096  -3.00    1.3
2024/10/07 12:27:28.000   28.323690791  -16.484730563  2093.4647   2   8   0.0118   0.0327   0.0535  -0.0063  -0.0292   0.0096  -2.00    1.3
2024/10/07 12:27:29.000   28.323690790  -16.484730564  2093.4648   2   8   0.0118   0.0327   0.0535  -0.0063  -0.0292   0.0096  -1.00    1.3
2024/10/07 12:27:30.000   28.323690790  -16.484730566  2093.4649   2   8   0.0118   0.0327   0.0535  -0.0063  -0.0292   0.0097   0.00    1.2
2024/10/07 12:27:31.000   28.323690790  -16.484730567  2093.4642   2   8   0.0118   0.0327   0.0535  -0.0063  -0.0292   0.0097   1.00    1.0
2024/10/07 12:27:32.000   28.323690789  -16.484730572  2093.4643   2   8   0.0118   0.0327   0.0535  -0.0063  -0.0292   0.0097   2.00    1.1
2024/10/07 12:27:33.000   28.323690788  -16.484730576  2093.4631   2   8   0.0118   0.0327   0.0536  -0.0063  -0.0292   0.0097   3.00    1.1
2024/10/07 12:27:34.000   28.323690785  -16.484730576  2093.4620   2   8   0.0119   0.0327   0.0536  -0.0063  -0.0292   0.0097   4.00    1.0
2024/10/07 12:27:35.000   28.323690782  -16.484730578  2093.4611   2   8   0.0119   0.0327   0.0536  -0.0063  -0.0292   0.0097   5.00    1.1
2024/10/07 12:27:36.000   28.323690781  -16.484730578  2093.4601   2   8   0.0119   0.0327   0.0536  -0.0063  -0.0292   0.0097   6.00    1.2
2024/10/07 12:27:37.000   28.323690781  -16.484730579  2093.4594   2   8   0.0119   0.0327   0.0536  -0.0063  -0.0292   0.0097   7.00    1.2
2024/10/07 12:27:38.000   28.323690781  -16.484730580  2093.4587   2   8   0.0119   0.0327   0.0536  -0.0063  -0.0292   0.0097   8.00    1.2
2024/10/07 12:27:39.000   28.323690781  -16.484730580  2093.4581   2   8   0.0119   0.0327   0.0536  -0.0063  -0.0292   0.0097   9.00    1.4
2024/10/07 12:27:40.000   28.323690781  -16.484730581  2093.4577   2   8   0.0119   0.0327   0.0536  -0.0063  -0.0292   0.0097  10.00    1.2
2024/10/07 12:27:41.000   28.323690782  -16.484730581  2093.4573   2   8   0.0119   0.0327   0.0536  -0.0063  -0.0292   0.0097  11.00    1.2
2024/10/07 12:27:42.000   28.323690783  -16.484730581  2093.4570   2   8   0.0119   0.0327   0.0537  -0.0063  -0.0292   0.0097  12.00    1.0
2024/10/07 12:27:43.000   28.323690783  -16.484730580  2093.4568   2   8   0.0119   0.0327   0.0537  -0.0063  -0.0292   0.0097  13.00    1.2
2024/10/07 12:27:44.000   28.323690784  -16.484730579  2093.4567   2   8   0.0119   0.0327   0.0537  -0.0063  -0.0292   0.0097  14.00    1.2
2024/10/07 12:27:45.000   28.323690784  -16.484730579  2093.4566   2   8   0.0119   0.0327   0.0537  -0.0063  -0.0292   0.0097 -15.00    1.3
2024/10/07 12:27:46.000   28.323690785  -16.484730578  2093.4565   2   8   0.0119   0.0327   0.0537  -0.0063  -0.0292   0.0097 -14.00    1.2
2024/10/07 12:27:47.000   28.323690785  -16.484730578  2093.4564   2   8   0.0119   0.0327   0.0537  -0.0063  -0.0292   0.0097 -13.00    1.4
2024/10/07 12:27:48.000   28.323690786  -16.484730577  2093.4564   2   8   0.0119   0.0327   0.0537  -0.0063  -0.0292   0.0097 -12.00    1.3
2024/10/07 12:27:49.000   28.323690786  -16.484730576  2093.4563   2   8   0.0119   0.0327   0.0537  -0.0063  -0.0292   0.0097 -11.00    1.2
2024/10/07 12:27:50.000   28.323690787  -16.484730575  2093.4563   2   8   0.0119   0.0327   0.0537  -0.0063  -0.0292   0.0098 -10.00    1.0
2024/10/07 12:27:51.000   28.323690788  -16.484730574  2093.4564   2   8   0.0119   0.0327   0.0537  -0.0063  -0.0292   0.0098  -9.00    1.2
2024/10/07 12:27:52.000   28.323690788  -16.484730573  2093.4565   2   8   0.0119   0.0327   0.0537  -0.0063  -0.0292   0.0098  -8.00    1.2
2024/10/07 12:27:53.000   28.323690789  -16.484730574  2093.4566   2   8   0.0119   0.0327   0.0537  -0.0063  -0.0292   0.0098  -7.00    1.3
2024/10/07 12:27:54.000   28.323690787  -16.484730575  2093.4557   2   8   0.0119   0.0327   0.0537  -0.0063  -0.0292   0.0098  -6.00    1.2
2024/10/07 12:27:55.000   28.323690781  -16.484730580  2093.4529   2   8   0.0119   0.0327   0.0537  -0.0063  -0.0292   0.0098  -5.00    1.4
2024/10/07 12:27:56.000   28.323690772  -16.484730586  2093.4494   2   8   0.0119   0.0327   0.0537  -0.0063  -0.0292   0.0098  -4.00    1.2
2024/10/07 12:27:57.000   28.323690765  -16.484730583  2093.4473   2   8   0.0119   0.0327   0.0537  -0.0063  -0.0292   0.0098  -3.00    1.2
2024/10/07 12:27:58.000   28.323690764  -16.484730577  2093.4462   2   8   0.0119   0.0327   0.0537  -0.0063  -0.0292   0.0098  -2.00    1.0
2024/10/07 12:27:59.000   28.323690761  -16.484730572  2093.4452   2   8   0.0119   0.0327   0.0537  -0.0063  -0.0292   0.0098  -1.00    1.2
2024/10/07 12:28:00.000   28.323690758  -16.484730566  2093.4449   2   9   0.0119   0.0327   0.0537  -0.0063  -0.0292   0.0098   0.00    1.3
2024/10/07 12:28:01.000   28.323690765  -16.484730548  2093.4481   2   9   0.0119   0.0327   0.0538  -0.0063  -0.0292   0.0098   1.00    1.1
2024/10/07 12:28:02.000   28.323690775  -16.484730547  2093.4573   2   9   0.0119   0.0327   0.0538  -0.0063  -0.0292   0.0098   2.00    1.1
2024/10/07 12:28:03.000   28.323690775  -16.484730542  2093.4545   2   9   0.0120   0.0327   0.0539  -0.0063  -0.0292   0.0099   3.00    1.1
2024/10/07 12:28:04.000   28.323690778  -16.484730533  2093.4534   2   9   0.0120   0.0327   0.0540  -0.0063  -0.0293   0.0099   4.00    1.0
2024/10/07 12:28:05.000   28.323690782  -16.484730530  2093.4553   2   9   0.0120   0.0327   0.0540  -0.0063  -0.0293   0.0099   5.00    1.3
2024/10/07 12:28:06.000   28.323690784  -16.484730527  2093.4556   2   9   0.0120   0.0327   0.0541  -0.0063  -0.0293   0.0099   6.00    1.4
2024/10/07 12:28:07.000   28.323690786  -16.484730525  2093.4561   2   9   0.0120   0.0327   0.0541  -0.0063  -0.0293   0.0099   7.00    1.3
2024/10/07 12:28:08.000   28.323690788  -16.484730521  2093.4560   2   9   0.0120   0.0327   0.0542  -0.0063  -0.0293   0.0099   8.00    1.3
2024/10/07 12:28:09.000   28.323690790  -16.484730518  2093.4559   2   9   0.0120   0.0327   0.0542  -0.0063  -0.0293   0.0099   9.00    1.4
2024/10/07 12:28:10.000   28.323690792  -16.484730516  2093.4558   2   9   0.0120   0.0327   0.0542  -0.0063  -0.0294   0.0099  10.00    1.4
2024/10/07 12:28:11.000   28.323690793  -16.484730513  2093.4556   2   9   0.0120   0.0327   0.0543  -0.0063  -0.0294   0.0100  11.00    1.2
2024/10/07 12:28:12.000   28.323690794  -16.484730511  2093.4553   2   9   0.0120   0.0327   0.0543  -0.0063  -0.0294   0.0100  12.00    1.2
2024/10/07 12:28:13.000   28.323690795  -16.484730509  2093.4549   2   9   0.0120   0.0327   0.0543  -0.0063  -0.0294   0.0100  13.00    1.1
2024/10/07 12:28:14.000   28.323690796  -16.484730507  2093.4544   2   9   0.0120   0.0327   0.0544  -0.0063  -0.0294   0.0100  14.00    1.3
2024/10/07 12:28:15.000   28.323690796  -16.484730504  2093.4541   2   9   0.0120   0.0327   0.0544  -0.0063  -0.0294   0.0100 -15.00    1.4
2024/10/07 12:28:16.000   28.323690797  -16.484730501  2093.4533   2   9   0.0120   0.0327   0.0544  -0.0063  -0.0294   0.0100 -14.00    1.3
2024/10/07 12:28:17.000   28.323690798  -16.484730498  2093.4525   2   9   0.0120   0.0327   0.0544  -0.0063  -0.0294   0.0100 -13.00    1.4
2024/10/07 12:28:18.000   28.323690799  -16.484730494  2093.4515   2   9   0.0120   0.0327   0.0545  -0.0063  -0.0294   0.0100 -12.00    1.4
2024/10/07 12:28:19.000   28.323690800  -16.484730492  2093.4504   2   9   0.0120   0.0327   0.0545  -0.0063  -0.0295   0.0100 -11.00    1.5
2024/10/07 12:28:20.000   28.323690802  -16.484730489  2093.4494   2   9   0.0120   0.0327   0.0545  -0.0063  -0.0295   0.0100 -10.00    1.3
2024/10/07 12:28:21.000   28.323690805  -16.484730486  2093.4482   2   9   0.0120   0.0327   0.0546  -0.0063  -0.0295   0.0100  -9.00    1.2
2024/10/07 12:28:22.000   28.323690808  -16.484730483  2093.4472   2   9   0.0120   0.0327   0.0546  -0.0063  -0.0295   0.0100  -8.00    1.1
2024/10/07 12:28:23.000   28.323690812  -16.484730482  2093.4461   2   9   0.0120   0.0327   0.0547  -0.0063  -0.0295   0.0100  -7.00    1.3
2024/10/07 12:28:24.000   28.323690817  -16.484730479  2093.4447   2   9   0.0120   0.0327   0.0547  -0.0063  -0.0295   0.0100  -6.00    1.5
2024/10/07 12:28:25.000   28.323690822  -16.484730475  2093.4427   2   9   0.0120   0.0327   0.0548  -0.0063  -0.0296   0.0101  -5.00    1.4
2024/10/07 12:28:26.000   28.323690827  -16.484730472  2093.4407   2   9   0.0120   0.0327   0.0549  -0.0063  -0.0296   0.0101  -4.00    1.4
2024/10/07 12:28:27.000   28.323690833  -16.484730468  2093.4392   2   9   0.0120   0.0328   0.0550  -0.0063  -0.0296   0.0101  -3.00    1.5
2024/10/07 12:28:28.000   28.323690838  -16.484730464  2093.4379   2   9   0.0120   0.0328   0.0551  -0.0063  -0.0297   0.0101  -2.00    1.6
2024/10/07 12:28:29.000   28.323690842  -16.484730459  2093.4376   2   9   0.0120   0.0328   0.0552  -0.0063  -0.0297   0.0101  -1.00    1.4
2024/10/07 12:28:30.000   28.323690845  -16.484730454  2093.4380   2   9   0.0120   0.0328   0.0553  -0.0064  -0.0298   0.0102   0.00    1.2
2024/10/07 12:28:31.000   28.323690849  -16.484730467  2093.4433   2   9   0.0120   0.0328   0.0553  -0.0063  -0.0298   0.0102   1.00    1.2
2024/10/07 12:28:32.000   28.323690852  -16.484730475  2093.4475   2   9   0.0120   0.0328   0.0553  -0.0063  -0.0297   0.0102   2.00    1.4
2024/10/07 12:28:33.000   28.323690853  -16.484730479  2093.4501   2   9   0.0121   0.0328   0.0553  -0.0063  -0.0297   0.0102   3.00    1.5
2024/10/07 12:28:34.000   28.323690853  -16.484730479  2093.4511   2   9   0.0121   0.0327   0.0553  -0.0063  -0.0297   0.0102   4.00    1.4
2024/10/07 12:28:35.000   28.323690852  -16.484730479  2093.4512   2   9   0.0121   0.0327   0.0554  -0.0063  -0.0297   0.0102   5.00    1.4
2024/10/07 12:28:36.000   28.323690852  -16.484730480  2093.4512   2   9   0.0121   0.0327   0.0554  -0.0063  -0.0297   0.0102   6.00    1.5
2024/10/07 12:28:37.000   28.323690852  -16.484730481  2093.4504   2   9   0.0121   0.0327   0.0554  -0.0063  -0.0297   0.0102   7.00    1.6
2024/10/07 12:28:38.000   28.323690851  -16.484730480  2093.4497   2   9   0.0121   0.0327   0.0554  -0.0063  -0.0297   0.0102   8.00    1.4
2024/10/07 12:28:39.000   28.323690851  -16.484730479  2093.4490   2   9   0.0121   0.0327   0.0554  -0.0063  -0.0297   0.0102   9.00    1.2
2024/10/07 12:28:40.000   28.323690850  -16.484730477  2093.4480   2   9   0.0121   0.0327   0.0555  -0.0063  -0.0297   0.0102  10.00    1.1
2024/10/07 12:28:41.000   28.323690850  -16.484730474  2093.4468   2   9   0.0121   0.0327   0.0555  -0.0063  -0.0297   0.0102  11.00    1.5
2024/10/07 12:28:42.000   28.323690849  -16.484730472  2093.4458   2   9   0.0121   0.0327   0.0555  -0.0063  -0.0297   0.0102  12.00    1.6
2024/10/07 12:28:43.000   28.323690848  -16.484730470  2093.4451   2   9   0.0121   0.0327   0.0555  -0.0063  -0.0297   0.0102  13.00    1.6
2024/10/07 12:28:44.000   28.323690847  -16.484730467  2093.4440   2   9   0.0121   0.0327   0.0555  -0.0063  -0.0297   0.0102  14.00    1.5
2024/10/07 12:28:45.000   28.323690846  -16.484730463  2093.4428   2   9   0.0121   0.0328   0.0556  -0.0063  -0.0297   0.0102 -15.00    1.6
2024/10/07 12:28:46.000   28.323690846  -16.484730461  2093.4419   2   9   0.0121   0.0328   0.0556  -0.0063  -0.0298   0.0102 -14.00    1.6
2024/10/07 12:28:47.000   28.323690845  -16.484730456  2093.4407   2   9   0.0121   0.0328   0.0556  -0.0063  -0.0298   0.0102 -13.00    1.4
2024/10/07 12:28:48.000   28.323690844  -16.484730452  2093.4395   2   9   0.0121   0.0328   0.0556  -0.0063  -0.0298   0.0102 -12.00    1.2
2024/10/07 12:28:49.000   28.323690843  -16.484730448  2093.4385   2   9   0.0121   0.0328   0.0556  -0.0063  -0.0298   0.0102 -11.00    1.1
2024/10/07 12:28:50.000   28.323690842  -16.484730445  2093.4377   2   9   0.0121   0.0328   0.0556  -0.0063  -0.0298   0.0102 -10.00    1.5
2024/10/07 12:28:51.000   28.323690841  -16.484730442  2093.4374   2   9   0.0121   0.0328   0.0557  -0.0063  -0.0298   0.0102  -9.00    1.6
2024/10/07 12:28:52.000   28.323690840  -16.484730439  2093.4373   2   9   0.0121   0.0328   0.0557  -0.0063  -0.0298   0.0102  -8.00    1.6
2024/10/07 12:28:53.000   28.323690839  -16.484730435  2093.4372   2   9   0.0121   0.0328   0.0557  -0.0063  -0.0298   0.0102  -7.00    1.6
2024/10/07 12:28:54.000   28.323690838  -16.484730431  2093.4371   2   9   0.0121   0.0328   0.0558  -0.0063  -0.0298   0.0102  -6.00    1.6
2024/10/07 12:28:55.000   28.323690838  -16.484730428  2093.4373   2   9   0.0121   0.0328   0.0558  -0.0063  -0.0299   0.0102  -5.00    1.7
2024/10/07 12:28:56.000   28.323690837  -16.484730423  2093.4371   2   9   0.0121   0.0328   0.0559  -0.0063  -0.0299   0.0103  -4.00    1.6
2024/10/07 12:28:57.000   28.323690837  -16.484730419  2093.4370   2   9   0.0121   0.0328   0.0560  -0.0063  -0.0299   0.0103  -3.00    1.2
2024/10/07 12:28:58.000   28.323690836  -16.484730413  2093.4362   2   9   0.0121   0.0328   0.0561  -0.0063  -0.0300   0.0103  -2.00    1.2
2024/10/07 12:28:59.000   28.323690837  -16.484730406  2093.4348   2   9   0.0121   0.0328   0.0562  -0.0063  -0.0300   0.0103  -1.00    1.6
2024/10/07 12:29:00.000   28.323690839  -16.484730399  2093.4326   2   9   0.0121   0.0328   0.0563  -0.0063  -0.0300   0.0103   0.00    1.7
2024/10/07 12:29:01.000   28.323690843  -16.484730416  2093.4371   2   9   0.0121   0.0328   0.0563  -0.0063  -0.0300   0.0103   1.00    1.3
2024/10/07 12:29:02.000   28.323690846  -16.484730428  2093.4415   2   9   0.0121   0.0328   0.0563  -0.0063  -0.0300   0.0103   2.00    1.5
2024/10/07 12:29:03.000   28.323690850  -16.484730437  2093.4461   2   9   0.0121   0.0328   0.0563  -0.0063  -0.0300   0.0103   3.00    1.6
2024/10/07 12:29:04.000   28.323690853  -16.484730443  2093.4495   2   9   0.0121   0.0328   0.0563  -0.0063  -0.0300   0.0104   4.00    1.8
2024/10/07 12:29:05.000   28.323690856  -16.484730447  2093.4518   2   9   0.0121   0.0328   0.0564  -0.0063  -0.0300   0.0104   5.00    1.6
2024/10/07 12:29:06.000   28.323690859  -16.484730450  2093.4543   2   9   0.0121   0.0328   0.0564  -0.0063  -0.0300   0.0104   6.00    1.1
2024/10/07 12:29:07.000   28.323690861  -16.484730451  2093.4564   2   9   0.0122   0.0328   0.0564  -0.0063  -0.0300   0.0104   7.00    1.2
2024/10/07 12:29:08.000   28.323690864  -16.484730453  2093.4587   2   9   0.0122   0.0328   0.0565  -0.0063  -0.0300   0.0104   8.00    1.6
2024/10/07 12:29:09.000   28.323690867  -16.484730455  2093.4614   2   9   0.0122   0.0328   0.0565  -0.0063  -0.0300   0.0104   9.00    1.8
2024/10/07 12:29:10.000   28.323690869  -16.484730457  2093.4640   2   9   0.0122   0.0328   0.0565  -0.0063  -0.0300   0.0104  10.00    1.6
2024/10/07 12:29:11.000   28.323690871  -16.484730459  2093.4664   2   9   0.0122   0.0328   0.0565  -0.0063  -0.0300   0.0104  11.00    1.7
2024/10/07 12:29:12.000   28.323690873  -16.484730459  2093.4685   2   9   0.0122   0.0328   0.0566  -0.0063  -0.0300   0.0104  12.00    1.7
2024/10/07 12:29:13.000   28.323690874  -16.484730460  2093.4706   2   9   0.0122   0.0328   0.0566  -0.0063  -0.0300   0.0104  13.00    1.8
2024/10/07 12:29:14.000   28.323690876  -16.484730461  2093.4725   2   9   0.0122   0.0328   0.0566  -0.0063  -0.0300   0.0104  14.00    1.6
2024/10/07 12:29:15.000   28.323690876  -16.484730461  2093.4741   2   9   0.0122   0.0328   0.0566  -0.0063  -0.0301   0.0104 -15.00    1.1
2024/10/07 12:29:16.000   28.323690877  -16.484730460  2093.4754   2   9   0.0122   0.0328   0.0566  -0.0063  -0.0301   0.0104 -14.00    1.2
2024/10/07 12:29:17.000   28.323690878  -16.484730460  2093.4770   2   9   0.0122   0.0328   0.0566  -0.0063  -0.0301   0.0104 -13.00    1.6
2024/10/07 12:29:18.000   28.323690879  -16.484730460  2093.4788   2   9   0.0122   0.0328   0.0567  -0.0063  -0.0301   0.0104 -12.00    1.8
2024/10/07 12:29:19.000   28.323690880  -16.484730460  2093.4806   2   9   0.0122   0.0328   0.0567  -0.0063  -0.0301   0.0104 -11.00    1.7
2024/10/07 12:29:20.000   28.323690881  -16.484730461  2093.4825   2   9   0.0122   0.0328   0.0567  -0.0063  -0.0301   0.0104 -10.00    1.7
2024/10/07 12:29:21.000   28.323690882  -16.484730460  2093.4841   2   9   0.0122   0.0328   0.0567  -0.0063  -0.0301   0.0104  -9.00    1.7
2024/10/07 12:29:22.000   28.323690883  -16.484730459  2093.4855   2   9   0.0122   0.0328   0.0568  -0.0063  -0.0301   0.0104  -8.00    1.8
2024/10/07 12:29:23.000   28.323690885  -16.484730457  2093.4866   2   9   0.0122   0.0328   0.0568  -0.0063  -0.0301   0.0104  -7.00    1.7
2024/10/07 12:29:24.000   28.323690886  -16.484730454  2093.4876   2   9   0.0122   0.0328   0.0568  -0.0063  -0.0301   0.0104  -6.00    1.1
2024/10/07 12:29:25.000   28.323690888  -16.484730450  2093.4886   2   9   0.0122   0.0328   0.0569  -0.0063  -0.0302   0.0104  -5.00    1.3
2024/10/07 12:29:26.000   28.323690890  -16.484730447  2093.4902   2   9   0.0122   0.0328   0.0570  -0.0063  -0.0302   0.0105  -4.00    1.7
2024/10/07 12:29:27.000   28.323690893  -16.484730443  2093.4920   2   9   0.0122   0.0328   0.0570  -0.0063  -0.0302   0.0105  -3.00    1.8
2024/10/07 12:29:28.000   28.323690896  -16.484730442  2093.4940   2   9   0.0122   0.0328   0.0571  -0.0063  -0.0303   0.0105  -2.00    1.7
2024/10/07 12:29:29.000   28.323690900  -16.484730438  2093.4959   2   9   0.0122   0.0328   0.0572  -0.0063  -0.0303   0.0105  -1.00    1.7
2024/10/07 12:29:30.000   28.323690904  -16.484730434  2093.4978   2   9   0.0122   0.0328   0.0574  -0.0063  -0.0304   0.0105   0.00    1.7
2024/10/07 12:29:31.000   28.323690909  -16.484730447  2093.5048   2   9   0.0122   0.0328   0.0574  -0.0063  -0.0303   0.0105   1.00    1.6
2024/10/07 12:29:32.000   28.323690915  -16.484730458  2093.5117   2   9   0.0122   0.0328   0.0574  -0.0063  -0.0303   0.0106   2.00    1.4
2024/10/07 12:29:33.000   28.323690919  -16.484730467  2093.5175   2   9   0.0122   0.0328   0.0574  -0.0063  -0.0303   0.0106   3.00    1.0
2024/10/07 12:29:34.000   28.323690924  -16.484730475  2093.5230   2   9   0.0122   0.0328   0.0574  -0.0063  -0.0303   0.0106   4.00    1.2
2024/10/07 12:29:35.000   28.323690928  -16.484730481  2093.5280   2   9   0.0122   0.0328   0.0575  -0.0063  -0.0303   0.0106   5.00    1.6
2024/10/07 12:29:36.000   28.323690931  -16.484730487  2093.5327   2   9   0.0122   0.0328   0.0575  -0.0063  -0.0303   0.0106   6.00    1.7
2024/10/07 12:29:37.000   28.323690934  -16.484730491  2093.5368   2   9   0.0122   0.0328   0.0575  -0.0063  -0.0303   0.0106   7.00    1.6
2024/10/07 12:29:38.000   28.323690936  -16.484730493  2093.5402   2   9   0.0122   0.0328   0.0575  -0.0063  -0.0303   0.0106   8.00    1.6
2024/10/07 12:29:39.000   28.323690939  -16.484730496  2093.5434   2   9   0.0122   0.0328   0.0576  -0.0063  -0.0303   0.0106   9.00    1.6
2024/10/07 12:29:40.000   28.323690941  -16.484730498  2093.5465   2   9   0.0122   0.0328   0.0576  -0.0063  -0.0304   0.0106  10.00    1.8
2024/10/07 12:29:41.000   28.323690943  -16.484730501  2093.5496   2   9   0.0122   0.0328   0.0576  -0.0063  -0.0304   0.0106  11.00    1.5
2024/10/07 12:29:42.000   28.323690945  -16.484730504  2093.5521   2   9   0.0122   0.0328   0.0576  -0.0063  -0.0304   0.0106  12.00    1.0
2024/10/07 12:29:43.000   28.323690946  -16.484730506  2093.5544   2   9   0.0122   0.0328   0.0577  -0.0063  -0.0304   0.0106  13.00    1.3
2024/10/07 12:29:44.000   28.323690948  -16.484730509  2093.5568   2   9   0.0122   0.0328   0.0577  -0.0063  -0.0304   0.0106  14.00    1.6
2024/10/07 12:29:45.000   28.323690949  -16.484730511  2093.5588   2   9   0.0122   0.0328   0.0577  -0.0063  -0.0304   0.0106 -15.00    1.8
2024/10/07 12:29:46.000   28.323690950  -16.484730512  2093.5606   2   9   0.0122   0.0328   0.0577  -0.0063  -0.0304   0.0106 -14.00    1.7
2024/10/07 12:29:47.000   28.323690951  -16.484730514  2093.5626   2   9   0.0122   0.0328   0.0577  -0.0063  -0.0304   0.0106 -13.00    1.6
2024/10/07 12:29:48.000   28.323690952  -16.484730516  2093.5648   2   9   0.0122   0.0328   0.0577  -0.0063  -0.0304   0.0106 -12.00    1.6
2024/10/07 12:29:49.000   28.323690953  -16.484730518  2093.5667   2   9   0.0122   0.0328   0.0578  -0.0063  -0.0304   0.0106 -11.00    1.8
2024/10/07 12:29:50.000   28.323690954  -16.484730520  2093.5683   2   9   0.0122   0.0328   0.0578  -0.0063  -0.0304   0.0106 -10.00    1.5
2024/10/07 12:29:51.000   28.323690954  -16.484730521  2093.5700   2   9   0.0122   0.0328   0.0578  -0.0063  -0.0304   0.0107  -9.00    1.1
2024/10/07 12:29:52.000   28.323690953  -16.484730524  2093.5717   2   9   0.0122   0.0328   0.0579  -0.0063  -0.0304   0.0107  -8.00    1.4
2024/10/07 12:29:53.000   28.323690951  -16.484730525  2093.5725   2   9   0.0122   0.0328   0.0579  -0.0063  -0.0305   0.0107  -7.00    1.6
2024/10/07 12:29:54.000   28.323690948  -16.484730524  2093.5719   2   9   0.0122   0.0328   0.0580  -0.0063  -0.0305   0.0107  -6.00    1.8
2024/10/07 12:29:55.000   28.323690943  -16.484730522  2093.5701   2   9   0.0122   0.0328   0.0580  -0.0063  -0.0305   0.0107  -5.00    1.7
2024/10/07 12:29:56.000   28.323690936  -16.484730517  2093.5668   2   9   0.0122   0.0328   0.0581  -0.0063  -0.0305   0.0107  -4.00    1.5
2024/10/07 12:29:57.000   28.323690928  -16.484730515  2093.5640   2   9   0.0122   0.0328   0.0582  -0.0063  -0.0306   0.0107  -3.00    1.6
2024/10/07 12:29:58.000   28.323690919  -16.484730511  2093.5603   2   9   0.0122   0.0329   0.0583  -0.0063  -0.0306   0.0107  -2.00    1.8
2024/10/07 12:29:59.000   28.323690910  -16.484730507  2093.5561   2   9   0.0122   0.0329   0.0584  -0.0064  -0.0307   0.0108  -1.00    1.5
2024/10/07 12:30:00.000   28.323690901  -16.484730500  2093.5490   2   9   0.0122   0.0329   0.0586  -0.0064  -0.0308   0.0108   0.00    1.3
2024/10/07 12:30:01.000   28.323690891  -16.484730500  2093.5445   2   9   0.0122   0.0329   0.0586  -0.0064  -0.0307   0.0108   1.00    1.0
2024/10/07 12:30:02.000   28.323690883  -16.484730495  2093.5384   2   9   0.0123   0.0329   0.0586  -0.0064  -0.0307   0.0108   2.00    1.3
2024/10/07 12:30:03.000   28.323690876  -16.484730491  2093.5337   2   9   0.0123   0.0329   0.0586  -0.0063  -0.0307   0.0108   3.00    1.4
2024/10/07 12:30:04.000   28.323690872  -16.484730487  2093.5297   2   9   0.0123   0.0329   0.0587  -0.0063  -0.0307   0.0108   4.00    1.5
2024/10/07 12:30:05.000   28.323690869  -16.484730480  2093.5240   2   9   0.0123   0.0329   0.0587  -0.0063  -0.0307   0.0108   5.00    1.1
2024/10/07 12:30:06.000   28.323690863  -16.484730465  2093.5145   2   9   0.0123   0.0328   0.0588  -0.0063  -0.0307   0.0108   6.00    1.3
2024/10/07 12:30:07.000   28.323690859  -16.484730452  2093.5061   2   9   0.0123   0.0328   0.0588  -0.0063  -0.0307   0.0108   7.00    1.2
2024/10/07 12:30:08.000   28.323690856  -16.484730444  2093.4998   2   9   0.0123   0.0328   0.0588  -0.0063  -0.0307   0.0108   8.00    1.0
2024/10/07 12:30:09.000   28.323690852  -16.484730433  2093.4922   2   9   0.0123   0.0328   0.0589  -0.0063  -0.0307   0.0108   9.00    1.2
2024/10/07 12:30:10.000   28.323690846  -16.484730411  2093.4805   2   9   0.0123   0.0328   0.0589  -0.0063  -0.0307   0.0108  10.00    1.2
2024/10/07 12:30:11.000   28.323690840  -16.484730390  2093.4688   2   9   0.0123   0.0328   0.0589  -0.0063  -0.0307   0.0108  11.00    1.1
2024/10/07 12:30:12.000   28.323690834  -16.484730369  2093.4578   2   9   0.0123   0.0328   0.0589  -0.0063  -0.0307   0.0108  12.00    1.1
2024/10/07 12:30:13.000   28.323690829  -16.484730349  2093.4474   2   9   0.0123   0.0328   0.0589  -0.0063  -0.0307   0.0108  13.00    1.4
2024/10/07 12:30:14.000   28.323690824  -16.484730330  2093.4376   2   9   0.0123   0.0328   0.0589  -0.0063  -0.0307   0.0108  14.00    1.0
2024/10/07 12:30:15.000   28.323690819  -16.484730313  2093.4287   2   9   0.0123   0.0328   0.0589  -0.0063  -0.0307   0.0108 -15.00    1.1
2024/10/07 12:30:16.000   28.323690814  -16.484730298  2093.4204   2   9   0.0123   0.0328   0.0589  -0.0063  -0.0307   0.0108 -14.00    1.0
2024/10/07 12:30:17.000   28.323690809  -16.484730279  2093.4105   2   9   0.0123   0.0328   0.0589  -0.0063  -0.0307   0.0108 -13.00    1.1
2024/10/07 12:30:18.000   28.323690805  -16.484730265  2093.4023   2   9   0.0123   0.0328   0.0589  -0.0063  -0.0307   0.0108 -12.00    1.1
2024/10/07 12:30:19.000   28.323690803  -16.484730259  2093.3976   2   9   0.0123   0.0328   0.0589  -0.0063  -0.0307   0.0108 -11.00    1.0
2024/10/07 12:30:20.000   28.323690803  -16.484730259  2093.3960   2   9   0.0123   0.0328   0.0588  -0.0063  -0.0307   0.0108 -10.00    1.2
2024/10/07 12:30:21.000   28.323690806  -16.484730265  2093.3974   2   9   0.0123   0.0328   0.0588  -0.0063  -0.0307   0.0108  -9.00    1.0
2024/10/07 12:30:22.000   28.323690809  -16.484730271  2093.3999   2   9   0.0123   0.0328   0.0588  -0.0063  -0.0307   0.0108  -8.00    1.4
2024/10/07 12:30:23.000   28.323690813  -16.484730276  2093.4018   2   9   0.0123   0.0328   0.0589  -0.0063  -0.0307   0.0108  -7.00    1.0
2024/10/07 12:30:24.000   28.323690816  -16.484730278  2093.4027   2   9   0.0123   0.0328   0.0589  -0.0063  -0.0307   0.0108  -6.00    1.1
2024/10/07 12:30:25.000   28.323690819  -16.484730276  2093.4022   2   9   0.0123   0.0328   0.0589  -0.0063  -0.0307   0.0108  -5.00    1.0
2024/10/07 12:30:26.000   28.323690823  -16.484730273  2093.4011   2   9   0.0123   0.0328   0.0589  -0.0063  -0.0307   0.0108  -4.00    1.1
2024/10/07 12:30:27.000   28.323690826  -16.484730269  2093.4003   2   9   0.0123   0.0328   0.0590  -0.0063  -0.0307   0.0108  -3.00    1.0
2024/10/07 12:30:28.000   28.323690828  -16.484730264  2093.3998   2   9   0.0123   0.0328   0.0590  -0.0063  -0.0308   0.0108  -2.00    1.1
2024/10/07 12:30:29.000   28.323690827  -16.484730256  2093.3992   2   9   0.0123   0.0328   0.0591  -0.0063  -0.0308   0.0109  -1.00    1.2
2024/10/07 12:30:30.000   28.323690826  -16.484730246  2093.3976   2   9   0.0123   0.0328   0.0592  -0.0063  -0.0308   0.0109   0.00    1.1
2024/10/07 12:30:31.000   28.323690830  -16.484730256  2093.4024   2   9   0.0123   0.0328   0.0592  -0.0063  -0.0308   0.0109   1.00    1.3
2024/10/07 12:30:32.000   28.323690835  -16.484730263  2093.4071   2   9   0.0123   0.0328   0.0591  -0.0063  -0.0308   0.0109   2.00    1.3
2024/10/07 12:30:33.000   28.323690838  -16.484730268  2093.4105   2   9   0.0123   0.0328   0.0591  -0.0063  -0.0308   0.0109   3.00    1.5
2024/10/07 12:30:34.000   28.323690840  -16.484730272  2093.4130   2   9   0.0123   0.0328   0.0591  -0.0063  -0.0308   0.0109   4.00    1.6
2024/10/07 12:30:35.000   28.323690842  -16.484730276  2093.4147   2   9   0.0123   0.0328   0.0591  -0.0063  -0.0307   0.0109   5.00    1.4
2024/10/07 12:30:36.000   28.323690844  -16.484730279  2093.4165   2   9   0.0123   0.0328   0.0591  -0.0063  -0.0307   0.0109   6.00    1.4
2024/10/07 12:30:37.000   28.323690847  -16.484730282  2093.4176   2   9   0.0123   0.0328   0.0591  -0.0063  -0.0307   0.0109   7.00    1.3
2024/10/07 12:30:38.000   28.323690849  -16.484730284  2093.4185   2   9   0.0123   0.0328   0.0591  -0.0063  -0.0307   0.0109   8.00    1.4
2024/10/07 12:30:39.000   28.323690851  -16.484730286  2093.4195   2   9   0.0123   0.0328   0.0591  -0.0063  -0.0307   0.0109   9.00    1.5
2024/10/07 12:30:40.000   28.323690852  -16.484730287  2093.4204   2   9   0.0123   0.0328   0.0592  -0.0063  -0.0307   0.0109  10.00    1.6
2024/10/07 12:30:41.000   28.323690853  -16.484730289  2093.4213   2   9   0.0123   0.0328   0.0592  -0.0063  -0.0307   0.0109  11.00    1.3
2024/10/07 12:30:42.000   28.323690854  -16.484730291  2093.4222   2   9   0.0123   0.0328   0.0592  -0.0063  -0.0307   0.0109  12.00    1.6
2024/10/07 12:30:43.000   28.323690854  -16.484730291  2093.4229   2   9   0.0123   0.0328   0.0592  -0.0063  -0.0307   0.0109  13.00    1.6
2024/10/07 12:30:44.000   28.323690854  -16.484730293  2093.4235   2   9   0.0123   0.0328   0.0592  -0.0063  -0.0307   0.0109  14.00    1.3
2024/10/07 12:30:45.000   28.323690854  -16.484730294  2093.4241   2   9   0.0123   0.0328   0.0592  -0.0063  -0.0307   0.0109 -15.00    1.4
2024/10/07 12:30:46.000   28.323690854  -16.484730294  2093.4248   2   9   0.0123   0.0328   0.0592  -0.0063  -0.0307   0.0109 -14.00    1.4
2024/10/07 12:30:47.000   28.323690854  -16.484730295  2093.4253   2   9   0.0123   0.0328   0.0592  -0.0063  -0.0307   0.0109 -13.00    1.4
2024/10/07 12:30:48.000   28.323690854  -16.484730294  2093.4253   2   9   0.0123   0.0328   0.0592  -0.0063  -0.0307   0.0109 -12.00    1.5
2024/10/07 12:30:49.000   28.323690854  -16.484730294  2093.4255   2   9   0.0123   0.0328   0.0592  -0.0063  -0.0307   0.0109 -11.00    1.6
2024/10/07 12:30:50.000   28.323690853  -16.484730294  2093.4257   2   9   0.0123   0.0328   0.0592  -0.0063  -0.0307   0.0109 -10.00    1.3
2024/10/07 12:30:51.000   28.323690852  -16.484730293  2093.4252   2   9   0.0123   0.0328   0.0592  -0.0063  -0.0307   0.0109  -9.00    1.6
2024/10/07 12:30:52.000   28.323690851  -16.484730292  2093.4245   2   9   0.0123   0.0328   0.0593  -0.0063  -0.0307   0.0109  -8.00    1.6
2024/10/07 12:30:53.000   28.323690850  -16.484730291  2093.4238   2   9   0.0123   0.0328   0.0593  -0.0063  -0.0308   0.0109  -7.00    1.3
2024/10/07 12:30:54.000   28.323690848  -16.484730290  2093.4234   2   9   0.0123   0.0328   0.0593  -0.0063  -0.0308   0.0109  -6.00    1.4
2024/10/07 12:30:55.000   28.323690847  -16.484730289  2093.4235   2   9   0.0123   0.0328   0.0593  -0.0063  -0.0308   0.0109  -5.00    1.6
2024/10/07 12:30:56.000   28.323690846  -16.484730285  2093.4229   2   9   0.0123   0.0328   0.0594  -0.0063  -0.0308   0.0109  -4.00    1.4
2024/10/07 12:30:57.000   28.323690844  -16.484730283  2093.4230   2   9   0.0123   0.0328   0.0594  -0.0063  -0.0308   0.0109  -3.00    1.5
2024/10/07 12:30:58.000   28.323690843  -16.484730280  2093.4243   2   9   0.0123   0.0328   0.0595  -0.0063  -0.0308   0.0109  -2.00    1.6
2024/10/07 12:30:59.000   28.323690842  -16.484730276  2093.4252   2   9   0.0123   0.0328   0.0595  -0.0063  -0.0309   0.0109  -1.00    1.3
2024/10/07 12:31:00.000   28.323690840  -16.484730272  2093.4268   2   9   0.0123   0.0328   0.0596  -0.0063  -0.0309   0.0109   0.00    1.6
2024/10/07 12:31:01.000   28.323690841  -16.484730280  2093.4327   2   9   0.0123   0.0328   0.0596  -0.0063  -0.0309   0.0109   1.00    1.6
2024/10/07 12:31:02.000   28.323690840  -16.484730286  2093.4375   2   9   0.0123   0.0328   0.0595  -0.0063  -0.0309   0.0109   2.00    1.4
2024/10/07 12:31:03.000   28.323690839  -16.484730290  2093.4419   2   9   0.0123   0.0328   0.0595  -0.0063  -0.0309   0.0109   3.00    1.3
2024/10/07 12:31:04.000   28.323690839  -16.484730294  2093.4459   2   9   0.0123   0.0328   0.0595  -0.0062  -0.0308   0.0109   4.00    1.1
2024/10/07 12:31:05.000   28.323690840  -16.484730297  2093.4495   2   9   0.0123   0.0328   0.0595  -0.0062  -0.0308   0.0109   5.00    1.6
2024/10/07 12:31:06.000   28.323690842  -16.484730300  2093.4525   2   9   0.0123   0.0328   0.0595  -0.0062  -0.0308   0.0109   6.00    1.2
2024/10/07 12:31:07.000   28.323690843  -16.484730304  2093.4552   2   9   0.0123   0.0328   0.0595  -0.0062  -0.0308   0.0109   7.00    1.4
2024/10/07 12:31:08.000   28.323690844  -16.484730305  2093.4567   2   9   0.0123   0.0328   0.0595  -0.0062  -0.0308   0.0109   8.00    1.4
2024/10/07 12:31:09.000   28.323690845  -16.484730306  2093.4574   2   9   0.0123   0.0328   0.0595  -0.0062  -0.0308   0.0109   9.00    1.6
2024/10/07 12:31:10.000   28.323690845  -16.484730308  2093.4582   2   9   0.0123   0.0328   0.0595  -0.0062  -0.0308   0.0109  10.00    1.2
2024/10/07 12:31:11.000   28.323690846  -16.484730309  2093.4583   2   9   0.0123   0.0328   0.0595  -0.0062  -0.0308   0.0109  11.00    1.5
2024/10/07 12:31:12.000   28.323690847  -16.484730309  2093.4584   2   9   0.0123   0.0328   0.0595  -0.0062  -0.0308   0.0109  12.00    1.3
2024/10/07 12:31:13.000   28.323690847  -16.484730310  2093.4585   2   9   0.0123   0.0328   0.0595  -0.0062  -0.0308   0.0109  13.00    1.3
2024/10/07 12:31:14.000   28.323690848  -16.484730311  2093.4585   2   9   0.0123   0.0328   0.0595  -0.0062  -0.0308   0.0109  14.00    1.7
2024/10/07 12:31:15.000   28.323690848  -16.484730311  2093.4588   2   9   0.0123   0.0328   0.0595  -0.0062  -0.0308   0.0109 -15.00    1.2
2024/10/07 12:31:16.000   28.323690849  -16.484730311  2093.4588   2   9   0.0123   0.0328   0.0595  -0.0062  -0.0308   0.0109 -14.00    1.5
2024/10/07 12:31:17.000   28.323690849  -16.484730311  2093.4589   2   9   0.0123   0.0328   0.0595  -0.0062  -0.0308   0.0109 -13.00    1.4
2024/10/07 12:31:18.000   28.323690850  -16.484730312  2093.4590   2   9   0.0123   0.0328   0.0595  -0.0062  -0.0308   0.0109 -12.00    1.6
2024/10/07 12:31:19.000   28.323690850  -16.484730312  2093.4591   2   9   0.0123   0.0328   0.0595  -0.0062  -0.0308   0.0109 -11.00    1.6
2024/10/07 12:31:20.000   28.323690852  -16.484730312  2093.4592   2   9   0.0123   0.0328   0.0595  -0.0062  -0.0308   0.0109 -10.00    1.4
2024/10/07 12:31:21.000   28.323690853  -16.484730312  2093.4594   2   9   0.0123   0.0328   0.0595  -0.0062  -0.0308   0.0109  -9.00    1.2
2024/10/07 12:31:22.000   28.323690854  -16.484730313  2093.4597   2   9   0.0123   0.0328   0.0595  -0.0062  -0.0308   0.0109  -8.00    1.3
2024/10/07 12:31:23.000   28.323690855  -16.484730314  2093.4598   2   9   0.0123   0.0328   0.0595  -0.0062  -0.0308   0.0109  -7.00    1.7
2024/10/07 12:31:24.000   28.323690855  -16.484730317  2093.4599   2   9   0.0123   0.0328   0.0595  -0.0062  -0.0308   0.0109  -6.00    1.5
2024/10/07 12:31:25.000   28.323690856  -16.484730317  2093.4590   2   9   0.0123   0.0328   0.0596  -0.0062  -0.0308   0.0109  -5.00    1.5
2024/10/07 12:31:26.000   28.323690856  -16.484730316  2093.4568   2   9   0.0123   0.0328   0.0596  -0.0062  -0.0308   0.0109  -4.00    1.3
2024/10/07 12:31:27.000   28.323690856  -16.484730315  2093.4547   2   9   0.0123   0.0328   0.0596  -0.0062  -0.0308   0.0109  -3.00    1.6
2024/10/07 12:31:28.000   28.323690855  -16.484730314  2093.4519   2   9   0.0123   0.0328   0.0597  -0.0062  -0.0309   0.0109  -2.00    1.6
2024/10/07 12:31:29.000   28.323690854  -16.484730312  2093.4494   2   9   0.0123   0.0328   0.0597  -0.0062  -0.0309   0.0109  -1.00    1.4
2024/10/07 12:31:30.000   28.323690852  -16.484730309  2093.4482   2   9   0.0123   0.0328   0.0598  -0.0062  -0.0309   0.0109   0.00    1.3
2024/10/07 12:31:31.000   28.323690850  -16.484730315  2093.4499   2   9   0.0123   0.0328   0.0597  -0.0062  -0.0309   0.0109   1.00    1.3
2024/10/07 12:31:32.000   28.323690847  -16.484730322  2093.4503   2   9   0.0123   0.0328   0.0597  -0.0062  -0.0309   0.0109   2.00    1.6
2024/10/07 12:31:33.000   28.323690843  -16.484730325  2093.4497   2   9   0.0123   0.0328   0.0597  -0.0062  -0.0309   0.0109   3.00    1.5
2024/10/07 12:31:34.000   28.323690840  -16.484730327  2093.4489   2   9   0.0123   0.0328   0.0596  -0.0062  -0.0308   0.0109   4.00    1.4
2024/10/07 12:31:35.000   28.323690836  -16.484730328  2093.4482   2   9   0.0123   0.0327   0.0596  -0.0062  -0.0308   0.0109   5.00    1.2
2024/10/07 12:31:36.000   28.323690833  -16.484730328  2093.4475   2   9   0.0123   0.0327   0.0596  -0.0062  -0.0308   0.0109   6.00    1.5
2024/10/07 12:31:37.000   28.323690830  -16.484730328  2093.4470   2   9   0.0123   0.0327   0.0596  -0.0062  -0.0308   0.0109   7.00    1.5
2024/10/07 12:31:38.000   28.323690828  -16.484730329  2093.4468   2   9   0.0123   0.0327   0.0596  -0.0062  -0.0308   0.0109   8.00    1.4
2024/10/07 12:31:39.000   28.323690827  -16.484730329  2093.4467   2   9   0.0123   0.0327   0.0596  -0.0062  -0.0308   0.0109   9.00    1.3
2024/10/07 12:31:40.000   28.323690826  -16.484730330  2093.4469   2   9   0.0123   0.0327   0.0596  -0.0062  -0.0308   0.0109  10.00    1.1
2024/10/07 12:31:41.000   28.323690825  -16.484730332  2093.4473   2   9   0.0123   0.0327   0.0596  -0.0062  -0.0308   0.0109  11.00    1.8
2024/10/07 12:31:42.000   28.323690825  -16.484730333  2093.4477   2   9   0.0123   0.0327   0.0596  -0.0062  -0.0308   0.0109  12.00    1.3
2024/10/07 12:31:43.000   28.323690825  -16.484730335  2093.4483   2   9   0.0123   0.0327   0.0596  -0.0062  -0.0308   0.0109  13.00    1.6
