% program   : RTKPOST-EX 2.5.0
% inp file  : C:\Users\SallyHenry\Desktop\Sally Internship\GNSS gravi\DATA\Survey Rover Obs\GUI33.24o
% inp file  : C:\Users\SallyHenry\Desktop\Sally Internship\GNSS gravi\DATA\BaseStations\IZAN\IZAN00ESP_R_20242810000_01D_30S_MO.rnx
% inp file  : C:\Users\SallyHenry\Desktop\Sally Internship\GNSS gravi\DATA\BaseStations\IZAN\IZAN00ESP_R_20242810000_01D_MN.rnx
% inp file  : C:\Users\SallyHenry\Desktop\Sally Internship\GNSS gravi\DATA\aux_files\Survey\IGS0OPSFIN_20242810000_01D_15M_ORB.SP3
% inp file  : C:\Users\SallyHenry\Desktop\Sally Internship\GNSS gravi\DATA\aux_files\Survey\IGS0OPSFIN_20242810000_01D_30S_CLK.CLK
% obs start : 2024/10/07 12:00:34.0 GPST (week2335 129634.0s)
% obs end   : 2024/10/07 12:15:33.0 GPST (week2335 130533.0s)
% pos mode  : Static
% freqs     : L1+L2/E5b
% solution  : Combined-No Phase Reset
% elev mask : 15.0 deg
% dynamics  : on
% tidecorr  : solid
% ionos opt : Estimate TEC
% tropo opt : Estimate ZTD+Grad
% ephemeris : Precise
% navi sys  : GPS GLONASS Galileo QZSS BDS
% amb res   : Fix and Hold
% amb glo   : Fix and Hold
% amb bds   : on
% val thres : 3.0
% antenna1  :                       ( 0.0000  0.0000  1.8000)
% antenna2  :                       ( 0.0000  0.0000  0.0000)
% ref pos   :  28.308069410  -16.499677180  2417.4044
%
% (lat/lon/height=WGS84/ellipsoidal,Q=1:fix,2:float,3:sbas,4:dgps,5:single,6:ppp,ns=# of satellites)
%  GPST                  latitude(deg) longitude(deg)  height(m)   Q  ns   sdn(m)   sde(m)   sdu(m)  sdne(m)  sdeu(m)  sdun(m) age(s)  ratio
2024/10/07 12:00:34.000   28.314641169  -16.487162953  1996.2220   1   7   0.0021   0.0019   0.0186  -0.0012  -0.0034   0.0027   4.00   59.7
2024/10/07 12:00:35.000   28.314641169  -16.487162954  1996.2225   1   7   0.0021   0.0019   0.0186  -0.0012  -0.0034   0.0028   5.00   57.3
2024/10/07 12:00:36.000   28.314641170  -16.487162955  1996.2228   1   7   0.0021   0.0019   0.0187  -0.0012  -0.0034   0.0028   6.00   54.8
2024/10/07 12:00:37.000   28.314641170  -16.487162955  1996.2231   1   7   0.0021   0.0019   0.0187  -0.0012  -0.0034   0.0028   7.00   52.3
2024/10/07 12:00:38.000   28.314641171  -16.487162955  1996.2234   1   7   0.0021   0.0019   0.0187  -0.0012  -0.0034   0.0028   8.00   50.1
2024/10/07 12:00:39.000   28.314641171  -16.487162955  1996.2236   1   7   0.0021   0.0019   0.0187  -0.0012  -0.0034   0.0028   9.00   48.1
2024/10/07 12:00:40.000   28.314641171  -16.487162956  1996.2238   1   7   0.0021   0.0019   0.0187  -0.0012  -0.0034   0.0028  10.00   46.4
2024/10/07 12:00:41.000   28.314641171  -16.487162956  1996.2239   1   7   0.0021   0.0019   0.0187  -0.0012  -0.0034   0.0028  11.00   44.9
2024/10/07 12:00:42.000   28.314641172  -16.487162956  1996.2240   1   7   0.0021   0.0019   0.0187  -0.0012  -0.0034   0.0028  12.00   43.6
2024/10/07 12:00:43.000   28.314641172  -16.487162956  1996.2240   1   7   0.0021   0.0019   0.0187  -0.0012  -0.0034   0.0028  13.00   42.4
2024/10/07 12:00:44.000   28.314641172  -16.487162956  1996.2241   1   7   0.0021   0.0019   0.0187  -0.0012  -0.0034   0.0028  14.00   41.3
2024/10/07 12:00:45.000   28.314641172  -16.487162956  1996.2241   1   7   0.0021   0.0019   0.0187  -0.0012  -0.0034   0.0028  15.00   40.2
2024/10/07 12:00:46.000   28.314641172  -16.487162956  1996.2241   1   7   0.0021   0.0019   0.0187  -0.0012  -0.0034   0.0028 -14.00   39.3
2024/10/07 12:00:47.000   28.314641172  -16.487162956  1996.2241   1   7   0.0021   0.0019   0.0187  -0.0012  -0.0034   0.0028 -13.00   38.3
2024/10/07 12:00:48.000   28.314641172  -16.487162956  1996.2242   1   7   0.0021   0.0019   0.0187  -0.0012  -0.0034   0.0028 -12.00   37.3
2024/10/07 12:00:49.000   28.314641172  -16.487162956  1996.2242   1   7   0.0021   0.0019   0.0187  -0.0012  -0.0034   0.0028 -11.00   36.1
2024/10/07 12:00:50.000   28.314641172  -16.487162956  1996.2243   1   7   0.0021   0.0019   0.0187  -0.0012  -0.0034   0.0028 -10.00   34.9
2024/10/07 12:00:51.000   28.314641172  -16.487162956  1996.2244   1   7   0.0021   0.0019   0.0187  -0.0012  -0.0034   0.0028  -9.00   33.5
2024/10/07 12:00:52.000   28.314641173  -16.487162956  1996.2245   1   7   0.0021   0.0019   0.0187  -0.0012  -0.0034   0.0028  -8.00   31.9
2024/10/07 12:00:53.000   28.314641173  -16.487162957  1996.2246   1   7   0.0021   0.0019   0.0187  -0.0012  -0.0034   0.0028  -7.00   29.9
2024/10/07 12:00:54.000   28.314641173  -16.487162957  1996.2247   1   7   0.0021   0.0019   0.0187  -0.0012  -0.0034   0.0028  -6.00   27.6
2024/10/07 12:00:55.000   28.314641173  -16.487162957  1996.2249   1   7   0.0021   0.0019   0.0187  -0.0012  -0.0034   0.0028  -5.00   24.9
2024/10/07 12:00:56.000   28.314641173  -16.487162957  1996.2248   1   7   0.0021   0.0019   0.0187  -0.0012  -0.0034   0.0029  -4.00   21.6
2024/10/07 12:00:57.000   28.314641174  -16.487162958  1996.2249   1   7   0.0021   0.0019   0.0187  -0.0012  -0.0034   0.0029  -3.00   17.8
2024/10/07 12:00:58.000   28.314641174  -16.487162958  1996.2251   1   7   0.0021   0.0019   0.0188  -0.0012  -0.0034   0.0029  -2.00   13.2
2024/10/07 12:00:59.000   28.314641175  -16.487162959  1996.2254   1   7   0.0021   0.0019   0.0188  -0.0012  -0.0034   0.0029  -1.00    7.7
2024/10/07 12:01:00.000   28.314641172  -16.487162957  1996.2236   1   7   0.0021   0.0019   0.0186  -0.0012  -0.0034   0.0027   0.00   57.1
2024/10/07 12:01:01.000   28.314641172  -16.487162958  1996.2240   1   7   0.0021   0.0019   0.0186  -0.0012  -0.0034   0.0027   1.00   55.5
2024/10/07 12:01:02.000   28.314641172  -16.487162959  1996.2243   1   7   0.0021   0.0019   0.0186  -0.0012  -0.0034   0.0027   2.00   53.9
2024/10/07 12:01:03.000   28.314641172  -16.487162959  1996.2246   1   7   0.0021   0.0019   0.0187  -0.0012  -0.0034   0.0027   3.00   52.3
2024/10/07 12:01:04.000   28.314641173  -16.487162960  1996.2249   1   7   0.0021   0.0019   0.0187  -0.0012  -0.0034   0.0027   4.00   50.6
2024/10/07 12:01:05.000   28.314641173  -16.487162961  1996.2252   1   7   0.0021   0.0019   0.0187  -0.0012  -0.0034   0.0028   5.00   48.6
2024/10/07 12:01:06.000   28.314641173  -16.487162961  1996.2253   1   7   0.0021   0.0019   0.0187  -0.0012  -0.0034   0.0028   6.00   46.4
2024/10/07 12:01:07.000   28.314641174  -16.487162962  1996.2256   1   7   0.0021   0.0019   0.0187  -0.0012  -0.0034   0.0028   7.00   44.4
2024/10/07 12:01:08.000   28.314641174  -16.487162962  1996.2257   1   7   0.0021   0.0019   0.0187  -0.0012  -0.0034   0.0028   8.00   42.7
2024/10/07 12:01:09.000   28.314641174  -16.487162962  1996.2257   1   7   0.0021   0.0019   0.0187  -0.0012  -0.0034   0.0028   9.00   41.2
2024/10/07 12:01:10.000   28.314641174  -16.487162962  1996.2258   1   7   0.0021   0.0019   0.0187  -0.0012  -0.0034   0.0028  10.00   39.9
2024/10/07 12:01:11.000   28.314641174  -16.487162962  1996.2258   1   7   0.0021   0.0019   0.0187  -0.0012  -0.0034   0.0028  11.00   38.7
2024/10/07 12:01:12.000   28.314641174  -16.487162963  1996.2258   1   7   0.0021   0.0019   0.0187  -0.0012  -0.0034   0.0028  12.00   37.7
2024/10/07 12:01:13.000   28.314641174  -16.487162963  1996.2258   1   7   0.0021   0.0019   0.0187  -0.0012  -0.0034   0.0028  13.00   36.8
2024/10/07 12:01:14.000   28.314641174  -16.487162963  1996.2259   1   7   0.0021   0.0019   0.0187  -0.0012  -0.0034   0.0028  14.00   35.9
2024/10/07 12:01:15.000   28.314641174  -16.487162963  1996.2259   1   7   0.0021   0.0019   0.0187  -0.0012  -0.0034   0.0028  15.00   35.2
2024/10/07 12:01:16.000   28.314641174  -16.487162963  1996.2259   1   7   0.0021   0.0019   0.0187  -0.0012  -0.0034   0.0028 -14.00   34.5
2024/10/07 12:01:17.000   28.314641174  -16.487162963  1996.2260   1   7   0.0021   0.0019   0.0187  -0.0012  -0.0034   0.0028 -13.00   33.5
2024/10/07 12:01:18.000   28.314641174  -16.487162963  1996.2260   1   7   0.0021   0.0019   0.0187  -0.0012  -0.0034   0.0028 -12.00   32.5
2024/10/07 12:01:19.000   28.314641174  -16.487162963  1996.2261   1   7   0.0021   0.0019   0.0187  -0.0012  -0.0034   0.0028 -11.00   31.4
2024/10/07 12:01:20.000   28.314641174  -16.487162963  1996.2261   1   7   0.0021   0.0019   0.0187  -0.0012  -0.0034   0.0028 -10.00   30.2
2024/10/07 12:01:21.000   28.314641173  -16.487162963  1996.2262   1   7   0.0021   0.0019   0.0187  -0.0012  -0.0034   0.0028  -9.00   28.9
2024/10/07 12:01:22.000   28.314641173  -16.487162963  1996.2262   1   7   0.0021   0.0019   0.0187  -0.0012  -0.0034   0.0028  -8.00   27.4
2024/10/07 12:01:23.000   28.314641173  -16.487162963  1996.2263   1   7   0.0021   0.0019   0.0187  -0.0012  -0.0034   0.0028  -7.00   25.6
2024/10/07 12:01:24.000   28.314641173  -16.487162963  1996.2263   1   7   0.0021   0.0019   0.0187  -0.0012  -0.0034   0.0028  -6.00   23.7
2024/10/07 12:01:25.000   28.314641173  -16.487162964  1996.2265   1   7   0.0021   0.0019   0.0187  -0.0012  -0.0034   0.0028  -5.00   21.2
2024/10/07 12:01:26.000   28.314641173  -16.487162964  1996.2266   1   7   0.0021   0.0019   0.0188  -0.0012  -0.0034   0.0029  -4.00   18.5
2024/10/07 12:01:27.000   28.314641173  -16.487162964  1996.2269   1   7   0.0021   0.0019   0.0188  -0.0012  -0.0034   0.0029  -3.00   15.1
2024/10/07 12:01:28.000   28.314641172  -16.487162964  1996.2266   1   7   0.0021   0.0019   0.0188  -0.0012  -0.0034   0.0029  -2.00   11.2
2024/10/07 12:01:29.000   28.314641173  -16.487162965  1996.2264   1   7   0.0021   0.0019   0.0189  -0.0012  -0.0035   0.0029  -1.00    6.6
2024/10/07 12:01:30.000   28.314641169  -16.487162964  1996.2248   1   7   0.0021   0.0019   0.0186  -0.0012  -0.0034   0.0027   0.00   49.4
2024/10/07 12:01:31.000   28.314641169  -16.487162964  1996.2252   1   7   0.0021   0.0019   0.0186  -0.0012  -0.0034   0.0027   1.00   48.5
2024/10/07 12:01:32.000   28.314641169  -16.487162965  1996.2255   1   7   0.0021   0.0019   0.0187  -0.0012  -0.0034   0.0027   2.00   47.6
2024/10/07 12:01:33.000   28.314641169  -16.487162965  1996.2258   1   7   0.0021   0.0019   0.0187  -0.0012  -0.0034   0.0027   3.00   46.8
2024/10/07 12:01:34.000   28.314641169  -16.487162965  1996.2259   1   7   0.0021   0.0019   0.0187  -0.0012  -0.0034   0.0028   4.00   46.1
2024/10/07 12:01:35.000   28.314641169  -16.487162965  1996.2261   1   7   0.0021   0.0019   0.0187  -0.0012  -0.0034   0.0028   5.00   44.5
2024/10/07 12:01:36.000   28.314641169  -16.487162965  1996.2263   1   7   0.0021   0.0019   0.0187  -0.0012  -0.0034   0.0028   6.00   42.8
2024/10/07 12:01:37.000   28.314641169  -16.487162965  1996.2263   1   7   0.0021   0.0019   0.0188  -0.0012  -0.0034   0.0028   7.00   41.3
2024/10/07 12:01:38.000   28.314641169  -16.487162965  1996.2263   1   7   0.0021   0.0019   0.0188  -0.0012  -0.0034   0.0028   8.00   40.0
2024/10/07 12:01:39.000   28.314641169  -16.487162965  1996.2264   1   7   0.0021   0.0019   0.0188  -0.0012  -0.0034   0.0028   9.00   38.9
2024/10/07 12:01:40.000   28.314641169  -16.487162965  1996.2264   1   7   0.0021   0.0019   0.0188  -0.0012  -0.0034   0.0028  10.00   37.9
2024/10/07 12:01:41.000   28.314641169  -16.487162965  1996.2264   1   7   0.0021   0.0019   0.0188  -0.0012  -0.0034   0.0028  11.00   37.0
2024/10/07 12:01:42.000   28.314641169  -16.487162965  1996.2264   1   7   0.0021   0.0019   0.0188  -0.0012  -0.0034   0.0028  12.00   36.1
2024/10/07 12:01:43.000   28.314641169  -16.487162965  1996.2264   1   7   0.0021   0.0019   0.0188  -0.0012  -0.0034   0.0028  13.00   35.4
2024/10/07 12:01:44.000   28.314641169  -16.487162965  1996.2264   1   7   0.0021   0.0019   0.0188  -0.0012  -0.0034   0.0028  14.00   34.6
2024/10/07 12:01:45.000   28.314641169  -16.487162965  1996.2263   1   7   0.0021   0.0019   0.0188  -0.0012  -0.0034   0.0028  15.00   33.8
2024/10/07 12:01:46.000   28.314641169  -16.487162965  1996.2263   1   7   0.0021   0.0019   0.0188  -0.0012  -0.0034   0.0028 -14.00   33.1
2024/10/07 12:01:47.000   28.314641169  -16.487162965  1996.2263   1   7   0.0021   0.0019   0.0188  -0.0012  -0.0034   0.0028 -13.00   32.3
2024/10/07 12:01:48.000   28.314641169  -16.487162965  1996.2263   1   7   0.0021   0.0019   0.0188  -0.0012  -0.0034   0.0028 -12.00   31.5
2024/10/07 12:01:49.000   28.314641169  -16.487162964  1996.2263   1   7   0.0021   0.0019   0.0188  -0.0012  -0.0034   0.0028 -11.00   30.5
2024/10/07 12:01:50.000   28.314641169  -16.487162964  1996.2263   1   7   0.0021   0.0019   0.0188  -0.0012  -0.0034   0.0028 -10.00   29.4
2024/10/07 12:01:51.000   28.314641169  -16.487162964  1996.2264   1   7   0.0021   0.0019   0.0188  -0.0012  -0.0034   0.0028  -9.00   28.2
2024/10/07 12:01:52.000   28.314641169  -16.487162964  1996.2264   1   7   0.0021   0.0019   0.0188  -0.0012  -0.0034   0.0028  -8.00   26.8
2024/10/07 12:01:53.000   28.314641169  -16.487162964  1996.2265   1   7   0.0021   0.0019   0.0188  -0.0012  -0.0034   0.0028  -7.00   25.2
2024/10/07 12:01:54.000   28.314641170  -16.487162964  1996.2265   1   7   0.0021   0.0019   0.0188  -0.0012  -0.0034   0.0028  -6.00   23.3
2024/10/07 12:01:55.000   28.314641170  -16.487162964  1996.2265   1   7   0.0021   0.0019   0.0188  -0.0012  -0.0034   0.0029  -5.00   21.1
2024/10/07 12:01:56.000   28.314641170  -16.487162965  1996.2267   1   7   0.0021   0.0019   0.0188  -0.0012  -0.0035   0.0029  -4.00   18.4
2024/10/07 12:01:57.000   28.314641170  -16.487162965  1996.2268   1   7   0.0021   0.0019   0.0188  -0.0012  -0.0035   0.0029  -3.00   15.2
2024/10/07 12:01:58.000   28.314641171  -16.487162965  1996.2272   1   7   0.0021   0.0019   0.0189  -0.0012  -0.0035   0.0029  -2.00   11.2
2024/10/07 12:01:59.000   28.314641171  -16.487162965  1996.2272   1   7   0.0021   0.0019   0.0189  -0.0012  -0.0035   0.0029  -1.00    6.6
2024/10/07 12:02:00.000   28.314641173  -16.487162966  1996.2281   1   7   0.0021   0.0019   0.0187  -0.0012  -0.0034   0.0027   0.00   49.6
2024/10/07 12:02:01.000   28.314641173  -16.487162966  1996.2287   1   7   0.0021   0.0019   0.0187  -0.0012  -0.0034   0.0027   1.00   48.8
2024/10/07 12:02:02.000   28.314641173  -16.487162966  1996.2292   1   7   0.0021   0.0019   0.0187  -0.0012  -0.0034   0.0027   2.00   47.7
2024/10/07 12:02:03.000   28.314641173  -16.487162967  1996.2296   1   7   0.0021   0.0019   0.0187  -0.0012  -0.0034   0.0027   3.00   46.7
2024/10/07 12:02:04.000   28.314641174  -16.487162967  1996.2298   1   7   0.0021   0.0019   0.0188  -0.0012  -0.0034   0.0028   4.00   45.7
2024/10/07 12:02:05.000   28.314641173  -16.487162967  1996.2298   1   7   0.0021   0.0019   0.0188  -0.0012  -0.0034   0.0028   5.00   44.7
2024/10/07 12:02:06.000   28.314641173  -16.487162967  1996.2299   1   7   0.0021   0.0019   0.0188  -0.0012  -0.0034   0.0028   6.00   43.1
2024/10/07 12:02:07.000   28.314641173  -16.487162966  1996.2299   1   7   0.0021   0.0019   0.0188  -0.0012  -0.0035   0.0028   7.00   41.5
2024/10/07 12:02:08.000   28.314641173  -16.487162966  1996.2299   1   7   0.0021   0.0019   0.0188  -0.0012  -0.0035   0.0028   8.00   40.0
2024/10/07 12:02:09.000   28.314641173  -16.487162966  1996.2299   1   7   0.0021   0.0019   0.0188  -0.0012  -0.0035   0.0028   9.00   38.5
2024/10/07 12:02:10.000   28.314641173  -16.487162966  1996.2298   1   7   0.0021   0.0019   0.0188  -0.0012  -0.0035   0.0028  10.00   37.2
2024/10/07 12:02:11.000   28.314641173  -16.487162966  1996.2299   1   7   0.0021   0.0019   0.0188  -0.0012  -0.0035   0.0028  11.00   35.9
2024/10/07 12:02:12.000   28.314641173  -16.487162966  1996.2298   1   7   0.0021   0.0019   0.0188  -0.0012  -0.0035   0.0028  12.00   34.9
2024/10/07 12:02:13.000   28.314641173  -16.487162966  1996.2298   1   7   0.0021   0.0019   0.0188  -0.0012  -0.0035   0.0028  13.00   34.0
2024/10/07 12:02:14.000   28.314641172  -16.487162966  1996.2298   1   7   0.0021   0.0019   0.0188  -0.0012  -0.0035   0.0028  14.00   33.1
2024/10/07 12:02:15.000   28.314641172  -16.487162966  1996.2297   1   7   0.0021   0.0019   0.0188  -0.0012  -0.0035   0.0028  15.00   32.4
2024/10/07 12:02:16.000   28.314641172  -16.487162966  1996.2297   1   7   0.0021   0.0019   0.0188  -0.0012  -0.0035   0.0028 -14.00   31.7
2024/10/07 12:02:17.000   28.314641172  -16.487162966  1996.2296   1   7   0.0021   0.0019   0.0188  -0.0012  -0.0035   0.0028 -13.00   30.9
2024/10/07 12:02:18.000   28.314641172  -16.487162966  1996.2295   1   7   0.0021   0.0019   0.0188  -0.0012  -0.0035   0.0028 -12.00   30.1
2024/10/07 12:02:19.000   28.314641172  -16.487162966  1996.2294   1   7   0.0021   0.0019   0.0188  -0.0012  -0.0035   0.0028 -11.00   29.2
2024/10/07 12:02:20.000   28.314641172  -16.487162966  1996.2294   1   7   0.0021   0.0019   0.0188  -0.0012  -0.0035   0.0028 -10.00   28.2
2024/10/07 12:02:21.000   28.314641201  -16.487162995  1996.2248   1   7   0.0019   0.0017   0.0184  -0.0011  -0.0034   0.0027  -9.00    5.7
2024/10/07 12:02:22.000   28.314641202  -16.487162995  1996.2247   1   7   0.0019   0.0017   0.0184  -0.0011  -0.0034   0.0027  -8.00    5.7
2024/10/07 12:02:23.000   28.314641202  -16.487162996  1996.2246   1   7   0.0019   0.0017   0.0184  -0.0011  -0.0034   0.0027  -7.00    5.7
2024/10/07 12:02:24.000   28.314641203  -16.487162996  1996.2244   1   7   0.0019   0.0017   0.0184  -0.0011  -0.0034   0.0027  -6.00    5.7
2024/10/07 12:02:25.000   28.314641204  -16.487162996  1996.2242   1   7   0.0019   0.0017   0.0184  -0.0011  -0.0034   0.0027  -5.00    5.6
2024/10/07 12:02:26.000   28.314641204  -16.487162997  1996.2239   1   7   0.0019   0.0017   0.0184  -0.0011  -0.0034   0.0027  -4.00    5.6
2024/10/07 12:02:27.000   28.314641205  -16.487162997  1996.2237   1   7   0.0019   0.0017   0.0185  -0.0011  -0.0034   0.0027  -3.00    5.6
2024/10/07 12:02:28.000   28.314641206  -16.487162998  1996.2235   1   7   0.0019   0.0017   0.0185  -0.0011  -0.0034   0.0027  -2.00    5.6
2024/10/07 12:02:29.000   28.314641207  -16.487162999  1996.2236   1   7   0.0019   0.0017   0.0185  -0.0011  -0.0034   0.0027  -1.00    5.6
2024/10/07 12:02:30.000   28.314641203  -16.487162997  1996.2197   1   7   0.0019   0.0017   0.0183  -0.0011  -0.0033   0.0026   0.00    5.5
2024/10/07 12:02:31.000   28.314641189  -16.487162992  1996.2204   1   7   0.0019   0.0017   0.0183  -0.0011  -0.0033   0.0026   1.00    4.6
2024/10/07 12:02:32.000   28.314641189  -16.487162992  1996.2204   1   7   0.0019   0.0017   0.0183  -0.0011  -0.0033   0.0026   2.00    4.6
2024/10/07 12:02:33.000   28.314641191  -16.487162993  1996.2206   1   7   0.0019   0.0017   0.0183  -0.0011  -0.0033   0.0026   3.00    4.6
2024/10/07 12:02:34.000   28.314641191  -16.487162993  1996.2207   1   7   0.0019   0.0017   0.0183  -0.0011  -0.0034   0.0026   4.00    4.6
2024/10/07 12:02:35.000   28.314641192  -16.487162994  1996.2207   1   7   0.0019   0.0017   0.0183  -0.0011  -0.0034   0.0026   5.00    4.6
2024/10/07 12:02:36.000   28.314641193  -16.487162994  1996.2207   1   7   0.0019   0.0017   0.0184  -0.0011  -0.0034   0.0026   6.00    4.6
2024/10/07 12:02:37.000   28.314641193  -16.487162994  1996.2208   1   7   0.0019   0.0017   0.0184  -0.0011  -0.0034   0.0026   7.00    4.5
2024/10/07 12:02:38.000   28.314641194  -16.487162995  1996.2208   1   7   0.0019   0.0017   0.0184  -0.0011  -0.0034   0.0026   8.00    4.6
2024/10/07 12:02:39.000   28.314641194  -16.487162995  1996.2208   1   7   0.0019   0.0017   0.0184  -0.0011  -0.0034   0.0026   9.00    4.6
2024/10/07 12:02:40.000   28.314641194  -16.487162995  1996.2208   1   7   0.0019   0.0017   0.0184  -0.0011  -0.0034   0.0027  10.00    4.6
2024/10/07 12:02:41.000   28.314641194  -16.487162995  1996.2207   1   7   0.0019   0.0017   0.0184  -0.0011  -0.0034   0.0027  11.00    6.1
2024/10/07 12:02:42.000   28.314641195  -16.487162995  1996.2207   1   7   0.0019   0.0017   0.0184  -0.0011  -0.0034   0.0027  12.00    7.4
2024/10/07 12:02:43.000   28.314641195  -16.487162995  1996.2206   1   7   0.0019   0.0017   0.0184  -0.0011  -0.0034   0.0027  13.00    8.5
2024/10/07 12:02:44.000   28.314641195  -16.487162995  1996.2206   1   7   0.0019   0.0017   0.0184  -0.0011  -0.0034   0.0027  14.00    9.3
2024/10/07 12:02:45.000   28.314641195  -16.487162995  1996.2205   1   7   0.0019   0.0017   0.0184  -0.0011  -0.0034   0.0027 -15.00   10.2
2024/10/07 12:02:46.000   28.314641195  -16.487162995  1996.2205   1   7   0.0019   0.0017   0.0184  -0.0011  -0.0034   0.0027 -14.00   11.0
2024/10/07 12:02:47.000   28.314641195  -16.487162995  1996.2204   1   7   0.0019   0.0017   0.0184  -0.0011  -0.0034   0.0027 -13.00   11.9
2024/10/07 12:02:48.000   28.314641196  -16.487162995  1996.2203   1   7   0.0019   0.0017   0.0183  -0.0011  -0.0034   0.0027 -12.00   12.9
2024/10/07 12:02:49.000   28.314641196  -16.487162996  1996.2202   1   7   0.0019   0.0017   0.0183  -0.0011  -0.0034   0.0027 -11.00   13.8
2024/10/07 12:02:50.000   28.314641196  -16.487162996  1996.2201   1   7   0.0019   0.0017   0.0183  -0.0011  -0.0034   0.0027 -10.00   14.7
2024/10/07 12:02:51.000   28.314641197  -16.487162996  1996.2200   1   7   0.0019   0.0017   0.0183  -0.0011  -0.0034   0.0027  -9.00   15.7
2024/10/07 12:02:52.000   28.314641197  -16.487162996  1996.2200   1   7   0.0019   0.0017   0.0183  -0.0011  -0.0034   0.0027  -8.00   16.6
2024/10/07 12:02:53.000   28.314641197  -16.487162996  1996.2199   1   7   0.0019   0.0017   0.0183  -0.0011  -0.0034   0.0027  -7.00   17.6
2024/10/07 12:02:54.000   28.314641198  -16.487162997  1996.2197   1   7   0.0019   0.0017   0.0184  -0.0011  -0.0034   0.0027  -6.00   18.7
2024/10/07 12:02:55.000   28.314641199  -16.487162997  1996.2196   1   7   0.0019   0.0017   0.0184  -0.0011  -0.0034   0.0027  -5.00   19.5
2024/10/07 12:02:56.000   28.314641200  -16.487162997  1996.2194   1   7   0.0019   0.0017   0.0184  -0.0011  -0.0034   0.0027  -4.00   20.4
2024/10/07 12:02:57.000   28.314641201  -16.487162998  1996.2190   1   7   0.0019   0.0017   0.0184  -0.0011  -0.0034   0.0027  -3.00   21.2
2024/10/07 12:02:58.000   28.314641202  -16.487162998  1996.2188   1   7   0.0019   0.0017   0.0184  -0.0011  -0.0034   0.0027  -2.00   21.8
2024/10/07 12:02:59.000   28.314641203  -16.487162999  1996.2186   1   7   0.0019   0.0017   0.0184  -0.0011  -0.0034   0.0027  -1.00   22.4
2024/10/07 12:03:00.000   28.314641202  -16.487162999  1996.2159   1   7   0.0018   0.0017   0.0182  -0.0011  -0.0033   0.0025   0.00   23.0
2024/10/07 12:03:01.000   28.314641195  -16.487162996  1996.2169   1   7   0.0019   0.0017   0.0182  -0.0011  -0.0033   0.0025   1.00    9.9
2024/10/07 12:03:02.000   28.314641195  -16.487162997  1996.2175   1   7   0.0019   0.0017   0.0182  -0.0011  -0.0033   0.0026   2.00   15.3
2024/10/07 12:03:03.000   28.314641196  -16.487162997  1996.2179   1   7   0.0019   0.0017   0.0182  -0.0011  -0.0034   0.0026   3.00   17.0
2024/10/07 12:03:04.000   28.314641196  -16.487162997  1996.2181   1   7   0.0019   0.0017   0.0183  -0.0011  -0.0034   0.0026   4.00   18.2
2024/10/07 12:03:05.000   28.314641197  -16.487162997  1996.2183   1   7   0.0019   0.0017   0.0183  -0.0011  -0.0034   0.0026   5.00   19.2
2024/10/07 12:03:06.000   28.314641197  -16.487162997  1996.2183   1   7   0.0019   0.0017   0.0183  -0.0011  -0.0034   0.0026   6.00   20.2
2024/10/07 12:03:07.000   28.314641197  -16.487162997  1996.2185   1   7   0.0019   0.0017   0.0183  -0.0011  -0.0034   0.0026   7.00   21.1
2024/10/07 12:03:08.000   28.314641197  -16.487162997  1996.2185   1   7   0.0019   0.0017   0.0183  -0.0011  -0.0034   0.0026   8.00   21.8
2024/10/07 12:03:09.000   28.314641197  -16.487162997  1996.2186   1   7   0.0019   0.0017   0.0183  -0.0011  -0.0034   0.0026   9.00   22.6
2024/10/07 12:03:10.000   28.314641198  -16.487162997  1996.2186   1   7   0.0019   0.0017   0.0183  -0.0011  -0.0034   0.0026  10.00   23.4
2024/10/07 12:03:11.000   28.314641198  -16.487162997  1996.2185   1   7   0.0019   0.0017   0.0183  -0.0011  -0.0034   0.0026  11.00   24.2
2024/10/07 12:03:12.000   28.314641198  -16.487162997  1996.2185   1   7   0.0019   0.0017   0.0183  -0.0011  -0.0034   0.0026  12.00   25.0
2024/10/07 12:03:13.000   28.314641198  -16.487162997  1996.2185   1   7   0.0019   0.0017   0.0183  -0.0011  -0.0034   0.0026  13.00   25.8
2024/10/07 12:03:14.000   28.314641198  -16.487162997  1996.2185   1   7   0.0019   0.0017   0.0183  -0.0011  -0.0034   0.0026  14.00   26.6
2024/10/07 12:03:15.000   28.314641198  -16.487162997  1996.2185   1   7   0.0019   0.0017   0.0183  -0.0011  -0.0034   0.0026 -15.00   27.3
2024/10/07 12:03:16.000   28.314641198  -16.487162997  1996.2185   1   7   0.0019   0.0017   0.0183  -0.0011  -0.0034   0.0026 -14.00   28.2
2024/10/07 12:03:17.000   28.314641198  -16.487162997  1996.2185   1   7   0.0019   0.0017   0.0183  -0.0011  -0.0034   0.0026 -13.00   28.9
2024/10/07 12:03:18.000   28.314641198  -16.487162997  1996.2185   1   7   0.0019   0.0017   0.0183  -0.0011  -0.0034   0.0026 -12.00   29.7
2024/10/07 12:03:19.000   28.314641198  -16.487162997  1996.2186   1   7   0.0019   0.0017   0.0183  -0.0011  -0.0034   0.0026 -11.00   30.5
2024/10/07 12:03:20.000   28.314641198  -16.487162997  1996.2186   1   7   0.0019   0.0017   0.0183  -0.0011  -0.0034   0.0026 -10.00   31.4
2024/10/07 12:03:21.000   28.314641199  -16.487162998  1996.2187   1   7   0.0019   0.0017   0.0183  -0.0011  -0.0034   0.0026  -9.00   32.2
2024/10/07 12:03:22.000   28.314641199  -16.487162998  1996.2188   1   7   0.0019   0.0017   0.0183  -0.0011  -0.0034   0.0027  -8.00   33.0
2024/10/07 12:03:23.000   28.314641199  -16.487162998  1996.2189   1   7   0.0019   0.0017   0.0183  -0.0011  -0.0034   0.0027  -7.00   33.9
2024/10/07 12:03:24.000   28.314641199  -16.487162998  1996.2189   1   7   0.0019   0.0017   0.0183  -0.0011  -0.0034   0.0027  -6.00   34.8
2024/10/07 12:03:25.000   28.314641200  -16.487162998  1996.2190   1   7   0.0019   0.0017   0.0183  -0.0011  -0.0034   0.0027  -5.00   35.7
2024/10/07 12:03:26.000   28.314641200  -16.487162998  1996.2192   1   7   0.0019   0.0017   0.0183  -0.0011  -0.0034   0.0027  -4.00   36.5
2024/10/07 12:03:27.000   28.314641200  -16.487162998  1996.2194   1   7   0.0019   0.0017   0.0183  -0.0011  -0.0034   0.0027  -3.00   37.3
2024/10/07 12:03:28.000   28.314641201  -16.487162998  1996.2196   1   7   0.0019   0.0017   0.0183  -0.0011  -0.0034   0.0027  -2.00   38.1
2024/10/07 12:03:29.000   28.314641201  -16.487162998  1996.2197   1   7   0.0019   0.0017   0.0183  -0.0011  -0.0034   0.0027  -1.00   38.9
2024/10/07 12:03:30.000   28.314641202  -16.487162999  1996.2190   1   7   0.0018   0.0017   0.0181  -0.0011  -0.0033   0.0025   0.00   39.7
2024/10/07 12:03:31.000   28.314641193  -16.487162995  1996.2195   1   7   0.0019   0.0017   0.0181  -0.0011  -0.0033   0.0025   1.00   11.5
2024/10/07 12:03:32.000   28.314641194  -16.487162996  1996.2194   1   7   0.0019   0.0017   0.0182  -0.0011  -0.0033   0.0025   2.00   19.3
2024/10/07 12:03:33.000   28.314641194  -16.487162996  1996.2191   1   7   0.0019   0.0017   0.0182  -0.0011  -0.0034   0.0026   3.00   25.0
2024/10/07 12:03:34.000   28.314641195  -16.487162996  1996.2190   1   7   0.0019   0.0017   0.0182  -0.0011  -0.0034   0.0026   4.00   28.7
2024/10/07 12:03:35.000   28.314641196  -16.487162997  1996.2189   1   7   0.0019   0.0017   0.0182  -0.0011  -0.0034   0.0026   5.00   30.1
2024/10/07 12:03:36.000   28.314641196  -16.487162997  1996.2189   1   7   0.0019   0.0017   0.0182  -0.0011  -0.0034   0.0026   6.00   31.3
2024/10/07 12:03:37.000   28.314641197  -16.487162997  1996.2189   1   7   0.0019   0.0017   0.0182  -0.0011  -0.0034   0.0026   7.00   32.4
2024/10/07 12:03:38.000   28.314641197  -16.487162997  1996.2188   1   7   0.0019   0.0017   0.0182  -0.0011  -0.0034   0.0026   8.00   33.3
2024/10/07 12:03:39.000   28.314641197  -16.487162997  1996.2189   1   7   0.0019   0.0017   0.0182  -0.0011  -0.0034   0.0026   9.00   34.2
2024/10/07 12:03:40.000   28.314641197  -16.487162998  1996.2190   1   7   0.0019   0.0017   0.0182  -0.0011  -0.0034   0.0026  10.00   35.1
2024/10/07 12:03:41.000   28.314641198  -16.487162998  1996.2191   1   7   0.0019   0.0017   0.0182  -0.0011  -0.0034   0.0026  11.00   35.9
2024/10/07 12:03:42.000   28.314641198  -16.487162998  1996.2192   1   7   0.0019   0.0017   0.0182  -0.0011  -0.0034   0.0026  12.00   36.7
2024/10/07 12:03:43.000   28.314641198  -16.487162998  1996.2193   1   7   0.0019   0.0017   0.0182  -0.0011  -0.0034   0.0026  13.00   37.5
2024/10/07 12:03:44.000   28.314641198  -16.487162998  1996.2194   1   7   0.0019   0.0017   0.0182  -0.0011  -0.0034   0.0026  14.00   38.3
2024/10/07 12:03:45.000   28.314641198  -16.487162998  1996.2195   1   7   0.0019   0.0017   0.0182  -0.0011  -0.0034   0.0026 -15.00   39.1
2024/10/07 12:03:46.000   28.314641198  -16.487162998  1996.2196   1   7   0.0019   0.0017   0.0182  -0.0011  -0.0034   0.0026 -14.00   39.8
2024/10/07 12:03:47.000   28.314641198  -16.487162998  1996.2197   1   7   0.0019   0.0017   0.0182  -0.0011  -0.0034   0.0026 -13.00   40.6
2024/10/07 12:03:48.000   28.314641199  -16.487162998  1996.2198   1   7   0.0019   0.0017   0.0182  -0.0011  -0.0034   0.0026 -12.00   41.5
2024/10/07 12:03:49.000   28.314641199  -16.487162998  1996.2199   1   7   0.0019   0.0017   0.0182  -0.0011  -0.0034   0.0026 -11.00   42.5
2024/10/07 12:03:50.000   28.314641199  -16.487162998  1996.2200   1   7   0.0019   0.0017   0.0182  -0.0011  -0.0034   0.0026 -10.00   43.5
2024/10/07 12:03:51.000   28.314641199  -16.487162998  1996.2201   1   7   0.0019   0.0017   0.0182  -0.0011  -0.0034   0.0026  -9.00   44.6
2024/10/07 12:03:52.000   28.314641199  -16.487162999  1996.2201   1   7   0.0019   0.0017   0.0182  -0.0011  -0.0034   0.0026  -8.00   45.9
2024/10/07 12:03:53.000   28.314641200  -16.487162999  1996.2201   1   7   0.0019   0.0017   0.0182  -0.0011  -0.0034   0.0026  -7.00   47.3
2024/10/07 12:03:54.000   28.314641200  -16.487162999  1996.2201   1   7   0.0019   0.0017   0.0182  -0.0011  -0.0034   0.0026  -6.00   48.7
2024/10/07 12:03:55.000   28.314641200  -16.487162999  1996.2201   1   7   0.0018   0.0017   0.0182  -0.0011  -0.0034   0.0026  -5.00   50.4
2024/10/07 12:03:56.000   28.314641201  -16.487162999  1996.2198   1   7   0.0018   0.0017   0.0182  -0.0011  -0.0034   0.0027  -4.00   52.0
2024/10/07 12:03:57.000   28.314641201  -16.487162999  1996.2195   1   7   0.0018   0.0017   0.0182  -0.0011  -0.0034   0.0027  -3.00   54.0
2024/10/07 12:03:58.000   28.314641202  -16.487162999  1996.2196   1   8   0.0018   0.0017   0.0179  -0.0011  -0.0033   0.0026  -2.00   55.8
2024/10/07 12:03:59.000   28.314641202  -16.487162999  1996.2190   1   8   0.0018   0.0017   0.0180  -0.0011  -0.0033   0.0026  -1.00   57.7
2024/10/07 12:04:00.000   28.314641196  -16.487162996  1996.2123   1   8   0.0018   0.0017   0.0177  -0.0010  -0.0032   0.0024   0.00   59.5
2024/10/07 12:04:01.000   28.314641188  -16.487162993  1996.2136   1   8   0.0018   0.0017   0.0178  -0.0011  -0.0033   0.0024   1.00   11.8
2024/10/07 12:04:02.000   28.314641188  -16.487162993  1996.2140   1   8   0.0018   0.0017   0.0178  -0.0011  -0.0033   0.0025   2.00   19.8
2024/10/07 12:04:03.000   28.314641189  -16.487162994  1996.2142   1   8   0.0018   0.0017   0.0178  -0.0011  -0.0033   0.0025   3.00   26.4
2024/10/07 12:04:04.000   28.314641178  -16.487162970  1996.1715   1   8   0.0018   0.0016   0.0168  -0.0010  -0.0030   0.0023   4.00   31.6
2024/10/07 12:04:05.000   28.314641179  -16.487162971  1996.1723   1   8   0.0018   0.0016   0.0169  -0.0010  -0.0030   0.0023   5.00   35.6
2024/10/07 12:04:06.000   28.314641179  -16.487162972  1996.1731   1   8   0.0018   0.0016   0.0170  -0.0010  -0.0030   0.0023   6.00   39.6
2024/10/07 12:04:07.000   28.314641180  -16.487162972  1996.1737   1   8   0.0018   0.0016   0.0170  -0.0010  -0.0031   0.0024   7.00   42.1
2024/10/07 12:04:08.000   28.314641180  -16.487162973  1996.1746   1   8   0.0018   0.0017   0.0171  -0.0010  -0.0031   0.0024   8.00   43.4
2024/10/07 12:04:09.000   28.314641181  -16.487162973  1996.1755   1   8   0.0018   0.0017   0.0171  -0.0010  -0.0031   0.0024   9.00   44.7
2024/10/07 12:04:10.000   28.314641181  -16.487162974  1996.1761   1   8   0.0018   0.0017   0.0171  -0.0010  -0.0031   0.0024  10.00   46.1
2024/10/07 12:04:11.000   28.314641181  -16.487162974  1996.1767   1   8   0.0018   0.0017   0.0172  -0.0010  -0.0031   0.0024  11.00   47.3
2024/10/07 12:04:12.000   28.314641182  -16.487162975  1996.1776   1   8   0.0018   0.0017   0.0172  -0.0011  -0.0031   0.0024  12.00   48.4
2024/10/07 12:04:13.000   28.314641182  -16.487162975  1996.1783   1   8   0.0018   0.0017   0.0172  -0.0011  -0.0031   0.0024  13.00   49.6
2024/10/07 12:04:14.000   28.314641192  -16.487162996  1996.2167   1   8   0.0018   0.0017   0.0180  -0.0011  -0.0033   0.0026  14.00   50.5
2024/10/07 12:04:15.000   28.314641192  -16.487162996  1996.2166   1   8   0.0018   0.0017   0.0180  -0.0011  -0.0033   0.0026 -15.00   51.4
2024/10/07 12:04:16.000   28.314641192  -16.487162996  1996.2165   1   8   0.0018   0.0017   0.0180  -0.0011  -0.0033   0.0026 -14.00   52.4
2024/10/07 12:04:17.000   28.314641192  -16.487162996  1996.2164   1   8   0.0018   0.0017   0.0180  -0.0011  -0.0034   0.0026 -13.00   53.5
2024/10/07 12:04:18.000   28.314641192  -16.487162996  1996.2163   1   8   0.0018   0.0017   0.0180  -0.0011  -0.0034   0.0026 -12.00   54.6
2024/10/07 12:04:19.000   28.314641192  -16.487162996  1996.2161   1   8   0.0018   0.0017   0.0180  -0.0011  -0.0034   0.0026 -11.00   56.0
2024/10/07 12:04:20.000   28.314641192  -16.487162996  1996.2159   1   8   0.0018   0.0017   0.0180  -0.0011  -0.0034   0.0026 -10.00   57.2
2024/10/07 12:04:21.000   28.314641192  -16.487162996  1996.2158   1   8   0.0018   0.0017   0.0180  -0.0011  -0.0034   0.0026  -9.00   58.6
2024/10/07 12:04:22.000   28.314641192  -16.487162995  1996.2157   1   8   0.0018   0.0017   0.0180  -0.0011  -0.0034   0.0026  -8.00   60.3
2024/10/07 12:04:23.000   28.314641192  -16.487162995  1996.2152   1   8   0.0018   0.0017   0.0180  -0.0011  -0.0034   0.0026  -7.00   62.3
2024/10/07 12:04:24.000   28.314641192  -16.487162994  1996.2135   1   8   0.0018   0.0017   0.0183  -0.0011  -0.0034   0.0026  -6.00   64.4
2024/10/07 12:04:25.000   28.314641192  -16.487162994  1996.2134   1   8   0.0018   0.0017   0.0183  -0.0011  -0.0034   0.0027  -5.00   66.8
2024/10/07 12:04:26.000   28.314641192  -16.487162994  1996.2133   1   8   0.0018   0.0017   0.0183  -0.0011  -0.0034   0.0027  -4.00   69.3
2024/10/07 12:04:27.000   28.314641192  -16.487162994  1996.2131   1   8   0.0018   0.0017   0.0183  -0.0011  -0.0034   0.0027  -3.00   72.0
2024/10/07 12:04:28.000   28.314641193  -16.487162994  1996.2140   1   8   0.0018   0.0017   0.0184  -0.0011  -0.0034   0.0027  -2.00   74.6
2024/10/07 12:04:29.000   28.314641193  -16.487162993  1996.2137   1   8   0.0018   0.0017   0.0184  -0.0011  -0.0034   0.0027  -1.00   77.5
2024/10/07 12:04:30.000   28.314641192  -16.487162994  1996.2122   1   8   0.0018   0.0017   0.0178  -0.0010  -0.0033   0.0025   0.00   79.9
2024/10/07 12:04:31.000   28.314641191  -16.487162993  1996.2124   1   8   0.0018   0.0017   0.0179  -0.0011  -0.0033   0.0024   1.00  107.2
2024/10/07 12:04:32.000   28.314641191  -16.487162993  1996.2126   1   8   0.0018   0.0017   0.0179  -0.0011  -0.0033   0.0025   2.00  108.4
2024/10/07 12:04:33.000   28.314641190  -16.487162993  1996.2129   1   8   0.0018   0.0017   0.0179  -0.0011  -0.0033   0.0025   3.00   26.1
2024/10/07 12:04:34.000   28.314641191  -16.487162993  1996.2128   1   8   0.0018   0.0017   0.0179  -0.0011  -0.0033   0.0025   4.00   30.1
2024/10/07 12:04:35.000   28.314641192  -16.487162994  1996.2128   1   8   0.0018   0.0017   0.0179  -0.0011  -0.0033   0.0025   5.00   40.7
2024/10/07 12:04:36.000   28.314641193  -16.487162994  1996.2127   1   8   0.0018   0.0017   0.0179  -0.0011  -0.0033   0.0025   6.00   45.7
2024/10/07 12:04:37.000   28.314641193  -16.487162994  1996.2123   1   8   0.0018   0.0017   0.0179  -0.0011  -0.0033   0.0025   7.00   49.8
2024/10/07 12:04:38.000   28.314641193  -16.487162994  1996.2122   1   8   0.0018   0.0017   0.0179  -0.0011  -0.0034   0.0025   8.00   53.5
2024/10/07 12:04:39.000   28.314641193  -16.487162994  1996.2120   1   8   0.0018   0.0017   0.0179  -0.0011  -0.0034   0.0026   9.00   56.2
2024/10/07 12:04:40.000   28.314641193  -16.487162994  1996.2119   1   8   0.0018   0.0017   0.0179  -0.0011  -0.0034   0.0026  10.00   58.2
2024/10/07 12:04:41.000   28.314641194  -16.487162994  1996.2116   1   8   0.0018   0.0017   0.0180  -0.0011  -0.0034   0.0026  11.00   59.8
2024/10/07 12:04:42.000   28.314641194  -16.487162994  1996.2115   1   8   0.0018   0.0017   0.0180  -0.0011  -0.0034   0.0026  12.00   61.4
2024/10/07 12:04:43.000   28.314641194  -16.487162994  1996.2113   1   8   0.0018   0.0017   0.0180  -0.0011  -0.0034   0.0026  13.00   63.0
2024/10/07 12:04:44.000   28.314641194  -16.487162994  1996.2112   1   8   0.0018   0.0017   0.0180  -0.0011  -0.0034   0.0026  14.00   64.2
2024/10/07 12:04:45.000   28.314641194  -16.487162994  1996.2111   1   8   0.0018   0.0017   0.0180  -0.0011  -0.0034   0.0026 -15.00   65.7
2024/10/07 12:04:46.000   28.314641194  -16.487162993  1996.2110   1   8   0.0018   0.0017   0.0180  -0.0011  -0.0034   0.0026 -14.00   67.3
2024/10/07 12:04:47.000   28.314641194  -16.487162993  1996.2109   1   8   0.0018   0.0017   0.0180  -0.0011  -0.0034   0.0026 -13.00   68.7
2024/10/07 12:04:48.000   28.314641194  -16.487162993  1996.2108   1   8   0.0018   0.0017   0.0180  -0.0011  -0.0034   0.0026 -12.00   70.2
2024/10/07 12:04:49.000   28.314641194  -16.487162993  1996.2107   1   8   0.0018   0.0017   0.0180  -0.0011  -0.0034   0.0026 -11.00   72.1
2024/10/07 12:04:50.000   28.314641194  -16.487162993  1996.2105   1   8   0.0018   0.0017   0.0180  -0.0011  -0.0034   0.0026 -10.00   73.8
2024/10/07 12:04:51.000   28.314641194  -16.487162993  1996.2106   1   8   0.0018   0.0017   0.0180  -0.0011  -0.0034   0.0026  -9.00   75.6
2024/10/07 12:04:52.000   28.314641194  -16.487162992  1996.2104   1   8   0.0018   0.0017   0.0180  -0.0011  -0.0034   0.0026  -8.00   77.4
2024/10/07 12:04:53.000   28.314641194  -16.487162992  1996.2104   1   8   0.0018   0.0017   0.0180  -0.0011  -0.0034   0.0026  -7.00   79.4
2024/10/07 12:04:54.000   28.314641193  -16.487162990  1996.2058   1   8   0.0018   0.0017   0.0183  -0.0011  -0.0034   0.0026  -6.00   81.6
2024/10/07 12:04:55.000   28.314641193  -16.487162990  1996.2057   1   8   0.0018   0.0017   0.0183  -0.0011  -0.0034   0.0026  -5.00   84.0
2024/10/07 12:04:56.000   28.314641191  -16.487162989  1996.2054   1   8   0.0018   0.0017   0.0183  -0.0011  -0.0034   0.0027  -4.00   86.6
2024/10/07 12:04:57.000   28.314641191  -16.487162988  1996.2055   1   8   0.0018   0.0017   0.0183  -0.0011  -0.0035   0.0027  -3.00   89.3
2024/10/07 12:04:58.000   28.314641192  -16.487162989  1996.2073   1   8   0.0018   0.0017   0.0184  -0.0011  -0.0035   0.0027  -2.00   92.2
2024/10/07 12:04:59.000   28.314641192  -16.487162988  1996.2068   1   8   0.0018   0.0017   0.0184  -0.0011  -0.0035   0.0027  -1.00   94.9
2024/10/07 12:05:00.000   28.314641192  -16.487162989  1996.2089   1   8   0.0018   0.0017   0.0178  -0.0010  -0.0033   0.0024   0.00   97.5
2024/10/07 12:05:01.000   28.314641190  -16.487162989  1996.2085   1   8   0.0018   0.0017   0.0178  -0.0011  -0.0033   0.0024   1.00  155.3
2024/10/07 12:05:02.000   28.314641190  -16.487162989  1996.2082   1   8   0.0018   0.0017   0.0179  -0.0011  -0.0033   0.0025   2.00  157.0
2024/10/07 12:05:03.000   28.314641190  -16.487162988  1996.2079   1   8   0.0018   0.0017   0.0179  -0.0011  -0.0033   0.0025   3.00   32.6
2024/10/07 12:05:04.000   28.314641189  -16.487162988  1996.2073   1   8   0.0018   0.0017   0.0179  -0.0011  -0.0033   0.0025   4.00   38.2
2024/10/07 12:05:05.000   28.314641191  -16.487162988  1996.2069   1   8   0.0018   0.0017   0.0179  -0.0011  -0.0034   0.0025   5.00   47.6
2024/10/07 12:05:06.000   28.314641191  -16.487162988  1996.2064   1   8   0.0018   0.0017   0.0179  -0.0011  -0.0034   0.0025   6.00   52.9
2024/10/07 12:05:07.000   28.314641191  -16.487162988  1996.2059   1   8   0.0018   0.0017   0.0179  -0.0011  -0.0034   0.0025   7.00   57.6
2024/10/07 12:05:08.000   28.314641191  -16.487162988  1996.2055   1   8   0.0018   0.0017   0.0179  -0.0011  -0.0034   0.0025   8.00   61.4
2024/10/07 12:05:09.000   28.314641191  -16.487162987  1996.2051   1   8   0.0018   0.0017   0.0179  -0.0011  -0.0034   0.0025   9.00   64.5
2024/10/07 12:05:10.000   28.314641191  -16.487162987  1996.2047   1   8   0.0018   0.0017   0.0179  -0.0011  -0.0034   0.0025  10.00   67.3
2024/10/07 12:05:11.000   28.314641191  -16.487162987  1996.2044   1   8   0.0018   0.0017   0.0179  -0.0011  -0.0034   0.0026  11.00   69.6
2024/10/07 12:05:12.000   28.314641191  -16.487162987  1996.2041   1   8   0.0018   0.0017   0.0179  -0.0011  -0.0034   0.0026  12.00   71.8
2024/10/07 12:05:13.000   28.314641191  -16.487162987  1996.2039   1   8   0.0018   0.0017   0.0179  -0.0011  -0.0034   0.0026  13.00   73.9
2024/10/07 12:05:14.000   28.314641191  -16.487162986  1996.2037   1   8   0.0018   0.0017   0.0179  -0.0011  -0.0034   0.0026  14.00   75.8
2024/10/07 12:05:15.000   28.314641192  -16.487162986  1996.2036   1   8   0.0018   0.0017   0.0179  -0.0011  -0.0034   0.0026 -15.00   77.6
2024/10/07 12:05:16.000   28.314641192  -16.487162986  1996.2035   1   8   0.0018   0.0017   0.0179  -0.0011  -0.0034   0.0026 -14.00   79.5
2024/10/07 12:05:17.000   28.314641192  -16.487162986  1996.2033   1   8   0.0018   0.0017   0.0179  -0.0011  -0.0034   0.0026 -13.00   81.6
2024/10/07 12:05:18.000   28.314641192  -16.487162986  1996.2032   1   8   0.0018   0.0017   0.0179  -0.0011  -0.0034   0.0026 -12.00   83.7
2024/10/07 12:05:19.000   28.314641192  -16.487162986  1996.2031   1   8   0.0018   0.0017   0.0180  -0.0011  -0.0034   0.0026 -11.00   85.7
2024/10/07 12:05:20.000   28.314641192  -16.487162986  1996.2030   1   8   0.0018   0.0017   0.0180  -0.0011  -0.0034   0.0026 -10.00   87.8
2024/10/07 12:05:21.000   28.314641192  -16.487162986  1996.2029   1   8   0.0018   0.0017   0.0180  -0.0011  -0.0034   0.0026  -9.00   90.1
2024/10/07 12:05:22.000   28.314641192  -16.487162985  1996.2025   1   8   0.0018   0.0017   0.0180  -0.0011  -0.0034   0.0026  -8.00   92.6
2024/10/07 12:05:23.000   28.314641192  -16.487162985  1996.2021   1   8   0.0018   0.0017   0.0180  -0.0011  -0.0034   0.0026  -7.00   95.3
2024/10/07 12:05:24.000   28.314641191  -16.487162983  1996.1976   1   8   0.0018   0.0017   0.0183  -0.0011  -0.0035   0.0026  -6.00   98.6
2024/10/07 12:05:25.000   28.314641191  -16.487162983  1996.1975   1   8   0.0018   0.0017   0.0183  -0.0011  -0.0035   0.0026  -5.00  102.1
2024/10/07 12:05:26.000   28.314641191  -16.487162982  1996.1974   1   8   0.0018   0.0017   0.0183  -0.0011  -0.0035   0.0026  -4.00  106.2
2024/10/07 12:05:27.000   28.314641192  -16.487162982  1996.1971   1   8   0.0018   0.0017   0.0183  -0.0011  -0.0035   0.0027  -3.00  110.0
2024/10/07 12:05:28.000   28.314641192  -16.487162982  1996.1979   1   8   0.0018   0.0017   0.0184  -0.0011  -0.0035   0.0027  -2.00  112.9
2024/10/07 12:05:29.000   28.314641191  -16.487162982  1996.1975   1   8   0.0018   0.0017   0.0184  -0.0011  -0.0035   0.0027  -1.00  115.6
2024/10/07 12:05:30.000   28.314641187  -16.487162980  1996.1968   1   8   0.0018   0.0017   0.0178  -0.0010  -0.0033   0.0024   0.00  117.9
2024/10/07 12:05:31.000   28.314641185  -16.487162980  1996.1967   1   8   0.0018   0.0017   0.0178  -0.0010  -0.0033   0.0024   1.00  190.8
2024/10/07 12:05:32.000   28.314641186  -16.487162980  1996.1964   1   8   0.0018   0.0017   0.0178  -0.0011  -0.0033   0.0024   2.00  189.1
2024/10/07 12:05:33.000   28.314641185  -16.487162979  1996.1964   1   8   0.0018   0.0017   0.0178  -0.0011  -0.0034   0.0025   3.00   32.6
2024/10/07 12:05:34.000   28.314641186  -16.487162979  1996.1961   1   8   0.0018   0.0017   0.0179  -0.0011  -0.0034   0.0025   4.00   39.2
2024/10/07 12:05:35.000   28.314641186  -16.487162979  1996.1955   1   8   0.0018   0.0017   0.0179  -0.0011  -0.0034   0.0025   5.00   51.4
2024/10/07 12:05:36.000   28.314641185  -16.487162978  1996.1950   1   8   0.0018   0.0017   0.0179  -0.0011  -0.0034   0.0025   6.00   56.1
2024/10/07 12:05:37.000   28.314641185  -16.487162978  1996.1944   1   8   0.0018   0.0017   0.0179  -0.0011  -0.0034   0.0025   7.00   60.3
2024/10/07 12:05:38.000   28.314641185  -16.487162977  1996.1939   1   8   0.0018   0.0017   0.0179  -0.0011  -0.0034   0.0025   8.00   63.7
2024/10/07 12:05:39.000   28.314641185  -16.487162977  1996.1936   1   8   0.0018   0.0017   0.0179  -0.0011  -0.0034   0.0025   9.00   66.6
2024/10/07 12:05:40.000   28.314641185  -16.487162977  1996.1933   1   8   0.0018   0.0017   0.0179  -0.0011  -0.0034   0.0025  10.00   69.6
2024/10/07 12:05:41.000   28.314641185  -16.487162977  1996.1931   1   8   0.0018   0.0017   0.0179  -0.0011  -0.0034   0.0025  11.00   72.0
2024/10/07 12:05:42.000   28.314641185  -16.487162977  1996.1928   1   8   0.0018   0.0017   0.0179  -0.0011  -0.0034   0.0025  12.00   74.3
2024/10/07 12:05:43.000   28.314641185  -16.487162977  1996.1926   1   8   0.0018   0.0017   0.0179  -0.0011  -0.0034   0.0025  13.00   76.4
2024/10/07 12:05:44.000   28.314641185  -16.487162976  1996.1923   1   8   0.0018   0.0017   0.0179  -0.0011  -0.0034   0.0026  14.00   78.2
2024/10/07 12:05:45.000   28.314641185  -16.487162976  1996.1920   1   8   0.0018   0.0017   0.0179  -0.0011  -0.0034   0.0026 -15.00   79.8
2024/10/07 12:05:46.000   28.314641185  -16.487162976  1996.1919   1   8   0.0018   0.0017   0.0179  -0.0011  -0.0034   0.0026 -14.00   81.6
2024/10/07 12:05:47.000   28.314641185  -16.487162976  1996.1917   1   8   0.0018   0.0017   0.0179  -0.0011  -0.0034   0.0026 -13.00   83.5
2024/10/07 12:05:48.000   28.314641185  -16.487162976  1996.1916   1   8   0.0018   0.0017   0.0179  -0.0011  -0.0034   0.0026 -12.00   85.7
2024/10/07 12:05:49.000   28.314641185  -16.487162976  1996.1914   1   8   0.0018   0.0017   0.0179  -0.0011  -0.0034   0.0026 -11.00   88.2
2024/10/07 12:05:50.000   28.314641185  -16.487162975  1996.1913   1   8   0.0018   0.0017   0.0179  -0.0011  -0.0034   0.0026 -10.00   90.7
2024/10/07 12:05:51.000   28.314641185  -16.487162975  1996.1911   1   8   0.0018   0.0017   0.0179  -0.0011  -0.0034   0.0026  -9.00   93.4
2024/10/07 12:05:52.000   28.314641185  -16.487162975  1996.1910   1   8   0.0018   0.0017   0.0180  -0.0011  -0.0034   0.0026  -8.00   96.1
2024/10/07 12:05:53.000   28.314641185  -16.487162975  1996.1907   1   8   0.0018   0.0017   0.0180  -0.0011  -0.0034   0.0026  -7.00   99.4
2024/10/07 12:05:54.000   28.314641184  -16.487162972  1996.1863   1   8   0.0018   0.0017   0.0183  -0.0011  -0.0035   0.0026  -6.00  102.3
2024/10/07 12:05:55.000   28.314641184  -16.487162972  1996.1862   1   8   0.0018   0.0017   0.0183  -0.0011  -0.0035   0.0026  -5.00  103.5
2024/10/07 12:05:56.000   28.314641184  -16.487162972  1996.1860   1   8   0.0018   0.0017   0.0183  -0.0011  -0.0035   0.0027  -4.00  104.2
2024/10/07 12:05:57.000   28.314641184  -16.487162971  1996.1859   1   8   0.0018   0.0017   0.0184  -0.0011  -0.0035   0.0027  -3.00  104.7
2024/10/07 12:05:58.000   28.314641185  -16.487162971  1996.1869   1   8   0.0018   0.0017   0.0184  -0.0011  -0.0035   0.0027  -2.00  105.4
2024/10/07 12:05:59.000   28.314641184  -16.487162971  1996.1863   1   8   0.0018   0.0017   0.0184  -0.0011  -0.0035   0.0027  -1.00  105.7
2024/10/07 12:06:00.000   28.314641184  -16.487162972  1996.1867   1   8   0.0018   0.0017   0.0178  -0.0010  -0.0034   0.0024   0.00  105.7
2024/10/07 12:06:01.000   28.314641187  -16.487162972  1996.1864   1   8   0.0018   0.0017   0.0178  -0.0010  -0.0034   0.0024   1.00  207.4
2024/10/07 12:06:02.000   28.314641187  -16.487162971  1996.1862   1   8   0.0018   0.0017   0.0178  -0.0010  -0.0034   0.0024   2.00  205.9
2024/10/07 12:06:03.000   28.314641187  -16.487162971  1996.1869   1   8   0.0018   0.0017   0.0178  -0.0010  -0.0034   0.0025   3.00   30.8
2024/10/07 12:06:04.000   28.314641187  -16.487162970  1996.1870   1   8   0.0018   0.0017   0.0178  -0.0010  -0.0034   0.0025   4.00   35.8
2024/10/07 12:06:05.000   28.314641186  -16.487162970  1996.1872   1   8   0.0018   0.0017   0.0179  -0.0011  -0.0034   0.0025   5.00   45.9
2024/10/07 12:06:06.000   28.314641187  -16.487162970  1996.1873   1   8   0.0018   0.0017   0.0179  -0.0011  -0.0034   0.0025   6.00   50.5
2024/10/07 12:06:07.000   28.314641187  -16.487162970  1996.1875   1   8   0.0018   0.0017   0.0179  -0.0011  -0.0034   0.0025   7.00   54.2
2024/10/07 12:06:08.000   28.314641187  -16.487162970  1996.1876   1   8   0.0018   0.0017   0.0179  -0.0011  -0.0034   0.0025   8.00   57.7
2024/10/07 12:06:09.000   28.314641187  -16.487162970  1996.1876   1   8   0.0018   0.0017   0.0179  -0.0011  -0.0034   0.0025   9.00   60.4
2024/10/07 12:06:10.000   28.314641187  -16.487162970  1996.1876   1   8   0.0018   0.0017   0.0179  -0.0011  -0.0034   0.0025  10.00   62.9
2024/10/07 12:06:11.000   28.314641187  -16.487162970  1996.1875   1   8   0.0018   0.0017   0.0179  -0.0011  -0.0034   0.0025  11.00   64.9
2024/10/07 12:06:12.000   28.314641187  -16.487162970  1996.1874   1   8   0.0018   0.0017   0.0179  -0.0011  -0.0034   0.0025  12.00   66.7
2024/10/07 12:06:13.000   28.314641187  -16.487162970  1996.1873   1   8   0.0018   0.0017   0.0179  -0.0011  -0.0034   0.0025  13.00   68.4
2024/10/07 12:06:14.000   28.314641188  -16.487162970  1996.1872   1   8   0.0018   0.0017   0.0179  -0.0011  -0.0034   0.0025  14.00   70.0
2024/10/07 12:06:15.000   28.314641188  -16.487162970  1996.1871   1   8   0.0018   0.0017   0.0179  -0.0011  -0.0034   0.0025 -15.00   71.4
2024/10/07 12:06:16.000   28.314641187  -16.487162970  1996.1868   1   8   0.0018   0.0017   0.0179  -0.0011  -0.0034   0.0025 -14.00   73.0
2024/10/07 12:06:17.000   28.314641187  -16.487162969  1996.1866   1   8   0.0018   0.0017   0.0179  -0.0011  -0.0034   0.0025 -13.00   74.7
2024/10/07 12:06:18.000   28.314641187  -16.487162969  1996.1863   1   8   0.0018   0.0017   0.0179  -0.0011  -0.0034   0.0026 -12.00   76.6
2024/10/07 12:06:19.000   28.314641187  -16.487162969  1996.1860   1   8   0.0018   0.0017   0.0179  -0.0011  -0.0034   0.0026 -11.00   78.6
2024/10/07 12:06:20.000   28.314641187  -16.487162969  1996.1855   1   8   0.0018   0.0017   0.0179  -0.0011  -0.0034   0.0026 -10.00   81.0
2024/10/07 12:06:21.000   28.314641187  -16.487162968  1996.1849   1   8   0.0018   0.0017   0.0179  -0.0011  -0.0034   0.0026  -9.00   83.7
2024/10/07 12:06:22.000   28.314641187  -16.487162968  1996.1840   1   8   0.0018   0.0017   0.0180  -0.0011  -0.0034   0.0026  -8.00   86.6
2024/10/07 12:06:23.000   28.314641186  -16.487162967  1996.1830   1   8   0.0018   0.0017   0.0180  -0.0011  -0.0034   0.0026  -7.00   90.2
2024/10/07 12:06:24.000   28.314641186  -16.487162965  1996.1787   1   8   0.0018   0.0017   0.0184  -0.0011  -0.0036   0.0027  -6.00   93.7
2024/10/07 12:06:25.000   28.314641185  -16.487162964  1996.1779   1   8   0.0018   0.0017   0.0185  -0.0011  -0.0036   0.0027  -5.00   95.6
2024/10/07 12:06:26.000   28.314641185  -16.487162963  1996.1772   1   8   0.0018   0.0017   0.0185  -0.0011  -0.0036   0.0027  -4.00   98.6
2024/10/07 12:06:27.000   28.314641185  -16.487162963  1996.1763   1   8   0.0018   0.0017   0.0185  -0.0011  -0.0036   0.0027  -3.00  101.4
2024/10/07 12:06:28.000   28.314641185  -16.487162962  1996.1744   1   8   0.0018   0.0017   0.0185  -0.0011  -0.0036   0.0027  -2.00  105.1
2024/10/07 12:06:29.000   28.314641185  -16.487162961  1996.1736   1   8   0.0018   0.0017   0.0185  -0.0011  -0.0036   0.0027  -1.00  108.4
2024/10/07 12:06:30.000   28.314641188  -16.487162963  1996.1757   1   8   0.0017   0.0017   0.0181  -0.0010  -0.0034   0.0025   0.00  111.9
2024/10/07 12:06:31.000   28.314641187  -16.487162961  1996.1737   1   8   0.0018   0.0017   0.0184  -0.0011  -0.0035   0.0025   1.00  223.1
2024/10/07 12:06:32.000   28.314641186  -16.487162960  1996.1734   1   8   0.0018   0.0017   0.0184  -0.0011  -0.0035   0.0026   2.00  223.4
2024/10/07 12:06:33.000   28.314641187  -16.487162960  1996.1746   1   8   0.0018   0.0017   0.0181  -0.0011  -0.0035   0.0025   3.00   33.5
2024/10/07 12:06:34.000   28.314641187  -16.487162960  1996.1752   1   8   0.0018   0.0017   0.0182  -0.0011  -0.0035   0.0025   4.00   39.7
2024/10/07 12:06:35.000   28.314641186  -16.487162959  1996.1734   1   8   0.0018   0.0017   0.0183  -0.0011  -0.0035   0.0026   5.00   51.0
2024/10/07 12:06:36.000   28.314641187  -16.487162959  1996.1748   1   8   0.0018   0.0017   0.0182  -0.0011  -0.0035   0.0026   6.00   56.2
2024/10/07 12:06:37.000   28.314641186  -16.487162957  1996.1722   1   8   0.0018   0.0017   0.0184  -0.0011  -0.0036   0.0026   7.00   60.5
2024/10/07 12:06:38.000   28.314641186  -16.487162957  1996.1720   1   8   0.0018   0.0017   0.0184  -0.0011  -0.0036   0.0026   8.00   64.1
2024/10/07 12:06:39.000   28.314641186  -16.487162958  1996.1740   1   8   0.0018   0.0017   0.0182  -0.0011  -0.0035   0.0026   9.00   67.6
2024/10/07 12:06:40.000   28.314641186  -16.487162957  1996.1732   1   8   0.0018   0.0017   0.0182  -0.0011  -0.0035   0.0026  10.00   70.7
2024/10/07 12:06:41.000   28.314641185  -16.487162956  1996.1713   1   8   0.0018   0.0017   0.0185  -0.0011  -0.0036   0.0026  11.00   73.7
2024/10/07 12:06:42.000   28.314641185  -16.487162956  1996.1713   1   8   0.0018   0.0017   0.0184  -0.0011  -0.0036   0.0026  12.00   76.3
2024/10/07 12:06:43.000   28.314641185  -16.487162956  1996.1717   1   8   0.0018   0.0017   0.0182  -0.0011  -0.0035   0.0026  13.00   78.6
2024/10/07 12:06:44.000   28.314641185  -16.487162956  1996.1716   1   8   0.0018   0.0017   0.0182  -0.0011  -0.0035   0.0026  14.00   80.7
2024/10/07 12:06:45.000   28.314641185  -16.487162955  1996.1715   1   8   0.0018   0.0017   0.0183  -0.0011  -0.0035   0.0026 -15.00   82.1
2024/10/07 12:06:46.000   28.314641185  -16.487162955  1996.1711   1   8   0.0018   0.0017   0.0185  -0.0011  -0.0036   0.0027 -14.00   83.5
2024/10/07 12:06:47.000   28.314641185  -16.487162955  1996.1711   1   8   0.0018   0.0017   0.0185  -0.0011  -0.0036   0.0027 -13.00   84.6
2024/10/07 12:06:48.000   28.314641185  -16.487162955  1996.1708   1   8   0.0018   0.0017   0.0185  -0.0011  -0.0036   0.0027 -12.00   86.1
2024/10/07 12:06:49.000   28.314641185  -16.487162955  1996.1708   1   8   0.0018   0.0017   0.0185  -0.0011  -0.0036   0.0027 -11.00   87.5
2024/10/07 12:06:50.000   28.314641185  -16.487162955  1996.1706   1   8   0.0018   0.0017   0.0185  -0.0011  -0.0036   0.0027 -10.00   88.9
2024/10/07 12:06:51.000   28.314641185  -16.487162955  1996.1707   1   8   0.0018   0.0017   0.0182  -0.0011  -0.0035   0.0026  -9.00   92.2
2024/10/07 12:06:52.000   28.314641185  -16.487162954  1996.1705   1   8   0.0018   0.0017   0.0183  -0.0011  -0.0035   0.0026  -8.00   95.8
2024/10/07 12:06:53.000   28.314641184  -16.487162954  1996.1700   1   8   0.0018   0.0017   0.0184  -0.0011  -0.0036   0.0026  -7.00   98.2
2024/10/07 12:06:54.001   28.314641184  -16.487162954  1996.1698   1   8   0.0018   0.0017   0.0184  -0.0011  -0.0036   0.0026  -6.00  100.6
2024/10/07 12:06:55.000   28.314641185  -16.487162954  1996.1711   1   8   0.0018   0.0017   0.0182  -0.0011  -0.0035   0.0026  -5.00  102.8
2024/10/07 12:06:56.000   28.314641185  -16.487162954  1996.1706   1   8   0.0018   0.0017   0.0184  -0.0011  -0.0036   0.0027  -4.00  104.4
2024/10/07 12:06:57.000   28.314641184  -16.487162953  1996.1686   1   8   0.0018   0.0017   0.0184  -0.0011  -0.0036   0.0027  -3.00  104.7
2024/10/07 12:06:58.000   28.314641184  -16.487162953  1996.1700   1   8   0.0018   0.0017   0.0182  -0.0011  -0.0035   0.0027  -2.00  105.0
2024/10/07 12:06:59.000   28.314641184  -16.487162952  1996.1682   1   8   0.0018   0.0017   0.0184  -0.0011  -0.0036   0.0027  -1.00  105.0
2024/10/07 12:07:00.000   28.314641182  -16.487162950  1996.1658   1   8   0.0017   0.0017   0.0181  -0.0010  -0.0035   0.0025   0.00  104.8
2024/10/07 12:07:01.000   28.314641182  -16.487162950  1996.1666   1   8   0.0018   0.0017   0.0182  -0.0010  -0.0035   0.0025   1.00  214.0
2024/10/07 12:07:02.000   28.314641182  -16.487162949  1996.1654   1   8   0.0018   0.0017   0.0184  -0.0011  -0.0035   0.0026   2.00  210.8
2024/10/07 12:07:03.000   28.314641182  -16.487162950  1996.1675   1   8   0.0018   0.0017   0.0184  -0.0011  -0.0036   0.0026   3.00  207.7
2024/10/07 12:07:04.000   28.314641182  -16.487162949  1996.1658   1   8   0.0018   0.0017   0.0182  -0.0011  -0.0035   0.0025   4.00  207.1
2024/10/07 12:07:05.000   28.314641181  -16.487162949  1996.1682   1   8   0.0018   0.0017   0.0183  -0.0011  -0.0036   0.0026   5.00   34.0
2024/10/07 12:07:06.000   28.314641181  -16.487162949  1996.1681   1   8   0.0018   0.0017   0.0185  -0.0011  -0.0036   0.0026   6.00   37.0
2024/10/07 12:07:07.000   28.314641181  -16.487162949  1996.1679   1   8   0.0018   0.0017   0.0184  -0.0011  -0.0036   0.0026   7.00   39.8
2024/10/07 12:07:08.000   28.314641181  -16.487162949  1996.1685   1   8   0.0018   0.0017   0.0185  -0.0011  -0.0036   0.0027   8.00   41.8
2024/10/07 12:07:09.000   28.314641181  -16.487162949  1996.1696   1   8   0.0018   0.0017   0.0186  -0.0011  -0.0036   0.0027   9.00   43.4
2024/10/07 12:07:10.000   28.314641181  -16.487162950  1996.1701   1   8   0.0018   0.0017   0.0183  -0.0011  -0.0036   0.0026  10.00   45.6
2024/10/07 12:07:11.000   28.314641181  -16.487162949  1996.1700   1   8   0.0018   0.0017   0.0184  -0.0011  -0.0036   0.0026  11.00   47.6
2024/10/07 12:07:12.000   28.314641181  -16.487162949  1996.1695   1   8   0.0018   0.0017   0.0189  -0.0011  -0.0037   0.0027  12.00   48.9
2024/10/07 12:07:13.000   28.314641181  -16.487162949  1996.1695   1   8   0.0018   0.0017   0.0189  -0.0011  -0.0037   0.0027  13.00   50.1
2024/10/07 12:07:14.000   28.314641181  -16.487162949  1996.1693   1   8   0.0018   0.0017   0.0189  -0.0011  -0.0037   0.0027  14.00   51.6
2024/10/07 12:07:15.000   28.314641182  -16.487162950  1996.1725   1   8   0.0018   0.0017   0.0184  -0.0011  -0.0036   0.0026 -15.00   53.0
2024/10/07 12:07:16.000   28.314641182  -16.487162950  1996.1727   1   8   0.0018   0.0017   0.0185  -0.0011  -0.0036   0.0027 -14.00   54.4
2024/10/07 12:07:17.000   28.314641181  -16.487162948  1996.1689   1   8   0.0018   0.0017   0.0190  -0.0011  -0.0037   0.0028 -13.00   55.4
2024/10/07 12:07:18.000   28.314641181  -16.487162948  1996.1689   1   8   0.0018   0.0017   0.0190  -0.0011  -0.0037   0.0028 -12.00   56.4
2024/10/07 12:07:19.000   28.314641181  -16.487162949  1996.1702   1   8   0.0018   0.0017   0.0185  -0.0011  -0.0036   0.0027 -11.00   57.4
2024/10/07 12:07:20.000   28.314641181  -16.487162949  1996.1712   1   8   0.0018   0.0017   0.0186  -0.0011  -0.0036   0.0027 -10.00   58.6
2024/10/07 12:07:21.000   28.314641182  -16.487162950  1996.1733   1   8   0.0018   0.0017   0.0183  -0.0011  -0.0036   0.0026  -9.00   60.3
2024/10/07 12:07:22.000   28.314641182  -16.487162950  1996.1730   1   8   0.0018   0.0017   0.0185  -0.0011  -0.0036   0.0027  -8.00   62.2
2024/10/07 12:07:23.000   28.314641181  -16.487162949  1996.1713   1   8   0.0018   0.0017   0.0187  -0.0011  -0.0037   0.0027  -7.00   64.6
2024/10/07 12:07:24.000   28.314641180  -16.487162947  1996.1678   1   8   0.0018   0.0017   0.0193  -0.0011  -0.0038   0.0028  -6.00   67.4
