% program   : RTKPOST-EX 2.5.0
% inp file  : C:\Users\SallyHenry\Desktop\Sally Internship\GNSS gravi\DATA\Survey Rover Obs\IPNA.24o
% inp file  : C:\Users\SallyHenry\Desktop\Sally Internship\GNSS gravi\DATA\BaseStations\TN01\TN0100ESP_R_20240940000_01D_30S_MO.rnx
% inp file  : C:\Users\SallyHenry\Desktop\Sally Internship\GNSS gravi\DATA\BaseStations\TN01\TN0100ESP_R_20240940000_01D_MN.rnx
% inp file  : C:\Users\SallyHenry\Desktop\Sally Internship\GNSS gravi\DATA\aux_files\Survey\IGS0OPSFIN_20240940000_01D_15M_ORB.SP3
% inp file  : C:\Users\SallyHenry\Desktop\Sally Internship\GNSS gravi\DATA\aux_files\Survey\IGS0OPSFIN_20240940000_01D_30S_CLK.CLK
% obs start : 2024/04/03 17:16:03.0 GPST (week2308 321363.0s)
% obs end   : 2024/04/03 17:58:19.0 GPST (week2308 323899.0s)
% pos mode  : Static
% freqs     : L1+L2/E5b
% solution  : Combined-No Phase Reset
% elev mask : 15.0 deg
% dynamics  : on
% tidecorr  : solid
% ionos opt : Estimate TEC
% tropo opt : Estimate ZTD+Grad
% ephemeris : Precise
% navi sys  : GPS GLONASS Galileo QZSS BDS
% amb res   : Fix and Hold
% amb glo   : Fix and Hold
% amb bds   : on
% val thres : 3.0
% antenna1  :                       ( 0.0000  0.0000  1.8000)
% antenna2  :                       ( 0.0000  0.0000  0.0771)
% ref pos   :  28.477186930  -16.241151700    51.7531
%
% (lat/lon/height=WGS84/ellipsoidal,Q=1:fix,2:float,3:sbas,4:dgps,5:single,6:ppp,ns=# of satellites)
%  GPST                  latitude(deg) longitude(deg)  height(m)   Q  ns   sdn(m)   sde(m)   sdu(m)  sdne(m)  sdeu(m)  sdun(m) age(s)  ratio
2024/04/03 17:16:03.000   28.479557544  -16.320381619   607.7328   2   5   0.0130   0.0146   0.0480  -0.0111   0.0207  -0.0231 -27.00    0.0
2024/04/03 17:16:04.000   28.479557544  -16.320381619   607.7330   2   5   0.0130   0.0146   0.0480  -0.0111   0.0207  -0.0231 -26.00    0.0
2024/04/03 17:16:05.000   28.479557543  -16.320381619   607.7330   2   5   0.0130   0.0146   0.0480  -0.0111   0.0207  -0.0231 -25.00    0.0
2024/04/03 17:16:06.000   28.479557543  -16.320381619   607.7331   2   5   0.0130   0.0146   0.0480  -0.0111   0.0207  -0.0231 -24.00    0.0
2024/04/03 17:16:07.000   28.479557543  -16.320381619   607.7332   2   5   0.0130   0.0146   0.0480  -0.0111   0.0207  -0.0231 -23.00    0.0
2024/04/03 17:16:08.000   28.479557543  -16.320381619   607.7332   2   5   0.0130   0.0146   0.0480  -0.0111   0.0207  -0.0231 -22.00    0.0
2024/04/03 17:16:09.000   28.479557543  -16.320381619   607.7333   2   5   0.0130   0.0146   0.0480  -0.0111   0.0207  -0.0231 -21.00    0.0
2024/04/03 17:16:10.000   28.479557543  -16.320381619   607.7333   2   5   0.0130   0.0146   0.0480  -0.0111   0.0207  -0.0231 -20.00    0.0
2024/04/03 17:16:11.000   28.479557543  -16.320381618   607.7333   2   5   0.0130   0.0146   0.0480  -0.0111   0.0207  -0.0231 -19.00    0.0
2024/04/03 17:16:12.000   28.479557543  -16.320381618   607.7334   2   5   0.0130   0.0146   0.0480  -0.0111   0.0207  -0.0231 -18.00    0.0
2024/04/03 17:16:13.000   28.479557543  -16.320381617   607.7334   2   5   0.0130   0.0146   0.0480  -0.0111   0.0207  -0.0231 -17.00    0.0
2024/04/03 17:16:14.000   28.479557543  -16.320381617   607.7334   2   5   0.0130   0.0146   0.0480  -0.0111   0.0207  -0.0231 -16.00    0.0
2024/04/03 17:16:15.000   28.479557542  -16.320381617   607.7335   2   5   0.0130   0.0146   0.0480  -0.0111   0.0207  -0.0231 -15.00    0.0
2024/04/03 17:16:16.000   28.479557542  -16.320381617   607.7335   2   5   0.0130   0.0146   0.0480  -0.0111   0.0207  -0.0231 -14.00    0.0
2024/04/03 17:16:17.000   28.479557542  -16.320381616   607.7336   2   5   0.0130   0.0146   0.0480  -0.0111   0.0207  -0.0231 -13.00    0.0
2024/04/03 17:16:18.000   28.479557542  -16.320381616   607.7337   2   5   0.0130   0.0146   0.0480  -0.0111   0.0207  -0.0231 -12.00    0.0
2024/04/03 17:16:19.000   28.479557542  -16.320381616   607.7337   2   5   0.0130   0.0146   0.0480  -0.0111   0.0207  -0.0231 -11.00    0.0
2024/04/03 17:16:20.000   28.479557541  -16.320381616   607.7338   2   5   0.0130   0.0146   0.0480  -0.0111   0.0207  -0.0231 -10.00    0.0
2024/04/03 17:16:21.000   28.479557541  -16.320381616   607.7339   2   5   0.0130   0.0146   0.0479  -0.0111   0.0207  -0.0231  -9.00    0.0
2024/04/03 17:16:22.000   28.479557541  -16.320381616   607.7340   2   5   0.0130   0.0146   0.0479  -0.0111   0.0207  -0.0231  -8.00    0.0
2024/04/03 17:16:23.000   28.479557540  -16.320381616   607.7342   2   5   0.0130   0.0146   0.0479  -0.0111   0.0207  -0.0231  -7.00    0.0
2024/04/03 17:16:24.000   28.479557540  -16.320381616   607.7344   2   5   0.0130   0.0146   0.0479  -0.0111   0.0207  -0.0231  -6.00    0.0
2024/04/03 17:16:25.000   28.479557539  -16.320381616   607.7346   2   5   0.0130   0.0146   0.0479  -0.0111   0.0207  -0.0231  -5.00    0.0
2024/04/03 17:16:26.000   28.479557538  -16.320381616   607.7348   2   5   0.0130   0.0146   0.0479  -0.0111   0.0207  -0.0231  -4.00    0.0
2024/04/03 17:16:27.000   28.479557538  -16.320381617   607.7350   2   5   0.0130   0.0146   0.0479  -0.0111   0.0207  -0.0231  -3.00    0.0
2024/04/03 17:16:28.000   28.479557537  -16.320381617   607.7353   2   5   0.0130   0.0146   0.0479  -0.0111   0.0206  -0.0231  -2.00    0.0
2024/04/03 17:16:29.000   28.479557536  -16.320381618   607.7357   2   5   0.0130   0.0146   0.0479  -0.0111   0.0206  -0.0231  -1.00    0.0
2024/04/03 17:16:30.000   28.479557534  -16.320381619   607.7362   2   5   0.0130   0.0146   0.0479  -0.0111   0.0206  -0.0231   0.00    0.0
2024/04/03 17:16:31.000   28.479557533  -16.320381619   607.7365   2   5   0.0130   0.0146   0.0479  -0.0111   0.0206  -0.0231   1.00    0.0
2024/04/03 17:16:32.000   28.479557532  -16.320381619   607.7368   2   5   0.0130   0.0146   0.0479  -0.0111   0.0206  -0.0231   2.00    0.0
2024/04/03 17:16:33.000   28.479557531  -16.320381619   607.7372   2   5   0.0130   0.0146   0.0479  -0.0111   0.0206  -0.0231   3.00    0.0
2024/04/03 17:16:34.000   28.479557530  -16.320381619   607.7376   2   5   0.0130   0.0146   0.0479  -0.0111   0.0206  -0.0231   4.00    0.0
2024/04/03 17:16:35.000   28.479557529  -16.320381620   607.7378   2   5   0.0130   0.0146   0.0479  -0.0111   0.0206  -0.0231   5.00    0.0
2024/04/03 17:16:36.000   28.479557528  -16.320381619   607.7381   2   5   0.0130   0.0146   0.0479  -0.0111   0.0206  -0.0231   6.00    0.0
2024/04/03 17:16:37.000   28.479557528  -16.320381619   607.7384   2   5   0.0130   0.0146   0.0479  -0.0111   0.0206  -0.0231   7.00    0.0
2024/04/03 17:16:38.000   28.479557527  -16.320381619   607.7387   2   5   0.0130   0.0146   0.0479  -0.0111   0.0206  -0.0231   8.00    0.0
2024/04/03 17:16:39.000   28.479557526  -16.320381618   607.7389   2   5   0.0130   0.0146   0.0479  -0.0111   0.0206  -0.0231   9.00    0.0
2024/04/03 17:16:40.000   28.479557526  -16.320381618   607.7391   2   5   0.0130   0.0146   0.0479  -0.0111   0.0206  -0.0231  10.00    0.0
2024/04/03 17:16:41.000   28.479557525  -16.320381618   607.7393   2   5   0.0130   0.0146   0.0479  -0.0111   0.0206  -0.0231  11.00    0.0
2024/04/03 17:16:42.000   28.479557525  -16.320381618   607.7394   2   5   0.0130   0.0146   0.0479  -0.0111   0.0206  -0.0231  12.00    0.0
2024/04/03 17:16:43.000   28.479557525  -16.320381617   607.7396   2   5   0.0130   0.0146   0.0479  -0.0111   0.0206  -0.0231  13.00    0.0
2024/04/03 17:16:44.000   28.479557524  -16.320381617   607.7398   2   5   0.0130   0.0146   0.0479  -0.0111   0.0206  -0.0231  14.00    0.0
2024/04/03 17:16:45.000   28.479557524  -16.320381617   607.7399   2   5   0.0130   0.0146   0.0479  -0.0111   0.0206  -0.0231 -15.00    0.0
2024/04/03 17:16:46.000   28.479557523  -16.320381616   607.7401   2   5   0.0130   0.0146   0.0479  -0.0111   0.0206  -0.0231 -14.00    0.0
2024/04/03 17:16:47.000   28.479557523  -16.320381616   607.7402   2   5   0.0130   0.0146   0.0479  -0.0111   0.0206  -0.0231 -13.00    0.0
2024/04/03 17:16:48.000   28.479557523  -16.320381616   607.7404   2   5   0.0130   0.0146   0.0479  -0.0111   0.0206  -0.0231 -12.00    0.0
2024/04/03 17:16:49.000   28.479557522  -16.320381616   607.7405   2   5   0.0130   0.0146   0.0479  -0.0111   0.0206  -0.0231 -11.00    0.0
2024/04/03 17:16:50.000   28.479557522  -16.320381616   607.7406   2   5   0.0130   0.0146   0.0479  -0.0111   0.0206  -0.0231 -10.00    0.0
2024/04/03 17:16:51.000   28.479557522  -16.320381616   607.7406   2   5   0.0130   0.0146   0.0479  -0.0111   0.0206  -0.0231  -9.00    0.0
2024/04/03 17:16:52.000   28.479557522  -16.320381615   607.7408   2   5   0.0130   0.0146   0.0479  -0.0111   0.0206  -0.0231  -8.00    0.0
2024/04/03 17:16:53.000   28.479557522  -16.320381615   607.7409   2   5   0.0130   0.0146   0.0479  -0.0111   0.0206  -0.0231  -7.00    0.0
2024/04/03 17:16:54.000   28.479557521  -16.320381615   607.7411   2   5   0.0130   0.0146   0.0479  -0.0111   0.0206  -0.0231  -6.00    0.0
2024/04/03 17:16:55.000   28.479557521  -16.320381614   607.7412   2   5   0.0130   0.0146   0.0479  -0.0111   0.0206  -0.0231  -5.00    0.0
2024/04/03 17:16:56.000   28.479557521  -16.320381614   607.7413   2   5   0.0130   0.0146   0.0479  -0.0111   0.0206  -0.0231  -4.00    0.0
2024/04/03 17:16:57.000   28.479557521  -16.320381614   607.7415   2   5   0.0130   0.0146   0.0479  -0.0111   0.0206  -0.0231  -3.00    0.0
2024/04/03 17:16:58.000   28.479557521  -16.320381613   607.7416   2   5   0.0130   0.0146   0.0479  -0.0111   0.0206  -0.0231  -2.00    0.0
2024/04/03 17:16:59.000   28.479557521  -16.320381613   607.7418   2   5   0.0130   0.0146   0.0479  -0.0111   0.0206  -0.0231  -1.00    0.0
2024/04/03 17:17:00.000   28.479557520  -16.320381613   607.7420   2   5   0.0130   0.0146   0.0479  -0.0111   0.0206  -0.0231   0.00    0.0
2024/04/03 17:17:01.000   28.479557520  -16.320381612   607.7425   2   5   0.0130   0.0146   0.0479  -0.0111   0.0206  -0.0231   1.00    0.0
2024/04/03 17:17:02.000   28.479557520  -16.320381612   607.7427   2   5   0.0130   0.0146   0.0479  -0.0111   0.0206  -0.0231   2.00    0.0
2024/04/03 17:17:03.000   28.479557520  -16.320381611   607.7428   2   5   0.0130   0.0146   0.0479  -0.0111   0.0206  -0.0231   3.00    0.0
2024/04/03 17:17:04.000   28.479557520  -16.320381611   607.7428   2   5   0.0130   0.0146   0.0479  -0.0111   0.0206  -0.0231   4.00    0.0
2024/04/03 17:17:05.000   28.479557521  -16.320381610   607.7429   2   5   0.0130   0.0146   0.0479  -0.0111   0.0206  -0.0231   5.00    0.0
2024/04/03 17:17:06.000   28.479557521  -16.320381610   607.7429   2   5   0.0130   0.0146   0.0479  -0.0111   0.0206  -0.0231   6.00    0.0
2024/04/03 17:17:07.000   28.479557521  -16.320381610   607.7429   2   5   0.0130   0.0146   0.0479  -0.0111   0.0206  -0.0231   7.00    0.0
2024/04/03 17:17:08.000   28.479557522  -16.320381610   607.7428   2   5   0.0130   0.0146   0.0479  -0.0111   0.0206  -0.0231   8.00    0.0
2024/04/03 17:17:09.000   28.479557522  -16.320381610   607.7428   2   5   0.0130   0.0146   0.0479  -0.0111   0.0206  -0.0231   9.00    0.0
2024/04/03 17:17:10.000   28.479557522  -16.320381609   607.7429   2   5   0.0130   0.0146   0.0479  -0.0110   0.0206  -0.0230  10.00    0.0
2024/04/03 17:17:11.000   28.479557523  -16.320381609   607.7429   2   5   0.0130   0.0146   0.0479  -0.0110   0.0206  -0.0230  11.00    0.0
2024/04/03 17:17:12.000   28.479557523  -16.320381609   607.7429   2   5   0.0130   0.0146   0.0479  -0.0110   0.0206  -0.0230  12.00    0.0
2024/04/03 17:17:13.000   28.479557523  -16.320381609   607.7429   2   5   0.0130   0.0146   0.0479  -0.0110   0.0206  -0.0230  13.00    0.0
2024/04/03 17:17:14.000   28.479557523  -16.320381609   607.7430   2   5   0.0130   0.0146   0.0479  -0.0110   0.0206  -0.0230  14.00    0.0
2024/04/03 17:17:15.000   28.479557523  -16.320381609   607.7430   2   5   0.0130   0.0146   0.0479  -0.0110   0.0206  -0.0230 -15.00    0.0
2024/04/03 17:17:16.000   28.479557523  -16.320381610   607.7430   2   5   0.0130   0.0146   0.0478  -0.0110   0.0206  -0.0230 -14.00    0.0
2024/04/03 17:17:17.000   28.479557523  -16.320381610   607.7431   2   5   0.0130   0.0146   0.0478  -0.0110   0.0206  -0.0230 -13.00    0.0
2024/04/03 17:17:18.000   28.479557523  -16.320381610   607.7431   2   5   0.0130   0.0146   0.0478  -0.0110   0.0206  -0.0230 -12.00    0.0
2024/04/03 17:17:19.000   28.479557523  -16.320381610   607.7431   2   5   0.0130   0.0146   0.0478  -0.0110   0.0205  -0.0230 -11.00    0.0
2024/04/03 17:17:20.000   28.479557523  -16.320381610   607.7432   2   5   0.0130   0.0146   0.0478  -0.0110   0.0205  -0.0230 -10.00    0.0
2024/04/03 17:17:21.000   28.479557523  -16.320381610   607.7432   2   5   0.0130   0.0146   0.0478  -0.0110   0.0205  -0.0230  -9.00    0.0
2024/04/03 17:17:22.000   28.479557523  -16.320381610   607.7433   2   5   0.0130   0.0146   0.0478  -0.0110   0.0205  -0.0230  -8.00    0.0
2024/04/03 17:17:23.000   28.479557523  -16.320381610   607.7433   2   5   0.0130   0.0146   0.0478  -0.0110   0.0205  -0.0230  -7.00    0.0
2024/04/03 17:17:24.000   28.479557523  -16.320381610   607.7434   2   5   0.0130   0.0146   0.0478  -0.0110   0.0205  -0.0230  -6.00    0.0
2024/04/03 17:17:25.000   28.479557524  -16.320381609   607.7435   2   5   0.0130   0.0146   0.0478  -0.0110   0.0205  -0.0230  -5.00    0.0
2024/04/03 17:17:26.000   28.479557524  -16.320381609   607.7436   2   5   0.0130   0.0146   0.0478  -0.0110   0.0205  -0.0230  -4.00    0.0
2024/04/03 17:17:27.000   28.479557524  -16.320381609   607.7436   2   5   0.0130   0.0146   0.0478  -0.0110   0.0205  -0.0230  -3.00    0.0
2024/04/03 17:17:28.000   28.479557524  -16.320381608   607.7437   2   5   0.0130   0.0146   0.0478  -0.0110   0.0205  -0.0230  -2.00    0.0
2024/04/03 17:17:29.000   28.479557525  -16.320381608   607.7439   2   5   0.0130   0.0146   0.0478  -0.0110   0.0205  -0.0230  -1.00    0.0
2024/04/03 17:17:30.000   28.479557525  -16.320381608   607.7440   2   5   0.0130   0.0146   0.0478  -0.0110   0.0205  -0.0230   0.00    0.0
2024/04/03 17:17:31.000   28.479557525  -16.320381607   607.7441   2   5   0.0130   0.0146   0.0478  -0.0110   0.0205  -0.0230   1.00    0.0
2024/04/03 17:17:32.000   28.479557526  -16.320381607   607.7441   2   5   0.0130   0.0146   0.0478  -0.0110   0.0205  -0.0230   2.00    0.0
2024/04/03 17:17:33.000   28.479557527  -16.320381606   607.7442   2   5   0.0130   0.0146   0.0478  -0.0110   0.0205  -0.0230   3.00    0.0
2024/04/03 17:17:34.000   28.479557527  -16.320381606   607.7442   2   5   0.0130   0.0146   0.0478  -0.0110   0.0205  -0.0230   4.00    0.0
2024/04/03 17:17:35.000   28.479557527  -16.320381606   607.7443   2   5   0.0130   0.0146   0.0478  -0.0110   0.0205  -0.0230   5.00    0.0
2024/04/03 17:17:36.000   28.479557528  -16.320381606   607.7443   2   5   0.0130   0.0146   0.0478  -0.0110   0.0205  -0.0230   6.00    0.0
2024/04/03 17:17:37.000   28.479557528  -16.320381606   607.7442   2   5   0.0130   0.0146   0.0478  -0.0110   0.0205  -0.0230   7.00    0.0
2024/04/03 17:17:38.000   28.479557529  -16.320381606   607.7441   2   5   0.0130   0.0146   0.0478  -0.0110   0.0205  -0.0230   8.00    0.0
2024/04/03 17:17:39.000   28.479557530  -16.320381607   607.7439   2   5   0.0130   0.0146   0.0478  -0.0110   0.0205  -0.0230   9.00    0.0
2024/04/03 17:17:40.000   28.479557530  -16.320381607   607.7438   2   5   0.0130   0.0146   0.0478  -0.0110   0.0205  -0.0230  10.00    0.0
2024/04/03 17:17:41.000   28.479557531  -16.320381607   607.7437   2   5   0.0130   0.0146   0.0478  -0.0110   0.0205  -0.0230  11.00    0.0
2024/04/03 17:17:42.000   28.479557531  -16.320381608   607.7436   2   5   0.0130   0.0146   0.0478  -0.0110   0.0205  -0.0230  12.00    0.0
2024/04/03 17:17:43.000   28.479557532  -16.320381608   607.7434   2   5   0.0130   0.0146   0.0478  -0.0110   0.0205  -0.0230  13.00    0.0
2024/04/03 17:17:44.000   28.479557532  -16.320381608   607.7433   2   5   0.0130   0.0146   0.0478  -0.0110   0.0205  -0.0230  14.00    0.0
2024/04/03 17:17:45.000   28.479557533  -16.320381609   607.7431   2   5   0.0130   0.0146   0.0478  -0.0110   0.0205  -0.0230 -15.00    0.0
2024/04/03 17:17:46.000   28.479557534  -16.320381609   607.7429   2   5   0.0130   0.0146   0.0478  -0.0110   0.0205  -0.0230 -14.00    0.0
2024/04/03 17:17:47.000   28.479557534  -16.320381609   607.7427   2   5   0.0130   0.0146   0.0478  -0.0110   0.0205  -0.0230 -13.00    0.0
2024/04/03 17:17:48.000   28.479557535  -16.320381610   607.7425   2   5   0.0130   0.0146   0.0478  -0.0110   0.0205  -0.0230 -12.00    0.0
2024/04/03 17:17:49.000   28.479557536  -16.320381610   607.7423   2   5   0.0130   0.0146   0.0478  -0.0110   0.0205  -0.0230 -11.00    0.0
2024/04/03 17:17:50.000   28.479557537  -16.320381610   607.7420   2   5   0.0130   0.0146   0.0478  -0.0110   0.0205  -0.0230 -10.00    0.0
2024/04/03 17:17:51.000   28.479557538  -16.320381611   607.7418   2   5   0.0130   0.0146   0.0478  -0.0110   0.0205  -0.0230  -9.00    0.0
2024/04/03 17:17:52.000   28.479557539  -16.320381611   607.7414   2   5   0.0130   0.0146   0.0478  -0.0110   0.0205  -0.0230  -8.00    0.0
2024/04/03 17:17:53.000   28.479557540  -16.320381611   607.7411   2   5   0.0130   0.0146   0.0478  -0.0110   0.0205  -0.0230  -7.00    0.0
2024/04/03 17:17:54.000   28.479557541  -16.320381612   607.7408   2   5   0.0130   0.0146   0.0478  -0.0110   0.0205  -0.0230  -6.00    0.0
2024/04/03 17:17:55.000   28.479557543  -16.320381612   607.7405   2   5   0.0130   0.0146   0.0478  -0.0110   0.0205  -0.0230  -5.00    0.0
2024/04/03 17:17:56.000   28.479557544  -16.320381612   607.7402   2   5   0.0130   0.0146   0.0478  -0.0110   0.0205  -0.0230  -4.00    0.0
2024/04/03 17:17:57.000   28.479557546  -16.320381612   607.7399   2   5   0.0130   0.0146   0.0478  -0.0110   0.0205  -0.0230  -3.00    0.0
2024/04/03 17:17:58.000   28.479557547  -16.320381613   607.7395   2   5   0.0130   0.0146   0.0478  -0.0110   0.0205  -0.0230  -2.00    0.0
2024/04/03 17:17:59.000   28.479557549  -16.320381613   607.7392   2   5   0.0130   0.0146   0.0478  -0.0110   0.0205  -0.0230  -1.00    0.0
2024/04/03 17:18:00.000   28.479557550  -16.320381613   607.7388   2   5   0.0130   0.0146   0.0478  -0.0110   0.0205  -0.0230   0.00    0.0
2024/04/03 17:18:01.000   28.479557552  -16.320381614   607.7384   2   5   0.0130   0.0146   0.0478  -0.0110   0.0205  -0.0230   1.00    0.0
2024/04/03 17:18:02.000   28.479557553  -16.320381614   607.7381   2   5   0.0130   0.0146   0.0478  -0.0110   0.0205  -0.0230   2.00    0.0
2024/04/03 17:18:03.000   28.479557554  -16.320381615   607.7377   2   5   0.0130   0.0146   0.0478  -0.0110   0.0205  -0.0230   3.00    0.0
2024/04/03 17:18:04.000   28.479557555  -16.320381615   607.7374   2   5   0.0130   0.0146   0.0478  -0.0110   0.0205  -0.0230   4.00    0.0
2024/04/03 17:18:05.000   28.479557556  -16.320381616   607.7371   2   5   0.0130   0.0146   0.0478  -0.0110   0.0205  -0.0230   5.00    0.0
2024/04/03 17:18:06.000   28.479557557  -16.320381616   607.7369   2   5   0.0130   0.0146   0.0478  -0.0110   0.0205  -0.0230   6.00    0.0
2024/04/03 17:18:07.000   28.479557557  -16.320381617   607.7367   2   5   0.0130   0.0146   0.0478  -0.0110   0.0205  -0.0230   7.00    0.0
2024/04/03 17:18:08.000   28.479557558  -16.320381618   607.7364   2   5   0.0130   0.0146   0.0478  -0.0110   0.0205  -0.0230   8.00    0.0
2024/04/03 17:18:09.000   28.479557559  -16.320381618   607.7362   2   5   0.0130   0.0146   0.0478  -0.0110   0.0205  -0.0230   9.00    0.0
2024/04/03 17:18:10.000   28.479557559  -16.320381619   607.7360   2   5   0.0130   0.0146   0.0478  -0.0110   0.0205  -0.0230  10.00    0.0
2024/04/03 17:18:11.000   28.479557560  -16.320381619   607.7358   2   6   0.0130   0.0146   0.0478  -0.0110   0.0205  -0.0230  11.00    0.0
2024/04/03 17:18:12.000   28.479557561  -16.320381621   607.7363   2   6   0.0130   0.0146   0.0478  -0.0110   0.0205  -0.0230  12.00    0.0
2024/04/03 17:18:13.000   28.479557562  -16.320381623   607.7365   2   6   0.0130   0.0146   0.0478  -0.0110   0.0204  -0.0230  13.00    0.0
2024/04/03 17:18:14.000   28.479557563  -16.320381624   607.7362   2   6   0.0130   0.0146   0.0478  -0.0110   0.0204  -0.0230  14.00    0.0
2024/04/03 17:18:15.000   28.479557564  -16.320381624   607.7359   2   6   0.0130   0.0146   0.0478  -0.0110   0.0204  -0.0230 -15.00    0.0
2024/04/03 17:18:16.000   28.479557565  -16.320381625   607.7355   2   6   0.0130   0.0146   0.0477  -0.0110   0.0204  -0.0230 -14.00    0.0
2024/04/03 17:18:17.000   28.479557565  -16.320381626   607.7352   2   6   0.0130   0.0146   0.0477  -0.0110   0.0204  -0.0230 -13.00    0.0
2024/04/03 17:18:18.000   28.479557566  -16.320381626   607.7349   2   6   0.0130   0.0146   0.0477  -0.0110   0.0204  -0.0230 -12.00    0.0
2024/04/03 17:18:19.000   28.479557566  -16.320381627   607.7346   2   6   0.0130   0.0146   0.0477  -0.0110   0.0204  -0.0230 -11.00    0.0
2024/04/03 17:18:20.000   28.479557567  -16.320381627   607.7343   2   6   0.0130   0.0146   0.0477  -0.0110   0.0204  -0.0230 -10.00    0.0
2024/04/03 17:18:21.000   28.479557567  -16.320381628   607.7340   2   6   0.0130   0.0146   0.0477  -0.0110   0.0204  -0.0230  -9.00    0.0
2024/04/03 17:18:22.000   28.479557568  -16.320381629   607.7337   2   6   0.0130   0.0146   0.0477  -0.0110   0.0204  -0.0230  -8.00    0.0
2024/04/03 17:18:23.000   28.479557568  -16.320381629   607.7334   2   6   0.0130   0.0146   0.0477  -0.0110   0.0204  -0.0230  -7.00    0.0
2024/04/03 17:18:24.000   28.479557569  -16.320381629   607.7329   2   6   0.0130   0.0146   0.0477  -0.0110   0.0204  -0.0230  -6.00    0.0
2024/04/03 17:18:25.000   28.479557569  -16.320381630   607.7325   2   6   0.0130   0.0146   0.0477  -0.0110   0.0204  -0.0230  -5.00    0.0
2024/04/03 17:18:26.000   28.479557569  -16.320381630   607.7320   2   6   0.0130   0.0146   0.0477  -0.0110   0.0204  -0.0230  -4.00    0.0
2024/04/03 17:18:27.000   28.479557569  -16.320381630   607.7314   2   6   0.0130   0.0146   0.0477  -0.0110   0.0204  -0.0230  -3.00    0.0
2024/04/03 17:18:28.000   28.479557570  -16.320381631   607.7308   2   6   0.0130   0.0146   0.0477  -0.0110   0.0204  -0.0230  -2.00    0.0
2024/04/03 17:18:29.000   28.479557570  -16.320381631   607.7302   2   6   0.0130   0.0146   0.0477  -0.0110   0.0204  -0.0230  -1.00    0.0
2024/04/03 17:18:30.000   28.479557570  -16.320381631   607.7295   2   6   0.0130   0.0146   0.0477  -0.0110   0.0204  -0.0230   0.00    0.0
2024/04/03 17:18:31.000   28.479557570  -16.320381631   607.7291   2   6   0.0130   0.0146   0.0477  -0.0110   0.0204  -0.0230   1.00    0.0
2024/04/03 17:18:32.000   28.479557570  -16.320381632   607.7287   2   6   0.0130   0.0146   0.0477  -0.0109   0.0204  -0.0230   2.00    0.0
2024/04/03 17:18:33.000   28.479557570  -16.320381632   607.7284   2   6   0.0130   0.0146   0.0477  -0.0109   0.0204  -0.0230   3.00    0.0
2024/04/03 17:18:34.000   28.479557570  -16.320381633   607.7279   2   6   0.0130   0.0146   0.0477  -0.0109   0.0204  -0.0230   4.00    0.0
2024/04/03 17:18:35.000   28.479557570  -16.320381633   607.7272   2   6   0.0130   0.0146   0.0477  -0.0109   0.0204  -0.0230   5.00    0.0
2024/04/03 17:18:36.000   28.479557571  -16.320381632   607.7266   2   6   0.0130   0.0146   0.0477  -0.0109   0.0204  -0.0230   6.00    0.0
2024/04/03 17:18:37.000   28.479557571  -16.320381633   607.7262   2   6   0.0129   0.0146   0.0477  -0.0109   0.0204  -0.0229   7.00    0.0
2024/04/03 17:18:38.000   28.479557572  -16.320381633   607.7258   2   6   0.0129   0.0146   0.0477  -0.0109   0.0204  -0.0229   8.00    0.0
2024/04/03 17:18:39.000   28.479557572  -16.320381633   607.7255   2   6   0.0129   0.0146   0.0477  -0.0109   0.0204  -0.0229   9.00    0.0
2024/04/03 17:18:40.000   28.479557573  -16.320381633   607.7251   2   6   0.0129   0.0146   0.0477  -0.0109   0.0204  -0.0229  10.00    0.0
2024/04/03 17:18:41.000   28.479557573  -16.320381633   607.7250   2   6   0.0129   0.0146   0.0477  -0.0109   0.0204  -0.0229  11.00    0.0
2024/04/03 17:18:42.000   28.479557573  -16.320381633   607.7246   2   6   0.0129   0.0146   0.0477  -0.0109   0.0204  -0.0229  12.00    0.0
2024/04/03 17:18:43.000   28.479557574  -16.320381633   607.7244   2   6   0.0129   0.0146   0.0477  -0.0109   0.0204  -0.0229  13.00    0.0
2024/04/03 17:18:44.000   28.479557574  -16.320381633   607.7242   2   6   0.0129   0.0146   0.0477  -0.0109   0.0204  -0.0229  14.00    0.0
2024/04/03 17:18:45.000   28.479557575  -16.320381633   607.7239   2   6   0.0129   0.0146   0.0477  -0.0109   0.0204  -0.0229 -15.00    0.0
2024/04/03 17:18:46.000   28.479557575  -16.320381633   607.7237   2   6   0.0129   0.0146   0.0477  -0.0109   0.0204  -0.0229 -14.00    0.0
2024/04/03 17:18:47.000   28.479557575  -16.320381632   607.7235   2   6   0.0129   0.0146   0.0477  -0.0109   0.0204  -0.0229 -13.00    0.0
2024/04/03 17:18:48.000   28.479557575  -16.320381632   607.7233   2   6   0.0129   0.0146   0.0477  -0.0109   0.0204  -0.0229 -12.00    0.0
2024/04/03 17:18:49.000   28.479557576  -16.320381632   607.7231   2   6   0.0129   0.0146   0.0477  -0.0109   0.0204  -0.0229 -11.00    0.0
2024/04/03 17:18:50.000   28.479557576  -16.320381632   607.7228   2   6   0.0129   0.0146   0.0477  -0.0109   0.0204  -0.0229 -10.00    0.0
2024/04/03 17:18:51.000   28.479557576  -16.320381632   607.7226   2   6   0.0129   0.0146   0.0477  -0.0109   0.0204  -0.0229  -9.00    0.0
2024/04/03 17:18:52.000   28.479557576  -16.320381632   607.7223   2   6   0.0129   0.0146   0.0477  -0.0109   0.0204  -0.0229  -8.00    0.0
2024/04/03 17:18:53.000   28.479557576  -16.320381632   607.7221   2   6   0.0129   0.0146   0.0477  -0.0109   0.0204  -0.0229  -7.00    0.0
2024/04/03 17:18:54.000   28.479557576  -16.320381633   607.7218   2   6   0.0129   0.0146   0.0477  -0.0109   0.0204  -0.0229  -6.00    0.0
2024/04/03 17:18:55.000   28.479557576  -16.320381633   607.7215   2   6   0.0129   0.0146   0.0477  -0.0109   0.0204  -0.0229  -5.00    0.0
2024/04/03 17:18:56.000   28.479557577  -16.320381634   607.7211   2   6   0.0129   0.0146   0.0477  -0.0109   0.0204  -0.0229  -4.00    0.0
2024/04/03 17:18:57.000   28.479557576  -16.320381634   607.7206   2   6   0.0129   0.0146   0.0477  -0.0109   0.0204  -0.0229  -3.00    0.0
2024/04/03 17:18:58.000   28.479557575  -16.320381635   607.7201   2   6   0.0129   0.0146   0.0477  -0.0109   0.0204  -0.0229  -2.00    0.0
2024/04/03 17:18:59.000   28.479557575  -16.320381636   607.7196   2   6   0.0129   0.0146   0.0477  -0.0109   0.0204  -0.0229  -1.00    0.0
2024/04/03 17:19:00.000   28.479557574  -16.320381637   607.7190   2   6   0.0129   0.0146   0.0477  -0.0109   0.0203  -0.0229   0.00    0.0
2024/04/03 17:19:01.000   28.479557574  -16.320381637   607.7183   2   6   0.0129   0.0146   0.0477  -0.0109   0.0203  -0.0229   1.00    0.0
2024/04/03 17:19:02.000   28.479557574  -16.320381638   607.7176   2   6   0.0129   0.0146   0.0477  -0.0109   0.0203  -0.0229   2.00    0.0
2024/04/03 17:19:03.000   28.479557574  -16.320381639   607.7171   2   6   0.0129   0.0146   0.0477  -0.0109   0.0203  -0.0229   3.00    0.0
2024/04/03 17:19:04.000   28.479557573  -16.320381639   607.7166   2   6   0.0129   0.0146   0.0477  -0.0109   0.0203  -0.0229   4.00    0.0
2024/04/03 17:19:05.000   28.479557572  -16.320381640   607.7162   2   6   0.0129   0.0146   0.0477  -0.0109   0.0203  -0.0229   5.00    0.0
2024/04/03 17:19:06.000   28.479557572  -16.320381640   607.7160   2   6   0.0129   0.0146   0.0477  -0.0109   0.0203  -0.0229   6.00    0.0
2024/04/03 17:19:07.000   28.479557572  -16.320381640   607.7156   2   6   0.0129   0.0146   0.0477  -0.0109   0.0203  -0.0229   7.00    0.0
2024/04/03 17:19:08.000   28.479557571  -16.320381641   607.7154   2   6   0.0129   0.0146   0.0477  -0.0109   0.0203  -0.0229   8.00    0.0
2024/04/03 17:19:09.000   28.479557571  -16.320381641   607.7152   2   6   0.0129   0.0146   0.0477  -0.0109   0.0203  -0.0229   9.00    0.0
2024/04/03 17:19:10.000   28.479557571  -16.320381641   607.7151   2   6   0.0129   0.0146   0.0477  -0.0109   0.0203  -0.0229  10.00    0.0
2024/04/03 17:19:11.000   28.479557570  -16.320381641   607.7150   2   6   0.0129   0.0146   0.0477  -0.0109   0.0203  -0.0229  11.00    0.0
2024/04/03 17:19:12.000   28.479557570  -16.320381641   607.7150   2   6   0.0129   0.0146   0.0477  -0.0109   0.0203  -0.0229  12.00    0.0
2024/04/03 17:19:13.000   28.479557570  -16.320381641   607.7149   2   6   0.0129   0.0146   0.0477  -0.0109   0.0203  -0.0229  13.00    0.0
2024/04/03 17:19:14.000   28.479557569  -16.320381642   607.7149   2   6   0.0129   0.0146   0.0477  -0.0109   0.0203  -0.0229  14.00    0.0
2024/04/03 17:19:15.000   28.479557569  -16.320381642   607.7149   2   6   0.0129   0.0146   0.0477  -0.0109   0.0203  -0.0229 -15.00    0.0
2024/04/03 17:19:16.000   28.479557569  -16.320381642   607.7149   2   6   0.0129   0.0146   0.0477  -0.0109   0.0203  -0.0229 -14.00    0.0
2024/04/03 17:19:17.000   28.479557568  -16.320381642   607.7149   2   6   0.0129   0.0146   0.0477  -0.0109   0.0203  -0.0229 -13.00    0.0
2024/04/03 17:19:18.000   28.479557568  -16.320381642   607.7149   2   6   0.0129   0.0146   0.0477  -0.0109   0.0203  -0.0229 -12.00    0.0
2024/04/03 17:19:19.000   28.479557568  -16.320381642   607.7149   2   6   0.0129   0.0146   0.0477  -0.0109   0.0203  -0.0229 -11.00    0.0
2024/04/03 17:19:20.000   28.479557567  -16.320381643   607.7148   2   6   0.0129   0.0146   0.0477  -0.0109   0.0203  -0.0229 -10.00    0.0
2024/04/03 17:19:21.000   28.479557567  -16.320381643   607.7147   2   6   0.0129   0.0146   0.0477  -0.0109   0.0203  -0.0229  -9.00    0.0
2024/04/03 17:19:22.000   28.479557567  -16.320381643   607.7146   2   6   0.0129   0.0146   0.0477  -0.0109   0.0203  -0.0229  -8.00    0.0
2024/04/03 17:19:23.000   28.479557566  -16.320381644   607.7145   2   6   0.0129   0.0146   0.0477  -0.0109   0.0203  -0.0229  -7.00    0.0
2024/04/03 17:19:24.000   28.479557566  -16.320381644   607.7142   2   6   0.0129   0.0146   0.0477  -0.0109   0.0203  -0.0229  -6.00    0.0
2024/04/03 17:19:25.000   28.479557566  -16.320381645   607.7140   2   6   0.0129   0.0146   0.0477  -0.0109   0.0203  -0.0229  -5.00    0.0
2024/04/03 17:19:26.000   28.479557565  -16.320381645   607.7137   2   6   0.0129   0.0146   0.0477  -0.0109   0.0203  -0.0229  -4.00    0.0
2024/04/03 17:19:27.000   28.479557565  -16.320381646   607.7133   2   6   0.0129   0.0146   0.0477  -0.0109   0.0203  -0.0229  -3.00    0.0
2024/04/03 17:19:28.000   28.479557564  -16.320381647   607.7129   2   6   0.0129   0.0146   0.0477  -0.0109   0.0203  -0.0229  -2.00    0.0
2024/04/03 17:19:29.000   28.479557563  -16.320381648   607.7126   2   6   0.0129   0.0146   0.0477  -0.0109   0.0203  -0.0229  -1.00    0.0
2024/04/03 17:19:30.000   28.479557562  -16.320381649   607.7123   2   6   0.0129   0.0146   0.0477  -0.0109   0.0203  -0.0229   0.00    0.0
2024/04/03 17:19:31.000   28.479557561  -16.320381650   607.7122   2   6   0.0129   0.0146   0.0477  -0.0109   0.0203  -0.0229   1.00    0.0
2024/04/03 17:19:32.000   28.479557561  -16.320381651   607.7117   2   6   0.0129   0.0146   0.0477  -0.0109   0.0203  -0.0229   2.00    0.0
2024/04/03 17:19:33.000   28.479557560  -16.320381653   607.7112   2   6   0.0129   0.0146   0.0477  -0.0109   0.0203  -0.0229   3.00    0.0
2024/04/03 17:19:34.000   28.479557559  -16.320381653   607.7108   2   6   0.0129   0.0146   0.0477  -0.0109   0.0203  -0.0229   4.00    0.0
2024/04/03 17:19:35.000   28.479557558  -16.320381653   607.7104   2   6   0.0129   0.0146   0.0477  -0.0109   0.0203  -0.0229   5.00    0.0
2024/04/03 17:19:36.000   28.479557558  -16.320381654   607.7102   2   6   0.0129   0.0146   0.0477  -0.0109   0.0203  -0.0229   6.00    0.0
2024/04/03 17:19:37.000   28.479557557  -16.320381654   607.7100   2   6   0.0129   0.0146   0.0477  -0.0109   0.0203  -0.0229   7.00    0.0
2024/04/03 17:19:38.000   28.479557556  -16.320381654   607.7100   2   6   0.0129   0.0146   0.0477  -0.0109   0.0203  -0.0229   8.00    0.0
2024/04/03 17:19:39.000   28.479557556  -16.320381654   607.7098   2   6   0.0129   0.0146   0.0477  -0.0109   0.0203  -0.0229   9.00    0.0
2024/04/03 17:19:40.000   28.479557555  -16.320381654   607.7098   2   6   0.0129   0.0146   0.0477  -0.0109   0.0203  -0.0229  10.00    0.0
2024/04/03 17:19:41.000   28.479557555  -16.320381655   607.7097   2   6   0.0129   0.0146   0.0477  -0.0109   0.0203  -0.0229  11.00    0.0
2024/04/03 17:19:42.000   28.479557555  -16.320381655   607.7098   2   6   0.0129   0.0146   0.0477  -0.0109   0.0203  -0.0229  12.00    0.0
2024/04/03 17:19:43.000   28.479557554  -16.320381655   607.7098   2   6   0.0129   0.0146   0.0477  -0.0109   0.0203  -0.0229  13.00    0.0
2024/04/03 17:19:44.000   28.479557554  -16.320381655   607.7099   2   6   0.0129   0.0146   0.0477  -0.0109   0.0203  -0.0229  14.00    0.0
2024/04/03 17:19:45.000   28.479557554  -16.320381655   607.7099   2   6   0.0129   0.0146   0.0476  -0.0109   0.0203  -0.0229 -15.00    0.0
2024/04/03 17:19:46.000   28.479557553  -16.320381656   607.7100   2   6   0.0129   0.0145   0.0476  -0.0109   0.0202  -0.0229 -14.00    0.0
2024/04/03 17:19:47.000   28.479557553  -16.320381656   607.7101   2   6   0.0129   0.0145   0.0476  -0.0109   0.0202  -0.0228 -13.00    0.0
2024/04/03 17:19:48.000   28.479557552  -16.320381656   607.7102   2   6   0.0129   0.0145   0.0476  -0.0109   0.0202  -0.0228 -12.00    0.0
2024/04/03 17:19:49.000   28.479557552  -16.320381656   607.7103   2   6   0.0129   0.0145   0.0476  -0.0109   0.0202  -0.0228 -11.00    0.0
2024/04/03 17:19:50.000   28.479557551  -16.320381656   607.7104   2   6   0.0129   0.0145   0.0476  -0.0109   0.0202  -0.0228 -10.00    0.0
2024/04/03 17:19:51.000   28.479557551  -16.320381656   607.7104   2   6   0.0129   0.0145   0.0476  -0.0109   0.0202  -0.0228  -9.00    0.0
2024/04/03 17:19:52.000   28.479557550  -16.320381656   607.7104   2   6   0.0129   0.0145   0.0476  -0.0109   0.0202  -0.0228  -8.00    0.0
2024/04/03 17:19:53.000   28.479557550  -16.320381656   607.7104   2   6   0.0129   0.0145   0.0476  -0.0109   0.0202  -0.0228  -7.00    0.0
2024/04/03 17:19:54.000   28.479557549  -16.320381656   607.7103   2   6   0.0129   0.0145   0.0476  -0.0109   0.0202  -0.0228  -6.00    0.0
2024/04/03 17:19:55.000   28.479557548  -16.320381656   607.7102   2   6   0.0129   0.0145   0.0476  -0.0109   0.0202  -0.0228  -5.00    0.0
2024/04/03 17:19:56.000   28.479557547  -16.320381656   607.7101   2   6   0.0129   0.0145   0.0476  -0.0109   0.0202  -0.0228  -4.00    0.0
2024/04/03 17:19:57.000   28.479557546  -16.320381656   607.7100   2   6   0.0129   0.0145   0.0476  -0.0109   0.0202  -0.0228  -3.00    0.0
2024/04/03 17:19:58.000   28.479557545  -16.320381655   607.7099   2   6   0.0129   0.0145   0.0476  -0.0109   0.0202  -0.0228  -2.00    0.0
2024/04/03 17:19:59.000   28.479557544  -16.320381654   607.7097   2   6   0.0129   0.0145   0.0476  -0.0109   0.0202  -0.0228  -1.00    0.0
2024/04/03 17:20:00.000   28.479557543  -16.320381653   607.7095   2   6   0.0129   0.0145   0.0476  -0.0109   0.0202  -0.0228   0.00    0.0
2024/04/03 17:20:01.000   28.479557542  -16.320381651   607.7092   2   6   0.0129   0.0145   0.0476  -0.0109   0.0202  -0.0228   1.00    0.0
2024/04/03 17:20:02.000   28.479557541  -16.320381649   607.7089   2   6   0.0129   0.0145   0.0476  -0.0109   0.0202  -0.0228   2.00    0.0
2024/04/03 17:20:03.000   28.479557540  -16.320381648   607.7087   2   6   0.0129   0.0146   0.0476  -0.0108   0.0202  -0.0228   3.00    0.0
2024/04/03 17:20:04.000   28.479557539  -16.320381646   607.7085   2   6   0.0129   0.0146   0.0476  -0.0108   0.0202  -0.0228   4.00    0.0
2024/04/03 17:20:05.000   28.479557538  -16.320381645   607.7083   2   6   0.0129   0.0146   0.0476  -0.0108   0.0202  -0.0228   5.00    0.0
2024/04/03 17:20:06.000   28.479557537  -16.320381644   607.7082   2   6   0.0129   0.0146   0.0476  -0.0108   0.0202  -0.0228   6.00    0.0
2024/04/03 17:20:07.000   28.479557537  -16.320381644   607.7082   2   6   0.0129   0.0146   0.0476  -0.0108   0.0202  -0.0228   7.00    0.0
2024/04/03 17:20:08.000   28.479557536  -16.320381643   607.7082   2   6   0.0129   0.0146   0.0476  -0.0108   0.0202  -0.0228   8.00    0.0
2024/04/03 17:20:09.000   28.479557536  -16.320381642   607.7081   2   6   0.0129   0.0146   0.0476  -0.0108   0.0202  -0.0228   9.00    0.0
2024/04/03 17:20:10.000   28.479557536  -16.320381642   607.7081   2   6   0.0129   0.0145   0.0476  -0.0108   0.0202  -0.0228  10.00    0.0
2024/04/03 17:20:11.000   28.479557535  -16.320381641   607.7080   2   6   0.0129   0.0145   0.0476  -0.0108   0.0202  -0.0228  11.00    0.0
2024/04/03 17:20:12.000   28.479557535  -16.320381641   607.7079   2   6   0.0129   0.0145   0.0476  -0.0108   0.0202  -0.0228  12.00    0.0
2024/04/03 17:20:13.000   28.479557535  -16.320381641   607.7079   2   6   0.0129   0.0145   0.0476  -0.0108   0.0202  -0.0228  13.00    0.0
2024/04/03 17:20:14.000   28.479557535  -16.320381640   607.7078   2   6   0.0129   0.0145   0.0476  -0.0108   0.0202  -0.0228  14.00    0.0
2024/04/03 17:20:15.000   28.479557535  -16.320381640   607.7077   2   6   0.0129   0.0145   0.0476  -0.0108   0.0202  -0.0228 -15.00    0.0
2024/04/03 17:20:16.000   28.479557535  -16.320381640   607.7077   2   6   0.0129   0.0145   0.0476  -0.0108   0.0202  -0.0228 -14.00    0.0
2024/04/03 17:20:17.000   28.479557535  -16.320381640   607.7076   2   6   0.0129   0.0145   0.0476  -0.0108   0.0202  -0.0228 -13.00    0.0
2024/04/03 17:20:18.000   28.479557535  -16.320381639   607.7074   2   6   0.0129   0.0145   0.0476  -0.0108   0.0202  -0.0228 -12.00    0.0
2024/04/03 17:20:19.000   28.479557535  -16.320381639   607.7073   2   6   0.0129   0.0145   0.0476  -0.0108   0.0202  -0.0228 -11.00    0.0
2024/04/03 17:20:20.000   28.479557535  -16.320381639   607.7072   2   6   0.0129   0.0145   0.0476  -0.0108   0.0202  -0.0228 -10.00    0.0
2024/04/03 17:20:21.000   28.479557535  -16.320381638   607.7071   2   6   0.0129   0.0145   0.0476  -0.0108   0.0202  -0.0228  -9.00    0.0
2024/04/03 17:20:22.000   28.479557536  -16.320381638   607.7069   2   6   0.0129   0.0145   0.0476  -0.0108   0.0202  -0.0228  -8.00    0.0
2024/04/03 17:20:23.000   28.479557536  -16.320381637   607.7068   2   6   0.0129   0.0145   0.0476  -0.0108   0.0202  -0.0228  -7.00    0.0
2024/04/03 17:20:24.000   28.479557536  -16.320381636   607.7065   2   6   0.0129   0.0145   0.0476  -0.0108   0.0202  -0.0228  -6.00    0.0
2024/04/03 17:20:25.000   28.479557536  -16.320381634   607.7063   2   6   0.0129   0.0145   0.0476  -0.0108   0.0202  -0.0228  -5.00    0.0
2024/04/03 17:20:26.000   28.479557536  -16.320381632   607.7060   2   6   0.0129   0.0145   0.0476  -0.0108   0.0202  -0.0228  -4.00    0.0
2024/04/03 17:20:27.000   28.479557536  -16.320381630   607.7056   2   6   0.0129   0.0145   0.0476  -0.0108   0.0202  -0.0228  -3.00    0.0
2024/04/03 17:20:28.000   28.479557536  -16.320381628   607.7053   2   6   0.0129   0.0145   0.0476  -0.0108   0.0202  -0.0228  -2.00    0.0
2024/04/03 17:20:29.000   28.479557535  -16.320381626   607.7052   2   6   0.0129   0.0145   0.0476  -0.0108   0.0202  -0.0228  -1.00    0.0
2024/04/03 17:20:30.000   28.479557535  -16.320381623   607.7052   2   6   0.0129   0.0145   0.0476  -0.0108   0.0202  -0.0228   0.00    0.0
2024/04/03 17:20:31.000   28.479557534  -16.320381621   607.7051   2   6   0.0129   0.0145   0.0476  -0.0108   0.0202  -0.0228   1.00    0.0
2024/04/03 17:20:32.000   28.479557534  -16.320381618   607.7048   2   6   0.0129   0.0145   0.0476  -0.0108   0.0202  -0.0228   2.00    0.0
2024/04/03 17:20:33.000   28.479557533  -16.320381615   607.7046   2   6   0.0129   0.0145   0.0476  -0.0108   0.0202  -0.0228   3.00    0.0
2024/04/03 17:20:34.000   28.479557532  -16.320381613   607.7044   2   6   0.0129   0.0145   0.0476  -0.0108   0.0202  -0.0228   4.00    0.0
2024/04/03 17:20:35.000   28.479557531  -16.320381612   607.7044   2   6   0.0129   0.0145   0.0476  -0.0108   0.0202  -0.0228   5.00    0.0
2024/04/03 17:20:36.000   28.479557531  -16.320381611   607.7044   2   6   0.0129   0.0145   0.0476  -0.0108   0.0201  -0.0228   6.00    0.0
2024/04/03 17:20:37.000   28.479557530  -16.320381611   607.7044   2   6   0.0129   0.0145   0.0476  -0.0108   0.0201  -0.0228   7.00    0.0
2024/04/03 17:20:38.000   28.479557530  -16.320381610   607.7043   2   6   0.0129   0.0145   0.0476  -0.0108   0.0201  -0.0228   8.00    0.0
2024/04/03 17:20:39.000   28.479557530  -16.320381610   607.7043   2   6   0.0129   0.0145   0.0476  -0.0108   0.0201  -0.0228   9.00    0.0
2024/04/03 17:20:40.000   28.479557529  -16.320381610   607.7043   2   6   0.0129   0.0145   0.0476  -0.0108   0.0201  -0.0228  10.00    0.0
2024/04/03 17:20:41.000   28.479557529  -16.320381609   607.7044   2   6   0.0129   0.0145   0.0476  -0.0108   0.0201  -0.0228  11.00    0.0
2024/04/03 17:20:42.000   28.479557529  -16.320381609   607.7044   2   6   0.0129   0.0145   0.0476  -0.0108   0.0201  -0.0228  12.00    0.0
2024/04/03 17:20:43.000   28.479557528  -16.320381609   607.7044   2   6   0.0129   0.0145   0.0476  -0.0108   0.0201  -0.0228  13.00    0.0
2024/04/03 17:20:44.000   28.479557528  -16.320381609   607.7044   2   6   0.0129   0.0145   0.0476  -0.0108   0.0201  -0.0228  14.00    0.0
2024/04/03 17:20:45.000   28.479557528  -16.320381609   607.7044   2   6   0.0129   0.0145   0.0476  -0.0108   0.0201  -0.0228 -15.00    0.0
2024/04/03 17:20:46.000   28.479557528  -16.320381609   607.7044   2   6   0.0129   0.0145   0.0476  -0.0108   0.0201  -0.0228 -14.00    0.0
2024/04/03 17:20:47.000   28.479557528  -16.320381609   607.7044   2   6   0.0129   0.0145   0.0476  -0.0108   0.0201  -0.0228 -13.00    0.0
2024/04/03 17:20:48.000   28.479557528  -16.320381609   607.7044   2   6   0.0129   0.0145   0.0476  -0.0108   0.0201  -0.0228 -12.00    0.0
2024/04/03 17:20:49.000   28.479557527  -16.320381609   607.7045   2   6   0.0129   0.0145   0.0476  -0.0108   0.0201  -0.0228 -11.00    0.0
2024/04/03 17:20:50.000   28.479557527  -16.320381609   607.7045   2   6   0.0129   0.0145   0.0476  -0.0108   0.0201  -0.0228 -10.00    0.0
2024/04/03 17:20:51.000   28.479557527  -16.320381609   607.7045   2   6   0.0129   0.0145   0.0476  -0.0108   0.0201  -0.0228  -9.00    0.0
2024/04/03 17:20:52.000   28.479557527  -16.320381609   607.7044   2   6   0.0129   0.0145   0.0476  -0.0108   0.0201  -0.0228  -8.00    0.0
2024/04/03 17:20:53.000   28.479557527  -16.320381608   607.7044   2   6   0.0129   0.0145   0.0476  -0.0108   0.0201  -0.0228  -7.00    0.0
2024/04/03 17:20:54.000   28.479557526  -16.320381608   607.7045   2   6   0.0129   0.0145   0.0476  -0.0108   0.0201  -0.0228  -6.00    0.0
2024/04/03 17:20:55.000   28.479557526  -16.320381607   607.7044   2   6   0.0129   0.0145   0.0476  -0.0108   0.0201  -0.0228  -5.00    0.0
2024/04/03 17:20:56.000   28.479557526  -16.320381607   607.7043   2   6   0.0129   0.0145   0.0476  -0.0108   0.0201  -0.0228  -4.00    0.0
2024/04/03 17:20:57.000   28.479557525  -16.320381605   607.7042   2   6   0.0129   0.0145   0.0476  -0.0108   0.0201  -0.0228  -3.00    0.0
2024/04/03 17:20:58.000   28.479557524  -16.320381604   607.7040   2   6   0.0129   0.0145   0.0476  -0.0108   0.0201  -0.0228  -2.00    0.0
2024/04/03 17:20:59.000   28.479557523  -16.320381602   607.7038   2   6   0.0129   0.0145   0.0476  -0.0108   0.0201  -0.0228  -1.00    1.2
2024/04/03 17:21:00.000   28.479557523  -16.320381601   607.7036   2   6   0.0129   0.0145   0.0476  -0.0108   0.0201  -0.0228   0.00    1.1
2024/04/03 17:21:01.000   28.479557522  -16.320381599   607.7034   2   6   0.0129   0.0145   0.0476  -0.0108   0.0201  -0.0227   1.00    1.1
2024/04/03 17:21:02.000   28.479557522  -16.320381598   607.7032   2   6   0.0129   0.0145   0.0476  -0.0108   0.0201  -0.0227   2.00    1.1
2024/04/03 17:21:03.000   28.479557521  -16.320381597   607.7030   2   6   0.0129   0.0145   0.0476  -0.0108   0.0201  -0.0227   3.00    1.0
2024/04/03 17:21:04.000   28.479557521  -16.320381596   607.7027   2   6   0.0129   0.0146   0.0476  -0.0108   0.0201  -0.0227   4.00    1.2
2024/04/03 17:21:05.000   28.479557520  -16.320381596   607.7025   2   6   0.0129   0.0146   0.0476  -0.0108   0.0201  -0.0227   5.00    1.0
2024/04/03 17:21:06.000   28.479557520  -16.320381596   607.7023   2   6   0.0129   0.0146   0.0476  -0.0108   0.0201  -0.0227   6.00    1.2
2024/04/03 17:21:07.000   28.479557520  -16.320381596   607.7021   2   6   0.0129   0.0146   0.0476  -0.0108   0.0201  -0.0227   7.00    1.1
2024/04/03 17:21:08.000   28.479557520  -16.320381596   607.7020   2   6   0.0129   0.0146   0.0476  -0.0108   0.0201  -0.0227   8.00    1.1
2024/04/03 17:21:09.000   28.479557520  -16.320381596   607.7020   2   6   0.0129   0.0146   0.0476  -0.0108   0.0201  -0.0227   9.00    1.1
2024/04/03 17:21:10.000   28.479557520  -16.320381596   607.7019   2   6   0.0129   0.0146   0.0476  -0.0108   0.0201  -0.0227  10.00    1.3
2024/04/03 17:21:11.000   28.479557520  -16.320381596   607.7019   2   6   0.0129   0.0145   0.0476  -0.0108   0.0201  -0.0227  11.00    1.1
2024/04/03 17:21:12.000   28.479557520  -16.320381597   607.7018   2   6   0.0129   0.0145   0.0476  -0.0108   0.0201  -0.0227  12.00    1.0
2024/04/03 17:21:13.000   28.479557520  -16.320381597   607.7018   2   6   0.0129   0.0145   0.0475  -0.0108   0.0201  -0.0227  13.00    1.1
2024/04/03 17:21:14.000   28.479557519  -16.320381597   607.7017   2   6   0.0129   0.0145   0.0475  -0.0108   0.0201  -0.0227  14.00    1.2
2024/04/03 17:21:15.000   28.479557519  -16.320381597   607.7017   2   6   0.0129   0.0145   0.0475  -0.0108   0.0201  -0.0227 -15.00    1.1
2024/04/03 17:21:16.000   28.479557519  -16.320381597   607.7016   2   6   0.0129   0.0145   0.0475  -0.0108   0.0201  -0.0227 -14.00    1.2
2024/04/03 17:21:17.000   28.479557519  -16.320381598   607.7016   2   6   0.0129   0.0145   0.0475  -0.0108   0.0201  -0.0227 -13.00    1.1
2024/04/03 17:21:18.000   28.479557520  -16.320381598   607.7015   2   6   0.0129   0.0145   0.0475  -0.0108   0.0201  -0.0227 -12.00    1.2
2024/04/03 17:21:19.000   28.479557520  -16.320381598   607.7014   2   6   0.0129   0.0145   0.0475  -0.0108   0.0201  -0.0227 -11.00    1.1
2024/04/03 17:21:20.000   28.479557519  -16.320381598   607.7013   2   6   0.0129   0.0145   0.0475  -0.0108   0.0201  -0.0227 -10.00    1.2
2024/04/03 17:21:21.000   28.479557519  -16.320381599   607.7012   2   6   0.0129   0.0145   0.0475  -0.0108   0.0201  -0.0227  -9.00    1.2
2024/04/03 17:21:22.000   28.479557519  -16.320381599   607.7011   2   6   0.0129   0.0145   0.0475  -0.0108   0.0201  -0.0227  -8.00    1.3
2024/04/03 17:21:23.000   28.479557519  -16.320381599   607.7010   2   6   0.0129   0.0145   0.0475  -0.0108   0.0201  -0.0227  -7.00    1.2
2024/04/03 17:21:24.000   28.479557519  -16.320381599   607.7009   2   6   0.0129   0.0145   0.0475  -0.0108   0.0201  -0.0227  -6.00    1.0
2024/04/03 17:21:25.000   28.479557519  -16.320381599   607.7006   2   6   0.0129   0.0145   0.0475  -0.0108   0.0201  -0.0227  -5.00    1.2
2024/04/03 17:21:26.000   28.479557520  -16.320381599   607.7003   2   6   0.0129   0.0145   0.0475  -0.0108   0.0201  -0.0227  -4.00    1.1
2024/04/03 17:21:27.000   28.479557519  -16.320381599   607.6998   2   6   0.0129   0.0145   0.0475  -0.0108   0.0201  -0.0227  -3.00    1.2
2024/04/03 17:21:28.000   28.479557519  -16.320381599   607.6994   2   6   0.0129   0.0145   0.0475  -0.0108   0.0201  -0.0227  -2.00    1.2
2024/04/03 17:21:29.000   28.479557518  -16.320381600   607.6990   2   6   0.0129   0.0145   0.0475  -0.0108   0.0201  -0.0227  -1.00    1.2
2024/04/03 17:21:30.000   28.479557518  -16.320381600   607.6987   2   6   0.0129   0.0145   0.0475  -0.0108   0.0201  -0.0227   0.00    1.2
2024/04/03 17:21:31.000   28.479557517  -16.320381601   607.6984   2   6   0.0129   0.0145   0.0475  -0.0108   0.0201  -0.0227   1.00    1.2
2024/04/03 17:21:32.000   28.479557516  -16.320381602   607.6980   2   6   0.0129   0.0146   0.0475  -0.0108   0.0201  -0.0227   2.00    1.1
2024/04/03 17:21:33.000   28.479557516  -16.320381602   607.6974   2   6   0.0129   0.0146   0.0475  -0.0108   0.0200  -0.0227   3.00    1.1
2024/04/03 17:21:34.000   28.479557515  -16.320381602   607.6968   2   6   0.0129   0.0146   0.0475  -0.0108   0.0200  -0.0227   4.00    1.3
2024/04/03 17:21:35.000   28.479557515  -16.320381602   607.6962   2   6   0.0129   0.0146   0.0475  -0.0108   0.0200  -0.0227   5.00    1.0
2024/04/03 17:21:36.000   28.479557515  -16.320381602   607.6956   2   6   0.0129   0.0146   0.0475  -0.0108   0.0200  -0.0227   6.00    1.0
2024/04/03 17:21:37.000   28.479557515  -16.320381602   607.6952   2   6   0.0129   0.0146   0.0475  -0.0108   0.0200  -0.0227   7.00    1.0
2024/04/03 17:21:38.000   28.479557516  -16.320381602   607.6947   2   6   0.0129   0.0146   0.0475  -0.0108   0.0200  -0.0227   8.00    1.2
2024/04/03 17:21:39.000   28.479557516  -16.320381602   607.6945   2   6   0.0129   0.0146   0.0475  -0.0108   0.0200  -0.0227   9.00    1.0
2024/04/03 17:21:40.000   28.479557516  -16.320381603   607.6943   2   6   0.0129   0.0146   0.0475  -0.0108   0.0200  -0.0227  10.00    1.2
2024/04/03 17:21:41.000   28.479557516  -16.320381603   607.6941   2   6   0.0129   0.0146   0.0475  -0.0108   0.0200  -0.0227  11.00    1.0
2024/04/03 17:21:42.000   28.479557517  -16.320381603   607.6938   2   6   0.0129   0.0146   0.0475  -0.0108   0.0200  -0.0227  12.00    1.2
2024/04/03 17:21:43.000   28.479557517  -16.320381603   607.6937   2   6   0.0129   0.0146   0.0475  -0.0108   0.0200  -0.0227  13.00    1.1
2024/04/03 17:21:44.000   28.479557517  -16.320381604   607.6935   2   6   0.0129   0.0146   0.0475  -0.0108   0.0200  -0.0227  14.00    1.0
2024/04/03 17:21:45.000   28.479557517  -16.320381604   607.6934   2   6   0.0129   0.0146   0.0475  -0.0108   0.0200  -0.0227 -15.00    1.1
2024/04/03 17:21:46.000   28.479557517  -16.320381604   607.6934   2   6   0.0129   0.0146   0.0475  -0.0108   0.0200  -0.0227 -14.00    1.3
2024/04/03 17:21:47.000   28.479557517  -16.320381604   607.6933   2   6   0.0129   0.0146   0.0475  -0.0108   0.0200  -0.0227 -13.00    1.1
2024/04/03 17:21:48.000   28.479557516  -16.320381604   607.6932   2   6   0.0129   0.0146   0.0475  -0.0108   0.0200  -0.0227 -12.00    1.0
2024/04/03 17:21:49.000   28.479557516  -16.320381604   607.6931   2   6   0.0129   0.0145   0.0475  -0.0108   0.0200  -0.0227 -11.00    1.1
2024/04/03 17:21:50.000   28.479557516  -16.320381605   607.6931   2   6   0.0129   0.0145   0.0475  -0.0108   0.0200  -0.0227 -10.00    1.2
2024/04/03 17:21:51.000   28.479557516  -16.320381605   607.6930   2   6   0.0129   0.0145   0.0475  -0.0108   0.0200  -0.0227  -9.00    1.1
2024/04/03 17:21:52.000   28.479557515  -16.320381606   607.6930   2   6   0.0129   0.0145   0.0475  -0.0108   0.0200  -0.0227  -8.00    1.2
2024/04/03 17:21:53.000   28.479557515  -16.320381607   607.6930   2   6   0.0129   0.0145   0.0475  -0.0107   0.0200  -0.0227  -7.00    1.1
2024/04/03 17:21:54.000   28.479557514  -16.320381607   607.6930   2   6   0.0129   0.0145   0.0475  -0.0107   0.0200  -0.0227  -6.00    1.2
2024/04/03 17:21:55.000   28.479557514  -16.320381609   607.6930   2   6   0.0129   0.0145   0.0475  -0.0107   0.0200  -0.0227  -5.00    1.1
2024/04/03 17:21:56.000   28.479557513  -16.320381610   607.6928   2   6   0.0129   0.0145   0.0475  -0.0107   0.0200  -0.0227  -4.00    1.1
2024/04/03 17:21:57.000   28.479557512  -16.320381610   607.6926   2   6   0.0129   0.0145   0.0475  -0.0107   0.0200  -0.0227  -3.00    1.1
2024/04/03 17:21:58.000   28.479557511  -16.320381612   607.6923   2   6   0.0129   0.0146   0.0475  -0.0107   0.0200  -0.0227  -2.00    1.3
2024/04/03 17:21:59.000   28.479557511  -16.320381613   607.6917   2   6   0.0129   0.0146   0.0475  -0.0107   0.0200  -0.0227  -1.00    1.1
2024/04/03 17:22:00.000   28.479557509  -16.320381615   607.6913   2   6   0.0129   0.0146   0.0475  -0.0107   0.0200  -0.0227   0.00    1.0
2024/04/03 17:22:01.000   28.479557508  -16.320381617   607.6909   2   6   0.0129   0.0146   0.0475  -0.0107   0.0200  -0.0227   1.00    1.1
2024/04/03 17:22:02.000   28.479557507  -16.320381621   607.6906   2   6   0.0129   0.0146   0.0475  -0.0107   0.0200  -0.0227   2.00    1.2
2024/04/03 17:22:03.000   28.479557506  -16.320381623   607.6905   2   6   0.0129   0.0146   0.0475  -0.0107   0.0200  -0.0227   3.00    1.1
2024/04/03 17:22:04.000   28.479557505  -16.320381625   607.6903   2   6   0.0129   0.0146   0.0475  -0.0107   0.0200  -0.0227   4.00    1.1
2024/04/03 17:22:05.000   28.479557503  -16.320381626   607.6903   2   6   0.0129   0.0146   0.0475  -0.0107   0.0200  -0.0227   5.00    1.1
2024/04/03 17:22:06.000   28.479557502  -16.320381627   607.6902   2   6   0.0129   0.0146   0.0475  -0.0107   0.0200  -0.0227   6.00    1.1
2024/04/03 17:22:07.000   28.479557501  -16.320381627   607.6902   2   6   0.0129   0.0146   0.0475  -0.0107   0.0200  -0.0227   7.00    1.1
2024/04/03 17:22:08.000   28.479557500  -16.320381628   607.6901   2   6   0.0129   0.0146   0.0475  -0.0107   0.0200  -0.0227   8.00    1.0
2024/04/03 17:22:09.000   28.479557500  -16.320381629   607.6902   2   6   0.0129   0.0146   0.0475  -0.0107   0.0200  -0.0227   9.00    1.1
2024/04/03 17:22:10.000   28.479557499  -16.320381629   607.6902   2   6   0.0129   0.0146   0.0475  -0.0107   0.0200  -0.0227  10.00    1.2
2024/04/03 17:22:11.000   28.479557498  -16.320381630   607.6903   2   6   0.0129   0.0146   0.0475  -0.0107   0.0200  -0.0227  11.00    1.1
2024/04/03 17:22:12.000   28.479557498  -16.320381630   607.6904   2   6   0.0129   0.0146   0.0475  -0.0107   0.0200  -0.0227  12.00    1.0
2024/04/03 17:22:13.000   28.479557498  -16.320381631   607.6904   2   6   0.0129   0.0146   0.0475  -0.0107   0.0200  -0.0227  13.00    1.1
2024/04/03 17:22:14.000   28.479557497  -16.320381631   607.6904   2   6   0.0129   0.0146   0.0475  -0.0107   0.0200  -0.0227  14.00    1.2
2024/04/03 17:22:15.000   28.479557497  -16.320381631   607.6905   2   6   0.0129   0.0146   0.0475  -0.0107   0.0200  -0.0227 -15.00    1.1
2024/04/03 17:22:16.000   28.479557497  -16.320381631   607.6906   2   6   0.0129   0.0146   0.0475  -0.0107   0.0200  -0.0227 -14.00    1.0
2024/04/03 17:22:17.000   28.479557496  -16.320381631   607.6906   2   6   0.0129   0.0146   0.0475  -0.0107   0.0200  -0.0226 -13.00    1.1
2024/04/03 17:22:18.000   28.479557496  -16.320381632   607.6906   2   6   0.0129   0.0146   0.0475  -0.0107   0.0200  -0.0226 -12.00    1.1
2024/04/03 17:22:19.000   28.479557496  -16.320381631   607.6907   2   6   0.0129   0.0146   0.0475  -0.0107   0.0200  -0.0226 -11.00    1.1
2024/04/03 17:22:20.000   28.479557495  -16.320381632   607.6907   2   6   0.0129   0.0146   0.0475  -0.0107   0.0200  -0.0226 -10.00    1.0
2024/04/03 17:22:21.000   28.479557495  -16.320381632   607.6907   2   6   0.0129   0.0146   0.0475  -0.0107   0.0200  -0.0226  -9.00    1.1
2024/04/03 17:22:22.000   28.479557495  -16.320381632   607.6907   2   6   0.0129   0.0146   0.0475  -0.0107   0.0200  -0.0226  -8.00    1.2
2024/04/03 17:22:23.000   28.479557495  -16.320381632   607.6905   2   6   0.0129   0.0146   0.0475  -0.0107   0.0200  -0.0226  -7.00    1.1
2024/04/03 17:22:24.000   28.479557495  -16.320381632   607.6905   2   6   0.0129   0.0146   0.0475  -0.0107   0.0200  -0.0226  -6.00    1.0
2024/04/03 17:22:25.000   28.479557494  -16.320381632   607.6904   2   6   0.0129   0.0146   0.0475  -0.0107   0.0200  -0.0226  -5.00    1.1
2024/04/03 17:22:26.000   28.479557494  -16.320381632   607.6902   2   6   0.0129   0.0146   0.0475  -0.0107   0.0200  -0.0226  -4.00    1.1
2024/04/03 17:22:27.000   28.479557494  -16.320381633   607.6900   2   6   0.0129   0.0146   0.0475  -0.0107   0.0200  -0.0226  -3.00    1.1
2024/04/03 17:22:28.000   28.479557494  -16.320381633   607.6898   2   6   0.0129   0.0146   0.0475  -0.0107   0.0200  -0.0226  -2.00    1.0
2024/04/03 17:22:29.000   28.479557494  -16.320381633   607.6895   2   6   0.0129   0.0146   0.0475  -0.0107   0.0200  -0.0226  -1.00    1.1
2024/04/03 17:22:30.000   28.479557494  -16.320381633   607.6891   2   6   0.0129   0.0146   0.0475  -0.0107   0.0200  -0.0226   0.00    1.1
2024/04/03 17:22:31.000   28.479557494  -16.320381632   607.6888   2   6   0.0129   0.0146   0.0475  -0.0107   0.0200  -0.0226   1.00    1.2
2024/04/03 17:22:32.000   28.479557493  -16.320381632   607.6886   2   6   0.0129   0.0146   0.0475  -0.0107   0.0200  -0.0226   2.00    1.0
2024/04/03 17:22:33.000   28.479557493  -16.320381632   607.6884   2   6   0.0129   0.0146   0.0475  -0.0107   0.0200  -0.0226   3.00    1.2
2024/04/03 17:22:34.000   28.479557493  -16.320381632   607.6883   2   6   0.0129   0.0146   0.0475  -0.0107   0.0200  -0.0226   4.00    1.1
2024/04/03 17:22:35.000   28.479557493  -16.320381632   607.6882   2   6   0.0129   0.0146   0.0475  -0.0107   0.0199  -0.0226   5.00    1.2
2024/04/03 17:22:36.000   28.479557492  -16.320381631   607.6882   2   6   0.0129   0.0146   0.0475  -0.0107   0.0199  -0.0226   6.00    1.0
2024/04/03 17:22:37.000   28.479557493  -16.320381631   607.6881   2   6   0.0129   0.0146   0.0475  -0.0107   0.0199  -0.0226   7.00    1.2
2024/04/03 17:22:38.000   28.479557492  -16.320381631   607.6880   2   6   0.0129   0.0146   0.0475  -0.0107   0.0199  -0.0226   8.00    1.1
2024/04/03 17:22:39.000   28.479557492  -16.320381631   607.6880   2   6   0.0129   0.0146   0.0475  -0.0107   0.0199  -0.0226   9.00    1.1
2024/04/03 17:22:40.000   28.479557492  -16.320381631   607.6879   2   6   0.0129   0.0146   0.0475  -0.0107   0.0199  -0.0226  10.00    1.0
2024/04/03 17:22:41.000   28.479557492  -16.320381631   607.6879   2   6   0.0129   0.0146   0.0474  -0.0107   0.0199  -0.0226  11.00    1.1
2024/04/03 17:22:42.000   28.479557492  -16.320381630   607.6879   2   6   0.0129   0.0146   0.0474  -0.0107   0.0199  -0.0226  12.00    1.1
2024/04/03 17:22:43.000   28.479557492  -16.320381630   607.6879   2   6   0.0129   0.0146   0.0474  -0.0107   0.0199  -0.0226  13.00    1.1
2024/04/03 17:22:44.000   28.479557492  -16.320381630   607.6879   2   6   0.0129   0.0146   0.0474  -0.0107   0.0199  -0.0226  14.00    1.1
2024/04/03 17:22:45.000   28.479557492  -16.320381630   607.6879   2   6   0.0129   0.0146   0.0474  -0.0107   0.0199  -0.0226 -15.00    1.1
2024/04/03 17:22:46.000   28.479557492  -16.320381630   607.6879   2   6   0.0129   0.0146   0.0474  -0.0107   0.0199  -0.0226 -14.00    1.1
2024/04/03 17:22:47.000   28.479557492  -16.320381629   607.6880   2   6   0.0129   0.0146   0.0474  -0.0107   0.0199  -0.0226 -13.00    1.1
2024/04/03 17:22:48.000   28.479557491  -16.320381629   607.6880   2   6   0.0129   0.0146   0.0474  -0.0107   0.0199  -0.0226 -12.00    1.0
2024/04/03 17:22:49.000   28.479557492  -16.320381629   607.6880   2   6   0.0129   0.0146   0.0474  -0.0107   0.0199  -0.0226 -11.00    1.1
2024/04/03 17:22:50.000   28.479557492  -16.320381629   607.6880   2   6   0.0129   0.0146   0.0474  -0.0107   0.0199  -0.0226 -10.00    1.0
2024/04/03 17:22:51.000   28.479557492  -16.320381628   607.6880   2   6   0.0129   0.0146   0.0474  -0.0107   0.0199  -0.0226  -9.00    1.1
2024/04/03 17:22:52.000   28.479557492  -16.320381628   607.6880   2   6   0.0129   0.0146   0.0474  -0.0107   0.0199  -0.0226  -8.00    1.0
2024/04/03 17:22:53.000   28.479557492  -16.320381627   607.6880   2   6   0.0128   0.0146   0.0474  -0.0107   0.0199  -0.0226  -7.00    1.0
