% program   : RTKPOST-EX 2.5.0
% inp file  : C:\Users\SallyHenry\Desktop\Sally Internship\GNSS gravi\DATA\Survey Rover Obs\LM006.24o
% inp file  : C:\Users\SallyHenry\Desktop\Sally Internship\GNSS gravi\DATA\BaseStations\IZAN\IZAN00ESP_R_20240930000_01D_30S_MO.rnx
% inp file  : C:\Users\SallyHenry\Desktop\Sally Internship\GNSS gravi\DATA\BaseStations\IZAN\IZAN00ESP_R_20240930000_01D_MN.rnx
% inp file  : C:\Users\SallyHenry\Desktop\Sally Internship\GNSS gravi\DATA\aux_files\Survey\IGS0OPSFIN_20240930000_01D_15M_ORB.SP3
% inp file  : C:\Users\SallyHenry\Desktop\Sally Internship\GNSS gravi\DATA\aux_files\Survey\IGS0OPSFIN_20240930000_01D_30S_CLK.CLK
% obs start : 2024/04/02 15:04:53.0 GPST (week2308 227093.0s)
% obs end   : 2024/04/02 15:11:24.0 GPST (week2308 227484.0s)
% pos mode  : Static
% freqs     : L1+L2/E5b
% solution  : Combined-No Phase Reset
% elev mask : 15.0 deg
% dynamics  : on
% tidecorr  : solid
% ionos opt : Estimate TEC
% tropo opt : Estimate ZTD+Grad
% ephemeris : Precise
% navi sys  : GPS GLONASS Galileo QZSS BDS
% amb res   : Fix and Hold
% amb glo   : Fix and Hold
% amb bds   : on
% val thres : 3.0
% antenna1  :                       ( 0.0000  0.0000  1.8000)
% antenna2  :                       ( 0.0000  0.0000  0.0000)
% ref pos   :  28.308069410  -16.499677180  2417.4044
%
% (lat/lon/height=WGS84/ellipsoidal,Q=1:fix,2:float,3:sbas,4:dgps,5:single,6:ppp,ns=# of satellites)
%  GPST                  latitude(deg) longitude(deg)  height(m)   Q  ns   sdn(m)   sde(m)   sdu(m)  sdne(m)  sdeu(m)  sdun(m) age(s)  ratio
2024/04/02 15:04:53.000   28.287130390  -16.537883780  2360.0810   1   9   0.0020   0.0011   0.0175  -0.0008   0.0022  -0.0050  -7.00   68.2
2024/04/02 15:04:54.000   28.287130390  -16.537883780  2360.0807   1   9   0.0020   0.0011   0.0175  -0.0008   0.0022  -0.0050  -6.00   65.3
2024/04/02 15:04:55.000   28.287130390  -16.537883780  2360.0803   1   9   0.0020   0.0011   0.0176  -0.0008   0.0022  -0.0050  -5.00   61.9
2024/04/02 15:04:56.000   28.287130390  -16.537883780  2360.0799   1   9   0.0020   0.0011   0.0176  -0.0008   0.0022  -0.0050  -4.00   57.1
2024/04/02 15:04:57.000   28.287130391  -16.537883780  2360.0794   1   9   0.0020   0.0011   0.0177  -0.0008   0.0022  -0.0050  -3.00   49.1
2024/04/02 15:04:58.000   28.287130391  -16.537883781  2360.0786   1   9   0.0020   0.0011   0.0178  -0.0008   0.0022  -0.0051  -2.00   37.9
2024/04/02 15:04:59.000   28.287130392  -16.537883781  2360.0776   1   9   0.0020   0.0011   0.0179  -0.0008   0.0023  -0.0051  -1.00   22.4
2024/04/02 15:05:00.000   28.287130379  -16.537883776  2360.0923   1   9   0.0019   0.0011   0.0168  -0.0007   0.0020  -0.0047   0.00   94.7
2024/04/02 15:05:01.000   28.287130379  -16.537883777  2360.0911   1   9   0.0019   0.0011   0.0169  -0.0007   0.0020  -0.0047   1.00   95.9
2024/04/02 15:05:02.000   28.287130380  -16.537883777  2360.0901   1   9   0.0019   0.0011   0.0170  -0.0007   0.0021  -0.0048   2.00   96.6
2024/04/02 15:05:03.000   28.287130381  -16.537883777  2360.0893   1   9   0.0019   0.0011   0.0171  -0.0007   0.0021  -0.0048   3.00   96.8
2024/04/02 15:05:04.000   28.287130382  -16.537883777  2360.0887   1   9   0.0019   0.0011   0.0172  -0.0007   0.0021  -0.0049   4.00   96.7
2024/04/02 15:05:05.000   28.287130382  -16.537883777  2360.0880   1   9   0.0019   0.0011   0.0173  -0.0007   0.0021  -0.0049   5.00   96.5
2024/04/02 15:05:06.000   28.287130382  -16.537883777  2360.0874   1   9   0.0020   0.0011   0.0173  -0.0007   0.0021  -0.0049   6.00   96.0
2024/04/02 15:05:07.000   28.287130383  -16.537883777  2360.0869   1   9   0.0020   0.0011   0.0174  -0.0007   0.0021  -0.0049   7.00   95.5
2024/04/02 15:05:08.000   28.287130383  -16.537883777  2360.0865   1   9   0.0020   0.0011   0.0174  -0.0007   0.0021  -0.0049   8.00   94.8
2024/04/02 15:05:09.000   28.287130383  -16.537883777  2360.0862   1   9   0.0020   0.0011   0.0174  -0.0007   0.0021  -0.0049   9.00   93.9
2024/04/02 15:05:10.000   28.287130383  -16.537883777  2360.0859   1   9   0.0020   0.0011   0.0175  -0.0007   0.0021  -0.0049  10.00   93.1
2024/04/02 15:05:11.000   28.287130384  -16.537883777  2360.0857   1   9   0.0020   0.0011   0.0175  -0.0007   0.0022  -0.0049  11.00   92.2
2024/04/02 15:05:12.000   28.287130384  -16.537883777  2360.0855   1   9   0.0020   0.0011   0.0175  -0.0007   0.0022  -0.0049  12.00   91.3
2024/04/02 15:05:13.000   28.287130384  -16.537883777  2360.0853   1   9   0.0020   0.0011   0.0175  -0.0007   0.0022  -0.0050  13.00   90.3
2024/04/02 15:05:14.000   28.287130384  -16.537883777  2360.0851   1   9   0.0020   0.0011   0.0175  -0.0008   0.0022  -0.0050  14.00   89.4
2024/04/02 15:05:15.000   28.287130384  -16.537883777  2360.0849   1   9   0.0020   0.0011   0.0175  -0.0008   0.0022  -0.0050  15.00   88.5
2024/04/02 15:05:16.000   28.287130384  -16.537883777  2360.0848   1   9   0.0020   0.0011   0.0175  -0.0008   0.0022  -0.0050 -14.00   87.5
2024/04/02 15:05:17.000   28.287130384  -16.537883777  2360.0847   1   9   0.0020   0.0011   0.0175  -0.0008   0.0022  -0.0050 -13.00   86.4
2024/04/02 15:05:18.000   28.287130384  -16.537883777  2360.0845   1   9   0.0020   0.0011   0.0175  -0.0008   0.0022  -0.0050 -12.00   85.4
2024/04/02 15:05:19.000   28.287130384  -16.537883777  2360.0844   1   9   0.0020   0.0011   0.0175  -0.0008   0.0022  -0.0050 -11.00   84.2
2024/04/02 15:05:20.000   28.287130384  -16.537883777  2360.0841   1   9   0.0020   0.0011   0.0175  -0.0008   0.0022  -0.0050 -10.00   82.6
2024/04/02 15:05:21.000   28.287130385  -16.537883777  2360.0839   1   9   0.0020   0.0011   0.0176  -0.0008   0.0022  -0.0050  -9.00   81.0
2024/04/02 15:05:22.000   28.287130385  -16.537883777  2360.0835   1   9   0.0020   0.0011   0.0176  -0.0008   0.0022  -0.0050  -8.00   79.0
2024/04/02 15:05:23.000   28.287130385  -16.537883777  2360.0831   1   9   0.0020   0.0011   0.0176  -0.0008   0.0022  -0.0050  -7.00   76.6
2024/04/02 15:05:24.000   28.287130386  -16.537883777  2360.0826   1   9   0.0020   0.0011   0.0176  -0.0008   0.0022  -0.0050  -6.00   73.6
2024/04/02 15:05:25.000   28.287130386  -16.537883777  2360.0819   1   9   0.0020   0.0011   0.0177  -0.0008   0.0022  -0.0050  -5.00   69.9
2024/04/02 15:05:26.000   28.287130386  -16.537883777  2360.0812   1   9   0.0020   0.0011   0.0177  -0.0008   0.0022  -0.0050  -4.00   64.6
2024/04/02 15:05:27.000   28.287130387  -16.537883777  2360.0802   1   9   0.0020   0.0011   0.0178  -0.0008   0.0022  -0.0051  -3.00   55.1
2024/04/02 15:05:28.000   28.287130388  -16.537883778  2360.0788   1   9   0.0020   0.0011   0.0179  -0.0008   0.0023  -0.0051  -2.00   42.5
2024/04/02 15:05:29.000   28.287130389  -16.537883778  2360.0776   1   9   0.0020   0.0011   0.0180  -0.0008   0.0023  -0.0051  -1.00   25.0
2024/04/02 15:05:30.000   28.287130376  -16.537883773  2360.0927   1   9   0.0019   0.0011   0.0169  -0.0007   0.0020  -0.0047   0.00  101.6
2024/04/02 15:05:31.000   28.287130376  -16.537883773  2360.0920   1   9   0.0019   0.0011   0.0170  -0.0007   0.0021  -0.0048   1.00  101.4
2024/04/02 15:05:32.000   28.287130377  -16.537883773  2360.0913   1   9   0.0019   0.0011   0.0172  -0.0007   0.0021  -0.0048   2.00  101.4
2024/04/02 15:05:33.000   28.287130377  -16.537883774  2360.0905   1   9   0.0020   0.0011   0.0173  -0.0007   0.0021  -0.0049   3.00  101.5
2024/04/02 15:05:34.000   28.287130378  -16.537883774  2360.0899   1   9   0.0020   0.0011   0.0174  -0.0007   0.0021  -0.0049   4.00  101.1
2024/04/02 15:05:35.000   28.287130378  -16.537883774  2360.0894   1   9   0.0020   0.0011   0.0174  -0.0007   0.0021  -0.0049   5.00  101.0
2024/04/02 15:05:36.000   28.287130379  -16.537883774  2360.0889   1   9   0.0020   0.0011   0.0175  -0.0007   0.0021  -0.0049   6.00  100.7
2024/04/02 15:05:37.000   28.287130379  -16.537883774  2360.0884   1   9   0.0020   0.0011   0.0175  -0.0007   0.0022  -0.0049   7.00  100.4
2024/04/02 15:05:38.000   28.287130379  -16.537883774  2360.0881   1   9   0.0020   0.0011   0.0176  -0.0008   0.0022  -0.0050   8.00   99.6
2024/04/02 15:05:39.000   28.287130379  -16.537883774  2360.0878   1   9   0.0020   0.0011   0.0176  -0.0008   0.0022  -0.0050   9.00   98.9
2024/04/02 15:05:40.000   28.287130379  -16.537883775  2360.0875   1   9   0.0020   0.0011   0.0176  -0.0008   0.0022  -0.0050  10.00   98.1
2024/04/02 15:05:41.000   28.287130380  -16.537883775  2360.0873   1   9   0.0020   0.0011   0.0176  -0.0008   0.0022  -0.0050  11.00   97.2
2024/04/02 15:05:42.000   28.287130380  -16.537883775  2360.0871   1   9   0.0020   0.0011   0.0176  -0.0008   0.0022  -0.0050  12.00   96.3
2024/04/02 15:05:43.000   28.287130380  -16.537883775  2360.0869   1   9   0.0020   0.0011   0.0176  -0.0008   0.0022  -0.0050  13.00   95.4
2024/04/02 15:05:44.000   28.287130380  -16.537883775  2360.0868   1   9   0.0020   0.0011   0.0176  -0.0008   0.0022  -0.0050  14.00   94.6
2024/04/02 15:05:45.000   28.287130380  -16.537883775  2360.0867   1   9   0.0020   0.0011   0.0176  -0.0008   0.0022  -0.0050  15.00   93.5
2024/04/02 15:05:46.000   28.287130380  -16.537883775  2360.0866   1   9   0.0020   0.0011   0.0177  -0.0008   0.0022  -0.0050 -14.00   92.4
2024/04/02 15:05:47.000   28.287130380  -16.537883775  2360.0865   1   9   0.0020   0.0011   0.0177  -0.0008   0.0022  -0.0050 -13.00   91.2
2024/04/02 15:05:48.000   28.287130380  -16.537883775  2360.0864   1   9   0.0020   0.0011   0.0177  -0.0008   0.0022  -0.0050 -12.00   89.8
2024/04/02 15:05:49.000   28.287130380  -16.537883775  2360.0863   1   9   0.0020   0.0011   0.0177  -0.0008   0.0022  -0.0050 -11.00   88.2
2024/04/02 15:05:50.000   28.287130380  -16.537883775  2360.0862   1   9   0.0020   0.0011   0.0177  -0.0008   0.0022  -0.0050 -10.00   86.3
2024/04/02 15:05:51.000   28.287130380  -16.537883775  2360.0861   1   9   0.0020   0.0011   0.0177  -0.0008   0.0022  -0.0050  -9.00   84.2
2024/04/02 15:05:52.000   28.287130380  -16.537883775  2360.0859   1   9   0.0020   0.0011   0.0177  -0.0008   0.0022  -0.0050  -8.00   81.7
2024/04/02 15:05:53.000   28.287130380  -16.537883775  2360.0857   1   9   0.0020   0.0011   0.0177  -0.0008   0.0022  -0.0050  -7.00   79.0
2024/04/02 15:05:54.000   28.287130381  -16.537883775  2360.0854   1   9   0.0020   0.0011   0.0178  -0.0008   0.0022  -0.0050  -6.00   75.5
2024/04/02 15:05:55.000   28.287130381  -16.537883775  2360.0850   1   9   0.0020   0.0011   0.0178  -0.0008   0.0022  -0.0051  -5.00   71.3
2024/04/02 15:05:56.000   28.287130381  -16.537883775  2360.0846   1   9   0.0020   0.0011   0.0179  -0.0008   0.0023  -0.0051  -4.00   63.6
2024/04/02 15:05:57.000   28.287130382  -16.537883775  2360.0838   1   9   0.0020   0.0011   0.0180  -0.0008   0.0023  -0.0051  -3.00   53.9
2024/04/02 15:05:58.000   28.287130383  -16.537883775  2360.0828   1   9   0.0020   0.0011   0.0181  -0.0008   0.0023  -0.0051  -2.00   41.3
2024/04/02 15:05:59.000   28.287130384  -16.537883775  2360.0815   1   9   0.0020   0.0011   0.0182  -0.0008   0.0023  -0.0052  -1.00   24.3
2024/04/02 15:06:00.000   28.287130372  -16.537883771  2360.0952   1   9   0.0019   0.0011   0.0171  -0.0007   0.0021  -0.0048   0.00  103.2
2024/04/02 15:06:01.000   28.287130373  -16.537883771  2360.0940   1   9   0.0019   0.0011   0.0172  -0.0007   0.0021  -0.0048   1.00  103.1
2024/04/02 15:06:02.000   28.287130373  -16.537883771  2360.0934   1   9   0.0020   0.0011   0.0173  -0.0007   0.0021  -0.0049   2.00  102.1
2024/04/02 15:06:03.000   28.287130374  -16.537883771  2360.0925   1   9   0.0020   0.0011   0.0174  -0.0007   0.0021  -0.0049   3.00  101.3
2024/04/02 15:06:04.000   28.287130375  -16.537883771  2360.0918   1   9   0.0020   0.0011   0.0175  -0.0007   0.0022  -0.0049   4.00  100.3
2024/04/02 15:06:05.000   28.287130375  -16.537883771  2360.0914   1   9   0.0020   0.0011   0.0176  -0.0008   0.0022  -0.0050   5.00   99.3
2024/04/02 15:06:06.000   28.287130376  -16.537883771  2360.0908   1   9   0.0020   0.0011   0.0176  -0.0008   0.0022  -0.0050   6.00   98.3
2024/04/02 15:06:07.000   28.287130376  -16.537883771  2360.0905   1   9   0.0020   0.0011   0.0177  -0.0008   0.0022  -0.0050   7.00   97.1
2024/04/02 15:06:08.000   28.287130376  -16.537883771  2360.0902   1   9   0.0020   0.0011   0.0177  -0.0008   0.0022  -0.0050   8.00   96.1
2024/04/02 15:06:09.000   28.287130376  -16.537883771  2360.0900   1   9   0.0020   0.0011   0.0177  -0.0008   0.0022  -0.0050   9.00   95.0
2024/04/02 15:06:10.000   28.287130376  -16.537883771  2360.0898   1   9   0.0020   0.0011   0.0178  -0.0008   0.0022  -0.0050  10.00   93.9
2024/04/02 15:06:11.000   28.287130377  -16.537883771  2360.0897   1   9   0.0020   0.0011   0.0178  -0.0008   0.0022  -0.0050  11.00   92.8
2024/04/02 15:06:12.000   28.287130377  -16.537883771  2360.0895   1   9   0.0020   0.0011   0.0178  -0.0008   0.0022  -0.0050  12.00   91.7
2024/04/02 15:06:13.000   28.287130377  -16.537883771  2360.0894   1   9   0.0020   0.0011   0.0178  -0.0008   0.0022  -0.0050  13.00   90.6
2024/04/02 15:06:14.000   28.287130377  -16.537883771  2360.0893   1   9   0.0020   0.0011   0.0178  -0.0008   0.0022  -0.0050  14.00   89.6
2024/04/02 15:06:15.000   28.287130377  -16.537883771  2360.0892   1   9   0.0020   0.0011   0.0178  -0.0008   0.0022  -0.0050  15.00   88.6
2024/04/02 15:06:16.000   28.287130377  -16.537883771  2360.0891   1   9   0.0020   0.0011   0.0178  -0.0008   0.0022  -0.0050 -14.00   87.6
2024/04/02 15:06:17.000   28.287130377  -16.537883771  2360.0891   1   9   0.0020   0.0011   0.0178  -0.0008   0.0022  -0.0050 -13.00   86.5
2024/04/02 15:06:18.000   28.287130377  -16.537883771  2360.0890   1   9   0.0020   0.0011   0.0178  -0.0008   0.0022  -0.0050 -12.00   85.5
2024/04/02 15:06:19.000   28.287130377  -16.537883771  2360.0888   1   9   0.0020   0.0011   0.0178  -0.0008   0.0022  -0.0050 -11.00   84.4
2024/04/02 15:06:20.000   28.287130377  -16.537883771  2360.0887   1   9   0.0020   0.0011   0.0178  -0.0008   0.0022  -0.0050 -10.00   82.7
2024/04/02 15:06:21.000   28.287130377  -16.537883771  2360.0885   1   9   0.0020   0.0011   0.0179  -0.0008   0.0023  -0.0051  -9.00   80.7
2024/04/02 15:06:22.000   28.287130378  -16.537883772  2360.0883   1   9   0.0020   0.0011   0.0179  -0.0008   0.0023  -0.0051  -8.00   78.4
2024/04/02 15:06:23.000   28.287130378  -16.537883772  2360.0881   1   9   0.0020   0.0011   0.0179  -0.0008   0.0023  -0.0051  -7.00   75.5
2024/04/02 15:06:24.000   28.287130378  -16.537883772  2360.0877   1   9   0.0020   0.0011   0.0179  -0.0008   0.0023  -0.0051  -6.00   72.1
2024/04/02 15:06:25.000   28.287130378  -16.537883772  2360.0872   1   9   0.0020   0.0011   0.0180  -0.0008   0.0023  -0.0051  -5.00   68.0
2024/04/02 15:06:26.000   28.287130379  -16.537883772  2360.0866   1   9   0.0020   0.0011   0.0181  -0.0008   0.0023  -0.0051  -4.00   62.5
2024/04/02 15:06:27.000   28.287130380  -16.537883772  2360.0858   1   9   0.0020   0.0011   0.0181  -0.0008   0.0023  -0.0051  -3.00   53.0
2024/04/02 15:06:28.000   28.287130380  -16.537883772  2360.0850   1   9   0.0020   0.0011   0.0182  -0.0008   0.0023  -0.0052  -2.00   40.2
2024/04/02 15:06:29.000   28.287130382  -16.537883773  2360.0836   1   9   0.0021   0.0011   0.0184  -0.0008   0.0024  -0.0052  -1.00   23.5
2024/04/02 15:06:30.000   28.287130365  -16.537883767  2360.1011   1   9   0.0020   0.0011   0.0172  -0.0007   0.0021  -0.0048   0.00   88.5
2024/04/02 15:06:31.000   28.287130366  -16.537883767  2360.0999   1   9   0.0020   0.0011   0.0173  -0.0007   0.0021  -0.0049   1.00   88.7
2024/04/02 15:06:32.000   28.287130368  -16.537883768  2360.0987   1   9   0.0020   0.0011   0.0175  -0.0007   0.0021  -0.0049   2.00   88.9
2024/04/02 15:06:33.000   28.287130369  -16.537883768  2360.0973   1   9   0.0020   0.0011   0.0176  -0.0008   0.0022  -0.0049   3.00   89.6
2024/04/02 15:06:34.000   28.287130370  -16.537883768  2360.0963   1   9   0.0020   0.0011   0.0177  -0.0008   0.0022  -0.0050   4.00   89.5
2024/04/02 15:06:35.000   28.287130371  -16.537883768  2360.0952   1   9   0.0020   0.0011   0.0177  -0.0008   0.0022  -0.0050   5.00   90.0
2024/04/02 15:06:36.000   28.287130372  -16.537883769  2360.0942   1   9   0.0020   0.0011   0.0178  -0.0008   0.0022  -0.0050   6.00   90.5
2024/04/02 15:06:37.000   28.287130373  -16.537883769  2360.0934   1   9   0.0020   0.0011   0.0178  -0.0008   0.0022  -0.0050   7.00   90.6
2024/04/02 15:06:38.000   28.287130373  -16.537883769  2360.0928   1   9   0.0020   0.0011   0.0179  -0.0008   0.0022  -0.0050   8.00   90.5
2024/04/02 15:06:39.000   28.287130374  -16.537883769  2360.0923   1   9   0.0020   0.0011   0.0179  -0.0008   0.0022  -0.0051   9.00   90.2
2024/04/02 15:06:40.000   28.287130374  -16.537883769  2360.0919   1   9   0.0020   0.0011   0.0179  -0.0008   0.0022  -0.0051  10.00   89.8
2024/04/02 15:06:41.000   28.287130374  -16.537883769  2360.0915   1   9   0.0020   0.0011   0.0179  -0.0008   0.0023  -0.0051  11.00   89.2
2024/04/02 15:06:42.000   28.287130374  -16.537883769  2360.0912   1   9   0.0020   0.0011   0.0180  -0.0008   0.0023  -0.0051  12.00   88.6
2024/04/02 15:06:43.000   28.287130375  -16.537883769  2360.0909   1   9   0.0020   0.0011   0.0180  -0.0008   0.0023  -0.0051  13.00   87.8
2024/04/02 15:06:44.000   28.287130375  -16.537883769  2360.0907   1   9   0.0020   0.0011   0.0180  -0.0008   0.0023  -0.0051  14.00   87.0
2024/04/02 15:06:45.000   28.287130375  -16.537883769  2360.0905   1   9   0.0020   0.0011   0.0180  -0.0008   0.0023  -0.0051  15.00   86.2
2024/04/02 15:06:46.000   28.287130375  -16.537883769  2360.0902   1   9   0.0020   0.0011   0.0180  -0.0008   0.0023  -0.0051 -14.00   85.4
2024/04/02 15:06:47.000   28.287130375  -16.537883770  2360.0900   1   9   0.0020   0.0011   0.0180  -0.0008   0.0023  -0.0051 -13.00   84.6
2024/04/02 15:06:48.000   28.287130376  -16.537883770  2360.0898   1   9   0.0020   0.0011   0.0180  -0.0008   0.0023  -0.0051 -12.00   83.7
2024/04/02 15:06:49.000   28.287130376  -16.537883770  2360.0896   1   9   0.0020   0.0011   0.0180  -0.0008   0.0023  -0.0051 -11.00   82.8
2024/04/02 15:06:50.000   28.287130376  -16.537883770  2360.0893   1   9   0.0020   0.0011   0.0180  -0.0008   0.0023  -0.0051 -10.00   81.8
2024/04/02 15:06:51.000   28.287130376  -16.537883770  2360.0889   1   9   0.0020   0.0011   0.0180  -0.0008   0.0023  -0.0051  -9.00   80.8
2024/04/02 15:06:52.000   28.287130377  -16.537883770  2360.0886   1   9   0.0020   0.0012   0.0181  -0.0008   0.0023  -0.0051  -8.00   79.7
2024/04/02 15:06:53.000   28.287130377  -16.537883770  2360.0882   1   9   0.0020   0.0012   0.0181  -0.0008   0.0023  -0.0051  -7.00   77.5
2024/04/02 15:06:54.000   28.287130377  -16.537883770  2360.0877   1   9   0.0020   0.0012   0.0181  -0.0008   0.0023  -0.0051  -6.00   74.3
2024/04/02 15:06:55.000   28.287130378  -16.537883770  2360.0872   1   9   0.0020   0.0012   0.0182  -0.0008   0.0023  -0.0051  -5.00   69.3
2024/04/02 15:06:56.000   28.287130379  -16.537883770  2360.0864   1   9   0.0021   0.0012   0.0182  -0.0008   0.0023  -0.0052  -4.00   62.3
2024/04/02 15:06:57.000   28.287130379  -16.537883770  2360.0856   1   9   0.0021   0.0012   0.0183  -0.0008   0.0024  -0.0052  -3.00   52.9
2024/04/02 15:06:58.000   28.287130380  -16.537883771  2360.0846   1   9   0.0021   0.0012   0.0184  -0.0008   0.0024  -0.0052  -2.00   40.0
2024/04/02 15:06:59.000   28.287130381  -16.537883771  2360.0831   1   9   0.0021   0.0012   0.0186  -0.0008   0.0024  -0.0053  -1.00   23.6
2024/04/02 15:07:00.000   28.287130369  -16.537883767  2360.0960   1   9   0.0020   0.0011   0.0174  -0.0007   0.0021  -0.0049   0.00  101.6
2024/04/02 15:07:01.000   28.287130370  -16.537883767  2360.0947   1   9   0.0020   0.0011   0.0175  -0.0007   0.0022  -0.0049   1.00  102.0
2024/04/02 15:07:02.000   28.287130372  -16.537883767  2360.0931   1   9   0.0020   0.0012   0.0177  -0.0008   0.0022  -0.0049   2.00  102.4
2024/04/02 15:07:03.000   28.287130373  -16.537883767  2360.0917   1   9   0.0020   0.0012   0.0178  -0.0008   0.0022  -0.0050   3.00  102.9
2024/04/02 15:07:04.000   28.287130374  -16.537883768  2360.0909   1   9   0.0020   0.0012   0.0179  -0.0008   0.0022  -0.0050   4.00  102.2
2024/04/02 15:07:05.000   28.287130375  -16.537883768  2360.0902   1   9   0.0020   0.0012   0.0179  -0.0008   0.0022  -0.0050   5.00  101.3
2024/04/02 15:07:06.000   28.287130375  -16.537883768  2360.0897   1   9   0.0020   0.0012   0.0180  -0.0008   0.0023  -0.0051   6.00  100.2
2024/04/02 15:07:07.000   28.287130375  -16.537883768  2360.0894   1   9   0.0020   0.0012   0.0180  -0.0008   0.0023  -0.0051   7.00   99.0
2024/04/02 15:07:08.000   28.287130376  -16.537883768  2360.0891   1   9   0.0020   0.0012   0.0181  -0.0008   0.0023  -0.0051   8.00   97.3
2024/04/02 15:07:09.000   28.287130376  -16.537883768  2360.0889   1   9   0.0020   0.0012   0.0181  -0.0008   0.0023  -0.0051   9.00   95.8
2024/04/02 15:07:10.000   28.287130376  -16.537883768  2360.0887   1   9   0.0021   0.0012   0.0181  -0.0008   0.0023  -0.0051  10.00   94.4
2024/04/02 15:07:11.000   28.287130376  -16.537883768  2360.0885   1   9   0.0021   0.0012   0.0182  -0.0008   0.0023  -0.0051  11.00   93.0
2024/04/02 15:07:12.000   28.287130376  -16.537883768  2360.0884   1   9   0.0021   0.0012   0.0182  -0.0008   0.0023  -0.0051  12.00   91.7
2024/04/02 15:07:13.000   28.287130376  -16.537883768  2360.0882   1   9   0.0021   0.0012   0.0182  -0.0008   0.0023  -0.0051  13.00   90.5
2024/04/02 15:07:14.000   28.287130376  -16.537883768  2360.0881   1   9   0.0021   0.0012   0.0182  -0.0008   0.0023  -0.0051  14.00   89.3
2024/04/02 15:07:15.000   28.287130376  -16.537883768  2360.0879   1   9   0.0021   0.0012   0.0182  -0.0008   0.0023  -0.0051  15.00   88.2
2024/04/02 15:07:16.000   28.287130376  -16.537883768  2360.0878   1   9   0.0021   0.0012   0.0182  -0.0008   0.0023  -0.0051 -14.00   87.1
2024/04/02 15:07:17.000   28.287130376  -16.537883768  2360.0877   1   9   0.0021   0.0012   0.0182  -0.0008   0.0023  -0.0051 -13.00   85.9
2024/04/02 15:07:18.000   28.287130377  -16.537883768  2360.0875   1   9   0.0021   0.0012   0.0182  -0.0008   0.0023  -0.0051 -12.00   84.6
2024/04/02 15:07:19.000   28.287130377  -16.537883768  2360.0873   1   9   0.0021   0.0012   0.0182  -0.0008   0.0023  -0.0051 -11.00   83.4
2024/04/02 15:07:20.000   28.287130377  -16.537883768  2360.0871   1   9   0.0021   0.0012   0.0182  -0.0008   0.0023  -0.0051 -10.00   82.2
2024/04/02 15:07:21.000   28.287130377  -16.537883768  2360.0868   1   9   0.0021   0.0012   0.0183  -0.0008   0.0023  -0.0052  -9.00   80.8
2024/04/02 15:07:22.000   28.287130377  -16.537883768  2360.0865   1   9   0.0021   0.0012   0.0183  -0.0008   0.0023  -0.0052  -8.00   79.3
2024/04/02 15:07:23.000   28.287130378  -16.537883768  2360.0860   1   9   0.0021   0.0012   0.0183  -0.0008   0.0023  -0.0052  -7.00   77.1
2024/04/02 15:07:24.000   28.287130378  -16.537883768  2360.0854   1   9   0.0021   0.0012   0.0183  -0.0008   0.0024  -0.0052  -6.00   74.1
2024/04/02 15:07:25.000   28.287130379  -16.537883769  2360.0846   1   9   0.0021   0.0012   0.0184  -0.0008   0.0024  -0.0052  -5.00   69.5
2024/04/02 15:07:26.000   28.287130380  -16.537883769  2360.0838   1   9   0.0021   0.0012   0.0185  -0.0008   0.0024  -0.0052  -4.00   62.3
2024/04/02 15:07:27.000   28.287130380  -16.537883769  2360.0830   1   9   0.0021   0.0012   0.0185  -0.0008   0.0024  -0.0053  -3.00   52.5
2024/04/02 15:07:28.000   28.287130381  -16.537883769  2360.0818   1   9   0.0021   0.0012   0.0187  -0.0008   0.0024  -0.0053  -2.00   40.1
2024/04/02 15:07:29.000   28.287130383  -16.537883770  2360.0805   1   9   0.0021   0.0012   0.0188  -0.0008   0.0024  -0.0053  -1.00   23.5
2024/04/02 15:07:30.000   28.287130369  -16.537883765  2360.0960   1   9   0.0020   0.0012   0.0176  -0.0008   0.0022  -0.0049   0.00   92.5
2024/04/02 15:07:31.000   28.287130370  -16.537883765  2360.0950   1   9   0.0020   0.0012   0.0177  -0.0008   0.0022  -0.0050   1.00   91.5
2024/04/02 15:07:32.000   28.287130371  -16.537883766  2360.0937   1   9   0.0020   0.0012   0.0179  -0.0008   0.0022  -0.0050   2.00   90.8
2024/04/02 15:07:33.000   28.287130367  -16.537883769  2360.0885   1   9   0.0018   0.0011   0.0162  -0.0008   0.0022  -0.0044   3.00    3.1
2024/04/02 15:07:34.000   28.287130373  -16.537883766  2360.0915   1   9   0.0021   0.0012   0.0181  -0.0008   0.0023  -0.0051   4.00   89.5
2024/04/02 15:07:35.000   28.287130374  -16.537883766  2360.0905   1   9   0.0021   0.0012   0.0182  -0.0008   0.0023  -0.0051   5.00   89.0
2024/04/02 15:07:36.000   28.287130375  -16.537883767  2360.0897   1   9   0.0021   0.0012   0.0182  -0.0008   0.0023  -0.0051   6.00   88.6
2024/04/02 15:07:37.000   28.287130375  -16.537883767  2360.0889   1   9   0.0021   0.0012   0.0183  -0.0008   0.0023  -0.0051   7.00   87.7
2024/04/02 15:07:38.000   28.287130376  -16.537883767  2360.0884   1   9   0.0021   0.0012   0.0183  -0.0008   0.0023  -0.0052   8.00   86.9
2024/04/02 15:07:39.000   28.287130376  -16.537883767  2360.0878   1   9   0.0021   0.0012   0.0183  -0.0008   0.0023  -0.0052   9.00   86.4
2024/04/02 15:07:40.000   28.287130376  -16.537883767  2360.0874   1   9   0.0021   0.0012   0.0184  -0.0008   0.0023  -0.0052  10.00   85.5
2024/04/02 15:07:41.000   28.287130377  -16.537883767  2360.0870   1   9   0.0021   0.0012   0.0184  -0.0008   0.0023  -0.0052  11.00   84.9
2024/04/02 15:07:42.000   28.287130377  -16.537883768  2360.0866   1   9   0.0021   0.0012   0.0184  -0.0008   0.0023  -0.0052  12.00   84.2
2024/04/02 15:07:43.000   28.287130378  -16.537883768  2360.0864   1   9   0.0021   0.0012   0.0184  -0.0008   0.0023  -0.0052  13.00   83.4
2024/04/02 15:07:44.000   28.287130378  -16.537883768  2360.0861   1   9   0.0021   0.0012   0.0184  -0.0008   0.0023  -0.0052  14.00   82.6
2024/04/02 15:07:45.000   28.287130378  -16.537883768  2360.0859   1   9   0.0021   0.0012   0.0184  -0.0008   0.0023  -0.0052  15.00   81.8
2024/04/02 15:07:46.000   28.287130378  -16.537883768  2360.0857   1   9   0.0021   0.0012   0.0184  -0.0008   0.0024  -0.0052 -14.00   81.0
2024/04/02 15:07:47.000   28.287130378  -16.537883768  2360.0855   1   9   0.0021   0.0012   0.0184  -0.0008   0.0024  -0.0052 -13.00   80.2
2024/04/02 15:07:48.000   28.287130379  -16.537883768  2360.0852   1   9   0.0021   0.0012   0.0185  -0.0008   0.0024  -0.0052 -12.00   79.4
2024/04/02 15:07:49.000   28.287130379  -16.537883768  2360.0849   1   9   0.0021   0.0012   0.0185  -0.0008   0.0024  -0.0052 -11.00   78.7
2024/04/02 15:07:50.000   28.287130379  -16.537883768  2360.0846   1   9   0.0021   0.0012   0.0185  -0.0008   0.0024  -0.0052 -10.00   78.0
2024/04/02 15:07:51.000   28.287130380  -16.537883769  2360.0842   1   9   0.0021   0.0012   0.0185  -0.0008   0.0024  -0.0052  -9.00   77.4
2024/04/02 15:07:52.000   28.287130380  -16.537883769  2360.0838   1   9   0.0021   0.0012   0.0185  -0.0008   0.0024  -0.0052  -8.00   76.5
2024/04/02 15:07:53.000   28.287130381  -16.537883769  2360.0833   1   9   0.0021   0.0012   0.0186  -0.0008   0.0024  -0.0052  -7.00   75.4
2024/04/02 15:07:54.000   28.287130382  -16.537883769  2360.0828   1   9   0.0021   0.0012   0.0186  -0.0008   0.0024  -0.0053  -6.00   73.3
2024/04/02 15:07:55.000   28.287130382  -16.537883769  2360.0821   1   9   0.0021   0.0012   0.0186  -0.0008   0.0024  -0.0053  -5.00   67.9
2024/04/02 15:07:56.000   28.287130383  -16.537883770  2360.0813   1   9   0.0021   0.0012   0.0187  -0.0008   0.0024  -0.0053  -4.00   61.4
2024/04/02 15:07:57.000   28.287130384  -16.537883770  2360.0805   1   9   0.0021   0.0012   0.0188  -0.0008   0.0024  -0.0053  -3.00   52.1
2024/04/02 15:07:58.000   28.287130386  -16.537883771  2360.0792   1   9   0.0021   0.0012   0.0189  -0.0008   0.0025  -0.0054  -2.00   40.2
2024/04/02 15:07:59.000   28.287130390  -16.537883787  2360.0790   1   9   0.0019   0.0011   0.0170  -0.0007   0.0020  -0.0048  -1.00    3.1
2024/04/02 15:08:00.000   28.287130378  -16.537883783  2360.0919   1   9   0.0018   0.0010   0.0161  -0.0007   0.0018  -0.0045   0.00    3.1
2024/04/02 15:08:01.000   28.287130379  -16.537883784  2360.0909   1   9   0.0018   0.0010   0.0162  -0.0007   0.0018  -0.0045   1.00    3.1
2024/04/02 15:08:02.000   28.287130380  -16.537883784  2360.0899   1   9   0.0018   0.0010   0.0163  -0.0007   0.0019  -0.0046   2.00    3.0
2024/04/02 15:08:03.000   28.287130377  -16.537883768  2360.0897   1   9   0.0021   0.0012   0.0182  -0.0008   0.0023  -0.0051   3.00   89.8
2024/04/02 15:08:04.000   28.287130378  -16.537883768  2360.0888   1   9   0.0021   0.0012   0.0183  -0.0008   0.0023  -0.0051   4.00   89.1
2024/04/02 15:08:05.000   28.287130379  -16.537883769  2360.0882   1   9   0.0021   0.0012   0.0184  -0.0008   0.0023  -0.0052   5.00   88.0
2024/04/02 15:08:06.000   28.287130380  -16.537883769  2360.0877   1   9   0.0021   0.0012   0.0185  -0.0008   0.0023  -0.0052   6.00   87.6
2024/04/02 15:08:07.000   28.287130373  -16.537883765  2360.0903   1   9   0.0018   0.0011   0.0159  -0.0008   0.0021  -0.0044   7.00    3.5
2024/04/02 15:08:08.000   28.287130373  -16.537883765  2360.0902   1   9   0.0018   0.0011   0.0159  -0.0008   0.0021  -0.0044   8.00    3.6
2024/04/02 15:08:09.000   28.287130373  -16.537883765  2360.0902   1   9   0.0018   0.0011   0.0159  -0.0008   0.0021  -0.0044   9.00    3.6
2024/04/02 15:08:10.000   28.287130373  -16.537883765  2360.0902   1   9   0.0018   0.0011   0.0159  -0.0008   0.0021  -0.0044  10.00    3.6
2024/04/02 15:08:11.000   28.287130373  -16.537883765  2360.0901   1   9   0.0018   0.0011   0.0159  -0.0008   0.0021  -0.0044  11.00    3.6
2024/04/02 15:08:12.000   28.287130373  -16.537883765  2360.0901   1   9   0.0018   0.0011   0.0159  -0.0008   0.0021  -0.0044  12.00    3.6
2024/04/02 15:08:13.000   28.287130374  -16.537883765  2360.0901   1   9   0.0018   0.0011   0.0159  -0.0008   0.0021  -0.0044  13.00    3.6
2024/04/02 15:08:14.000   28.287130374  -16.537883765  2360.0901   1   9   0.0018   0.0011   0.0159  -0.0008   0.0021  -0.0044  14.00    3.6
2024/04/02 15:08:15.000   28.287130374  -16.537883765  2360.0901   1   9   0.0018   0.0011   0.0159  -0.0008   0.0021  -0.0044 -15.00    3.6
2024/04/02 15:08:16.000   28.287130374  -16.537883765  2360.0900   1   9   0.0018   0.0011   0.0159  -0.0008   0.0021  -0.0044 -14.00    3.6
2024/04/02 15:08:17.000   28.287130374  -16.537883765  2360.0901   1   9   0.0018   0.0011   0.0159  -0.0008   0.0021  -0.0044 -13.00    3.6
2024/04/02 15:08:18.000   28.287130374  -16.537883765  2360.0901   1   9   0.0018   0.0011   0.0158  -0.0008   0.0021  -0.0044 -12.00    3.6
2024/04/02 15:08:19.000   28.287130374  -16.537883765  2360.0902   1   9   0.0018   0.0011   0.0158  -0.0008   0.0021  -0.0044 -11.00    3.6
2024/04/02 15:08:20.000   28.287130374  -16.537883765  2360.0902   1   9   0.0018   0.0011   0.0158  -0.0008   0.0021  -0.0043 -10.00    3.6
2024/04/02 15:08:21.000   28.287130374  -16.537883765  2360.0902   1   9   0.0018   0.0011   0.0158  -0.0008   0.0021  -0.0043  -9.00    3.6
2024/04/02 15:08:22.000   28.287130374  -16.537883765  2360.0902   1   9   0.0018   0.0011   0.0158  -0.0008   0.0021  -0.0043  -8.00    3.6
2024/04/02 15:08:23.000   28.287130374  -16.537883765  2360.0901   1   9   0.0018   0.0011   0.0158  -0.0008   0.0021  -0.0043  -7.00    3.6
2024/04/02 15:08:24.000   28.287130374  -16.537883765  2360.0903   1   9   0.0018   0.0011   0.0158  -0.0008   0.0021  -0.0043  -6.00    3.6
2024/04/02 15:08:25.000   28.287130374  -16.537883765  2360.0904   1   9   0.0018   0.0011   0.0158  -0.0008   0.0021  -0.0043  -5.00    3.6
2024/04/02 15:08:26.000   28.287130374  -16.537883764  2360.0905   1   9   0.0018   0.0011   0.0158  -0.0008   0.0021  -0.0043  -4.00    3.6
2024/04/02 15:08:27.000   28.287130371  -16.537883771  2360.0836   1   9   0.0018   0.0010   0.0156  -0.0008   0.0020  -0.0043  -3.00    5.2
2024/04/02 15:08:28.000   28.287130383  -16.537883777  2360.0846   1   9   0.0018   0.0010   0.0156  -0.0007   0.0020  -0.0043  -2.00    4.3
2024/04/02 15:08:29.000   28.287130383  -16.537883777  2360.0846   1   9   0.0018   0.0010   0.0156  -0.0007   0.0020  -0.0043  -1.00    5.9
2024/04/02 15:08:30.000   28.287130376  -16.537883774  2360.0923   1   9   0.0017   0.0010   0.0148  -0.0006   0.0018  -0.0041   0.00    7.4
2024/04/02 15:08:31.000   28.287130387  -16.537883778  2360.0805   1   9   0.0018   0.0010   0.0156  -0.0007   0.0020  -0.0043   1.00    9.6
2024/04/02 15:08:32.000   28.287130387  -16.537883778  2360.0801   1   9   0.0018   0.0010   0.0156  -0.0007   0.0020  -0.0043   2.00   11.3
2024/04/02 15:08:33.000   28.287130387  -16.537883778  2360.0802   1   9   0.0018   0.0010   0.0156  -0.0007   0.0020  -0.0044   3.00   12.7
2024/04/02 15:08:34.000   28.287130387  -16.537883778  2360.0801   1   9   0.0018   0.0010   0.0156  -0.0007   0.0020  -0.0044   4.00   13.8
2024/04/02 15:08:35.000   28.287130387  -16.537883779  2360.0799   1   9   0.0018   0.0010   0.0156  -0.0007   0.0020  -0.0044   5.00   14.9
2024/04/02 15:08:36.000   28.287130387  -16.537883779  2360.0797   1   9   0.0018   0.0010   0.0156  -0.0007   0.0020  -0.0044   6.00   16.1
2024/04/02 15:08:37.000   28.287130388  -16.537883779  2360.0796   1   9   0.0018   0.0010   0.0156  -0.0007   0.0020  -0.0044   7.00   17.3
2024/04/02 15:08:38.000   28.287130388  -16.537883779  2360.0796   1   9   0.0018   0.0010   0.0156  -0.0007   0.0020  -0.0044   8.00   18.3
2024/04/02 15:08:39.000   28.287130388  -16.537883779  2360.0796   1   9   0.0018   0.0010   0.0156  -0.0007   0.0020  -0.0044   9.00   19.3
2024/04/02 15:08:40.000   28.287130388  -16.537883779  2360.0795   1   9   0.0018   0.0010   0.0156  -0.0007   0.0020  -0.0044  10.00   20.3
2024/04/02 15:08:41.000   28.287130388  -16.537883779  2360.0795   1   9   0.0018   0.0010   0.0156  -0.0007   0.0020  -0.0044  11.00   21.3
2024/04/02 15:08:42.000   28.287130388  -16.537883779  2360.0795   1   9   0.0018   0.0010   0.0156  -0.0007   0.0020  -0.0044  12.00   22.3
2024/04/02 15:08:43.000   28.287130388  -16.537883779  2360.0794   1   9   0.0018   0.0010   0.0156  -0.0007   0.0020  -0.0044  13.00   23.3
2024/04/02 15:08:44.000   28.287130388  -16.537883779  2360.0794   1   9   0.0018   0.0010   0.0156  -0.0007   0.0020  -0.0044  14.00   24.3
2024/04/02 15:08:45.000   28.287130388  -16.537883779  2360.0794   1   9   0.0018   0.0010   0.0156  -0.0007   0.0020  -0.0044 -15.00   25.3
2024/04/02 15:08:46.000   28.287130388  -16.537883779  2360.0794   1   9   0.0018   0.0010   0.0156  -0.0007   0.0020  -0.0044 -14.00   26.3
2024/04/02 15:08:47.000   28.287130388  -16.537883779  2360.0794   1   9   0.0018   0.0010   0.0156  -0.0007   0.0020  -0.0044 -13.00   27.3
2024/04/02 15:08:48.000   28.287130388  -16.537883779  2360.0794   1   9   0.0018   0.0010   0.0156  -0.0007   0.0020  -0.0044 -12.00   28.3
2024/04/02 15:08:49.000   28.287130388  -16.537883779  2360.0795   1   9   0.0018   0.0010   0.0156  -0.0007   0.0020  -0.0044 -11.00   29.2
2024/04/02 15:08:50.000   28.287130388  -16.537883779  2360.0795   1   9   0.0018   0.0010   0.0156  -0.0007   0.0020  -0.0044 -10.00   30.2
2024/04/02 15:08:51.000   28.287130388  -16.537883779  2360.0795   1   9   0.0018   0.0010   0.0156  -0.0007   0.0020  -0.0043  -9.00   31.1
2024/04/02 15:08:52.000   28.287130388  -16.537883779  2360.0795   1   9   0.0018   0.0010   0.0156  -0.0007   0.0020  -0.0043  -8.00   32.1
2024/04/02 15:08:53.000   28.287130388  -16.537883779  2360.0795   1   9   0.0017   0.0010   0.0156  -0.0007   0.0020  -0.0043  -7.00   33.1
2024/04/02 15:08:54.000   28.287130388  -16.537883779  2360.0795   1   9   0.0017   0.0010   0.0156  -0.0007   0.0020  -0.0043  -6.00   34.0
2024/04/02 15:08:55.000   28.287130387  -16.537883779  2360.0797   1   9   0.0017   0.0010   0.0155  -0.0007   0.0020  -0.0043  -5.00   34.7
2024/04/02 15:08:56.000   28.287130387  -16.537883778  2360.0797   1   9   0.0017   0.0010   0.0155  -0.0007   0.0020  -0.0043  -4.00   35.3
2024/04/02 15:08:57.000   28.287130388  -16.537883779  2360.0795   1   9   0.0017   0.0010   0.0155  -0.0007   0.0020  -0.0043  -3.00   36.1
2024/04/02 15:08:58.000   28.287130387  -16.537883778  2360.0798   1   9   0.0017   0.0010   0.0155  -0.0007   0.0020  -0.0043  -2.00   36.5
2024/04/02 15:08:59.000   28.287130387  -16.537883778  2360.0800   1   9   0.0017   0.0010   0.0155  -0.0007   0.0020  -0.0043  -1.00   36.5
2024/04/02 15:09:00.000   28.287130377  -16.537883775  2360.0904   1   9   0.0017   0.0010   0.0148  -0.0006   0.0018  -0.0040   0.00   36.6
2024/04/02 15:09:01.000   28.287130385  -16.537883777  2360.0823   1   9   0.0017   0.0010   0.0155  -0.0007   0.0020  -0.0043   1.00   23.9
2024/04/02 15:09:02.000   28.287130385  -16.537883778  2360.0821   1   9   0.0017   0.0010   0.0155  -0.0007   0.0020  -0.0043   2.00   29.3
2024/04/02 15:09:03.000   28.287130385  -16.537883778  2360.0821   1   9   0.0017   0.0010   0.0155  -0.0007   0.0020  -0.0043   3.00   31.0
2024/04/02 15:09:04.000   28.287130385  -16.537883778  2360.0819   1   9   0.0017   0.0010   0.0155  -0.0007   0.0020  -0.0043   4.00   32.3
2024/04/02 15:09:05.000   28.287130385  -16.537883778  2360.0819   1   9   0.0017   0.0010   0.0155  -0.0007   0.0020  -0.0043   5.00   33.1
2024/04/02 15:09:06.000   28.287130385  -16.537883778  2360.0817   1   9   0.0017   0.0010   0.0155  -0.0007   0.0020  -0.0043   6.00   34.1
2024/04/02 15:09:07.000   28.287130386  -16.537883778  2360.0816   1   9   0.0017   0.0010   0.0155  -0.0007   0.0020  -0.0043   7.00   35.0
2024/04/02 15:09:08.000   28.287130386  -16.537883778  2360.0815   1   9   0.0017   0.0010   0.0155  -0.0007   0.0020  -0.0043   8.00   36.0
2024/04/02 15:09:09.000   28.287130386  -16.537883778  2360.0815   1   9   0.0017   0.0010   0.0155  -0.0007   0.0020  -0.0043   9.00   37.0
2024/04/02 15:09:10.000   28.287130386  -16.537883778  2360.0814   1   9   0.0017   0.0010   0.0155  -0.0007   0.0020  -0.0043  10.00   37.9
2024/04/02 15:09:11.000   28.287130386  -16.537883778  2360.0813   1   9   0.0017   0.0010   0.0155  -0.0007   0.0020  -0.0043  11.00   38.8
2024/04/02 15:09:12.000   28.287130386  -16.537883778  2360.0813   1   9   0.0017   0.0010   0.0155  -0.0007   0.0020  -0.0043  12.00   39.7
2024/04/02 15:09:13.000   28.287130386  -16.537883778  2360.0812   1   9   0.0017   0.0010   0.0155  -0.0007   0.0020  -0.0043  13.00   40.6
2024/04/02 15:09:14.000   28.287130386  -16.537883778  2360.0812   1   9   0.0017   0.0010   0.0155  -0.0007   0.0020  -0.0043  14.00   41.6
2024/04/02 15:09:15.000   28.287130386  -16.537883778  2360.0812   1   9   0.0017   0.0010   0.0155  -0.0007   0.0020  -0.0043 -15.00   42.6
2024/04/02 15:09:16.000   28.287130386  -16.537883778  2360.0812   1   9   0.0017   0.0010   0.0155  -0.0007   0.0020  -0.0043 -14.00   43.5
2024/04/02 15:09:17.000   28.287130386  -16.537883778  2360.0812   1   9   0.0017   0.0010   0.0155  -0.0007   0.0020  -0.0043 -13.00   44.5
2024/04/02 15:09:18.000   28.287130386  -16.537883778  2360.0811   1   9   0.0017   0.0010   0.0155  -0.0007   0.0020  -0.0043 -12.00   45.5
2024/04/02 15:09:19.000   28.287130386  -16.537883778  2360.0811   1   9   0.0017   0.0010   0.0155  -0.0007   0.0020  -0.0043 -11.00   46.5
2024/04/02 15:09:20.000   28.287130386  -16.537883778  2360.0811   1   9   0.0017   0.0010   0.0155  -0.0007   0.0020  -0.0043 -10.00   47.6
2024/04/02 15:09:21.000   28.287130386  -16.537883778  2360.0810   1   9   0.0017   0.0010   0.0155  -0.0007   0.0020  -0.0043  -9.00   48.7
2024/04/02 15:09:22.001   28.287130386  -16.537883778  2360.0810   1   9   0.0017   0.0010   0.0155  -0.0007   0.0020  -0.0043  -8.00   49.8
2024/04/02 15:09:23.000   28.287130386  -16.537883778  2360.0811   1   9   0.0017   0.0010   0.0155  -0.0007   0.0020  -0.0043  -7.00   50.9
2024/04/02 15:09:24.000   28.287130386  -16.537883778  2360.0811   1   9   0.0017   0.0010   0.0155  -0.0007   0.0020  -0.0043  -6.00   52.1
2024/04/02 15:09:25.000   28.287130386  -16.537883778  2360.0811   1   9   0.0017   0.0010   0.0155  -0.0007   0.0020  -0.0043  -5.00   53.3
2024/04/02 15:09:26.000   28.287130386  -16.537883778  2360.0811   1   9   0.0017   0.0010   0.0154  -0.0007   0.0020  -0.0043  -4.00   53.9
2024/04/02 15:09:27.000   28.287130386  -16.537883778  2360.0813   1   9   0.0017   0.0010   0.0154  -0.0007   0.0020  -0.0043  -3.00   54.2
2024/04/02 15:09:28.000   28.287130386  -16.537883778  2360.0812   1   9   0.0017   0.0010   0.0154  -0.0007   0.0020  -0.0043  -2.00   55.3
2024/04/02 15:09:29.000   28.287130386  -16.537883778  2360.0812   1   9   0.0017   0.0010   0.0154  -0.0007   0.0020  -0.0043  -1.00   55.7
2024/04/02 15:09:30.000   28.287130373  -16.537883773  2360.0950   1   9   0.0017   0.0010   0.0147  -0.0006   0.0018  -0.0040   0.00   56.0
2024/04/02 15:09:31.000   28.287130382  -16.537883777  2360.0855   1   9   0.0017   0.0010   0.0154  -0.0007   0.0020  -0.0043   1.00   26.1
2024/04/02 15:09:32.000   28.287130382  -16.537883777  2360.0853   1   9   0.0017   0.0010   0.0154  -0.0007   0.0020  -0.0043   2.00   42.0
2024/04/02 15:09:33.000   28.287130382  -16.537883777  2360.0851   1   9   0.0017   0.0010   0.0154  -0.0007   0.0020  -0.0043   3.00   47.8
2024/04/02 15:09:34.000   28.287130382  -16.537883777  2360.0851   1   9   0.0017   0.0010   0.0154  -0.0007   0.0020  -0.0043   4.00   50.2
2024/04/02 15:09:35.000   28.287130382  -16.537883777  2360.0848   1   9   0.0017   0.0010   0.0154  -0.0007   0.0020  -0.0043   5.00   51.9
2024/04/02 15:09:36.000   28.287130383  -16.537883777  2360.0847   1   9   0.0017   0.0010   0.0154  -0.0007   0.0020  -0.0043   6.00   53.5
2024/04/02 15:09:37.000   28.287130383  -16.537883777  2360.0846   1   9   0.0017   0.0010   0.0154  -0.0007   0.0020  -0.0043   7.00   54.7
2024/04/02 15:09:38.000   28.287130383  -16.537883777  2360.0845   1   9   0.0017   0.0010   0.0154  -0.0007   0.0020  -0.0043   8.00   55.7
2024/04/02 15:09:39.000   28.287130383  -16.537883777  2360.0844   1   9   0.0017   0.0010   0.0154  -0.0007   0.0020  -0.0043   9.00   56.7
2024/04/02 15:09:40.000   28.287130383  -16.537883777  2360.0844   1   9   0.0017   0.0010   0.0154  -0.0007   0.0020  -0.0043  10.00   57.7
2024/04/02 15:09:41.000   28.287130383  -16.537883777  2360.0844   1   9   0.0017   0.0010   0.0154  -0.0007   0.0020  -0.0043  11.00   58.6
2024/04/02 15:09:42.000   28.287130383  -16.537883777  2360.0843   1   9   0.0017   0.0010   0.0154  -0.0007   0.0020  -0.0043  12.00   59.5
2024/04/02 15:09:43.000   28.287130383  -16.537883777  2360.0843   1   9   0.0017   0.0010   0.0154  -0.0007   0.0020  -0.0043  13.00   60.4
2024/04/02 15:09:44.000   28.287130383  -16.537883777  2360.0843   1   9   0.0017   0.0010   0.0154  -0.0007   0.0020  -0.0043  14.00   61.2
2024/04/02 15:09:45.000   28.287130383  -16.537883777  2360.0843   1   9   0.0017   0.0010   0.0154  -0.0007   0.0020  -0.0043 -15.00   62.0
2024/04/02 15:09:46.000   28.287130383  -16.537883777  2360.0843   1   9   0.0017   0.0010   0.0154  -0.0007   0.0020  -0.0043 -14.00   62.8
2024/04/02 15:09:47.000   28.287130383  -16.537883777  2360.0843   1   9   0.0017   0.0010   0.0154  -0.0007   0.0020  -0.0043 -13.00   63.5
2024/04/02 15:09:48.000   28.287130383  -16.537883777  2360.0843   1   9   0.0017   0.0010   0.0154  -0.0007   0.0020  -0.0043 -12.00   64.3
2024/04/02 15:09:49.000   28.287130383  -16.537883777  2360.0843   1   9   0.0017   0.0010   0.0154  -0.0007   0.0020  -0.0043 -11.00   65.0
2024/04/02 15:09:50.000   28.287130383  -16.537883777  2360.0842   1   9   0.0017   0.0010   0.0154  -0.0007   0.0020  -0.0043 -10.00   65.9
2024/04/02 15:09:51.000   28.287130383  -16.537883777  2360.0843   1   9   0.0017   0.0010   0.0154  -0.0007   0.0020  -0.0043  -9.00   66.5
2024/04/02 15:09:52.000   28.287130383  -16.537883777  2360.0844   1   9   0.0017   0.0010   0.0154  -0.0007   0.0020  -0.0043  -8.00   66.9
2024/04/02 15:09:53.000   28.287130383  -16.537883777  2360.0845   1   9   0.0017   0.0010   0.0154  -0.0007   0.0020  -0.0043  -7.00   67.0
2024/04/02 15:09:54.000   28.287130383  -16.537883777  2360.0845   1   9   0.0017   0.0010   0.0154  -0.0007   0.0020  -0.0043  -6.00   67.0
2024/04/02 15:09:55.000   28.287130383  -16.537883777  2360.0846   1   9   0.0017   0.0010   0.0154  -0.0007   0.0020  -0.0043  -5.00   67.2
2024/04/02 15:09:56.000   28.287130383  -16.537883777  2360.0848   1   9   0.0017   0.0010   0.0154  -0.0007   0.0020  -0.0043  -4.00   66.6
2024/04/02 15:09:57.000   28.287130383  -16.537883777  2360.0849   1   9   0.0017   0.0010   0.0154  -0.0007   0.0020  -0.0043  -3.00   65.8
2024/04/02 15:09:58.000   28.287130383  -16.537883777  2360.0850   1   9   0.0017   0.0010   0.0154  -0.0007   0.0020  -0.0043  -2.00   64.7
2024/04/02 15:09:59.000   28.287130382  -16.537883777  2360.0852   1   9   0.0017   0.0010   0.0153  -0.0007   0.0020  -0.0043  -1.00   63.7
2024/04/02 15:10:00.000   28.287130375  -16.537883774  2360.0928   1   9   0.0017   0.0010   0.0147  -0.0006   0.0018  -0.0040   0.00   62.9
2024/04/02 15:10:01.000   28.287130388  -16.537883779  2360.0790   1   9   0.0017   0.0010   0.0153  -0.0007   0.0020  -0.0043   1.00   26.8
2024/04/02 15:10:02.000   28.287130389  -16.537883779  2360.0787   1   9   0.0017   0.0010   0.0153  -0.0007   0.0020  -0.0043   2.00   43.2
2024/04/02 15:10:03.000   28.287130389  -16.537883779  2360.0782   1   9   0.0017   0.0010   0.0154  -0.0007   0.0020  -0.0043   3.00   51.0
2024/04/02 15:10:04.000   28.287130389  -16.537883779  2360.0780   1   9   0.0017   0.0010   0.0154  -0.0007   0.0020  -0.0043   4.00   54.3
2024/04/02 15:10:05.000   28.287130389  -16.537883779  2360.0779   1   9   0.0017   0.0010   0.0154  -0.0007   0.0020  -0.0043   5.00   55.5
2024/04/02 15:10:06.000   28.287130389  -16.537883779  2360.0780   1   9   0.0017   0.0010   0.0154  -0.0007   0.0020  -0.0043   6.00   56.7
2024/04/02 15:10:07.000   28.287130389  -16.537883779  2360.0779   1   9   0.0017   0.0010   0.0154  -0.0007   0.0020  -0.0043   7.00   57.4
2024/04/02 15:10:08.000   28.287130389  -16.537883779  2360.0779   1   9   0.0017   0.0010   0.0154  -0.0007   0.0020  -0.0043   8.00   58.3
2024/04/02 15:10:09.000   28.287130389  -16.537883779  2360.0778   1   9   0.0017   0.0010   0.0154  -0.0007   0.0020  -0.0043   9.00   58.9
2024/04/02 15:10:10.000   28.287130389  -16.537883779  2360.0778   1   9   0.0017   0.0010   0.0154  -0.0007   0.0020  -0.0043  10.00   59.6
2024/04/02 15:10:11.000   28.287130389  -16.537883779  2360.0778   1   9   0.0017   0.0010   0.0154  -0.0007   0.0020  -0.0043  11.00   60.3
2024/04/02 15:10:12.000   28.287130389  -16.537883779  2360.0778   1   9   0.0017   0.0010   0.0154  -0.0007   0.0020  -0.0043  12.00   61.1
2024/04/02 15:10:13.000   28.287130389  -16.537883779  2360.0779   1   9   0.0017   0.0010   0.0154  -0.0007   0.0020  -0.0043  13.00   61.9
2024/04/02 15:10:14.000   28.287130389  -16.537883779  2360.0778   1   9   0.0017   0.0010   0.0154  -0.0007   0.0020  -0.0043  14.00   62.7
2024/04/02 15:10:15.000   28.287130389  -16.537883779  2360.0778   1   9   0.0017   0.0010   0.0154  -0.0007   0.0020  -0.0043 -15.00   63.5
2024/04/02 15:10:16.000   28.287130389  -16.537883779  2360.0778   1   9   0.0017   0.0010   0.0154  -0.0007   0.0020  -0.0043 -14.00   64.3
2024/04/02 15:10:17.000   28.287130389  -16.537883779  2360.0778   1   9   0.0017   0.0010   0.0154  -0.0007   0.0020  -0.0043 -13.00   65.0
2024/04/02 15:10:18.000   28.287130389  -16.537883779  2360.0778   1   9   0.0017   0.0010   0.0154  -0.0007   0.0020  -0.0043 -12.00   65.7
2024/04/02 15:10:19.000   28.287130389  -16.537883779  2360.0779   1   9   0.0017   0.0010   0.0154  -0.0007   0.0020  -0.0043 -11.00   66.5
2024/04/02 15:10:20.000   28.287130389  -16.537883779  2360.0778   1   9   0.0017   0.0010   0.0154  -0.0007   0.0020  -0.0043 -10.00   67.2
2024/04/02 15:10:21.000   28.287130389  -16.537883779  2360.0780   1   9   0.0017   0.0010   0.0154  -0.0007   0.0020  -0.0043  -9.00   68.1
2024/04/02 15:10:22.000   28.287130389  -16.537883779  2360.0780   1   9   0.0017   0.0010   0.0154  -0.0007   0.0020  -0.0043  -8.00   69.1
2024/04/02 15:10:23.000   28.287130389  -16.537883779  2360.0781   1   9   0.0017   0.0010   0.0154  -0.0007   0.0020  -0.0043  -7.00   70.1
2024/04/02 15:10:24.000   28.287130389  -16.537883779  2360.0782   1   9   0.0017   0.0010   0.0154  -0.0007   0.0020  -0.0043  -6.00   71.6
2024/04/02 15:10:25.000   28.287130389  -16.537883779  2360.0782   1   9   0.0017   0.0010   0.0154  -0.0007   0.0020  -0.0043  -5.00   72.8
2024/04/02 15:10:26.000   28.287130389  -16.537883779  2360.0783   1   9   0.0017   0.0010   0.0153  -0.0007   0.0020  -0.0043  -4.00   74.1
2024/04/02 15:10:27.000   28.287130389  -16.537883779  2360.0784   1   9   0.0017   0.0010   0.0153  -0.0007   0.0020  -0.0043  -3.00   76.0
2024/04/02 15:10:28.000   28.287130389  -16.537883779  2360.0784   1   9   0.0017   0.0010   0.0153  -0.0007   0.0020  -0.0043  -2.00   77.9
2024/04/02 15:10:29.000   28.287130389  -16.537883778  2360.0787   1   9   0.0017   0.0010   0.0153  -0.0007   0.0020  -0.0043  -1.00   79.8
2024/04/02 15:10:30.000   28.287130377  -16.537883774  2360.0911   1   9   0.0017   0.0010   0.0147  -0.0006   0.0018  -0.0040   0.00   81.4
2024/04/02 15:10:31.000   28.287130383  -16.537883777  2360.0842   1   9   0.0017   0.0010   0.0153  -0.0007   0.0020  -0.0043   1.00   28.1
2024/04/02 15:10:32.000   28.287130383  -16.537883777  2360.0842   1   9   0.0017   0.0010   0.0153  -0.0007   0.0020  -0.0043   2.00   45.9
2024/04/02 15:10:33.000   28.287130383  -16.537883777  2360.0839   1   9   0.0017   0.0010   0.0153  -0.0007   0.0020  -0.0043   3.00   59.1
2024/04/02 15:10:34.000   28.287130384  -16.537883777  2360.0836   1   9   0.0017   0.0010   0.0153  -0.0007   0.0020  -0.0043   4.00   65.9
2024/04/02 15:10:35.000   28.287130384  -16.537883777  2360.0834   1   9   0.0017   0.0010   0.0153  -0.0007   0.0020  -0.0043   5.00   71.2
2024/04/02 15:10:36.000   28.287130384  -16.537883777  2360.0833   1   9   0.0017   0.0010   0.0154  -0.0007   0.0020  -0.0043   6.00   74.3
2024/04/02 15:10:37.000   28.287130384  -16.537883777  2360.0833   1   9   0.0017   0.0010   0.0154  -0.0007   0.0020  -0.0043   7.00   75.4
2024/04/02 15:10:38.000   28.287130384  -16.537883777  2360.0832   1   9   0.0017   0.0010   0.0154  -0.0007   0.0020  -0.0043   8.00   76.6
2024/04/02 15:10:39.000   28.287130384  -16.537883777  2360.0832   1   9   0.0017   0.0010   0.0154  -0.0007   0.0020  -0.0043   9.00   77.7
2024/04/02 15:10:40.000   28.287130384  -16.537883777  2360.0831   1   9   0.0017   0.0010   0.0154  -0.0007   0.0020  -0.0043  10.00   79.0
2024/04/02 15:10:41.000   28.287130384  -16.537883777  2360.0831   1   9   0.0017   0.0010   0.0154  -0.0007   0.0020  -0.0043  11.00   80.1
2024/04/02 15:10:42.000   28.287130384  -16.537883777  2360.0831   1   9   0.0017   0.0010   0.0154  -0.0007   0.0020  -0.0043  12.00   81.2
2024/04/02 15:10:43.000   28.287130384  -16.537883777  2360.0831   1   9   0.0017   0.0010   0.0154  -0.0007   0.0020  -0.0043  13.00   82.2
2024/04/02 15:10:44.000   28.287130384  -16.537883777  2360.0831   1   9   0.0017   0.0010   0.0154  -0.0007   0.0020  -0.0043  14.00   83.3
2024/04/02 15:10:45.000   28.287130384  -16.537883777  2360.0830   1   9   0.0017   0.0010   0.0154  -0.0007   0.0020  -0.0043 -15.00   84.3
2024/04/02 15:10:46.000   28.287130384  -16.537883777  2360.0831   1   9   0.0017   0.0010   0.0154  -0.0007   0.0020  -0.0043 -14.00   85.3
2024/04/02 15:10:47.000   28.287130384  -16.537883777  2360.0831   1   9   0.0017   0.0010   0.0154  -0.0007   0.0020  -0.0043 -13.00   86.3
2024/04/02 15:10:48.000   28.287130384  -16.537883777  2360.0831   1   9   0.0017   0.0010   0.0154  -0.0007   0.0020  -0.0043 -12.00   87.2
2024/04/02 15:10:49.000   28.287130384  -16.537883777  2360.0831   1   9   0.0017   0.0010   0.0154  -0.0007   0.0020  -0.0043 -11.00   88.2
2024/04/02 15:10:50.000   28.287130384  -16.537883777  2360.0831   1   9   0.0017   0.0010   0.0154  -0.0007   0.0020  -0.0043 -10.00   89.1
2024/04/02 15:10:51.000   28.287130384  -16.537883777  2360.0832   1   9   0.0017   0.0010   0.0154  -0.0007   0.0020  -0.0043  -9.00   90.0
2024/04/02 15:10:52.000   28.287130384  -16.537883777  2360.0832   1   9   0.0017   0.0010   0.0154  -0.0007   0.0020  -0.0043  -8.00   90.8
2024/04/02 15:10:53.000   28.287130384  -16.537883777  2360.0833   1   9   0.0017   0.0010   0.0154  -0.0007   0.0020  -0.0043  -7.00   91.3
2024/04/02 15:10:54.000   28.287130384  -16.537883777  2360.0834   1   9   0.0017   0.0010   0.0153  -0.0007   0.0020  -0.0043  -6.00   92.2
2024/04/02 15:10:55.000   28.287130384  -16.537883777  2360.0835   1   9   0.0017   0.0010   0.0153  -0.0007   0.0020  -0.0043  -5.00   93.2
2024/04/02 15:10:56.000   28.287130384  -16.537883777  2360.0837   1   9   0.0017   0.0010   0.0153  -0.0007   0.0020  -0.0043  -4.00   93.5
2024/04/02 15:10:57.000   28.287130384  -16.537883777  2360.0837   1   9   0.0017   0.0010   0.0153  -0.0007   0.0020  -0.0043  -3.00   94.0
2024/04/02 15:10:58.000   28.287130384  -16.537883777  2360.0838   1   9   0.0017   0.0010   0.0153  -0.0007   0.0020  -0.0043  -2.00   94.0
2024/04/02 15:10:59.000   28.287130383  -16.537883777  2360.0840   1   9   0.0017   0.0010   0.0153  -0.0007   0.0020  -0.0043  -1.00   93.8
2024/04/02 15:11:00.000   28.287130377  -16.537883775  2360.0900   1   9   0.0017   0.0010   0.0149  -0.0007   0.0019  -0.0041   0.00   93.7
2024/04/02 15:11:01.000   28.287130390  -16.537883779  2360.0773   1   9   0.0017   0.0010   0.0156  -0.0007   0.0021  -0.0044   1.00   29.9
2024/04/02 15:11:02.000   28.287130390  -16.537883779  2360.0770   1   9   0.0017   0.0010   0.0156  -0.0007   0.0021  -0.0044   2.00   50.7
2024/04/02 15:11:03.000   28.287130390  -16.537883779  2360.0767   1   9   0.0017   0.0010   0.0156  -0.0007   0.0021  -0.0044   3.00   66.3
2024/04/02 15:11:04.000   28.287130390  -16.537883779  2360.0765   1   9   0.0018   0.0010   0.0156  -0.0007   0.0021  -0.0044   4.00   74.6
2024/04/02 15:11:05.000   28.287130390  -16.537883779  2360.0763   1   9   0.0018   0.0010   0.0156  -0.0007   0.0021  -0.0044   5.00   80.9
2024/04/02 15:11:06.000   28.287130391  -16.537883779  2360.0761   1   9   0.0018   0.0010   0.0156  -0.0007   0.0021  -0.0044   6.00   85.3
2024/04/02 15:11:07.000   28.287130391  -16.537883779  2360.0761   1   9   0.0018   0.0010   0.0156  -0.0007   0.0021  -0.0044   7.00   88.0
2024/04/02 15:11:08.000   28.287130391  -16.537883779  2360.0760   1   9   0.0018   0.0010   0.0157  -0.0007   0.0021  -0.0044   8.00   89.0
2024/04/02 15:11:09.000   28.287130391  -16.537883779  2360.0760   1   9   0.0018   0.0010   0.0157  -0.0007   0.0021  -0.0044   9.00   89.8
2024/04/02 15:11:10.000   28.287130391  -16.537883779  2360.0759   1   9   0.0018   0.0010   0.0157  -0.0007   0.0021  -0.0044  10.00   90.7
2024/04/02 15:11:11.000   28.287130391  -16.537883779  2360.0759   1   9   0.0018   0.0010   0.0157  -0.0007   0.0021  -0.0044  11.00   91.4
2024/04/02 15:11:12.000   28.287130391  -16.537883779  2360.0759   1   9   0.0018   0.0010   0.0157  -0.0007   0.0021  -0.0044  12.00   92.2
2024/04/02 15:11:13.000   28.287130385  -16.537883777  2360.0819   1   9   0.0018   0.0010   0.0157  -0.0007   0.0021  -0.0044  13.00   92.9
2024/04/02 15:11:14.000   28.287130386  -16.537883777  2360.0815   1   9   0.0018   0.0010   0.0157  -0.0007   0.0021  -0.0044  14.00   93.7
2024/04/02 15:11:15.000   28.287130390  -16.537883779  2360.0771   1   9   0.0018   0.0010   0.0157  -0.0007   0.0021  -0.0044 -15.00   94.5
2024/04/02 15:11:16.000   28.287130390  -16.537883779  2360.0773   1   9   0.0018   0.0010   0.0157  -0.0007   0.0021  -0.0044 -14.00   95.1
2024/04/02 15:11:17.000   28.287130390  -16.537883779  2360.0774   1   9   0.0018   0.0010   0.0157  -0.0007   0.0021  -0.0044 -13.00   95.9
2024/04/02 15:11:18.000   28.287130390  -16.537883779  2360.0776   1   9   0.0018   0.0010   0.0157  -0.0007   0.0021  -0.0044 -12.00   96.7
2024/04/02 15:11:19.000   28.287130389  -16.537883779  2360.0778   1   9   0.0018   0.0010   0.0157  -0.0007   0.0021  -0.0044 -11.00   97.7
2024/04/02 15:11:20.000   28.287130389  -16.537883779  2360.0780   1   9   0.0018   0.0010   0.0157  -0.0007   0.0021  -0.0044 -10.00   98.5
2024/04/02 15:11:21.000   28.287130389  -16.537883778  2360.0783   1   9   0.0018   0.0010   0.0156  -0.0007   0.0021  -0.0044  -9.00   99.3
2024/04/02 15:11:22.000   28.287130388  -16.537883778  2360.0787   1   9   0.0017   0.0010   0.0156  -0.0007   0.0021  -0.0044  -8.00   99.8
2024/04/02 15:11:23.000   28.287130388  -16.537883778  2360.0791   1   9   0.0017   0.0010   0.0156  -0.0007   0.0021  -0.0044  -7.00  100.5
2024/04/02 15:11:24.000   28.287130388  -16.537883778  2360.0796   1   9   0.0017   0.0010   0.0156  -0.0007   0.0021  -0.0044  -6.00  100.7
