% program   : RTKPOST-EX 2.5.0
% inp file  : C:\Users\SallyHenry\Desktop\Sally Internship\GNSS gravi\DATA\Survey Rover Obs\LM001.24o
% inp file  : C:\Users\SallyHenry\Desktop\Sally Internship\GNSS gravi\DATA\BaseStations\IZAN\IZAN00ESP_R_20240930000_01D_30S_MO.rnx
% inp file  : C:\Users\SallyHenry\Desktop\Sally Internship\GNSS gravi\DATA\BaseStations\IZAN\IZAN00ESP_R_20240930000_01D_MN.rnx
% inp file  : C:\Users\SallyHenry\Desktop\Sally Internship\GNSS gravi\DATA\aux_files\Survey\IGS0OPSFIN_20240930000_01D_15M_ORB.SP3
% inp file  : C:\Users\SallyHenry\Desktop\Sally Internship\GNSS gravi\DATA\aux_files\Survey\IGS0OPSFIN_20240930000_01D_30S_CLK.CLK
% obs start : 2024/04/02 11:17:05.0 GPST (week2308 213425.0s)
% obs end   : 2024/04/02 12:00:13.0 GPST (week2308 216013.0s)
% pos mode  : Static
% freqs     : L1+L2/E5b
% solution  : Combined-No Phase Reset
% elev mask : 15.0 deg
% dynamics  : on
% tidecorr  : solid
% ionos opt : Estimate TEC
% tropo opt : Estimate ZTD+Grad
% ephemeris : Precise
% navi sys  : GPS GLONASS Galileo QZSS BDS
% amb res   : Fix and Hold
% amb glo   : Fix and Hold
% amb bds   : on
% val thres : 3.0
% antenna1  :                       ( 0.0000  0.0000  1.8000)
% antenna2  :                       ( 0.0000  0.0000  0.0000)
% ref pos   :  28.308069410  -16.499677180  2417.4044
%
% (lat/lon/height=WGS84/ellipsoidal,Q=1:fix,2:float,3:sbas,4:dgps,5:single,6:ppp,ns=# of satellites)
%  GPST                  latitude(deg) longitude(deg)  height(m)   Q  ns   sdn(m)   sde(m)   sdu(m)  sdne(m)  sdeu(m)  sdun(m) age(s)  ratio
2024/04/02 11:17:05.000   28.292096431  -16.539706146  2334.4394   1   7   0.0013   0.0011   0.0089   0.0003  -0.0011   0.0018   5.00  878.9
2024/04/02 11:17:06.000   28.292096431  -16.539706146  2334.4393   1   7   0.0013   0.0011   0.0089   0.0003  -0.0011   0.0018   6.00  875.8
2024/04/02 11:17:07.000   28.292096431  -16.539706146  2334.4392   1   7   0.0013   0.0011   0.0089   0.0003  -0.0011   0.0018   7.00  872.4
2024/04/02 11:17:08.000   28.292096431  -16.539706146  2334.4392   1   7   0.0013   0.0011   0.0089   0.0003  -0.0011   0.0018   8.00  869.3
2024/04/02 11:17:09.000   28.292096431  -16.539706145  2334.4392   1   7   0.0013   0.0011   0.0089   0.0003  -0.0011   0.0018   9.00  866.0
2024/04/02 11:17:10.000   28.292096431  -16.539706145  2334.4391   1   7   0.0013   0.0011   0.0089   0.0003  -0.0011   0.0018  10.00  862.6
2024/04/02 11:17:11.000   28.292096431  -16.539706145  2334.4391   1   7   0.0013   0.0011   0.0089   0.0003  -0.0011   0.0018  11.00  859.2
2024/04/02 11:17:12.000   28.292096431  -16.539706145  2334.4391   1   7   0.0013   0.0011   0.0089   0.0003  -0.0011   0.0018  12.00  855.6
2024/04/02 11:17:13.000   28.292096431  -16.539706145  2334.4390   1   7   0.0013   0.0011   0.0089   0.0003  -0.0011   0.0018  13.00  852.4
2024/04/02 11:17:14.000   28.292096431  -16.539706145  2334.4390   1   7   0.0013   0.0011   0.0089   0.0003  -0.0011   0.0018  14.00  849.2
2024/04/02 11:17:15.000   28.292096431  -16.539706145  2334.4390   1   7   0.0013   0.0011   0.0089   0.0003  -0.0011   0.0018  15.00  846.3
2024/04/02 11:17:16.000   28.292096431  -16.539706145  2334.4390   1   7   0.0013   0.0011   0.0089   0.0003  -0.0011   0.0018 -14.00  843.9
2024/04/02 11:17:17.000   28.292096431  -16.539706145  2334.4390   1   7   0.0013   0.0011   0.0089   0.0003  -0.0011   0.0018 -13.00  841.6
2024/04/02 11:17:18.000   28.292096431  -16.539706145  2334.4390   1   7   0.0013   0.0011   0.0089   0.0003  -0.0011   0.0018 -12.00  838.7
2024/04/02 11:17:19.000   28.292096431  -16.539706145  2334.4390   1   7   0.0013   0.0011   0.0089   0.0003  -0.0011   0.0018 -11.00  836.1
2024/04/02 11:17:20.000   28.292096431  -16.539706145  2334.4390   1   7   0.0013   0.0011   0.0089   0.0003  -0.0011   0.0018 -10.00  833.1
2024/04/02 11:17:21.000   28.292096431  -16.539706145  2334.4390   1   7   0.0013   0.0011   0.0089   0.0003  -0.0011   0.0018  -9.00  829.9
2024/04/02 11:17:22.000   28.292096431  -16.539706145  2334.4390   1   7   0.0013   0.0011   0.0089   0.0003  -0.0011   0.0018  -8.00  826.5
2024/04/02 11:17:23.000   28.292096431  -16.539706145  2334.4389   1   7   0.0013   0.0011   0.0089   0.0003  -0.0011   0.0018  -7.00  823.6
2024/04/02 11:17:24.000   28.292096431  -16.539706145  2334.4389   1   7   0.0013   0.0011   0.0089   0.0003  -0.0011   0.0018  -6.00  821.2
2024/04/02 11:17:25.000   28.292096431  -16.539706145  2334.4389   1   7   0.0013   0.0011   0.0089   0.0003  -0.0011   0.0018  -5.00  818.5
2024/04/02 11:17:26.000   28.292096431  -16.539706145  2334.4389   1   7   0.0013   0.0011   0.0089   0.0003  -0.0011   0.0018  -4.00  815.8
2024/04/02 11:17:27.000   28.292096431  -16.539706145  2334.4388   1   7   0.0013   0.0011   0.0089   0.0003  -0.0011   0.0018  -3.00  811.4
2024/04/02 11:17:28.000   28.292096431  -16.539706144  2334.4387   1   7   0.0013   0.0011   0.0089   0.0003  -0.0011   0.0018  -2.00  807.7
2024/04/02 11:17:29.000   28.292096431  -16.539706144  2334.4386   1   7   0.0013   0.0011   0.0089   0.0003  -0.0011   0.0018  -1.00  805.5
2024/04/02 11:17:30.000   28.292096431  -16.539706144  2334.4385   1   7   0.0013   0.0011   0.0089   0.0003  -0.0011   0.0018   0.00  801.4
2024/04/02 11:17:31.000   28.292096431  -16.539706144  2334.4384   1   7   0.0013   0.0011   0.0089   0.0003  -0.0011   0.0018   1.00  798.9
2024/04/02 11:17:32.000   28.292096431  -16.539706144  2334.4384   1   7   0.0013   0.0011   0.0089   0.0003  -0.0011   0.0018   2.00  797.5
2024/04/02 11:17:33.000   28.292096431  -16.539706144  2334.4383   1   7   0.0013   0.0011   0.0089   0.0003  -0.0011   0.0018   3.00  794.8
2024/04/02 11:17:34.000   28.292096431  -16.539706144  2334.4382   1   7   0.0013   0.0011   0.0089   0.0003  -0.0011   0.0018   4.00  790.8
2024/04/02 11:17:35.000   28.292096431  -16.539706144  2334.4382   1   7   0.0013   0.0011   0.0089   0.0003  -0.0011   0.0018   5.00  787.6
2024/04/02 11:17:36.000   28.292096431  -16.539706144  2334.4382   1   7   0.0013   0.0011   0.0089   0.0003  -0.0011   0.0018   6.00  786.2
2024/04/02 11:17:37.000   28.292096431  -16.539706144  2334.4382   1   7   0.0013   0.0011   0.0089   0.0003  -0.0011   0.0018   7.00  784.2
2024/04/02 11:17:38.000   28.292096431  -16.539706144  2334.4381   1   7   0.0013   0.0011   0.0089   0.0003  -0.0011   0.0018   8.00  781.4
2024/04/02 11:17:39.000   28.292096431  -16.539706144  2334.4381   1   7   0.0013   0.0011   0.0089   0.0003  -0.0011   0.0018   9.00  779.1
2024/04/02 11:17:40.000   28.292096431  -16.539706144  2334.4381   1   7   0.0013   0.0011   0.0089   0.0003  -0.0011   0.0018  10.00  777.1
2024/04/02 11:17:41.000   28.292096431  -16.539706144  2334.4381   1   7   0.0013   0.0011   0.0089   0.0003  -0.0011   0.0018  11.00  774.5
2024/04/02 11:17:42.000   28.292096431  -16.539706144  2334.4381   1   7   0.0013   0.0011   0.0089   0.0003  -0.0011   0.0018  12.00  772.2
2024/04/02 11:17:43.000   28.292096431  -16.539706144  2334.4381   1   7   0.0013   0.0011   0.0089   0.0003  -0.0011   0.0018  13.00  770.1
2024/04/02 11:17:44.000   28.292096431  -16.539706144  2334.4381   1   7   0.0013   0.0011   0.0089   0.0003  -0.0011   0.0018  14.00  768.1
2024/04/02 11:17:45.000   28.292096431  -16.539706144  2334.4381   1   7   0.0013   0.0011   0.0089   0.0003  -0.0011   0.0018  15.00  765.9
2024/04/02 11:17:46.000   28.292096431  -16.539706144  2334.4381   1   7   0.0013   0.0011   0.0089   0.0003  -0.0011   0.0018 -14.00  764.1
2024/04/02 11:17:47.000   28.292096431  -16.539706144  2334.4381   1   7   0.0013   0.0011   0.0089   0.0003  -0.0011   0.0018 -13.00  762.4
2024/04/02 11:17:48.000   28.292096431  -16.539706144  2334.4381   1   7   0.0013   0.0011   0.0089   0.0003  -0.0011   0.0018 -12.00  760.5
2024/04/02 11:17:49.000   28.292096431  -16.539706144  2334.4381   1   7   0.0013   0.0011   0.0089   0.0003  -0.0011   0.0018 -11.00  758.8
2024/04/02 11:17:50.000   28.292096431  -16.539706144  2334.4381   1   7   0.0013   0.0011   0.0089   0.0003  -0.0011   0.0018 -10.00  757.1
2024/04/02 11:17:51.000   28.292096431  -16.539706143  2334.4381   1   7   0.0013   0.0011   0.0089   0.0003  -0.0011   0.0018  -9.00  755.3
2024/04/02 11:17:52.000   28.292096431  -16.539706143  2334.4381   1   7   0.0013   0.0011   0.0089   0.0003  -0.0011   0.0018  -8.00  753.4
2024/04/02 11:17:53.000   28.292096431  -16.539706143  2334.4381   1   7   0.0013   0.0011   0.0089   0.0003  -0.0011   0.0018  -7.00  752.0
2024/04/02 11:17:54.000   28.292096431  -16.539706143  2334.4381   1   7   0.0013   0.0011   0.0089   0.0003  -0.0011   0.0018  -6.00  749.9
2024/04/02 11:17:55.000   28.292096431  -16.539706143  2334.4381   1   7   0.0013   0.0011   0.0089   0.0003  -0.0011   0.0018  -5.00  749.3
2024/04/02 11:17:56.000   28.292096431  -16.539706143  2334.4380   1   7   0.0013   0.0011   0.0089   0.0003  -0.0011   0.0018  -4.00  748.9
2024/04/02 11:17:57.000   28.292096431  -16.539706143  2334.4380   1   7   0.0013   0.0011   0.0089   0.0003  -0.0011   0.0018  -3.00  748.6
2024/04/02 11:17:58.000   28.292096431  -16.539706143  2334.4379   1   7   0.0013   0.0011   0.0090   0.0003  -0.0011   0.0018  -2.00  748.4
2024/04/02 11:17:59.000   28.292096431  -16.539706143  2334.4378   1   7   0.0013   0.0011   0.0090   0.0003  -0.0011   0.0018  -1.00  747.7
2024/04/02 11:18:00.000   28.292096431  -16.539706143  2334.4378   1   7   0.0013   0.0011   0.0090   0.0003  -0.0011   0.0018   0.00  745.2
2024/04/02 11:18:01.000   28.292096431  -16.539706143  2334.4377   1   7   0.0013   0.0011   0.0090   0.0003  -0.0012   0.0018   1.00  743.9
2024/04/02 11:18:02.000   28.292096431  -16.539706143  2334.4376   1   7   0.0013   0.0011   0.0090   0.0003  -0.0012   0.0018   2.00  741.2
2024/04/02 11:18:03.000   28.292096431  -16.539706142  2334.4375   1   7   0.0013   0.0011   0.0090   0.0003  -0.0012   0.0018   3.00  740.4
2024/04/02 11:18:04.000   28.292096431  -16.539706142  2334.4374   1   7   0.0013   0.0011   0.0090   0.0003  -0.0012   0.0018   4.00  738.7
2024/04/02 11:18:05.000   28.292096431  -16.539706142  2334.4373   1   7   0.0013   0.0011   0.0090   0.0003  -0.0012   0.0018   5.00  736.2
2024/04/02 11:18:06.000   28.292096431  -16.539706142  2334.4373   1   7   0.0013   0.0011   0.0090   0.0003  -0.0012   0.0018   6.00  734.4
2024/04/02 11:18:07.000   28.292096431  -16.539706142  2334.4372   1   7   0.0013   0.0011   0.0090   0.0003  -0.0012   0.0018   7.00  732.2
2024/04/02 11:18:08.000   28.292096431  -16.539706142  2334.4372   1   7   0.0013   0.0011   0.0090   0.0003  -0.0012   0.0018   8.00  729.4
2024/04/02 11:18:09.000   28.292096431  -16.539706142  2334.4372   1   7   0.0013   0.0011   0.0090   0.0003  -0.0012   0.0018   9.00  726.7
2024/04/02 11:18:10.000   28.292096431  -16.539706142  2334.4372   1   7   0.0013   0.0011   0.0090   0.0003  -0.0012   0.0018  10.00  724.0
2024/04/02 11:18:11.000   28.292096431  -16.539706142  2334.4371   1   7   0.0013   0.0011   0.0090   0.0003  -0.0012   0.0018  11.00  722.1
2024/04/02 11:18:12.000   28.292096431  -16.539706142  2334.4371   1   7   0.0013   0.0011   0.0090   0.0003  -0.0012   0.0018  12.00  720.6
2024/04/02 11:18:13.000   28.292096431  -16.539706142  2334.4372   1   7   0.0013   0.0011   0.0090   0.0003  -0.0012   0.0018  13.00  718.8
2024/04/02 11:18:14.000   28.292096431  -16.539706142  2334.4372   1   7   0.0013   0.0011   0.0090   0.0003  -0.0012   0.0018  14.00  716.9
2024/04/02 11:18:15.000   28.292096431  -16.539706142  2334.4372   1   7   0.0013   0.0011   0.0090   0.0003  -0.0012   0.0018  15.00  714.8
2024/04/02 11:18:16.000   28.292096431  -16.539706142  2334.4372   1   7   0.0013   0.0011   0.0090   0.0003  -0.0012   0.0018 -14.00  712.8
2024/04/02 11:18:17.000   28.292096431  -16.539706142  2334.4372   1   7   0.0013   0.0011   0.0090   0.0003  -0.0012   0.0018 -13.00  710.9
2024/04/02 11:18:18.000   28.292096431  -16.539706142  2334.4372   1   7   0.0013   0.0011   0.0090   0.0003  -0.0012   0.0018 -12.00  708.9
2024/04/02 11:18:19.000   28.292096431  -16.539706141  2334.4372   1   7   0.0013   0.0011   0.0090   0.0003  -0.0012   0.0018 -11.00  707.1
2024/04/02 11:18:20.000   28.292096431  -16.539706141  2334.4372   1   7   0.0013   0.0011   0.0090   0.0003  -0.0012   0.0018 -10.00  705.0
2024/04/02 11:18:21.000   28.292096431  -16.539706141  2334.4372   1   7   0.0013   0.0011   0.0090   0.0003  -0.0012   0.0018  -9.00  702.7
2024/04/02 11:18:22.000   28.292096431  -16.539706141  2334.4372   1   7   0.0013   0.0011   0.0090   0.0003  -0.0012   0.0018  -8.00  701.5
2024/04/02 11:18:23.000   28.292096431  -16.539706141  2334.4371   1   7   0.0013   0.0011   0.0090   0.0003  -0.0012   0.0018  -7.00  699.4
2024/04/02 11:18:24.000   28.292096431  -16.539706141  2334.4371   1   7   0.0013   0.0011   0.0090   0.0003  -0.0012   0.0018  -6.00  697.5
2024/04/02 11:18:25.000   28.292096431  -16.539706141  2334.4371   1   7   0.0013   0.0011   0.0090   0.0003  -0.0012   0.0018  -5.00  695.4
2024/04/02 11:18:26.000   28.292096431  -16.539706141  2334.4371   1   7   0.0013   0.0011   0.0090   0.0003  -0.0012   0.0018  -4.00  693.3
2024/04/02 11:18:27.000   28.292096431  -16.539706141  2334.4370   1   7   0.0013   0.0011   0.0090   0.0003  -0.0012   0.0018  -3.00  692.5
2024/04/02 11:18:28.000   28.292096431  -16.539706141  2334.4370   1   7   0.0013   0.0011   0.0090   0.0003  -0.0012   0.0018  -2.00  690.2
2024/04/02 11:18:29.000   28.292096431  -16.539706141  2334.4369   1   7   0.0013   0.0011   0.0090   0.0003  -0.0012   0.0018  -1.00  688.5
2024/04/02 11:18:30.000   28.292096428  -16.539706148  2334.4423   1   7   0.0013   0.0011   0.0087   0.0003  -0.0009   0.0018   0.00    4.0
2024/04/02 11:18:31.000   28.292096428  -16.539706148  2334.4422   1   7   0.0013   0.0011   0.0087   0.0003  -0.0009   0.0018   1.00    3.9
2024/04/02 11:18:32.000   28.292096428  -16.539706148  2334.4422   1   7   0.0013   0.0011   0.0087   0.0003  -0.0009   0.0018   2.00    3.9
2024/04/02 11:18:33.000   28.292096428  -16.539706147  2334.4421   1   7   0.0013   0.0011   0.0087   0.0003  -0.0009   0.0018   3.00    3.8
2024/04/02 11:18:34.001   28.292096428  -16.539706147  2334.4422   1   7   0.0013   0.0011   0.0087   0.0003  -0.0009   0.0018   4.00    3.9
2024/04/02 11:18:35.000   28.292096428  -16.539706147  2334.4421   1   7   0.0013   0.0011   0.0087   0.0003  -0.0009   0.0018   5.00    3.9
2024/04/02 11:18:36.000   28.292096428  -16.539706147  2334.4421   1   7   0.0013   0.0011   0.0087   0.0003  -0.0009   0.0018   6.00    3.9
2024/04/02 11:18:37.000   28.292096428  -16.539706147  2334.4421   1   7   0.0013   0.0011   0.0087   0.0003  -0.0009   0.0018   7.00    3.9
2024/04/02 11:18:38.000   28.292096428  -16.539706147  2334.4422   1   7   0.0013   0.0011   0.0087   0.0003  -0.0009   0.0018   8.00    3.9
2024/04/02 11:18:39.000   28.292096428  -16.539706147  2334.4422   1   7   0.0012   0.0011   0.0087   0.0003  -0.0009   0.0018   9.00    3.9
2024/04/02 11:18:40.000   28.292096428  -16.539706147  2334.4422   1   7   0.0012   0.0011   0.0087   0.0003  -0.0009   0.0018  10.00    3.9
2024/04/02 11:18:41.000   28.292096428  -16.539706147  2334.4422   1   7   0.0012   0.0011   0.0087   0.0003  -0.0009   0.0018  11.00    3.9
2024/04/02 11:18:42.000   28.292096428  -16.539706147  2334.4422   1   7   0.0012   0.0011   0.0087   0.0003  -0.0009   0.0018  12.00    3.9
2024/04/02 11:18:43.000   28.292096428  -16.539706147  2334.4422   1   7   0.0012   0.0011   0.0087   0.0003  -0.0009   0.0018  13.00    3.9
2024/04/02 11:18:44.000   28.292096428  -16.539706147  2334.4422   1   7   0.0012   0.0011   0.0087   0.0003  -0.0009   0.0018  14.00    3.9
2024/04/02 11:18:45.000   28.292096428  -16.539706147  2334.4422   1   7   0.0012   0.0011   0.0087   0.0003  -0.0009   0.0018 -15.00    4.0
2024/04/02 11:18:46.000   28.292096428  -16.539706147  2334.4422   1   7   0.0012   0.0011   0.0087   0.0003  -0.0009   0.0018 -14.00    4.0
2024/04/02 11:18:47.000   28.292096428  -16.539706147  2334.4423   1   7   0.0012   0.0011   0.0087   0.0003  -0.0009   0.0018 -13.00    4.0
2024/04/02 11:18:48.000   28.292096428  -16.539706147  2334.4423   1   7   0.0012   0.0011   0.0087   0.0003  -0.0009   0.0018 -12.00    4.1
2024/04/02 11:18:49.000   28.292096428  -16.539706147  2334.4423   1   7   0.0012   0.0011   0.0087   0.0003  -0.0009   0.0017 -11.00    4.1
2024/04/02 11:18:50.000   28.292096428  -16.539706147  2334.4423   1   7   0.0012   0.0011   0.0087   0.0003  -0.0009   0.0017 -10.00   13.7
2024/04/02 11:18:51.000   28.292096428  -16.539706147  2334.4423   1   7   0.0012   0.0011   0.0087   0.0003  -0.0009   0.0017  -9.00   22.6
2024/04/02 11:18:52.000   28.292096428  -16.539706147  2334.4423   1   7   0.0012   0.0010   0.0087   0.0003  -0.0009   0.0017  -8.00   30.7
2024/04/02 11:18:53.000   28.292096428  -16.539706147  2334.4424   1   7   0.0012   0.0010   0.0087   0.0003  -0.0009   0.0017  -7.00   37.1
2024/04/02 11:18:54.000   28.292096428  -16.539706147  2334.4424   1   7   0.0012   0.0010   0.0087   0.0003  -0.0009   0.0017  -6.00   43.9
2024/04/02 11:18:55.000   28.292096428  -16.539706147  2334.4424   1   7   0.0012   0.0010   0.0087   0.0003  -0.0009   0.0017  -5.00   51.0
2024/04/02 11:18:56.000   28.292096428  -16.539706147  2334.4424   1   7   0.0012   0.0010   0.0087   0.0003  -0.0009   0.0017  -4.00   58.4
2024/04/02 11:18:57.000   28.292096428  -16.539706147  2334.4424   1   7   0.0012   0.0010   0.0087   0.0003  -0.0009   0.0017  -3.00   66.5
2024/04/02 11:18:58.000   28.292096428  -16.539706147  2334.4425   1   7   0.0012   0.0010   0.0087   0.0003  -0.0009   0.0017  -2.00   74.9
2024/04/02 11:18:59.000   28.292096428  -16.539706147  2334.4424   1   7   0.0012   0.0010   0.0087   0.0003  -0.0009   0.0017  -1.00   83.4
2024/04/02 11:19:00.000   28.292096428  -16.539706147  2334.4425   1   7   0.0012   0.0010   0.0087   0.0003  -0.0009   0.0017   0.00   91.9
2024/04/02 11:19:01.000   28.292096428  -16.539706147  2334.4425   1   7   0.0012   0.0010   0.0087   0.0003  -0.0009   0.0017   1.00   97.8
2024/04/02 11:19:02.000   28.292096428  -16.539706147  2334.4425   1   7   0.0012   0.0010   0.0087   0.0003  -0.0009   0.0017   2.00  105.8
2024/04/02 11:19:03.000   28.292096428  -16.539706147  2334.4425   1   7   0.0012   0.0010   0.0087   0.0003  -0.0009   0.0017   3.00  115.4
2024/04/02 11:19:04.000   28.292096428  -16.539706147  2334.4425   1   7   0.0012   0.0010   0.0087   0.0003  -0.0009   0.0017   4.00  123.4
2024/04/02 11:19:05.000   28.292096428  -16.539706147  2334.4425   1   7   0.0012   0.0010   0.0087   0.0003  -0.0009   0.0017   5.00  132.4
2024/04/02 11:19:06.000   28.292096428  -16.539706147  2334.4425   1   7   0.0012   0.0010   0.0087   0.0003  -0.0009   0.0017   6.00  139.8
2024/04/02 11:19:07.000   28.292096428  -16.539706147  2334.4426   1   7   0.0012   0.0010   0.0087   0.0003  -0.0009   0.0017   7.00  148.5
2024/04/02 11:19:08.000   28.292096428  -16.539706147  2334.4426   1   7   0.0012   0.0010   0.0087   0.0003  -0.0009   0.0017   8.00  158.7
2024/04/02 11:19:09.000   28.292096428  -16.539706147  2334.4426   1   7   0.0012   0.0010   0.0087   0.0003  -0.0009   0.0017   9.00  168.3
2024/04/02 11:19:10.000   28.292096428  -16.539706147  2334.4426   1   7   0.0012   0.0010   0.0087   0.0003  -0.0009   0.0017  10.00  178.3
2024/04/02 11:19:11.000   28.292096428  -16.539706147  2334.4427   1   7   0.0012   0.0010   0.0087   0.0003  -0.0009   0.0017  11.00  188.4
2024/04/02 11:19:12.000   28.292096428  -16.539706147  2334.4427   1   7   0.0012   0.0010   0.0087   0.0003  -0.0009   0.0017  12.00  199.2
2024/04/02 11:19:13.000   28.292096428  -16.539706147  2334.4427   1   7   0.0012   0.0010   0.0087   0.0003  -0.0009   0.0017  13.00  210.3
2024/04/02 11:19:14.000   28.292096428  -16.539706147  2334.4427   1   7   0.0012   0.0010   0.0087   0.0003  -0.0009   0.0017  14.00  221.8
2024/04/02 11:19:15.000   28.292096428  -16.539706147  2334.4427   1   7   0.0012   0.0010   0.0087   0.0003  -0.0009   0.0017 -15.00  234.0
2024/04/02 11:19:16.000   28.292096428  -16.539706147  2334.4427   1   7   0.0012   0.0010   0.0087   0.0003  -0.0009   0.0017 -14.00  246.2
2024/04/02 11:19:17.000   28.292096428  -16.539706147  2334.4428   1   7   0.0012   0.0010   0.0087   0.0003  -0.0009   0.0017 -13.00  258.7
2024/04/02 11:19:18.000   28.292096428  -16.539706147  2334.4428   1   7   0.0012   0.0010   0.0087   0.0003  -0.0009   0.0017 -12.00  271.6
2024/04/02 11:19:19.000   28.292096428  -16.539706147  2334.4428   1   7   0.0012   0.0010   0.0087   0.0003  -0.0009   0.0017 -11.00  285.0
2024/04/02 11:19:20.000   28.292096428  -16.539706147  2334.4428   1   7   0.0012   0.0010   0.0087   0.0003  -0.0009   0.0017 -10.00  298.7
2024/04/02 11:19:21.000   28.292096428  -16.539706147  2334.4429   1   7   0.0012   0.0010   0.0087   0.0003  -0.0008   0.0017  -9.00  312.8
2024/04/02 11:19:22.000   28.292096428  -16.539706147  2334.4429   1   7   0.0012   0.0010   0.0087   0.0003  -0.0008   0.0017  -8.00  327.2
2024/04/02 11:19:23.000   28.292096428  -16.539706147  2334.4429   1   7   0.0012   0.0010   0.0087   0.0003  -0.0008   0.0017  -7.00  343.1
2024/04/02 11:19:24.000   28.292096428  -16.539706147  2334.4429   1   7   0.0012   0.0010   0.0087   0.0003  -0.0008   0.0017  -6.00  360.1
2024/04/02 11:19:25.000   28.292096428  -16.539706147  2334.4429   1   7   0.0012   0.0010   0.0087   0.0003  -0.0008   0.0017  -5.00  376.4
2024/04/02 11:19:26.000   28.292096428  -16.539706147  2334.4429   1   7   0.0012   0.0010   0.0087   0.0003  -0.0008   0.0017  -4.00  392.4
2024/04/02 11:19:27.000   28.292096428  -16.539706147  2334.4430   1   7   0.0012   0.0010   0.0087   0.0003  -0.0008   0.0017  -3.00  413.1
2024/04/02 11:19:28.000   28.292096428  -16.539706147  2334.4430   1   7   0.0012   0.0010   0.0086   0.0003  -0.0008   0.0017  -2.00  432.3
2024/04/02 11:19:29.000   28.292096428  -16.539706147  2334.4431   1   7   0.0012   0.0010   0.0086   0.0003  -0.0008   0.0017  -1.00  449.2
2024/04/02 11:19:30.000   28.292096428  -16.539706147  2334.4431   1   7   0.0012   0.0010   0.0086   0.0003  -0.0008   0.0017   0.00  468.2
2024/04/02 11:19:31.000   28.292096428  -16.539706147  2334.4431   1   7   0.0012   0.0010   0.0086   0.0003  -0.0008   0.0017   1.00  477.9
2024/04/02 11:19:32.000   28.292096428  -16.539706147  2334.4431   1   7   0.0012   0.0010   0.0086   0.0003  -0.0008   0.0017   2.00  492.0
2024/04/02 11:19:33.000   28.292096428  -16.539706147  2334.4431   1   7   0.0012   0.0010   0.0086   0.0003  -0.0008   0.0017   3.00  503.9
2024/04/02 11:19:34.000   28.292096428  -16.539706147  2334.4431   1   7   0.0012   0.0010   0.0086   0.0003  -0.0008   0.0017   4.00  515.1
2024/04/02 11:19:35.000   28.292096428  -16.539706147  2334.4431   1   7   0.0012   0.0010   0.0086   0.0003  -0.0008   0.0017   5.00  532.1
2024/04/02 11:19:36.000   28.292096428  -16.539706147  2334.4431   1   7   0.0012   0.0010   0.0086   0.0003  -0.0008   0.0017   6.00  548.2
2024/04/02 11:19:37.000   28.292096428  -16.539706147  2334.4432   1   7   0.0012   0.0010   0.0086   0.0003  -0.0008   0.0017   7.00  568.6
2024/04/02 11:19:38.000   28.292096428  -16.539706146  2334.4431   1   7   0.0012   0.0010   0.0086   0.0003  -0.0008   0.0017   8.00  586.1
2024/04/02 11:19:39.000   28.292096428  -16.539706147  2334.4432   1   7   0.0012   0.0010   0.0086   0.0003  -0.0008   0.0017   9.00  607.8
2024/04/02 11:19:40.000   28.292096428  -16.539706147  2334.4432   1   7   0.0012   0.0010   0.0086   0.0003  -0.0008   0.0017  10.00  630.4
2024/04/02 11:19:41.000   28.292096428  -16.539706146  2334.4432   1   7   0.0012   0.0010   0.0086   0.0003  -0.0008   0.0017  11.00  649.7
2024/04/02 11:19:42.000   28.292096428  -16.539706146  2334.4432   1   7   0.0012   0.0010   0.0086   0.0003  -0.0008   0.0017  12.00  668.2
2024/04/02 11:19:43.000   28.292096428  -16.539706146  2334.4432   1   7   0.0012   0.0010   0.0086   0.0003  -0.0008   0.0017  13.00  688.1
2024/04/02 11:19:44.000   28.292096427  -16.539706146  2334.4432   1   7   0.0012   0.0010   0.0086   0.0003  -0.0008   0.0017  14.00  709.5
2024/04/02 11:19:45.000   28.292096427  -16.539706146  2334.4432   1   7   0.0012   0.0010   0.0086   0.0003  -0.0008   0.0017 -15.00  730.9
2024/04/02 11:19:46.000   28.292096427  -16.539706146  2334.4432   1   7   0.0012   0.0010   0.0086   0.0003  -0.0008   0.0017 -14.00  753.5
2024/04/02 11:19:47.000   28.292096427  -16.539706146  2334.4432   1   7   0.0012   0.0010   0.0086   0.0003  -0.0008   0.0017 -13.00  774.5
2024/04/02 11:19:48.000   28.292096427  -16.539706146  2334.4432   1   7   0.0012   0.0010   0.0086   0.0003  -0.0008   0.0017 -12.00  798.6
2024/04/02 11:19:49.000   28.292096427  -16.539706146  2334.4432   1   7   0.0012   0.0010   0.0086   0.0003  -0.0008   0.0017 -11.00  820.8
2024/04/02 11:19:50.000   28.292096427  -16.539706146  2334.4432   1   7   0.0012   0.0010   0.0086   0.0003  -0.0008   0.0017 -10.00  844.4
2024/04/02 11:19:51.000   28.292096427  -16.539706146  2334.4433   1   7   0.0012   0.0010   0.0086   0.0003  -0.0008   0.0017  -9.00  870.5
2024/04/02 11:19:52.000   28.292096427  -16.539706146  2334.4433   1   7   0.0012   0.0010   0.0086   0.0003  -0.0008   0.0017  -8.00  894.5
2024/04/02 11:19:53.000   28.292096427  -16.539706146  2334.4433   1   7   0.0012   0.0010   0.0086   0.0003  -0.0008   0.0017  -7.00  920.7
2024/04/02 11:19:54.000   28.292096427  -16.539706146  2334.4433   1   7   0.0012   0.0010   0.0086   0.0003  -0.0008   0.0017  -6.00  945.5
2024/04/02 11:19:55.000   28.292096427  -16.539706146  2334.4432   1   7   0.0012   0.0010   0.0086   0.0003  -0.0008   0.0017  -5.00  969.2
2024/04/02 11:19:56.000   28.292096427  -16.539706146  2334.4432   1   7   0.0012   0.0010   0.0086   0.0003  -0.0008   0.0017  -4.00  989.3
2024/04/02 11:19:57.000   28.292096427  -16.539706146  2334.4433   1   7   0.0012   0.0010   0.0086   0.0003  -0.0008   0.0017  -3.00  999.9
2024/04/02 11:19:58.000   28.292096427  -16.539706146  2334.4432   1   7   0.0012   0.0010   0.0086   0.0003  -0.0008   0.0017  -2.00  999.9
2024/04/02 11:19:59.000   28.292096427  -16.539706146  2334.4433   1   7   0.0012   0.0010   0.0086   0.0003  -0.0008   0.0017  -1.00  999.9
2024/04/02 11:20:00.000   28.292096427  -16.539706146  2334.4433   1   7   0.0012   0.0010   0.0086   0.0003  -0.0008   0.0017   0.00  999.9
2024/04/02 11:20:01.000   28.292096427  -16.539706146  2334.4433   1   7   0.0012   0.0010   0.0086   0.0003  -0.0008   0.0017   1.00  999.9
2024/04/02 11:20:02.000   28.292096427  -16.539706146  2334.4433   1   7   0.0012   0.0010   0.0086   0.0003  -0.0008   0.0017   2.00  999.9
2024/04/02 11:20:03.000   28.292096427  -16.539706146  2334.4433   1   7   0.0012   0.0010   0.0086   0.0003  -0.0008   0.0017   3.00  999.9
2024/04/02 11:20:04.000   28.292096427  -16.539706146  2334.4434   1   7   0.0012   0.0010   0.0086   0.0003  -0.0008   0.0017   4.00  999.9
2024/04/02 11:20:05.000   28.292096427  -16.539706146  2334.4434   1   7   0.0012   0.0010   0.0086   0.0003  -0.0008   0.0017   5.00  999.9
2024/04/02 11:20:06.000   28.292096427  -16.539706146  2334.4434   1   7   0.0012   0.0010   0.0086   0.0003  -0.0008   0.0017   6.00  999.9
2024/04/02 11:20:07.000   28.292096427  -16.539706146  2334.4434   1   7   0.0012   0.0010   0.0086   0.0003  -0.0008   0.0017   7.00  999.9
2024/04/02 11:20:08.000   28.292096427  -16.539706146  2334.4434   1   7   0.0012   0.0010   0.0086   0.0003  -0.0008   0.0017   8.00  999.9
2024/04/02 11:20:09.000   28.292096427  -16.539706146  2334.4434   1   7   0.0012   0.0010   0.0086   0.0003  -0.0008   0.0017   9.00  999.9
2024/04/02 11:20:10.000   28.292096427  -16.539706146  2334.4434   1   7   0.0012   0.0010   0.0086   0.0003  -0.0008   0.0017  10.00  999.9
2024/04/02 11:20:11.000   28.292096427  -16.539706146  2334.4435   1   7   0.0012   0.0010   0.0086   0.0003  -0.0008   0.0017  11.00  999.9
2024/04/02 11:20:12.000   28.292096427  -16.539706146  2334.4435   1   7   0.0012   0.0010   0.0086   0.0003  -0.0008   0.0017  12.00  999.9
2024/04/02 11:20:13.000   28.292096427  -16.539706146  2334.4435   1   7   0.0012   0.0010   0.0086   0.0003  -0.0008   0.0017  13.00  999.9
2024/04/02 11:20:14.000   28.292096427  -16.539706146  2334.4435   1   7   0.0012   0.0010   0.0086   0.0003  -0.0008   0.0017  14.00  999.9
2024/04/02 11:20:15.000   28.292096427  -16.539706146  2334.4435   1   7   0.0012   0.0010   0.0086   0.0003  -0.0008   0.0017 -15.00  999.9
2024/04/02 11:20:16.000   28.292096427  -16.539706146  2334.4436   1   7   0.0012   0.0010   0.0086   0.0003  -0.0008   0.0017 -14.00  999.9
2024/04/02 11:20:17.000   28.292096427  -16.539706146  2334.4436   1   7   0.0012   0.0010   0.0086   0.0003  -0.0008   0.0017 -13.00  999.9
2024/04/02 11:20:18.000   28.292096427  -16.539706146  2334.4436   1   7   0.0012   0.0010   0.0086   0.0003  -0.0008   0.0017 -12.00  999.9
2024/04/02 11:20:19.000   28.292096427  -16.539706146  2334.4436   1   7   0.0012   0.0010   0.0086   0.0003  -0.0008   0.0017 -11.00  999.9
2024/04/02 11:20:20.000   28.292096427  -16.539706146  2334.4436   1   7   0.0012   0.0010   0.0086   0.0003  -0.0008   0.0017 -10.00  999.9
2024/04/02 11:20:21.000   28.292096427  -16.539706146  2334.4437   1   7   0.0012   0.0010   0.0086   0.0003  -0.0008   0.0017  -9.00  999.9
2024/04/02 11:20:22.000   28.292096427  -16.539706146  2334.4437   1   7   0.0012   0.0010   0.0086   0.0003  -0.0008   0.0017  -8.00  999.9
2024/04/02 11:20:23.000   28.292096427  -16.539706146  2334.4437   1   7   0.0012   0.0010   0.0086   0.0003  -0.0008   0.0017  -7.00  999.9
2024/04/02 11:20:24.000   28.292096427  -16.539706146  2334.4437   1   7   0.0012   0.0010   0.0086   0.0003  -0.0008   0.0017  -6.00  999.9
2024/04/02 11:20:25.000   28.292096427  -16.539706146  2334.4437   1   7   0.0012   0.0010   0.0086   0.0003  -0.0008   0.0017  -5.00  999.9
2024/04/02 11:20:26.000   28.292096427  -16.539706146  2334.4438   1   7   0.0012   0.0010   0.0086   0.0003  -0.0008   0.0017  -4.00  999.9
2024/04/02 11:20:27.000   28.292096427  -16.539706146  2334.4438   1   7   0.0012   0.0010   0.0086   0.0003  -0.0008   0.0017  -3.00  999.9
2024/04/02 11:20:28.000   28.292096427  -16.539706146  2334.4439   1   7   0.0012   0.0010   0.0086   0.0003  -0.0008   0.0017  -2.00  999.9
2024/04/02 11:20:29.000   28.292096427  -16.539706146  2334.4439   1   7   0.0012   0.0010   0.0086   0.0003  -0.0008   0.0017  -1.00  999.9
2024/04/02 11:20:30.000   28.292096427  -16.539706146  2334.4440   1   7   0.0012   0.0010   0.0086   0.0003  -0.0008   0.0017   0.00  999.9
2024/04/02 11:20:31.000   28.292096427  -16.539706146  2334.4440   1   7   0.0012   0.0010   0.0086   0.0003  -0.0008   0.0017   1.00  999.9
2024/04/02 11:20:32.000   28.292096427  -16.539706146  2334.4440   1   7   0.0012   0.0010   0.0086   0.0003  -0.0008   0.0017   2.00  999.9
2024/04/02 11:20:33.000   28.292096427  -16.539706146  2334.4440   1   7   0.0012   0.0010   0.0086   0.0003  -0.0008   0.0017   3.00  999.9
2024/04/02 11:20:34.000   28.292096427  -16.539706146  2334.4439   1   7   0.0012   0.0010   0.0086   0.0003  -0.0008   0.0017   4.00  999.9
2024/04/02 11:20:35.000   28.292096427  -16.539706146  2334.4440   1   7   0.0012   0.0010   0.0086   0.0003  -0.0008   0.0017   5.00  999.9
2024/04/02 11:20:36.000   28.292096427  -16.539706146  2334.4440   1   7   0.0012   0.0010   0.0086   0.0003  -0.0008   0.0017   6.00  999.9
2024/04/02 11:20:37.000   28.292096427  -16.539706146  2334.4440   1   7   0.0012   0.0010   0.0086   0.0003  -0.0008   0.0017   7.00  999.9
2024/04/02 11:20:38.000   28.292096427  -16.539706146  2334.4440   1   7   0.0012   0.0010   0.0086   0.0003  -0.0008   0.0017   8.00  999.9
2024/04/02 11:20:39.000   28.292096427  -16.539706146  2334.4440   1   7   0.0012   0.0010   0.0086   0.0003  -0.0008   0.0017   9.00  999.9
2024/04/02 11:20:40.000   28.292096427  -16.539706145  2334.4440   1   7   0.0012   0.0010   0.0086   0.0003  -0.0008   0.0017  10.00  999.9
2024/04/02 11:20:41.000   28.292096427  -16.539706145  2334.4440   1   7   0.0012   0.0010   0.0086   0.0003  -0.0008   0.0017  11.00  999.9
2024/04/02 11:20:42.000   28.292096427  -16.539706145  2334.4440   1   7   0.0012   0.0010   0.0086   0.0003  -0.0008   0.0017  12.00  999.9
2024/04/02 11:20:43.000   28.292096427  -16.539706145  2334.4440   1   7   0.0012   0.0010   0.0086   0.0003  -0.0008   0.0017  13.00  999.9
2024/04/02 11:20:44.000   28.292096427  -16.539706145  2334.4440   1   7   0.0012   0.0010   0.0086   0.0003  -0.0008   0.0017  14.00  999.9
2024/04/02 11:20:45.000   28.292096427  -16.539706145  2334.4440   1   7   0.0012   0.0010   0.0086   0.0003  -0.0008   0.0017 -15.00  999.9
2024/04/02 11:20:46.000   28.292096427  -16.539706145  2334.4441   1   7   0.0012   0.0010   0.0086   0.0003  -0.0008   0.0017 -14.00  999.9
2024/04/02 11:20:47.000   28.292096427  -16.539706145  2334.4441   1   7   0.0012   0.0010   0.0086   0.0003  -0.0008   0.0017 -13.00  999.9
2024/04/02 11:20:48.000   28.292096427  -16.539706145  2334.4441   1   7   0.0012   0.0010   0.0086   0.0003  -0.0008   0.0017 -12.00  999.9
2024/04/02 11:20:49.000   28.292096427  -16.539706145  2334.4441   1   7   0.0012   0.0010   0.0086   0.0003  -0.0008   0.0017 -11.00  999.9
2024/04/02 11:20:50.000   28.292096427  -16.539706145  2334.4441   1   7   0.0012   0.0010   0.0086   0.0003  -0.0008   0.0017 -10.00  999.9
2024/04/02 11:20:51.000   28.292096427  -16.539706145  2334.4441   1   7   0.0012   0.0010   0.0086   0.0003  -0.0008   0.0017  -9.00  999.9
2024/04/02 11:20:52.000   28.292096427  -16.539706145  2334.4441   1   7   0.0012   0.0010   0.0086   0.0003  -0.0008   0.0017  -8.00  999.9
2024/04/02 11:20:53.000   28.292096427  -16.539706145  2334.4441   1   7   0.0012   0.0010   0.0086   0.0003  -0.0008   0.0017  -7.00  999.9
2024/04/02 11:20:54.000   28.292096427  -16.539706145  2334.4442   1   7   0.0012   0.0010   0.0086   0.0003  -0.0008   0.0017  -6.00  999.9
2024/04/02 11:20:55.000   28.292096427  -16.539706145  2334.4442   1   7   0.0012   0.0010   0.0086   0.0003  -0.0008   0.0017  -5.00  999.9
2024/04/02 11:20:56.000   28.292096427  -16.539706145  2334.4443   1   7   0.0012   0.0010   0.0086   0.0003  -0.0008   0.0017  -4.00  999.9
2024/04/02 11:20:57.000   28.292096427  -16.539706145  2334.4443   1   7   0.0012   0.0010   0.0086   0.0003  -0.0008   0.0017  -3.00  999.9
2024/04/02 11:20:58.000   28.292096427  -16.539706146  2334.4444   1   7   0.0012   0.0010   0.0086   0.0003  -0.0008   0.0017  -2.00  999.9
2024/04/02 11:20:59.000   28.292096427  -16.539706146  2334.4445   1   7   0.0012   0.0010   0.0086   0.0003  -0.0008   0.0017  -1.00  999.9
2024/04/02 11:21:00.000   28.292096427  -16.539706146  2334.4445   1   7   0.0012   0.0010   0.0086   0.0003  -0.0008   0.0017   0.00  999.9
2024/04/02 11:21:01.000   28.292096427  -16.539706145  2334.4445   1   7   0.0012   0.0010   0.0086   0.0003  -0.0008   0.0017   1.00  999.9
2024/04/02 11:21:02.000   28.292096427  -16.539706145  2334.4444   1   7   0.0012   0.0010   0.0086   0.0003  -0.0008   0.0017   2.00  999.9
2024/04/02 11:21:03.000   28.292096427  -16.539706145  2334.4445   1   7   0.0012   0.0010   0.0086   0.0003  -0.0008   0.0017   3.00  999.9
2024/04/02 11:21:04.000   28.292096427  -16.539706145  2334.4444   1   7   0.0012   0.0010   0.0086   0.0003  -0.0008   0.0017   4.00  999.9
2024/04/02 11:21:05.000   28.292096427  -16.539706145  2334.4445   1   7   0.0012   0.0010   0.0086   0.0003  -0.0008   0.0017   5.00  999.9
2024/04/02 11:21:06.000   28.292096427  -16.539706145  2334.4445   1   7   0.0012   0.0010   0.0086   0.0003  -0.0008   0.0017   6.00  999.9
2024/04/02 11:21:07.000   28.292096427  -16.539706145  2334.4445   1   7   0.0012   0.0010   0.0086   0.0003  -0.0008   0.0017   7.00  999.9
2024/04/02 11:21:08.000   28.292096427  -16.539706145  2334.4445   1   7   0.0012   0.0010   0.0086   0.0003  -0.0008   0.0017   8.00  999.9
2024/04/02 11:21:09.000   28.292096427  -16.539706145  2334.4445   1   7   0.0012   0.0010   0.0086   0.0003  -0.0008   0.0017   9.00  999.9
2024/04/02 11:21:10.000   28.292096427  -16.539706145  2334.4446   1   7   0.0012   0.0010   0.0086   0.0003  -0.0008   0.0017  10.00  999.9
2024/04/02 11:21:11.000   28.292096427  -16.539706145  2334.4446   1   7   0.0012   0.0010   0.0086   0.0003  -0.0008   0.0017  11.00  999.9
2024/04/02 11:21:12.000   28.292096427  -16.539706145  2334.4446   1   7   0.0012   0.0010   0.0086   0.0003  -0.0008   0.0017  12.00  999.9
2024/04/02 11:21:13.000   28.292096427  -16.539706145  2334.4446   1   7   0.0012   0.0010   0.0086   0.0003  -0.0008   0.0017  13.00  999.9
2024/04/02 11:21:14.000   28.292096427  -16.539706145  2334.4446   1   7   0.0012   0.0010   0.0086   0.0003  -0.0008   0.0017  14.00  999.9
2024/04/02 11:21:15.000   28.292096427  -16.539706145  2334.4446   1   7   0.0012   0.0010   0.0086   0.0003  -0.0008   0.0017 -15.00  999.9
2024/04/02 11:21:16.000   28.292096427  -16.539706145  2334.4447   1   7   0.0012   0.0010   0.0086   0.0003  -0.0008   0.0017 -14.00  999.9
2024/04/02 11:21:17.000   28.292096427  -16.539706145  2334.4447   1   7   0.0012   0.0010   0.0086   0.0003  -0.0008   0.0017 -13.00  999.9
2024/04/02 11:21:18.000   28.292096427  -16.539706145  2334.4447   1   7   0.0012   0.0010   0.0086   0.0003  -0.0008   0.0017 -12.00  999.9
2024/04/02 11:21:19.000   28.292096427  -16.539706145  2334.4447   1   7   0.0012   0.0010   0.0086   0.0003  -0.0008   0.0017 -11.00  999.9
2024/04/02 11:21:20.000   28.292096426  -16.539706145  2334.4447   1   7   0.0012   0.0010   0.0085   0.0003  -0.0008   0.0017 -10.00  999.9
2024/04/02 11:21:21.000   28.292096427  -16.539706145  2334.4447   1   7   0.0012   0.0010   0.0085   0.0003  -0.0008   0.0016  -9.00  999.9
2024/04/02 11:21:22.000   28.292096426  -16.539706145  2334.4447   1   7   0.0012   0.0010   0.0085   0.0003  -0.0008   0.0016  -8.00  999.9
2024/04/02 11:21:23.000   28.292096426  -16.539706145  2334.4448   1   7   0.0012   0.0010   0.0085   0.0003  -0.0008   0.0016  -7.00  999.9
2024/04/02 11:21:24.000   28.292096426  -16.539706145  2334.4448   1   7   0.0012   0.0010   0.0085   0.0003  -0.0008   0.0016  -6.00  999.9
2024/04/02 11:21:25.000   28.292096426  -16.539706145  2334.4448   1   7   0.0012   0.0010   0.0085   0.0003  -0.0008   0.0016  -5.00  999.9
2024/04/02 11:21:26.000   28.292096426  -16.539706145  2334.4449   1   7   0.0012   0.0010   0.0085   0.0003  -0.0008   0.0016  -4.00  999.9
2024/04/02 11:21:27.000   28.292096426  -16.539706145  2334.4449   1   7   0.0012   0.0010   0.0085   0.0003  -0.0008   0.0016  -3.00  999.9
2024/04/02 11:21:28.000   28.292096426  -16.539706145  2334.4449   1   7   0.0012   0.0010   0.0085   0.0003  -0.0008   0.0016  -2.00  999.9
2024/04/02 11:21:29.000   28.292096426  -16.539706145  2334.4450   1   7   0.0012   0.0010   0.0085   0.0003  -0.0008   0.0016  -1.00  999.9
2024/04/02 11:21:30.000   28.292096426  -16.539706145  2334.4451   1   7   0.0012   0.0010   0.0085   0.0003  -0.0008   0.0016   0.00  999.9
2024/04/02 11:21:31.000   28.292096426  -16.539706145  2334.4451   1   7   0.0012   0.0010   0.0085   0.0003  -0.0008   0.0016   1.00  999.9
2024/04/02 11:21:32.000   28.292096426  -16.539706145  2334.4451   1   7   0.0012   0.0010   0.0085   0.0003  -0.0008   0.0016   2.00  999.9
2024/04/02 11:21:33.000   28.292096426  -16.539706145  2334.4452   1   7   0.0012   0.0010   0.0085   0.0003  -0.0008   0.0016   3.00  999.9
2024/04/02 11:21:34.000   28.292096426  -16.539706145  2334.4452   1   7   0.0012   0.0010   0.0085   0.0003  -0.0008   0.0016   4.00  999.9
2024/04/02 11:21:35.000   28.292096426  -16.539706145  2334.4452   1   7   0.0012   0.0010   0.0085   0.0003  -0.0008   0.0016   5.00  999.9
2024/04/02 11:21:36.000   28.292096426  -16.539706145  2334.4453   1   7   0.0012   0.0010   0.0085   0.0003  -0.0008   0.0016   6.00  999.9
2024/04/02 11:21:37.000   28.292096426  -16.539706145  2334.4453   1   7   0.0012   0.0010   0.0085   0.0003  -0.0008   0.0016   7.00  999.9
2024/04/02 11:21:38.000   28.292096426  -16.539706145  2334.4453   1   7   0.0012   0.0010   0.0085   0.0003  -0.0008   0.0016   8.00  999.9
2024/04/02 11:21:39.000   28.292096426  -16.539706145  2334.4453   1   7   0.0012   0.0010   0.0085   0.0003  -0.0008   0.0016   9.00  999.9
2024/04/02 11:21:40.000   28.292096426  -16.539706145  2334.4454   1   7   0.0012   0.0010   0.0085   0.0003  -0.0008   0.0016  10.00  999.9
2024/04/02 11:21:41.000   28.292096426  -16.539706145  2334.4454   1   7   0.0012   0.0010   0.0085   0.0003  -0.0008   0.0016  11.00  999.9
2024/04/02 11:21:42.000   28.292096426  -16.539706145  2334.4454   1   7   0.0012   0.0010   0.0085   0.0003  -0.0008   0.0016  12.00  999.9
2024/04/02 11:21:43.000   28.292096426  -16.539706145  2334.4454   1   7   0.0012   0.0010   0.0085   0.0003  -0.0008   0.0016  13.00  999.9
2024/04/02 11:21:44.000   28.292096426  -16.539706145  2334.4455   1   7   0.0012   0.0010   0.0085   0.0003  -0.0008   0.0016  14.00  999.9
2024/04/02 11:21:45.000   28.292096426  -16.539706145  2334.4455   1   7   0.0012   0.0010   0.0085   0.0003  -0.0008   0.0016 -15.00  999.9
2024/04/02 11:21:46.000   28.292096426  -16.539706145  2334.4455   1   7   0.0012   0.0010   0.0085   0.0003  -0.0008   0.0016 -14.00  999.9
2024/04/02 11:21:47.000   28.292096426  -16.539706145  2334.4455   1   7   0.0012   0.0010   0.0085   0.0003  -0.0008   0.0016 -13.00  999.9
2024/04/02 11:21:48.000   28.292096426  -16.539706145  2334.4456   1   7   0.0012   0.0010   0.0085   0.0003  -0.0008   0.0016 -12.00  999.9
2024/04/02 11:21:49.000   28.292096426  -16.539706145  2334.4456   1   7   0.0012   0.0010   0.0085   0.0003  -0.0007   0.0016 -11.00  999.9
2024/04/02 11:21:50.000   28.292096426  -16.539706145  2334.4456   1   7   0.0012   0.0010   0.0085   0.0003  -0.0007   0.0016 -10.00  999.9
2024/04/02 11:21:51.000   28.292096426  -16.539706145  2334.4457   1   7   0.0012   0.0010   0.0085   0.0003  -0.0007   0.0016  -9.00  999.9
2024/04/02 11:21:52.000   28.292096426  -16.539706145  2334.4457   1   7   0.0012   0.0010   0.0085   0.0003  -0.0007   0.0016  -8.00  999.9
2024/04/02 11:21:53.000   28.292096426  -16.539706145  2334.4457   1   7   0.0012   0.0010   0.0085   0.0003  -0.0007   0.0016  -7.00  999.9
2024/04/02 11:21:54.000   28.292096426  -16.539706145  2334.4458   1   7   0.0012   0.0010   0.0085   0.0003  -0.0007   0.0016  -6.00  999.9
2024/04/02 11:21:55.000   28.292096426  -16.539706145  2334.4458   1   7   0.0012   0.0010   0.0085   0.0003  -0.0007   0.0016  -5.00  999.9
2024/04/02 11:21:56.000   28.292096426  -16.539706145  2334.4459   1   7   0.0012   0.0010   0.0085   0.0003  -0.0007   0.0016  -4.00  999.9
2024/04/02 11:21:57.000   28.292096426  -16.539706145  2334.4459   1   7   0.0012   0.0010   0.0085   0.0003  -0.0007   0.0016  -3.00  999.9
2024/04/02 11:21:58.000   28.292096426  -16.539706145  2334.4460   1   7   0.0012   0.0010   0.0085   0.0003  -0.0007   0.0016  -2.00  999.9
2024/04/02 11:21:59.000   28.292096426  -16.539706145  2334.4461   1   7   0.0012   0.0010   0.0085   0.0003  -0.0007   0.0016  -1.00  999.9
2024/04/02 11:22:00.000   28.292096426  -16.539706145  2334.4462   1   7   0.0012   0.0010   0.0085   0.0003  -0.0007   0.0016   0.00  999.9
2024/04/02 11:22:01.000   28.292096426  -16.539706145  2334.4462   1   7   0.0012   0.0010   0.0085   0.0003  -0.0007   0.0016   1.00  999.9
2024/04/02 11:22:02.000   28.292096426  -16.539706145  2334.4462   1   7   0.0012   0.0010   0.0085   0.0003  -0.0007   0.0016   2.00  999.9
2024/04/02 11:22:03.000   28.292096426  -16.539706145  2334.4463   1   7   0.0012   0.0010   0.0085   0.0003  -0.0007   0.0016   3.00  999.9
2024/04/02 11:22:04.000   28.292096426  -16.539706145  2334.4463   1   7   0.0012   0.0010   0.0085   0.0003  -0.0007   0.0016   4.00  999.9
2024/04/02 11:22:05.000   28.292096426  -16.539706145  2334.4463   1   7   0.0012   0.0010   0.0085   0.0003  -0.0007   0.0016   5.00  999.9
2024/04/02 11:22:06.000   28.292096426  -16.539706145  2334.4463   1   7   0.0012   0.0010   0.0085   0.0003  -0.0007   0.0016   6.00  999.9
2024/04/02 11:22:07.000   28.292096425  -16.539706145  2334.4464   1   7   0.0012   0.0010   0.0085   0.0003  -0.0007   0.0016   7.00  999.9
2024/04/02 11:22:08.000   28.292096425  -16.539706145  2334.4464   1   7   0.0012   0.0010   0.0085   0.0003  -0.0007   0.0016   8.00  999.9
2024/04/02 11:22:09.000   28.292096425  -16.539706145  2334.4464   1   7   0.0012   0.0010   0.0085   0.0003  -0.0007   0.0016   9.00  999.9
2024/04/02 11:22:10.000   28.292096425  -16.539706145  2334.4464   1   7   0.0012   0.0010   0.0085   0.0003  -0.0007   0.0016  10.00  999.9
2024/04/02 11:22:11.000   28.292096425  -16.539706145  2334.4464   1   7   0.0012   0.0010   0.0085   0.0003  -0.0007   0.0016  11.00  999.9
2024/04/02 11:22:12.000   28.292096425  -16.539706145  2334.4464   1   7   0.0012   0.0010   0.0085   0.0003  -0.0007   0.0016  12.00  999.9
2024/04/02 11:22:13.000   28.292096425  -16.539706145  2334.4464   1   7   0.0012   0.0010   0.0085   0.0003  -0.0007   0.0016  13.00  999.9
2024/04/02 11:22:14.000   28.292096425  -16.539706145  2334.4464   1   7   0.0012   0.0010   0.0085   0.0003  -0.0007   0.0016  14.00  999.9
2024/04/02 11:22:15.000   28.292096425  -16.539706145  2334.4465   1   7   0.0012   0.0010   0.0085   0.0003  -0.0007   0.0016 -15.00  999.9
2024/04/02 11:22:16.000   28.292096425  -16.539706145  2334.4465   1   7   0.0012   0.0010   0.0085   0.0003  -0.0007   0.0016 -14.00  999.9
2024/04/02 11:22:17.000   28.292096425  -16.539706145  2334.4465   1   7   0.0012   0.0010   0.0085   0.0003  -0.0007   0.0016 -13.00  999.9
2024/04/02 11:22:18.000   28.292096425  -16.539706145  2334.4465   1   7   0.0012   0.0010   0.0085   0.0003  -0.0007   0.0016 -12.00  999.9
2024/04/02 11:22:19.000   28.292096425  -16.539706145  2334.4465   1   7   0.0012   0.0010   0.0085   0.0003  -0.0007   0.0016 -11.00  999.9
2024/04/02 11:22:20.000   28.292096425  -16.539706145  2334.4465   1   7   0.0012   0.0010   0.0085   0.0003  -0.0007   0.0016 -10.00  999.9
2024/04/02 11:22:21.000   28.292096425  -16.539706145  2334.4465   1   7   0.0012   0.0010   0.0085   0.0003  -0.0007   0.0016  -9.00  999.9
2024/04/02 11:22:22.000   28.292096425  -16.539706145  2334.4465   1   7   0.0012   0.0010   0.0085   0.0003  -0.0007   0.0016  -8.00  999.9
2024/04/02 11:22:23.000   28.292096425  -16.539706145  2334.4465   1   7   0.0012   0.0010   0.0085   0.0003  -0.0007   0.0016  -7.00  999.9
2024/04/02 11:22:24.000   28.292096425  -16.539706145  2334.4465   1   7   0.0012   0.0010   0.0085   0.0003  -0.0007   0.0016  -6.00  999.9
2024/04/02 11:22:25.000   28.292096425  -16.539706145  2334.4465   1   7   0.0012   0.0010   0.0085   0.0003  -0.0007   0.0016  -5.00  999.9
2024/04/02 11:22:26.000   28.292096425  -16.539706145  2334.4466   1   7   0.0012   0.0010   0.0085   0.0003  -0.0007   0.0016  -4.00  999.9
2024/04/02 11:22:27.000   28.292096425  -16.539706145  2334.4466   1   7   0.0012   0.0010   0.0085   0.0003  -0.0007   0.0016  -3.00  999.9
2024/04/02 11:22:28.000   28.292096425  -16.539706145  2334.4467   1   7   0.0012   0.0010   0.0085   0.0003  -0.0007   0.0016  -2.00  999.9
2024/04/02 11:22:29.000   28.292096425  -16.539706145  2334.4468   1   7   0.0012   0.0010   0.0085   0.0003  -0.0007   0.0016  -1.00  999.9
2024/04/02 11:22:30.000   28.292096425  -16.539706145  2334.4468   1   7   0.0012   0.0010   0.0085   0.0003  -0.0007   0.0016   0.00  999.9
2024/04/02 11:22:31.000   28.292096425  -16.539706145  2334.4468   1   7   0.0012   0.0010   0.0085   0.0003  -0.0007   0.0016   1.00  999.9
2024/04/02 11:22:32.000   28.292096425  -16.539706145  2334.4468   1   7   0.0012   0.0010   0.0085   0.0003  -0.0007   0.0016   2.00  999.9
2024/04/02 11:22:33.000   28.292096425  -16.539706145  2334.4468   1   7   0.0012   0.0010   0.0085   0.0003  -0.0007   0.0016   3.00  999.9
2024/04/02 11:22:34.000   28.292096425  -16.539706145  2334.4468   1   7   0.0012   0.0010   0.0085   0.0003  -0.0007   0.0016   4.00  999.9
2024/04/02 11:22:35.000   28.292096425  -16.539706145  2334.4469   1   7   0.0012   0.0010   0.0085   0.0003  -0.0007   0.0016   5.00  999.9
2024/04/02 11:22:36.000   28.292096425  -16.539706145  2334.4468   1   7   0.0012   0.0010   0.0085   0.0003  -0.0007   0.0016   6.00  999.9
2024/04/02 11:22:37.000   28.292096425  -16.539706145  2334.4468   1   7   0.0012   0.0010   0.0085   0.0003  -0.0007   0.0016   7.00  999.9
2024/04/02 11:22:38.000   28.292096425  -16.539706145  2334.4468   1   7   0.0012   0.0010   0.0085   0.0003  -0.0007   0.0016   8.00  999.9
2024/04/02 11:22:39.000   28.292096425  -16.539706145  2334.4468   1   7   0.0012   0.0010   0.0085   0.0003  -0.0007   0.0016   9.00  999.9
2024/04/02 11:22:40.000   28.292096425  -16.539706145  2334.4469   1   7   0.0012   0.0010   0.0085   0.0003  -0.0007   0.0016  10.00  999.9
2024/04/02 11:22:41.000   28.292096425  -16.539706145  2334.4469   1   7   0.0012   0.0010   0.0085   0.0003  -0.0007   0.0016  11.00  999.9
2024/04/02 11:22:42.000   28.292096425  -16.539706145  2334.4469   1   7   0.0012   0.0010   0.0085   0.0003  -0.0007   0.0016  12.00  999.9
2024/04/02 11:22:43.000   28.292096425  -16.539706145  2334.4469   1   7   0.0012   0.0010   0.0085   0.0003  -0.0007   0.0016  13.00  999.9
2024/04/02 11:22:44.000   28.292096425  -16.539706145  2334.4469   1   7   0.0012   0.0010   0.0085   0.0003  -0.0007   0.0016  14.00  999.9
2024/04/02 11:22:45.000   28.292096425  -16.539706145  2334.4469   1   7   0.0012   0.0010   0.0085   0.0003  -0.0007   0.0016 -15.00  999.9
2024/04/02 11:22:46.000   28.292096425  -16.539706145  2334.4469   1   7   0.0012   0.0010   0.0085   0.0003  -0.0007   0.0016 -14.00  999.9
2024/04/02 11:22:47.000   28.292096425  -16.539706145  2334.4469   1   7   0.0012   0.0010   0.0085   0.0003  -0.0007   0.0016 -13.00  999.9
2024/04/02 11:22:48.000   28.292096425  -16.539706145  2334.4470   1   7   0.0012   0.0010   0.0085   0.0003  -0.0007   0.0016 -12.00  999.9
2024/04/02 11:22:49.000   28.292096425  -16.539706145  2334.4470   1   7   0.0012   0.0010   0.0085   0.0003  -0.0007   0.0016 -11.00  999.9
2024/04/02 11:22:50.000   28.292096425  -16.539706145  2334.4470   1   7   0.0012   0.0010   0.0085   0.0003  -0.0007   0.0016 -10.00  999.9
2024/04/02 11:22:51.000   28.292096425  -16.539706145  2334.4470   1   7   0.0012   0.0010   0.0085   0.0003  -0.0007   0.0016  -9.00  999.9
2024/04/02 11:22:52.000   28.292096425  -16.539706145  2334.4471   1   7   0.0011   0.0010   0.0085   0.0003  -0.0007   0.0016  -8.00  999.9
2024/04/02 11:22:53.000   28.292096425  -16.539706145  2334.4471   1   7   0.0011   0.0010   0.0085   0.0003  -0.0007   0.0016  -7.00  999.9
2024/04/02 11:22:54.000   28.292096425  -16.539706145  2334.4471   1   7   0.0011   0.0010   0.0085   0.0003  -0.0007   0.0016  -6.00  999.9
2024/04/02 11:22:55.000   28.292096425  -16.539706145  2334.4471   1   7   0.0011   0.0010   0.0085   0.0003  -0.0007   0.0016  -5.00  999.9
2024/04/02 11:22:56.000   28.292096425  -16.539706145  2334.4472   1   7   0.0011   0.0010   0.0085   0.0003  -0.0007   0.0016  -4.00  999.9
2024/04/02 11:22:57.000   28.292096425  -16.539706145  2334.4472   1   7   0.0011   0.0010   0.0085   0.0003  -0.0007   0.0016  -3.00  999.9
2024/04/02 11:22:58.000   28.292096425  -16.539706145  2334.4472   1   7   0.0011   0.0010   0.0085   0.0003  -0.0007   0.0016  -2.00  999.9
2024/04/02 11:22:59.000   28.292096425  -16.539706145  2334.4472   1   7   0.0011   0.0010   0.0085   0.0003  -0.0007   0.0016  -1.00  999.9
2024/04/02 11:23:00.000   28.292096425  -16.539706145  2334.4473   1   7   0.0011   0.0010   0.0085   0.0003  -0.0007   0.0016   0.00  999.9
2024/04/02 11:23:01.000   28.292096425  -16.539706145  2334.4473   1   7   0.0011   0.0010   0.0085   0.0003  -0.0007   0.0016   1.00  999.9
2024/04/02 11:23:02.000   28.292096425  -16.539706145  2334.4472   1   7   0.0011   0.0010   0.0085   0.0003  -0.0007   0.0016   2.00  999.9
2024/04/02 11:23:03.000   28.292096425  -16.539706145  2334.4472   1   7   0.0011   0.0010   0.0085   0.0003  -0.0007   0.0016   3.00  999.9
2024/04/02 11:23:04.000   28.292096425  -16.539706145  2334.4472   1   7   0.0011   0.0010   0.0085   0.0003  -0.0007   0.0016   4.00  999.9
2024/04/02 11:23:05.000   28.292096425  -16.539706145  2334.4472   1   7   0.0011   0.0010   0.0085   0.0003  -0.0007   0.0016   5.00  999.9
2024/04/02 11:23:06.000   28.292096425  -16.539706145  2334.4472   1   7   0.0011   0.0010   0.0085   0.0003  -0.0007   0.0016   6.00  999.9
2024/04/02 11:23:07.000   28.292096425  -16.539706145  2334.4472   1   7   0.0011   0.0010   0.0085   0.0003  -0.0007   0.0016   7.00  999.9
2024/04/02 11:23:08.000   28.292096425  -16.539706145  2334.4473   1   7   0.0011   0.0010   0.0085   0.0003  -0.0007   0.0016   8.00  999.9
2024/04/02 11:23:09.000   28.292096425  -16.539706145  2334.4473   1   7   0.0011   0.0010   0.0085   0.0003  -0.0007   0.0016   9.00  999.9
2024/04/02 11:23:10.000   28.292096425  -16.539706145  2334.4473   1   7   0.0011   0.0010   0.0085   0.0003  -0.0007   0.0016  10.00  999.9
2024/04/02 11:23:11.000   28.292096425  -16.539706145  2334.4473   1   7   0.0011   0.0010   0.0085   0.0003  -0.0007   0.0016  11.00  999.9
2024/04/02 11:23:12.000   28.292096425  -16.539706145  2334.4473   1   7   0.0011   0.0010   0.0085   0.0003  -0.0007   0.0016  12.00  999.9
2024/04/02 11:23:13.000   28.292096425  -16.539706145  2334.4473   1   7   0.0011   0.0010   0.0085   0.0003  -0.0007   0.0016  13.00  999.9
2024/04/02 11:23:14.000   28.292096425  -16.539706145  2334.4473   1   7   0.0011   0.0010   0.0085   0.0003  -0.0007   0.0016  14.00  999.9
2024/04/02 11:23:15.000   28.292096425  -16.539706145  2334.4473   1   7   0.0011   0.0010   0.0085   0.0003  -0.0007   0.0016 -15.00  999.9
2024/04/02 11:23:16.000   28.292096425  -16.539706145  2334.4473   1   7   0.0011   0.0010   0.0085   0.0003  -0.0007   0.0016 -14.00  999.9
2024/04/02 11:23:17.000   28.292096424  -16.539706145  2334.4473   1   7   0.0011   0.0010   0.0085   0.0003  -0.0007   0.0016 -13.00  999.9
2024/04/02 11:23:18.000   28.292096424  -16.539706145  2334.4473   1   7   0.0011   0.0010   0.0085   0.0003  -0.0007   0.0016 -12.00  999.9
2024/04/02 11:23:19.000   28.292096424  -16.539706145  2334.4473   1   7   0.0011   0.0010   0.0085   0.0003  -0.0007   0.0016 -11.00  999.9
2024/04/02 11:23:20.000   28.292096424  -16.539706145  2334.4474   1   7   0.0011   0.0010   0.0085   0.0003  -0.0007   0.0016 -10.00  999.9
2024/04/02 11:23:21.000   28.292096424  -16.539706145  2334.4474   1   7   0.0011   0.0010   0.0085   0.0003  -0.0007   0.0016  -9.00  999.9
2024/04/02 11:23:22.000   28.292096424  -16.539706145  2334.4474   1   7   0.0011   0.0010   0.0085   0.0003  -0.0007   0.0016  -8.00  999.9
2024/04/02 11:23:23.000   28.292096424  -16.539706145  2334.4475   1   7   0.0011   0.0010   0.0085   0.0003  -0.0007   0.0016  -7.00  999.9
2024/04/02 11:23:24.000   28.292096424  -16.539706145  2334.4475   1   7   0.0011   0.0010   0.0085   0.0003  -0.0007   0.0016  -6.00  999.9
2024/04/02 11:23:25.000   28.292096424  -16.539706145  2334.4476   1   7   0.0011   0.0010   0.0085   0.0003  -0.0007   0.0016  -5.00  999.9
2024/04/02 11:23:26.000   28.292096424  -16.539706145  2334.4476   1   7   0.0011   0.0010   0.0085   0.0003  -0.0007   0.0016  -4.00  999.9
2024/04/02 11:23:27.000   28.292096424  -16.539706145  2334.4477   1   7   0.0011   0.0010   0.0085   0.0003  -0.0007   0.0016  -3.00  999.9
2024/04/02 11:23:28.000   28.292096424  -16.539706145  2334.4477   1   7   0.0011   0.0010   0.0085   0.0003  -0.0007   0.0016  -2.00  999.9
2024/04/02 11:23:29.000   28.292096424  -16.539706145  2334.4478   1   7   0.0011   0.0010   0.0085   0.0003  -0.0007   0.0016  -1.00  999.9
2024/04/02 11:23:30.000   28.292096424  -16.539706145  2334.4478   1   7   0.0011   0.0010   0.0085   0.0003  -0.0007   0.0016   0.00  999.9
2024/04/02 11:23:31.000   28.292096418  -16.539706155  2334.4493   1   7   0.0012   0.0010   0.0085   0.0005  -0.0008   0.0015   1.00  120.5
2024/04/02 11:23:32.000   28.292096418  -16.539706155  2334.4493   1   7   0.0012   0.0010   0.0085   0.0005  -0.0008   0.0015   2.00  231.9
2024/04/02 11:23:33.000   28.292096417  -16.539706155  2334.4493   1   7   0.0012   0.0010   0.0085   0.0004  -0.0008   0.0015   3.00  319.8
2024/04/02 11:23:34.000   28.292096418  -16.539706155  2334.4493   1   7   0.0012   0.0010   0.0085   0.0004  -0.0008   0.0015   4.00  388.5
2024/04/02 11:23:35.000   28.292096417  -16.539706155  2334.4493   1   7   0.0012   0.0010   0.0085   0.0004  -0.0008   0.0015   5.00  443.8
2024/04/02 11:23:36.000   28.292096417  -16.539706155  2334.4493   1   7   0.0012   0.0010   0.0085   0.0004  -0.0008   0.0015   6.00  492.3
2024/04/02 11:23:37.000   28.292096417  -16.539706155  2334.4494   1   7   0.0012   0.0010   0.0085   0.0004  -0.0008   0.0015   7.00  529.1
2024/04/02 11:23:38.000   28.292096417  -16.539706155  2334.4494   1   7   0.0012   0.0010   0.0085   0.0004  -0.0008   0.0015   8.00  560.0
2024/04/02 11:23:39.000   28.292096417  -16.539706155  2334.4494   1   7   0.0012   0.0010   0.0085   0.0004  -0.0008   0.0015   9.00  589.2
2024/04/02 11:23:40.000   28.292096417  -16.539706155  2334.4494   1   7   0.0012   0.0010   0.0085   0.0004  -0.0008   0.0015  10.00  609.7
2024/04/02 11:23:41.000   28.292096417  -16.539706155  2334.4494   1   7   0.0012   0.0010   0.0085   0.0004  -0.0008   0.0015  11.00  625.6
2024/04/02 11:23:42.000   28.292096417  -16.539706155  2334.4495   1   7   0.0012   0.0010   0.0085   0.0004  -0.0008   0.0015  12.00  645.3
2024/04/02 11:23:43.000   28.292096417  -16.539706155  2334.4495   1   7   0.0012   0.0010   0.0085   0.0004  -0.0008   0.0015  13.00  660.6
2024/04/02 11:23:44.000   28.292096417  -16.539706155  2334.4495   1   7   0.0012   0.0010   0.0085   0.0004  -0.0008   0.0015  14.00  675.7
2024/04/02 11:23:45.000   28.292096417  -16.539706155  2334.4495   1   7   0.0012   0.0010   0.0085   0.0004  -0.0008   0.0015 -15.00  692.5
2024/04/02 11:23:46.000   28.292096417  -16.539706154  2334.4495   1   7   0.0012   0.0010   0.0085   0.0004  -0.0008   0.0015 -14.00  707.3
2024/04/02 11:23:47.000   28.292096417  -16.539706154  2334.4495   1   7   0.0012   0.0010   0.0085   0.0004  -0.0008   0.0015 -13.00  722.7
2024/04/02 11:23:48.000   28.292096417  -16.539706154  2334.4495   1   7   0.0012   0.0010   0.0085   0.0004  -0.0008   0.0015 -12.00  739.4
2024/04/02 11:23:49.000   28.292096417  -16.539706154  2334.4495   1   7   0.0012   0.0010   0.0085   0.0004  -0.0008   0.0015 -11.00  758.7
2024/04/02 11:23:50.000   28.292096417  -16.539706154  2334.4496   1   7   0.0012   0.0010   0.0085   0.0004  -0.0008   0.0015 -10.00  769.1
2024/04/02 11:23:51.000   28.292096417  -16.539706154  2334.4496   1   7   0.0012   0.0010   0.0085   0.0004  -0.0008   0.0015  -9.00  781.5
2024/04/02 11:23:52.000   28.292096417  -16.539706154  2334.4496   1   7   0.0012   0.0010   0.0085   0.0004  -0.0008   0.0015  -8.00  799.3
2024/04/02 11:23:53.000   28.292096417  -16.539706154  2334.4496   1   7   0.0012   0.0010   0.0085   0.0004  -0.0008   0.0015  -7.00  824.1
2024/04/02 11:23:54.000   28.292096417  -16.539706154  2334.4497   1   7   0.0012   0.0010   0.0085   0.0004  -0.0008   0.0015  -6.00  839.7
2024/04/02 11:23:55.000   28.292096417  -16.539706154  2334.4497   1   7   0.0012   0.0010   0.0085   0.0004  -0.0008   0.0015  -5.00  867.3
