% program   : RTKPOST-EX 2.5.0
% inp file  : C:\Users\SallyHenry\Desktop\Sally Internship\GNSS gravi\DATA\Survey Rover Obs\LM005.24o
% inp file  : C:\Users\SallyHenry\Desktop\Sally Internship\GNSS gravi\DATA\BaseStations\IZAN\IZAN00ESP_R_20240930000_01D_30S_MO.rnx
% inp file  : C:\Users\SallyHenry\Desktop\Sally Internship\GNSS gravi\DATA\BaseStations\IZAN\IZAN00ESP_R_20240930000_01D_MN.rnx
% inp file  : C:\Users\SallyHenry\Desktop\Sally Internship\GNSS gravi\DATA\aux_files\Survey\IGS0OPSFIN_20240930000_01D_15M_ORB.SP3
% inp file  : C:\Users\SallyHenry\Desktop\Sally Internship\GNSS gravi\DATA\aux_files\Survey\IGS0OPSFIN_20240930000_01D_30S_CLK.CLK
% obs start : 2024/04/02 13:48:54.0 GPST (week2308 222534.0s)
% obs end   : 2024/04/02 14:33:22.0 GPST (week2308 225202.0s)
% pos mode  : Static
% freqs     : L1+L2/E5b
% solution  : Combined-No Phase Reset
% elev mask : 15.0 deg
% dynamics  : on
% tidecorr  : solid
% ionos opt : Estimate TEC
% tropo opt : Estimate ZTD+Grad
% ephemeris : Precise
% navi sys  : GPS GLONASS Galileo QZSS BDS
% amb res   : Fix and Hold
% amb glo   : Fix and Hold
% amb bds   : on
% val thres : 3.0
% antenna1  :                       ( 0.0000  0.0000  1.8000)
% antenna2  :                       ( 0.0000  0.0000  0.0000)
% ref pos   :  28.308069410  -16.499677180  2417.4044
%
% (lat/lon/height=WGS84/ellipsoidal,Q=1:fix,2:float,3:sbas,4:dgps,5:single,6:ppp,ns=# of satellites)
%  GPST                  latitude(deg) longitude(deg)  height(m)   Q  ns   sdn(m)   sde(m)   sdu(m)  sdne(m)  sdeu(m)  sdun(m) age(s)  ratio
2024/04/02 13:48:54.000   28.289437136  -16.546427325  2334.4382   1   9   0.0019   0.0010   0.0082  -0.0002  -0.0012   0.0015  -6.00   31.8
2024/04/02 13:48:55.000   28.289437136  -16.546427325  2334.4379   1   9   0.0019   0.0010   0.0082  -0.0002  -0.0012   0.0015  -5.00   30.0
2024/04/02 13:48:56.000   28.289437136  -16.546427325  2334.4375   1   9   0.0019   0.0010   0.0083  -0.0002  -0.0012   0.0016  -4.00   27.7
2024/04/02 13:48:57.000   28.289437135  -16.546427325  2334.4371   1   9   0.0019   0.0010   0.0083  -0.0002  -0.0012   0.0016  -3.00   25.1
2024/04/02 13:48:58.000   28.289437135  -16.546427325  2334.4367   1   9   0.0019   0.0010   0.0083  -0.0002  -0.0012   0.0016  -2.00   21.4
2024/04/02 13:48:59.000   28.289437135  -16.546427325  2334.4363   1   9   0.0019   0.0010   0.0083  -0.0003  -0.0012   0.0016  -1.00   13.8
2024/04/02 13:49:00.000   28.289437130  -16.546427322  2334.4435   1   9   0.0018   0.0010   0.0077   0.0002  -0.0011   0.0010   0.00   24.7
2024/04/02 13:49:01.000   28.289437130  -16.546427322  2334.4431   1   9   0.0018   0.0010   0.0077   0.0001  -0.0011   0.0010   1.00   25.4
2024/04/02 13:49:02.000   28.289437130  -16.546427322  2334.4427   1   9   0.0018   0.0010   0.0077   0.0001  -0.0011   0.0010   2.00   26.0
2024/04/02 13:49:03.000   28.289437130  -16.546427322  2334.4424   1   9   0.0018   0.0010   0.0077   0.0001  -0.0012   0.0010   3.00   26.5
2024/04/02 13:49:04.000   28.289437130  -16.546427321  2334.4421   1   9   0.0018   0.0010   0.0078   0.0001  -0.0012   0.0010   4.00   27.0
2024/04/02 13:49:05.000   28.289437130  -16.546427321  2334.4418   1   9   0.0018   0.0010   0.0078   0.0001  -0.0012   0.0010   5.00   27.4
2024/04/02 13:49:06.000   28.289437129  -16.546427321  2334.4415   1   9   0.0018   0.0010   0.0078   0.0001  -0.0012   0.0010   6.00   27.6
2024/04/02 13:49:07.000   28.289437129  -16.546427321  2334.4412   1   9   0.0018   0.0010   0.0078   0.0001  -0.0012   0.0011   7.00   27.7
2024/04/02 13:49:08.000   28.289437129  -16.546427321  2334.4410   1   9   0.0018   0.0010   0.0078   0.0001  -0.0012   0.0011   8.00   27.7
2024/04/02 13:49:09.000   28.289437129  -16.546427321  2334.4408   1   9   0.0018   0.0010   0.0078   0.0001  -0.0012   0.0011   9.00   27.6
2024/04/02 13:49:10.000   28.289437129  -16.546427321  2334.4406   1   9   0.0018   0.0010   0.0078   0.0001  -0.0012   0.0011  10.00   27.4
2024/04/02 13:49:11.000   28.289437129  -16.546427321  2334.4404   1   9   0.0018   0.0010   0.0078   0.0001  -0.0012   0.0011  11.00   27.2
2024/04/02 13:49:12.000   28.289437128  -16.546427321  2334.4402   1   9   0.0018   0.0010   0.0078   0.0001  -0.0012   0.0011  12.00   26.9
2024/04/02 13:49:13.000   28.289437128  -16.546427321  2334.4401   1   9   0.0018   0.0010   0.0078   0.0001  -0.0012   0.0011  13.00   26.5
2024/04/02 13:49:14.000   28.289437128  -16.546427321  2334.4400   1   9   0.0018   0.0010   0.0078   0.0001  -0.0012   0.0011  14.00   26.2
2024/04/02 13:49:15.000   28.289437128  -16.546427321  2334.4399   1   9   0.0018   0.0010   0.0078   0.0001  -0.0012   0.0011  15.00   25.8
2024/04/02 13:49:16.000   28.289437128  -16.546427321  2334.4398   1   9   0.0018   0.0010   0.0078   0.0001  -0.0012   0.0011 -14.00   25.4
2024/04/02 13:49:17.000   28.289437128  -16.546427320  2334.4398   1   9   0.0018   0.0010   0.0078   0.0001  -0.0012   0.0011 -13.00   25.0
2024/04/02 13:49:18.000   28.289437128  -16.546427320  2334.4397   1   9   0.0018   0.0010   0.0078   0.0001  -0.0012   0.0011 -12.00   24.7
2024/04/02 13:49:19.000   28.289437128  -16.546427320  2334.4395   1   9   0.0018   0.0010   0.0078   0.0001  -0.0012   0.0011 -11.00   24.4
2024/04/02 13:49:20.000   28.289437128  -16.546427320  2334.4394   1   9   0.0018   0.0010   0.0078   0.0001  -0.0012   0.0011 -10.00   24.1
2024/04/02 13:49:21.000   28.289437128  -16.546427320  2334.4393   1   9   0.0018   0.0010   0.0078   0.0001  -0.0012   0.0011  -9.00   23.8
2024/04/02 13:49:22.000   28.289437128  -16.546427320  2334.4391   1   9   0.0018   0.0010   0.0078   0.0001  -0.0012   0.0011  -8.00   23.5
2024/04/02 13:49:23.000   28.289437128  -16.546427320  2334.4390   1   9   0.0018   0.0010   0.0078   0.0000  -0.0012   0.0011  -7.00   23.1
2024/04/02 13:49:24.000   28.289437128  -16.546427320  2334.4388   1   9   0.0018   0.0010   0.0078   0.0000  -0.0012   0.0012  -6.00   22.8
2024/04/02 13:49:25.000   28.289437128  -16.546427320  2334.4387   1   9   0.0018   0.0010   0.0078  -0.0000  -0.0012   0.0012  -5.00   22.3
2024/04/02 13:49:26.000   28.289437128  -16.546427320  2334.4384   1   9   0.0018   0.0010   0.0078  -0.0000  -0.0012   0.0012  -4.00   21.0
2024/04/02 13:49:27.000   28.289437128  -16.546427320  2334.4382   1   9   0.0018   0.0010   0.0079  -0.0001  -0.0012   0.0012  -3.00   17.8
2024/04/02 13:49:28.000   28.289437128  -16.546427320  2334.4379   1   9   0.0018   0.0010   0.0079  -0.0001  -0.0012   0.0012  -2.00   13.7
2024/04/02 13:49:29.000   28.289437128  -16.546427320  2334.4376   1   9   0.0019   0.0010   0.0079  -0.0001  -0.0012   0.0012  -1.00    8.3
2024/04/02 13:49:30.000   28.289437140  -16.546427323  2334.4404   1   9   0.0018   0.0010   0.0078  -0.0001  -0.0012   0.0012   0.00   32.5
2024/04/02 13:49:31.000   28.289437140  -16.546427323  2334.4401   1   9   0.0018   0.0010   0.0079  -0.0001  -0.0012   0.0012   1.00   33.6
2024/04/02 13:49:32.000   28.289437140  -16.546427323  2334.4398   1   9   0.0018   0.0010   0.0079  -0.0001  -0.0012   0.0012   2.00   35.1
2024/04/02 13:49:33.000   28.289437141  -16.546427323  2334.4396   1   9   0.0018   0.0010   0.0079  -0.0001  -0.0012   0.0012   3.00   36.1
2024/04/02 13:49:34.000   28.289437141  -16.546427323  2334.4393   1   9   0.0018   0.0010   0.0079  -0.0001  -0.0012   0.0012   4.00   36.8
2024/04/02 13:49:35.000   28.289437141  -16.546427323  2334.4391   1   9   0.0018   0.0010   0.0079  -0.0002  -0.0012   0.0012   5.00   37.3
2024/04/02 13:49:36.000   28.289437141  -16.546427323  2334.4389   1   9   0.0019   0.0010   0.0079  -0.0002  -0.0012   0.0012   6.00   37.8
2024/04/02 13:49:37.000   28.289437141  -16.546427323  2334.4387   1   9   0.0019   0.0010   0.0079  -0.0002  -0.0012   0.0013   7.00   38.0
2024/04/02 13:49:38.000   28.289437141  -16.546427323  2334.4386   1   9   0.0019   0.0010   0.0079  -0.0002  -0.0012   0.0013   8.00   38.1
2024/04/02 13:49:39.000   28.289437141  -16.546427323  2334.4384   1   9   0.0019   0.0010   0.0079  -0.0002  -0.0012   0.0013   9.00   37.9
2024/04/02 13:49:40.000   28.289437140  -16.546427323  2334.4383   1   9   0.0019   0.0010   0.0079  -0.0002  -0.0012   0.0013  10.00   38.2
2024/04/02 13:49:41.000   28.289437140  -16.546427323  2334.4382   1   9   0.0019   0.0010   0.0080  -0.0002  -0.0012   0.0013  11.00   38.4
2024/04/02 13:49:42.000   28.289437140  -16.546427322  2334.4381   1   9   0.0019   0.0010   0.0080  -0.0002  -0.0012   0.0013  12.00   38.4
2024/04/02 13:49:43.000   28.289437140  -16.546427323  2334.4381   1   9   0.0019   0.0010   0.0080  -0.0002  -0.0012   0.0013  13.00   38.3
2024/04/02 13:49:44.000   28.289437140  -16.546427323  2334.4380   1   9   0.0019   0.0010   0.0080  -0.0002  -0.0012   0.0013  14.00   38.0
2024/04/02 13:49:45.000   28.289437140  -16.546427322  2334.4380   1   9   0.0019   0.0010   0.0080  -0.0002  -0.0012   0.0013  15.00   37.6
2024/04/02 13:49:46.000   28.289437139  -16.546427322  2334.4379   1   9   0.0019   0.0010   0.0080  -0.0002  -0.0012   0.0013 -14.00   37.3
2024/04/02 13:49:47.000   28.289437139  -16.546427322  2334.4379   1   9   0.0019   0.0010   0.0080  -0.0002  -0.0012   0.0013 -13.00   37.0
2024/04/02 13:49:48.000   28.289437139  -16.546427322  2334.4378   1   9   0.0019   0.0010   0.0080  -0.0002  -0.0012   0.0013 -12.00   36.9
2024/04/02 13:49:49.000   28.289437139  -16.546427322  2334.4377   1   9   0.0019   0.0010   0.0080  -0.0002  -0.0012   0.0013 -11.00   36.9
2024/04/02 13:49:50.000   28.289437139  -16.546427322  2334.4377   1   9   0.0019   0.0010   0.0080  -0.0002  -0.0012   0.0013 -10.00   36.8
2024/04/02 13:49:51.000   28.289437139  -16.546427322  2334.4376   1   9   0.0019   0.0010   0.0080  -0.0002  -0.0012   0.0013  -9.00   37.1
2024/04/02 13:49:52.000   28.289437138  -16.546427322  2334.4375   1   9   0.0019   0.0010   0.0080  -0.0002  -0.0012   0.0014  -8.00   37.6
2024/04/02 13:49:53.000   28.289437138  -16.546427322  2334.4374   1   9   0.0019   0.0010   0.0080  -0.0002  -0.0012   0.0014  -7.00   38.2
2024/04/02 13:49:54.000   28.289437138  -16.546427322  2334.4373   1   9   0.0019   0.0010   0.0080  -0.0002  -0.0012   0.0014  -6.00   39.2
2024/04/02 13:49:55.000   28.289437138  -16.546427322  2334.4372   1   9   0.0019   0.0010   0.0080  -0.0002  -0.0012   0.0014  -5.00   40.6
2024/04/02 13:49:56.000   28.289437138  -16.546427322  2334.4371   1   9   0.0019   0.0010   0.0080  -0.0002  -0.0012   0.0014  -4.00   41.3
2024/04/02 13:49:57.000   28.289437137  -16.546427322  2334.4369   1   9   0.0019   0.0010   0.0080  -0.0002  -0.0012   0.0014  -3.00   36.8
2024/04/02 13:49:58.000   28.289437137  -16.546427322  2334.4367   1   9   0.0019   0.0010   0.0081  -0.0002  -0.0012   0.0014  -2.00   30.7
2024/04/02 13:49:59.000   28.289437137  -16.546427322  2334.4365   1   9   0.0019   0.0010   0.0081  -0.0002  -0.0012   0.0014  -1.00   20.5
2024/04/02 13:50:00.000   28.289437140  -16.546427323  2334.4387   1   9   0.0018   0.0010   0.0080  -0.0001  -0.0012   0.0013   0.00   32.1
2024/04/02 13:50:01.000   28.289437140  -16.546427323  2334.4385   1   9   0.0018   0.0010   0.0081  -0.0001  -0.0012   0.0014   1.00   33.6
2024/04/02 13:50:02.000   28.289437140  -16.546427323  2334.4383   1   9   0.0019   0.0010   0.0081  -0.0002  -0.0012   0.0014   2.00   35.0
2024/04/02 13:50:03.000   28.289437140  -16.546427323  2334.4381   1   9   0.0019   0.0010   0.0081  -0.0002  -0.0012   0.0014   3.00   36.6
2024/04/02 13:50:04.000   28.289437140  -16.546427323  2334.4379   1   9   0.0019   0.0010   0.0081  -0.0002  -0.0012   0.0014   4.00   38.1
2024/04/02 13:50:05.000   28.289437140  -16.546427323  2334.4378   1   9   0.0019   0.0010   0.0081  -0.0002  -0.0012   0.0014   5.00   39.1
2024/04/02 13:50:06.000   28.289437140  -16.546427323  2334.4376   1   9   0.0019   0.0010   0.0081  -0.0002  -0.0012   0.0014   6.00   39.6
2024/04/02 13:50:07.000   28.289437140  -16.546427323  2334.4374   1   9   0.0019   0.0010   0.0081  -0.0002  -0.0012   0.0015   7.00   39.7
2024/04/02 13:50:08.000   28.289437140  -16.546427323  2334.4373   1   9   0.0019   0.0010   0.0081  -0.0002  -0.0012   0.0015   8.00   39.6
2024/04/02 13:50:09.000   28.289437140  -16.546427323  2334.4372   1   9   0.0019   0.0010   0.0082  -0.0002  -0.0012   0.0015   9.00   39.3
2024/04/02 13:50:10.000   28.289437139  -16.546427323  2334.4371   1   9   0.0019   0.0010   0.0082  -0.0002  -0.0012   0.0015  10.00   39.1
2024/04/02 13:50:11.000   28.289437139  -16.546427323  2334.4370   1   9   0.0019   0.0010   0.0082  -0.0002  -0.0012   0.0015  11.00   38.7
2024/04/02 13:50:12.000   28.289437139  -16.546427323  2334.4369   1   9   0.0019   0.0010   0.0082  -0.0002  -0.0012   0.0015  12.00   38.1
2024/04/02 13:50:13.000   28.289437139  -16.546427322  2334.4369   1   9   0.0019   0.0010   0.0082  -0.0002  -0.0012   0.0015  13.00   37.6
2024/04/02 13:50:14.000   28.289437139  -16.546427322  2334.4368   1   9   0.0019   0.0010   0.0082  -0.0002  -0.0012   0.0015  14.00   37.0
2024/04/02 13:50:15.000   28.289437139  -16.546427322  2334.4368   1   9   0.0019   0.0010   0.0082  -0.0002  -0.0012   0.0015  15.00   36.4
2024/04/02 13:50:16.000   28.289437139  -16.546427322  2334.4367   1   9   0.0019   0.0010   0.0082  -0.0002  -0.0012   0.0015 -14.00   35.9
2024/04/02 13:50:17.000   28.289437138  -16.546427322  2334.4367   1   9   0.0019   0.0010   0.0082  -0.0002  -0.0012   0.0015 -13.00   35.3
2024/04/02 13:50:18.000   28.289437138  -16.546427322  2334.4366   1   9   0.0019   0.0010   0.0082  -0.0002  -0.0012   0.0015 -12.00   34.7
2024/04/02 13:50:19.000   28.289437138  -16.546427322  2334.4365   1   9   0.0019   0.0010   0.0082  -0.0002  -0.0012   0.0015 -11.00   34.1
2024/04/02 13:50:20.000   28.289437138  -16.546427322  2334.4364   1   9   0.0019   0.0010   0.0082  -0.0002  -0.0012   0.0016 -10.00   33.7
2024/04/02 13:50:21.000   28.289437138  -16.546427322  2334.4363   1   9   0.0019   0.0010   0.0082  -0.0002  -0.0012   0.0016  -9.00   33.0
2024/04/02 13:50:22.000   28.289437137  -16.546427322  2334.4362   1   9   0.0019   0.0010   0.0082  -0.0002  -0.0012   0.0016  -8.00   32.1
2024/04/02 13:50:23.000   28.289437137  -16.546427322  2334.4360   1   9   0.0019   0.0010   0.0083  -0.0002  -0.0012   0.0016  -7.00   30.8
2024/04/02 13:50:24.000   28.289437137  -16.546427322  2334.4359   1   9   0.0019   0.0010   0.0083  -0.0002  -0.0012   0.0016  -6.00   29.0
2024/04/02 13:50:25.000   28.289437137  -16.546427321  2334.4357   1   9   0.0019   0.0010   0.0083  -0.0002  -0.0012   0.0016  -5.00   27.2
2024/04/02 13:50:26.000   28.289437136  -16.546427321  2334.4355   1   9   0.0019   0.0010   0.0083  -0.0002  -0.0012   0.0016  -4.00   25.0
2024/04/02 13:50:27.000   28.289437136  -16.546427321  2334.4352   1   9   0.0019   0.0010   0.0083  -0.0002  -0.0012   0.0016  -3.00   22.5
2024/04/02 13:50:28.000   28.289437135  -16.546427321  2334.4350   1   9   0.0019   0.0010   0.0083  -0.0003  -0.0012   0.0017  -2.00   18.7
2024/04/02 13:50:29.000   28.289437135  -16.546427321  2334.4347   1   9   0.0019   0.0010   0.0084  -0.0003  -0.0012   0.0017  -1.00   12.9
2024/04/02 13:50:30.000   28.289437141  -16.546427323  2334.4393   1   9   0.0018   0.0010   0.0077  -0.0001  -0.0011   0.0011   0.00   36.6
2024/04/02 13:50:31.000   28.289437141  -16.546427322  2334.4391   1   9   0.0018   0.0010   0.0077  -0.0001  -0.0011   0.0011   1.00   38.5
2024/04/02 13:50:32.000   28.289437140  -16.546427322  2334.4388   1   9   0.0018   0.0010   0.0077  -0.0001  -0.0011   0.0011   2.00   40.6
2024/04/02 13:50:33.000   28.289437140  -16.546427322  2334.4385   1   9   0.0018   0.0010   0.0077  -0.0002  -0.0011   0.0011   3.00   42.6
2024/04/02 13:50:34.000   28.289437140  -16.546427322  2334.4382   1   9   0.0018   0.0010   0.0077  -0.0002  -0.0011   0.0011   4.00   44.6
2024/04/02 13:50:35.000   28.289437140  -16.546427322  2334.4379   1   9   0.0018   0.0010   0.0077  -0.0002  -0.0011   0.0011   5.00   46.4
2024/04/02 13:50:36.000   28.289437139  -16.546427322  2334.4377   1   9   0.0018   0.0010   0.0077  -0.0002  -0.0011   0.0012   6.00   48.0
2024/04/02 13:50:37.000   28.289437139  -16.546427321  2334.4375   1   9   0.0018   0.0010   0.0077  -0.0002  -0.0011   0.0012   7.00   49.1
2024/04/02 13:50:38.000   28.289437139  -16.546427321  2334.4373   1   9   0.0018   0.0010   0.0077  -0.0002  -0.0011   0.0012   8.00   50.2
2024/04/02 13:50:39.000   28.289437139  -16.546427321  2334.4371   1   9   0.0019   0.0010   0.0077  -0.0002  -0.0011   0.0012   9.00   50.6
2024/04/02 13:50:40.000   28.289437138  -16.546427321  2334.4370   1   9   0.0019   0.0010   0.0077  -0.0002  -0.0011   0.0012  10.00   51.1
2024/04/02 13:50:41.000   28.289437138  -16.546427321  2334.4369   1   9   0.0019   0.0010   0.0077  -0.0002  -0.0012   0.0012  11.00   51.2
2024/04/02 13:50:42.000   28.289437138  -16.546427321  2334.4368   1   9   0.0019   0.0010   0.0078  -0.0002  -0.0012   0.0012  12.00   51.4
2024/04/02 13:50:43.000   28.289437138  -16.546427321  2334.4367   1   9   0.0019   0.0010   0.0078  -0.0002  -0.0012   0.0012  13.00   51.5
2024/04/02 13:50:44.000   28.289437138  -16.546427321  2334.4366   1   9   0.0019   0.0010   0.0078  -0.0002  -0.0012   0.0012  14.00   51.3
2024/04/02 13:50:45.000   28.289437138  -16.546427321  2334.4365   1   9   0.0019   0.0010   0.0078  -0.0002  -0.0012   0.0012  15.00   51.1
2024/04/02 13:50:46.000   28.289437138  -16.546427321  2334.4364   1   9   0.0019   0.0010   0.0078  -0.0002  -0.0012   0.0012 -14.00   50.5
2024/04/02 13:50:47.000   28.289437137  -16.546427321  2334.4364   1   9   0.0019   0.0010   0.0078  -0.0002  -0.0012   0.0012 -13.00   50.0
2024/04/02 13:50:48.000   28.289437137  -16.546427321  2334.4363   1   9   0.0019   0.0010   0.0078  -0.0002  -0.0012   0.0012 -12.00   49.7
2024/04/02 13:50:49.000   28.289437137  -16.546427321  2334.4362   1   9   0.0019   0.0010   0.0078  -0.0002  -0.0012   0.0012 -11.00   49.5
2024/04/02 13:50:50.000   28.289437137  -16.546427321  2334.4361   1   9   0.0019   0.0010   0.0078  -0.0002  -0.0012   0.0012 -10.00   49.4
2024/04/02 13:50:51.000   28.289437137  -16.546427320  2334.4360   1   9   0.0019   0.0010   0.0078  -0.0002  -0.0012   0.0013  -9.00   49.4
2024/04/02 13:50:52.000   28.289437137  -16.546427320  2334.4359   1   9   0.0019   0.0010   0.0078  -0.0002  -0.0012   0.0013  -8.00   49.3
2024/04/02 13:50:53.000   28.289437136  -16.546427320  2334.4358   1   9   0.0019   0.0010   0.0078  -0.0002  -0.0012   0.0013  -7.00   49.9
2024/04/02 13:50:54.000   28.289437136  -16.546427320  2334.4356   1   9   0.0019   0.0010   0.0078  -0.0002  -0.0012   0.0013  -6.00   50.5
2024/04/02 13:50:55.000   28.289437136  -16.546427320  2334.4354   1   9   0.0019   0.0010   0.0078  -0.0002  -0.0012   0.0013  -5.00   50.1
2024/04/02 13:50:56.000   28.289437136  -16.546427320  2334.4352   1   9   0.0019   0.0010   0.0078  -0.0002  -0.0012   0.0013  -4.00   47.6
2024/04/02 13:50:57.000   28.289437135  -16.546427320  2334.4349   1   9   0.0019   0.0010   0.0078  -0.0002  -0.0012   0.0013  -3.00   43.2
2024/04/02 13:50:58.000   28.289437135  -16.546427320  2334.4347   1   9   0.0019   0.0010   0.0078  -0.0002  -0.0012   0.0013  -2.00   34.9
2024/04/02 13:50:59.000   28.289437135  -16.546427320  2334.4345   1   9   0.0019   0.0010   0.0078  -0.0002  -0.0012   0.0013  -1.00   22.7
2024/04/02 13:51:00.000   28.289437137  -16.546427322  2334.4369   1   9   0.0018   0.0010   0.0078  -0.0002  -0.0011   0.0012   0.00   44.7
2024/04/02 13:51:01.000   28.289437137  -16.546427322  2334.4366   1   9   0.0018   0.0010   0.0078  -0.0002  -0.0011   0.0013   1.00   46.5
2024/04/02 13:51:02.000   28.289437137  -16.546427322  2334.4364   1   9   0.0018   0.0010   0.0078  -0.0002  -0.0011   0.0013   2.00   48.6
2024/04/02 13:51:03.000   28.289437137  -16.546427322  2334.4362   1   9   0.0018   0.0010   0.0079  -0.0002  -0.0011   0.0013   3.00   50.7
2024/04/02 13:51:04.000   28.289437137  -16.546427322  2334.4360   1   9   0.0019   0.0010   0.0079  -0.0002  -0.0011   0.0013   4.00   52.5
2024/04/02 13:51:05.000   28.289437137  -16.546427322  2334.4357   1   9   0.0019   0.0010   0.0079  -0.0002  -0.0011   0.0013   5.00   54.1
2024/04/02 13:51:06.000   28.289437136  -16.546427322  2334.4355   1   9   0.0019   0.0010   0.0079  -0.0002  -0.0012   0.0013   6.00   55.5
2024/04/02 13:51:07.000   28.289437136  -16.546427322  2334.4354   1   9   0.0019   0.0010   0.0079  -0.0002  -0.0012   0.0013   7.00   56.6
2024/04/02 13:51:08.000   28.289437136  -16.546427322  2334.4352   1   9   0.0019   0.0010   0.0079  -0.0002  -0.0012   0.0013   8.00   57.7
2024/04/02 13:51:09.000   28.289437136  -16.546427321  2334.4351   1   9   0.0019   0.0010   0.0079  -0.0002  -0.0012   0.0014   9.00   58.0
2024/04/02 13:51:10.000   28.289437136  -16.546427321  2334.4350   1   9   0.0019   0.0010   0.0079  -0.0002  -0.0012   0.0014  10.00   58.2
2024/04/02 13:51:11.000   28.289437136  -16.546427321  2334.4349   1   9   0.0019   0.0010   0.0079  -0.0002  -0.0012   0.0014  11.00   58.4
2024/04/02 13:51:12.000   28.289437135  -16.546427321  2334.4348   1   9   0.0019   0.0010   0.0079  -0.0002  -0.0012   0.0014  12.00   58.0
2024/04/02 13:51:13.000   28.289437135  -16.546427321  2334.4348   1   9   0.0019   0.0010   0.0079  -0.0002  -0.0012   0.0014  13.00   57.7
2024/04/02 13:51:14.000   28.289437135  -16.546427321  2334.4347   1   9   0.0019   0.0010   0.0079  -0.0002  -0.0012   0.0014  14.00   57.3
2024/04/02 13:51:15.000   28.289437135  -16.546427321  2334.4346   1   9   0.0019   0.0010   0.0079  -0.0002  -0.0012   0.0014  15.00   56.9
2024/04/02 13:51:16.000   28.289437135  -16.546427321  2334.4346   1   9   0.0019   0.0010   0.0080  -0.0002  -0.0012   0.0014 -14.00   56.3
2024/04/02 13:51:17.000   28.289437135  -16.546427321  2334.4346   1   9   0.0019   0.0010   0.0080  -0.0002  -0.0012   0.0014 -13.00   55.8
2024/04/02 13:51:18.000   28.289437135  -16.546427321  2334.4345   1   9   0.0019   0.0010   0.0080  -0.0002  -0.0012   0.0014 -12.00   55.3
2024/04/02 13:51:19.000   28.289437135  -16.546427321  2334.4344   1   9   0.0019   0.0010   0.0080  -0.0002  -0.0012   0.0014 -11.00   54.9
2024/04/02 13:51:20.000   28.289437135  -16.546427321  2334.4344   1   9   0.0019   0.0010   0.0080  -0.0002  -0.0012   0.0014 -10.00   54.7
2024/04/02 13:51:21.000   28.289437135  -16.546427321  2334.4343   1   9   0.0019   0.0010   0.0080  -0.0002  -0.0012   0.0014  -9.00   54.9
2024/04/02 13:51:22.000   28.289437134  -16.546427321  2334.4341   1   9   0.0019   0.0010   0.0080  -0.0002  -0.0012   0.0014  -8.00   55.3
2024/04/02 13:51:23.000   28.289437134  -16.546427321  2334.4340   1   9   0.0019   0.0010   0.0080  -0.0002  -0.0012   0.0015  -7.00   55.9
2024/04/02 13:51:24.000   28.289437134  -16.546427321  2334.4339   1   9   0.0019   0.0010   0.0080  -0.0002  -0.0012   0.0015  -6.00   56.4
2024/04/02 13:51:25.000   28.289437134  -16.546427321  2334.4338   1   9   0.0019   0.0010   0.0080  -0.0002  -0.0012   0.0015  -5.00   54.4
2024/04/02 13:51:26.000   28.289437134  -16.546427321  2334.4336   1   9   0.0019   0.0010   0.0080  -0.0002  -0.0012   0.0015  -4.00   51.8
2024/04/02 13:51:27.000   28.289437134  -16.546427321  2334.4335   1   9   0.0019   0.0010   0.0080  -0.0003  -0.0012   0.0015  -3.00   46.1
2024/04/02 13:51:28.000   28.289437134  -16.546427321  2334.4333   1   9   0.0019   0.0010   0.0081  -0.0003  -0.0012   0.0015  -2.00   37.4
2024/04/02 13:51:29.000   28.289437134  -16.546427321  2334.4331   1   9   0.0019   0.0010   0.0081  -0.0003  -0.0012   0.0015  -1.00   23.9
2024/04/02 13:51:30.000   28.289437133  -16.546427322  2334.4348   1   9   0.0018   0.0010   0.0080  -0.0002  -0.0011   0.0014   0.00   37.8
2024/04/02 13:51:31.000   28.289437134  -16.546427322  2334.4347   1   9   0.0019   0.0010   0.0081  -0.0002  -0.0011   0.0014   1.00   39.7
2024/04/02 13:51:32.000   28.289437134  -16.546427322  2334.4346   1   9   0.0019   0.0010   0.0081  -0.0002  -0.0012   0.0015   2.00   41.4
2024/04/02 13:51:33.000   28.289437134  -16.546427322  2334.4345   1   9   0.0019   0.0010   0.0081  -0.0002  -0.0012   0.0015   3.00   43.2
2024/04/02 13:51:34.000   28.289437134  -16.546427322  2334.4343   1   9   0.0019   0.0010   0.0081  -0.0002  -0.0012   0.0015   4.00   45.3
2024/04/02 13:51:35.000   28.289437133  -16.546427322  2334.4342   1   9   0.0019   0.0010   0.0081  -0.0002  -0.0012   0.0015   5.00   46.8
2024/04/02 13:51:36.000   28.289437133  -16.546427322  2334.4341   1   9   0.0019   0.0010   0.0081  -0.0002  -0.0012   0.0015   6.00   47.9
2024/04/02 13:51:37.000   28.289437133  -16.546427322  2334.4340   1   9   0.0019   0.0010   0.0082  -0.0002  -0.0012   0.0015   7.00   48.6
2024/04/02 13:51:38.000   28.289437133  -16.546427322  2334.4340   1   9   0.0019   0.0010   0.0082  -0.0002  -0.0012   0.0016   8.00   49.0
2024/04/02 13:51:39.000   28.289437133  -16.546427322  2334.4339   1   9   0.0019   0.0010   0.0082  -0.0002  -0.0012   0.0016   9.00   49.0
2024/04/02 13:51:40.000   28.289437133  -16.546427322  2334.4339   1   9   0.0019   0.0010   0.0082  -0.0002  -0.0012   0.0016  10.00   49.1
2024/04/02 13:51:41.000   28.289437133  -16.546427322  2334.4339   1   9   0.0019   0.0010   0.0082  -0.0002  -0.0012   0.0016  11.00   49.2
2024/04/02 13:51:42.000   28.289437133  -16.546427322  2334.4340   1   9   0.0019   0.0010   0.0082  -0.0002  -0.0012   0.0016  12.00   49.0
2024/04/02 13:51:43.000   28.289437133  -16.546427322  2334.4340   1   9   0.0019   0.0010   0.0082  -0.0003  -0.0012   0.0016  13.00   48.5
2024/04/02 13:51:44.000   28.289437133  -16.546427322  2334.4340   1   9   0.0019   0.0010   0.0082  -0.0003  -0.0012   0.0016  14.00   47.9
2024/04/02 13:51:45.000   28.289437133  -16.546427322  2334.4340   1   9   0.0019   0.0010   0.0082  -0.0003  -0.0012   0.0016  15.00   47.3
2024/04/02 13:51:46.000   28.289437133  -16.546427322  2334.4340   1   9   0.0019   0.0010   0.0082  -0.0003  -0.0012   0.0016 -14.00   46.5
2024/04/02 13:51:47.000   28.289437133  -16.546427322  2334.4341   1   9   0.0019   0.0010   0.0082  -0.0003  -0.0012   0.0016 -13.00   45.6
2024/04/02 13:51:48.000   28.289437133  -16.546427322  2334.4341   1   9   0.0019   0.0010   0.0082  -0.0003  -0.0012   0.0016 -12.00   44.7
2024/04/02 13:51:49.000   28.289437133  -16.546427322  2334.4341   1   9   0.0019   0.0010   0.0083  -0.0003  -0.0012   0.0016 -11.00   43.6
2024/04/02 13:51:50.000   28.289437133  -16.546427322  2334.4342   1   9   0.0019   0.0010   0.0083  -0.0003  -0.0012   0.0017 -10.00   42.5
2024/04/02 13:51:51.000   28.289437133  -16.546427322  2334.4342   1   9   0.0019   0.0010   0.0083  -0.0003  -0.0012   0.0017  -9.00   41.4
2024/04/02 13:51:52.000   28.289437133  -16.546427322  2334.4342   1   9   0.0019   0.0010   0.0083  -0.0003  -0.0012   0.0017  -8.00   40.2
2024/04/02 13:51:53.000   28.289437133  -16.546427322  2334.4343   1   9   0.0019   0.0010   0.0083  -0.0003  -0.0012   0.0017  -7.00   38.8
2024/04/02 13:51:54.000   28.289437133  -16.546427322  2334.4344   1   9   0.0019   0.0010   0.0083  -0.0003  -0.0012   0.0017  -6.00   37.4
2024/04/02 13:51:55.000   28.289437134  -16.546427322  2334.4344   1   9   0.0019   0.0010   0.0083  -0.0003  -0.0012   0.0017  -5.00   34.7
2024/04/02 13:51:56.000   28.289437134  -16.546427322  2334.4346   1   9   0.0019   0.0010   0.0084  -0.0003  -0.0012   0.0017  -4.00   31.1
2024/04/02 13:51:57.000   28.289437134  -16.546427322  2334.4347   1   9   0.0019   0.0010   0.0084  -0.0003  -0.0012   0.0018  -3.00   26.1
2024/04/02 13:51:58.000   28.289437135  -16.546427322  2334.4349   1   9   0.0019   0.0010   0.0084  -0.0003  -0.0012   0.0018  -2.00   20.6
2024/04/02 13:51:59.000   28.289437135  -16.546427322  2334.4350   1   9   0.0019   0.0010   0.0084  -0.0003  -0.0012   0.0018  -1.00   13.0
2024/04/02 13:52:00.000   28.289437127  -16.546427326  2334.4357   1   9   0.0018   0.0010   0.0080  -0.0002  -0.0011   0.0015   0.00   34.2
2024/04/02 13:52:01.000   28.289437128  -16.546427326  2334.4357   1   9   0.0018   0.0010   0.0081  -0.0003  -0.0011   0.0015   1.00   35.1
2024/04/02 13:52:02.000   28.289437128  -16.546427326  2334.4357   1   9   0.0018   0.0010   0.0081  -0.0003  -0.0011   0.0015   2.00   36.0
2024/04/02 13:52:03.000   28.289437128  -16.546427326  2334.4358   1   9   0.0018   0.0010   0.0081  -0.0003  -0.0012   0.0015   3.00   37.1
2024/04/02 13:52:04.000   28.289437129  -16.546427326  2334.4358   1   9   0.0019   0.0010   0.0081  -0.0003  -0.0012   0.0015   4.00   38.3
2024/04/02 13:52:05.000   28.289437129  -16.546427326  2334.4358   1   9   0.0019   0.0010   0.0081  -0.0003  -0.0012   0.0016   5.00   39.3
2024/04/02 13:52:06.000   28.289437129  -16.546427326  2334.4358   1   9   0.0019   0.0010   0.0082  -0.0003  -0.0012   0.0016   6.00   40.3
2024/04/02 13:52:07.000   28.289437130  -16.546427326  2334.4358   1   9   0.0019   0.0010   0.0082  -0.0003  -0.0012   0.0016   7.00   40.8
2024/04/02 13:52:08.000   28.289437130  -16.546427326  2334.4358   1   9   0.0019   0.0010   0.0082  -0.0003  -0.0012   0.0016   8.00   41.1
2024/04/02 13:52:09.000   28.289437130  -16.546427326  2334.4358   1   9   0.0019   0.0010   0.0082  -0.0003  -0.0012   0.0016   9.00   41.0
2024/04/02 13:52:10.000   28.289437130  -16.546427325  2334.4359   1   9   0.0019   0.0010   0.0082  -0.0003  -0.0012   0.0016  10.00   40.9
2024/04/02 13:52:11.000   28.289437130  -16.546427325  2334.4359   1   9   0.0019   0.0010   0.0082  -0.0003  -0.0012   0.0016  11.00   40.7
2024/04/02 13:52:12.000   28.289437130  -16.546427325  2334.4359   1   9   0.0019   0.0010   0.0082  -0.0003  -0.0012   0.0016  12.00   40.3
2024/04/02 13:52:13.000   28.289437130  -16.546427325  2334.4359   1   9   0.0019   0.0010   0.0082  -0.0003  -0.0012   0.0016  13.00   39.7
2024/04/02 13:52:14.000   28.289437130  -16.546427325  2334.4359   1   9   0.0019   0.0010   0.0082  -0.0003  -0.0012   0.0017  14.00   39.1
2024/04/02 13:52:15.000   28.289437130  -16.546427325  2334.4359   1   9   0.0019   0.0010   0.0082  -0.0003  -0.0012   0.0017  15.00   38.5
2024/04/02 13:52:16.000   28.289437130  -16.546427325  2334.4359   1   9   0.0019   0.0010   0.0082  -0.0003  -0.0012   0.0017 -14.00   37.7
2024/04/02 13:52:17.000   28.289437130  -16.546427325  2334.4359   1   9   0.0019   0.0010   0.0083  -0.0003  -0.0012   0.0017 -13.00   37.1
2024/04/02 13:52:18.000   28.289437130  -16.546427325  2334.4359   1   9   0.0019   0.0010   0.0083  -0.0003  -0.0012   0.0017 -12.00   36.4
2024/04/02 13:52:19.000   28.289437131  -16.546427325  2334.4359   1   9   0.0019   0.0010   0.0083  -0.0003  -0.0012   0.0017 -11.00   35.4
2024/04/02 13:52:20.000   28.289437131  -16.546427325  2334.4359   1   9   0.0019   0.0010   0.0083  -0.0003  -0.0012   0.0017 -10.00   34.4
2024/04/02 13:52:21.000   28.289437131  -16.546427325  2334.4359   1   9   0.0019   0.0010   0.0083  -0.0003  -0.0012   0.0017  -9.00   33.3
2024/04/02 13:52:22.000   28.289437131  -16.546427325  2334.4359   1   9   0.0019   0.0010   0.0083  -0.0003  -0.0012   0.0017  -8.00   32.0
2024/04/02 13:52:23.000   28.289437131  -16.546427325  2334.4359   1   9   0.0019   0.0010   0.0083  -0.0003  -0.0012   0.0017  -7.00   30.6
2024/04/02 13:52:24.000   28.289437131  -16.546427325  2334.4359   1   9   0.0019   0.0010   0.0083  -0.0003  -0.0012   0.0018  -6.00   29.5
2024/04/02 13:52:25.000   28.289437131  -16.546427325  2334.4360   1   9   0.0019   0.0010   0.0084  -0.0003  -0.0012   0.0018  -5.00   26.9
2024/04/02 13:52:26.000   28.289437131  -16.546427325  2334.4360   1   9   0.0019   0.0010   0.0084  -0.0003  -0.0012   0.0018  -4.00   24.1
2024/04/02 13:52:27.000   28.289437131  -16.546427325  2334.4359   1   9   0.0019   0.0010   0.0084  -0.0003  -0.0012   0.0018  -3.00   20.5
2024/04/02 13:52:28.000   28.289437132  -16.546427325  2334.4358   1   9   0.0019   0.0010   0.0084  -0.0003  -0.0012   0.0018  -2.00   16.2
2024/04/02 13:52:29.000   28.289437132  -16.546427325  2334.4358   1   9   0.0019   0.0010   0.0085  -0.0003  -0.0012   0.0019  -1.00   10.0
2024/04/02 13:52:30.000   28.289437132  -16.546427326  2334.4368   1   9   0.0019   0.0010   0.0080  -0.0002  -0.0011   0.0015   0.00   34.1
2024/04/02 13:52:31.000   28.289437132  -16.546427326  2334.4367   1   9   0.0019   0.0010   0.0081  -0.0002  -0.0011   0.0015   1.00   35.7
2024/04/02 13:52:32.000   28.289437133  -16.546427326  2334.4366   1   9   0.0019   0.0010   0.0081  -0.0002  -0.0011   0.0015   2.00   37.3
2024/04/02 13:52:33.000   28.289437133  -16.546427326  2334.4365   1   9   0.0019   0.0010   0.0081  -0.0002  -0.0011   0.0015   3.00   38.9
2024/04/02 13:52:34.000   28.289437133  -16.546427326  2334.4364   1   9   0.0019   0.0010   0.0081  -0.0003  -0.0012   0.0016   4.00   40.3
2024/04/02 13:52:35.000   28.289437133  -16.546427326  2334.4362   1   9   0.0019   0.0010   0.0081  -0.0003  -0.0012   0.0016   5.00   41.4
2024/04/02 13:52:36.000   28.289437134  -16.546427326  2334.4362   1   9   0.0019   0.0010   0.0082  -0.0003  -0.0012   0.0016   6.00   42.2
2024/04/02 13:52:37.000   28.289437134  -16.546427326  2334.4361   1   9   0.0019   0.0010   0.0082  -0.0003  -0.0012   0.0016   7.00   42.8
2024/04/02 13:52:38.000   28.289437134  -16.546427326  2334.4361   1   9   0.0019   0.0010   0.0082  -0.0003  -0.0012   0.0016   8.00   43.0
2024/04/02 13:52:39.000   28.289437134  -16.546427326  2334.4360   1   9   0.0019   0.0010   0.0082  -0.0003  -0.0012   0.0016   9.00   43.0
2024/04/02 13:52:40.000   28.289437134  -16.546427326  2334.4360   1   9   0.0019   0.0010   0.0082  -0.0003  -0.0012   0.0016  10.00   43.0
2024/04/02 13:52:41.000   28.289437134  -16.546427326  2334.4360   1   9   0.0019   0.0010   0.0082  -0.0003  -0.0012   0.0017  11.00   42.7
2024/04/02 13:52:42.000   28.289437134  -16.546427326  2334.4360   1   9   0.0019   0.0010   0.0082  -0.0003  -0.0012   0.0017  12.00   42.3
2024/04/02 13:52:43.000   28.289437134  -16.546427326  2334.4360   1   9   0.0019   0.0010   0.0082  -0.0003  -0.0012   0.0017  13.00   41.9
2024/04/02 13:52:44.000   28.289437134  -16.546427326  2334.4360   1   9   0.0019   0.0010   0.0083  -0.0003  -0.0012   0.0017  14.00   41.3
2024/04/02 13:52:45.000   28.289437134  -16.546427326  2334.4360   1   9   0.0019   0.0010   0.0083  -0.0003  -0.0012   0.0017  15.00   40.6
2024/04/02 13:52:46.000   28.289437134  -16.546427326  2334.4360   1   9   0.0019   0.0010   0.0083  -0.0003  -0.0012   0.0017 -14.00   40.0
2024/04/02 13:52:47.000   28.289437134  -16.546427326  2334.4360   1   9   0.0019   0.0010   0.0083  -0.0003  -0.0012   0.0017 -13.00   39.3
2024/04/02 13:52:48.000   28.289437135  -16.546427326  2334.4360   1   9   0.0019   0.0010   0.0083  -0.0003  -0.0012   0.0017 -12.00   38.7
2024/04/02 13:52:49.000   28.289437135  -16.546427326  2334.4360   1   9   0.0019   0.0010   0.0083  -0.0003  -0.0012   0.0017 -11.00   38.0
2024/04/02 13:52:50.000   28.289437135  -16.546427326  2334.4360   1   9   0.0019   0.0010   0.0083  -0.0003  -0.0012   0.0017 -10.00   37.5
2024/04/02 13:52:51.000   28.289437135  -16.546427325  2334.4359   1   9   0.0019   0.0010   0.0083  -0.0003  -0.0012   0.0017  -9.00   37.0
2024/04/02 13:52:52.000   28.289437135  -16.546427325  2334.4359   1   9   0.0019   0.0010   0.0083  -0.0003  -0.0012   0.0018  -8.00   35.8
2024/04/02 13:52:53.000   28.289437135  -16.546427325  2334.4359   1   9   0.0019   0.0010   0.0083  -0.0003  -0.0012   0.0018  -7.00   34.5
2024/04/02 13:52:54.000   28.289437135  -16.546427325  2334.4358   1   9   0.0019   0.0010   0.0084  -0.0003  -0.0012   0.0018  -6.00   33.2
2024/04/02 13:52:55.000   28.289437136  -16.546427326  2334.4358   1   9   0.0019   0.0010   0.0084  -0.0003  -0.0012   0.0018  -5.00   31.6
2024/04/02 13:52:56.000   28.289437136  -16.546427326  2334.4357   1   9   0.0019   0.0010   0.0084  -0.0003  -0.0012   0.0018  -4.00   28.8
2024/04/02 13:52:57.000   28.289437136  -16.546427326  2334.4356   1   9   0.0019   0.0011   0.0084  -0.0003  -0.0012   0.0018  -3.00   25.2
2024/04/02 13:52:58.000   28.289437137  -16.546427326  2334.4355   1   9   0.0019   0.0011   0.0085  -0.0003  -0.0012   0.0019  -2.00   21.1
2024/04/02 13:52:59.000   28.289437138  -16.546427326  2334.4356   1   9   0.0020   0.0011   0.0085  -0.0003  -0.0012   0.0019  -1.00   13.8
2024/04/02 13:53:00.000   28.289437128  -16.546427327  2334.4371   1   9   0.0018   0.0010   0.0080  -0.0003  -0.0011   0.0015   0.00   28.0
2024/04/02 13:53:01.000   28.289437129  -16.546427328  2334.4370   1   9   0.0018   0.0010   0.0081  -0.0003  -0.0011   0.0015   1.00   29.1
2024/04/02 13:53:02.000   28.289437129  -16.546427328  2334.4370   1   9   0.0019   0.0010   0.0081  -0.0003  -0.0011   0.0016   2.00   30.2
2024/04/02 13:53:03.000   28.289437130  -16.546427328  2334.4369   1   9   0.0019   0.0010   0.0081  -0.0003  -0.0011   0.0016   3.00   31.5
2024/04/02 13:53:04.000   28.289437131  -16.546427328  2334.4368   1   9   0.0019   0.0010   0.0081  -0.0003  -0.0011   0.0016   4.00   32.5
2024/04/02 13:53:05.000   28.289437131  -16.546427328  2334.4367   1   9   0.0019   0.0010   0.0082  -0.0003  -0.0012   0.0016   5.00   33.2
2024/04/02 13:53:06.000   28.289437131  -16.546427328  2334.4367   1   9   0.0019   0.0010   0.0082  -0.0003  -0.0012   0.0016   6.00   33.4
2024/04/02 13:53:07.000   28.289437132  -16.546427328  2334.4366   1   9   0.0019   0.0010   0.0082  -0.0003  -0.0012   0.0016   7.00   33.7
2024/04/02 13:53:08.000   28.289437132  -16.546427328  2334.4366   1   9   0.0019   0.0010   0.0082  -0.0003  -0.0012   0.0017   8.00   34.0
2024/04/02 13:53:09.000   28.289437132  -16.546427328  2334.4365   1   9   0.0019   0.0010   0.0082  -0.0003  -0.0012   0.0017   9.00   34.0
2024/04/02 13:53:10.000   28.289437132  -16.546427328  2334.4365   1   9   0.0019   0.0010   0.0082  -0.0003  -0.0012   0.0017  10.00   33.9
2024/04/02 13:53:11.000   28.289437133  -16.546427328  2334.4364   1   9   0.0019   0.0010   0.0082  -0.0003  -0.0012   0.0017  11.00   33.7
2024/04/02 13:53:12.000   28.289437133  -16.546427328  2334.4364   1   9   0.0019   0.0010   0.0083  -0.0003  -0.0012   0.0017  12.00   33.3
2024/04/02 13:53:13.000   28.289437133  -16.546427328  2334.4364   1   9   0.0019   0.0010   0.0083  -0.0003  -0.0012   0.0017  13.00   32.9
2024/04/02 13:53:14.000   28.289437133  -16.546427328  2334.4363   1   9   0.0019   0.0010   0.0083  -0.0003  -0.0012   0.0017  14.00   32.4
2024/04/02 13:53:15.000   28.289437133  -16.546427328  2334.4363   1   9   0.0019   0.0010   0.0083  -0.0003  -0.0012   0.0017  15.00   31.8
2024/04/02 13:53:16.000   28.289437133  -16.546427328  2334.4363   1   9   0.0019   0.0010   0.0083  -0.0003  -0.0012   0.0017 -14.00   31.1
2024/04/02 13:53:17.000   28.289437133  -16.546427328  2334.4362   1   9   0.0019   0.0010   0.0083  -0.0003  -0.0012   0.0017 -13.00   30.4
2024/04/02 13:53:18.000   28.289437133  -16.546427328  2334.4362   1   9   0.0019   0.0010   0.0083  -0.0003  -0.0012   0.0018 -12.00   29.7
2024/04/02 13:53:19.000   28.289437133  -16.546427328  2334.4361   1   9   0.0019   0.0010   0.0083  -0.0003  -0.0012   0.0018 -11.00   29.2
2024/04/02 13:53:20.000   28.289437133  -16.546427328  2334.4361   1   9   0.0019   0.0010   0.0083  -0.0003  -0.0012   0.0018 -10.00   28.6
2024/04/02 13:53:21.000   28.289437133  -16.546427328  2334.4360   1   9   0.0019   0.0010   0.0083  -0.0003  -0.0012   0.0018  -9.00   28.0
2024/04/02 13:53:22.000   28.289437133  -16.546427328  2334.4360   1   9   0.0019   0.0010   0.0084  -0.0003  -0.0012   0.0018  -8.00   27.4
2024/04/02 13:53:23.000   28.289437134  -16.546427328  2334.4359   1   9   0.0019   0.0010   0.0084  -0.0003  -0.0012   0.0018  -7.00   26.9
2024/04/02 13:53:24.000   28.289437134  -16.546427328  2334.4358   1   9   0.0019   0.0010   0.0084  -0.0003  -0.0012   0.0018  -6.00   26.6
2024/04/02 13:53:25.000   28.289437134  -16.546427328  2334.4358   1   9   0.0019   0.0010   0.0084  -0.0003  -0.0012   0.0018  -5.00   25.6
2024/04/02 13:53:26.000   28.289437134  -16.546427328  2334.4357   1   9   0.0019   0.0010   0.0084  -0.0003  -0.0012   0.0019  -4.00   24.4
2024/04/02 13:53:27.000   28.289437135  -16.546427328  2334.4356   1   9   0.0019   0.0011   0.0085  -0.0004  -0.0012   0.0019  -3.00   21.9
2024/04/02 13:53:28.000   28.289437135  -16.546427328  2334.4355   1   9   0.0019   0.0011   0.0085  -0.0004  -0.0012   0.0019  -2.00   18.0
2024/04/02 13:53:29.000   28.289437136  -16.546427328  2334.4355   1   9   0.0019   0.0011   0.0085  -0.0004  -0.0012   0.0019  -1.00   11.9
2024/04/02 13:53:30.000   28.289437134  -16.546427328  2334.4373   1   9   0.0019   0.0010   0.0081  -0.0002  -0.0011   0.0015   0.00   17.0
2024/04/02 13:53:31.000   28.289437134  -16.546427328  2334.4371   1   9   0.0019   0.0010   0.0081  -0.0003  -0.0011   0.0016   1.00   17.6
2024/04/02 13:53:32.000   28.289437135  -16.546427328  2334.4370   1   9   0.0019   0.0010   0.0081  -0.0003  -0.0011   0.0016   2.00   18.4
2024/04/02 13:53:33.000   28.289437136  -16.546427328  2334.4369   1   9   0.0019   0.0010   0.0081  -0.0003  -0.0011   0.0016   3.00   19.0
2024/04/02 13:53:34.000   28.289437136  -16.546427328  2334.4368   1   9   0.0019   0.0010   0.0081  -0.0003  -0.0011   0.0016   4.00   19.5
2024/04/02 13:53:35.000   28.289437137  -16.546427328  2334.4367   1   9   0.0019   0.0010   0.0082  -0.0003  -0.0011   0.0016   5.00   19.9
2024/04/02 13:53:36.000   28.289437137  -16.546427329  2334.4366   1   9   0.0019   0.0010   0.0082  -0.0003  -0.0012   0.0017   6.00   20.1
2024/04/02 13:53:37.000   28.289437137  -16.546427329  2334.4365   1   9   0.0019   0.0010   0.0082  -0.0003  -0.0012   0.0017   7.00   20.1
2024/04/02 13:53:38.000   28.289437137  -16.546427329  2334.4364   1   9   0.0019   0.0010   0.0082  -0.0003  -0.0012   0.0017   8.00   19.8
2024/04/02 13:53:39.000   28.289437137  -16.546427329  2334.4363   1   9   0.0019   0.0011   0.0082  -0.0003  -0.0012   0.0017   9.00   19.4
2024/04/02 13:53:40.000   28.289437137  -16.546427329  2334.4363   1   9   0.0019   0.0011   0.0082  -0.0003  -0.0012   0.0017  10.00   18.9
2024/04/02 13:53:41.000   28.289437138  -16.546427329  2334.4362   1   9   0.0019   0.0011   0.0083  -0.0003  -0.0012   0.0017  11.00   18.4
2024/04/02 13:53:42.000   28.289437138  -16.546427329  2334.4361   1   9   0.0019   0.0011   0.0083  -0.0003  -0.0012   0.0017  12.00   17.8
2024/04/02 13:53:43.000   28.289437138  -16.546427329  2334.4361   1   9   0.0019   0.0011   0.0083  -0.0003  -0.0012   0.0018  13.00   17.2
2024/04/02 13:53:44.000   28.289437138  -16.546427329  2334.4360   1   9   0.0019   0.0011   0.0083  -0.0003  -0.0012   0.0018  14.00   16.4
2024/04/02 13:53:45.000   28.289437138  -16.546427329  2334.4360   1   9   0.0019   0.0011   0.0083  -0.0003  -0.0012   0.0018  15.00   15.6
2024/04/02 13:53:46.000   28.289437138  -16.546427329  2334.4360   1   9   0.0019   0.0011   0.0083  -0.0003  -0.0012   0.0018 -14.00   14.8
2024/04/02 13:53:47.000   28.289437138  -16.546427329  2334.4359   1   9   0.0019   0.0011   0.0083  -0.0003  -0.0012   0.0018 -13.00   14.1
2024/04/02 13:53:48.000   28.289437138  -16.546427329  2334.4359   1   9   0.0019   0.0011   0.0083  -0.0003  -0.0012   0.0018 -12.00   13.3
2024/04/02 13:53:49.000   28.289437138  -16.546427329  2334.4359   1   9   0.0019   0.0011   0.0083  -0.0003  -0.0012   0.0018 -11.00   12.6
2024/04/02 13:53:50.000   28.289437138  -16.546427329  2334.4358   1   9   0.0019   0.0011   0.0084  -0.0003  -0.0012   0.0018 -10.00   11.8
2024/04/02 13:53:51.000   28.289437138  -16.546427329  2334.4357   1   9   0.0019   0.0011   0.0084  -0.0003  -0.0012   0.0018  -9.00   11.0
2024/04/02 13:53:52.000   28.289437138  -16.546427329  2334.4357   1   9   0.0019   0.0011   0.0084  -0.0003  -0.0012   0.0018  -8.00   10.2
2024/04/02 13:53:53.000   28.289437138  -16.546427329  2334.4356   1   9   0.0019   0.0011   0.0084  -0.0003  -0.0012   0.0019  -7.00    9.4
2024/04/02 13:53:54.000   28.289437138  -16.546427329  2334.4355   1   9   0.0019   0.0011   0.0084  -0.0003  -0.0012   0.0019  -6.00    8.6
2024/04/02 13:53:55.000   28.289437139  -16.546427329  2334.4355   1   9   0.0019   0.0011   0.0085  -0.0003  -0.0012   0.0019  -5.00    7.8
2024/04/02 13:53:56.000   28.289437139  -16.546427329  2334.4354   1   9   0.0019   0.0011   0.0085  -0.0003  -0.0012   0.0019  -4.00    6.9
2024/04/02 13:53:57.000   28.289437139  -16.546427329  2334.4354   1   9   0.0020   0.0011   0.0085  -0.0003  -0.0012   0.0019  -3.00    6.0
2024/04/02 13:53:58.000   28.289437140  -16.546427329  2334.4353   1   9   0.0020   0.0011   0.0085  -0.0003  -0.0012   0.0020  -2.00    4.8
2024/04/02 13:53:59.000   28.289437141  -16.546427329  2334.4354   1   9   0.0020   0.0011   0.0086  -0.0004  -0.0012   0.0020  -1.00    3.1
2024/04/02 13:54:00.000   28.289437125  -16.546427332  2334.4359   1   9   0.0019   0.0010   0.0086  -0.0003  -0.0012   0.0019   0.00   42.6
2024/04/02 13:54:01.000   28.289437126  -16.546427332  2334.4359   1   8   0.0019   0.0010   0.0086  -0.0004  -0.0012   0.0020   1.00   45.0
2024/04/02 13:54:02.000   28.289437127  -16.546427332  2334.4359   1   8   0.0019   0.0010   0.0086  -0.0004  -0.0012   0.0020   2.00   47.6
2024/04/02 13:54:03.000   28.289437127  -16.546427332  2334.4359   1   8   0.0019   0.0010   0.0086  -0.0004  -0.0012   0.0020   3.00   50.0
2024/04/02 13:54:04.000   28.289437128  -16.546427333  2334.4359   1   8   0.0019   0.0010   0.0086  -0.0004  -0.0012   0.0020   4.00   52.1
2024/04/02 13:54:05.000   28.289437129  -16.546427333  2334.4359   1   8   0.0019   0.0010   0.0086  -0.0004  -0.0012   0.0020   5.00   54.5
2024/04/02 13:54:06.000   28.289437129  -16.546427333  2334.4359   1   8   0.0019   0.0010   0.0086  -0.0004  -0.0012   0.0020   6.00   56.2
2024/04/02 13:54:07.000   28.289437129  -16.546427333  2334.4358   1   8   0.0019   0.0010   0.0086  -0.0004  -0.0012   0.0020   7.00   57.3
2024/04/02 13:54:08.000   28.289437129  -16.546427333  2334.4358   1   8   0.0019   0.0010   0.0086  -0.0004  -0.0012   0.0020   8.00   58.3
2024/04/02 13:54:09.000   28.289437130  -16.546427333  2334.4358   1   8   0.0019   0.0010   0.0086  -0.0004  -0.0012   0.0020   9.00   59.0
2024/04/02 13:54:10.000   28.289437130  -16.546427333  2334.4358   1   8   0.0019   0.0010   0.0086  -0.0004  -0.0012   0.0020  10.00   59.4
2024/04/02 13:54:11.000   28.289437130  -16.546427333  2334.4357   1   8   0.0019   0.0010   0.0086  -0.0004  -0.0012   0.0020  11.00   59.8
2024/04/02 13:54:12.000   28.289437130  -16.546427333  2334.4357   1   8   0.0019   0.0010   0.0086  -0.0004  -0.0012   0.0020  12.00   60.1
2024/04/02 13:54:13.000   28.289437130  -16.546427333  2334.4357   1   8   0.0019   0.0010   0.0086  -0.0004  -0.0012   0.0020  13.00   60.1
2024/04/02 13:54:14.000   28.289437130  -16.546427333  2334.4357   1   8   0.0019   0.0010   0.0086  -0.0004  -0.0012   0.0020  14.00   59.9
2024/04/02 13:54:15.000   28.289437130  -16.546427333  2334.4357   1   8   0.0019   0.0010   0.0086  -0.0004  -0.0012   0.0020  15.00   59.7
2024/04/02 13:54:16.000   28.289437130  -16.546427333  2334.4357   1   8   0.0019   0.0010   0.0086  -0.0004  -0.0012   0.0020 -14.00   59.4
2024/04/02 13:54:17.000   28.289437130  -16.546427333  2334.4357   1   8   0.0019   0.0010   0.0086  -0.0004  -0.0012   0.0020 -13.00   59.2
2024/04/02 13:54:18.000   28.289437130  -16.546427333  2334.4357   1   8   0.0019   0.0010   0.0086  -0.0004  -0.0012   0.0020 -12.00   58.9
2024/04/02 13:54:19.000   28.289437131  -16.546427333  2334.4357   1   8   0.0019   0.0010   0.0086  -0.0004  -0.0012   0.0020 -11.00   58.8
2024/04/02 13:54:20.000   28.289437131  -16.546427333  2334.4357   1   8   0.0019   0.0010   0.0086  -0.0004  -0.0012   0.0020 -10.00   58.6
2024/04/02 13:54:21.000   28.289437131  -16.546427333  2334.4356   1   8   0.0019   0.0010   0.0086  -0.0004  -0.0012   0.0020  -9.00   57.9
2024/04/02 13:54:22.000   28.289437131  -16.546427333  2334.4356   1   8   0.0019   0.0011   0.0086  -0.0004  -0.0012   0.0020  -8.00   57.1
2024/04/02 13:54:23.000   28.289437131  -16.546427333  2334.4356   1   8   0.0019   0.0011   0.0086  -0.0004  -0.0012   0.0020  -7.00   56.3
2024/04/02 13:54:24.000   28.289437131  -16.546427333  2334.4356   1   8   0.0019   0.0011   0.0086  -0.0004  -0.0012   0.0020  -6.00   55.4
2024/04/02 13:54:25.000   28.289437132  -16.546427333  2334.4356   1   8   0.0019   0.0011   0.0086  -0.0004  -0.0012   0.0020  -5.00   53.9
2024/04/02 13:54:26.000   28.289437132  -16.546427333  2334.4356   1   8   0.0019   0.0011   0.0086  -0.0004  -0.0012   0.0020  -4.00   51.6
2024/04/02 13:54:27.000   28.289437132  -16.546427333  2334.4355   1   8   0.0019   0.0011   0.0086  -0.0004  -0.0012   0.0020  -3.00   46.2
2024/04/02 13:54:28.000   28.289437133  -16.546427333  2334.4355   1   8   0.0019   0.0011   0.0086  -0.0004  -0.0012   0.0020  -2.00   39.4
2024/04/02 13:54:29.000   28.289437134  -16.546427333  2334.4355   1   8   0.0019   0.0011   0.0086  -0.0004  -0.0012   0.0020  -1.00   26.5
2024/04/02 13:54:30.000   28.289437137  -16.546427337  2334.4387   1   8   0.0019   0.0010   0.0085  -0.0003  -0.0011   0.0019   0.00   44.5
2024/04/02 13:54:31.000   28.289437138  -16.546427337  2334.4387   1   8   0.0019   0.0010   0.0085  -0.0003  -0.0011   0.0019   1.00   46.8
2024/04/02 13:54:32.000   28.289437139  -16.546427337  2334.4387   1   8   0.0019   0.0010   0.0085  -0.0003  -0.0011   0.0019   2.00   49.4
2024/04/02 13:54:33.000   28.289437140  -16.546427338  2334.4387   1   8   0.0019   0.0010   0.0086  -0.0003  -0.0011   0.0019   3.00   52.2
2024/04/02 13:54:34.000   28.289437141  -16.546427338  2334.4387   1   8   0.0019   0.0010   0.0086  -0.0003  -0.0011   0.0019   4.00   54.6
2024/04/02 13:54:35.000   28.289437141  -16.546427338  2334.4386   1   8   0.0019   0.0010   0.0086  -0.0003  -0.0012   0.0019   5.00   56.8
2024/04/02 13:54:36.000   28.289437142  -16.546427338  2334.4386   1   8   0.0019   0.0010   0.0086  -0.0003  -0.0012   0.0019   6.00   58.6
2024/04/02 13:54:37.000   28.289437142  -16.546427338  2334.4385   1   8   0.0019   0.0010   0.0086  -0.0003  -0.0012   0.0019   7.00   60.2
2024/04/02 13:54:38.000   28.289437143  -16.546427338  2334.4384   1   8   0.0019   0.0010   0.0086  -0.0003  -0.0012   0.0019   8.00   61.7
2024/04/02 13:54:39.000   28.289437143  -16.546427337  2334.4384   1   8   0.0019   0.0010   0.0086  -0.0003  -0.0012   0.0019   9.00   62.7
2024/04/02 13:54:40.000   28.289437143  -16.546427337  2334.4383   1   8   0.0019   0.0010   0.0086  -0.0003  -0.0012   0.0019  10.00   63.3
2024/04/02 13:54:41.000   28.289437143  -16.546427337  2334.4383   1   8   0.0019   0.0010   0.0086  -0.0003  -0.0012   0.0019  11.00   63.9
2024/04/02 13:54:42.000   28.289437143  -16.546427337  2334.4382   1   8   0.0019   0.0010   0.0086  -0.0003  -0.0012   0.0019  12.00   64.2
2024/04/02 13:54:43.000   28.289437143  -16.546427337  2334.4382   1   8   0.0019   0.0010   0.0086  -0.0003  -0.0012   0.0020  13.00   64.4
2024/04/02 13:54:44.000   28.289437144  -16.546427337  2334.4381   1   8   0.0019   0.0010   0.0086  -0.0003  -0.0012   0.0020  14.00   64.5
2024/04/02 13:54:45.000   28.289437144  -16.546427337  2334.4381   1   8   0.0019   0.0010   0.0086  -0.0003  -0.0012   0.0020  15.00   64.4
2024/04/02 13:54:46.000   28.289437144  -16.546427337  2334.4381   1   8   0.0019   0.0010   0.0086  -0.0003  -0.0012   0.0020 -14.00   64.3
2024/04/02 13:54:47.000   28.289437144  -16.546427337  2334.4381   1   8   0.0019   0.0010   0.0086  -0.0003  -0.0012   0.0020 -13.00   64.2
2024/04/02 13:54:48.000   28.289437144  -16.546427337  2334.4381   1   8   0.0019   0.0010   0.0086  -0.0003  -0.0012   0.0020 -12.00   64.2
2024/04/02 13:54:49.000   28.289437144  -16.546427337  2334.4380   1   8   0.0019   0.0010   0.0086  -0.0003  -0.0012   0.0020 -11.00   64.4
2024/04/02 13:54:50.000   28.289437144  -16.546427337  2334.4380   1   8   0.0019   0.0010   0.0086  -0.0003  -0.0012   0.0020 -10.00   64.4
2024/04/02 13:54:51.000   28.289437144  -16.546427337  2334.4380   1   8   0.0019   0.0010   0.0086  -0.0003  -0.0012   0.0020  -9.00   64.8
2024/04/02 13:54:52.000   28.289437145  -16.546427337  2334.4379   1   8   0.0019   0.0010   0.0086  -0.0003  -0.0012   0.0020  -8.00   64.7
2024/04/02 13:54:53.000   28.289437145  -16.546427337  2334.4379   1   8   0.0019   0.0010   0.0086  -0.0003  -0.0012   0.0020  -7.00   64.3
2024/04/02 13:54:54.000   28.289437145  -16.546427336  2334.4378   1   8   0.0019   0.0010   0.0086  -0.0003  -0.0012   0.0020  -6.00   63.9
2024/04/02 13:54:55.000   28.289437145  -16.546427336  2334.4378   1   8   0.0019   0.0010   0.0086  -0.0003  -0.0012   0.0020  -5.00   62.9
2024/04/02 13:54:56.000   28.289437146  -16.546427337  2334.4377   1   8   0.0019   0.0010   0.0086  -0.0003  -0.0012   0.0020  -4.00   60.4
2024/04/02 13:54:57.000   28.289437146  -16.546427337  2334.4377   1   8   0.0019   0.0010   0.0086  -0.0003  -0.0012   0.0020  -3.00   54.9
2024/04/02 13:54:58.000   28.289437147  -16.546427337  2334.4376   1   8   0.0019   0.0010   0.0086  -0.0003  -0.0012   0.0020  -2.00   46.2
2024/04/02 13:54:59.000   28.289437148  -16.546427337  2334.4376   1   8   0.0019   0.0011   0.0086  -0.0004  -0.0012   0.0020  -1.00   30.3
2024/04/02 13:55:00.000   28.289437135  -16.546427332  2334.4350   1   8   0.0019   0.0010   0.0086  -0.0003  -0.0012   0.0020   0.00   47.7
2024/04/02 13:55:01.000   28.289437136  -16.546427332  2334.4350   1   8   0.0019   0.0010   0.0086  -0.0003  -0.0012   0.0020   1.00   51.1
2024/04/02 13:55:02.000   28.289437136  -16.546427333  2334.4350   1   8   0.0019   0.0011   0.0086  -0.0003  -0.0012   0.0020   2.00   54.8
2024/04/02 13:55:03.000   28.289437137  -16.546427333  2334.4349   1   8   0.0019   0.0011   0.0086  -0.0003  -0.0012   0.0020   3.00   58.5
2024/04/02 13:55:04.000   28.289437137  -16.546427333  2334.4348   1   8   0.0019   0.0011   0.0086  -0.0003  -0.0012   0.0020   4.00   62.2
2024/04/02 13:55:05.000   28.289437138  -16.546427333  2334.4347   1   8   0.0019   0.0011   0.0086  -0.0003  -0.0012   0.0020   5.00   65.7
2024/04/02 13:55:06.000   28.289437138  -16.546427333  2334.4347   1   8   0.0019   0.0011   0.0086  -0.0003  -0.0012   0.0020   6.00   68.6
2024/04/02 13:55:07.000   28.289437138  -16.546427333  2334.4346   1   8   0.0019   0.0011   0.0086  -0.0003  -0.0012   0.0020   7.00   70.6
2024/04/02 13:55:08.000   28.289437138  -16.546427333  2334.4346   1   8   0.0019   0.0011   0.0086  -0.0004  -0.0012   0.0020   8.00   72.1
2024/04/02 13:55:09.000   28.289437138  -16.546427333  2334.4345   1   8   0.0020   0.0011   0.0086  -0.0004  -0.0012   0.0020   9.00   73.6
2024/04/02 13:55:10.000   28.289437138  -16.546427333  2334.4345   1   8   0.0020   0.0011   0.0086  -0.0004  -0.0012   0.0020  10.00   74.6
2024/04/02 13:55:11.000   28.289437138  -16.546427333  2334.4345   1   8   0.0020   0.0011   0.0086  -0.0004  -0.0012   0.0020  11.00   74.8
2024/04/02 13:55:12.000   28.289437139  -16.546427333  2334.4345   1   8   0.0020   0.0011   0.0086  -0.0004  -0.0012   0.0020  12.00   75.3
2024/04/02 13:55:13.000   28.289437139  -16.546427333  2334.4344   1   8   0.0020   0.0011   0.0086  -0.0004  -0.0012   0.0020  13.00   75.4
2024/04/02 13:55:14.000   28.289437139  -16.546427333  2334.4344   1   8   0.0020   0.0011   0.0086  -0.0004  -0.0012   0.0020  14.00   75.4
2024/04/02 13:55:15.000   28.289437139  -16.546427333  2334.4344   1   8   0.0020   0.0011   0.0086  -0.0004  -0.0012   0.0020  15.00   75.1
2024/04/02 13:55:16.000   28.289437139  -16.546427333  2334.4344   1   8   0.0020   0.0011   0.0086  -0.0004  -0.0012   0.0020 -14.00   74.7
2024/04/02 13:55:17.000   28.289437139  -16.546427333  2334.4344   1   8   0.0020   0.0011   0.0086  -0.0004  -0.0012   0.0020 -13.00   74.5
2024/04/02 13:55:18.000   28.289437139  -16.546427333  2334.4344   1   8   0.0020   0.0011   0.0086  -0.0004  -0.0012   0.0020 -12.00   74.1
2024/04/02 13:55:19.000   28.289437139  -16.546427333  2334.4343   1   8   0.0020   0.0011   0.0086  -0.0004  -0.0012   0.0020 -11.00   73.9
2024/04/02 13:55:20.000   28.289437139  -16.546427333  2334.4343   1   8   0.0020   0.0011   0.0086  -0.0004  -0.0012   0.0020 -10.00   74.4
2024/04/02 13:55:21.000   28.289437139  -16.546427333  2334.4343   1   8   0.0020   0.0011   0.0086  -0.0004  -0.0012   0.0020  -9.00   75.2
2024/04/02 13:55:22.000   28.289437139  -16.546427333  2334.4343   1   8   0.0020   0.0011   0.0086  -0.0004  -0.0012   0.0020  -8.00   77.3
2024/04/02 13:55:23.000   28.289437139  -16.546427333  2334.4342   1   8   0.0020   0.0011   0.0086  -0.0004  -0.0012   0.0020  -7.00   77.9
2024/04/02 13:55:24.000   28.289437140  -16.546427333  2334.4342   1   8   0.0020   0.0011   0.0086  -0.0004  -0.0012   0.0020  -6.00   75.5
2024/04/02 13:55:25.000   28.289437140  -16.546427333  2334.4342   1   8   0.0020   0.0011   0.0086  -0.0004  -0.0012   0.0020  -5.00   71.7
2024/04/02 13:55:26.000   28.289437140  -16.546427333  2334.4342   1   8   0.0020   0.0011   0.0086  -0.0004  -0.0012   0.0021  -4.00   68.4
2024/04/02 13:55:27.000   28.289437141  -16.546427333  2334.4341   1   8   0.0020   0.0011   0.0086  -0.0004  -0.0012   0.0021  -3.00   61.9
2024/04/02 13:55:28.000   28.289437141  -16.546427333  2334.4341   1   8   0.0020   0.0011   0.0086  -0.0004  -0.0012   0.0021  -2.00   54.4
2024/04/02 13:55:29.000   28.289437142  -16.546427333  2334.4341   1   8   0.0020   0.0011   0.0086  -0.0004  -0.0012   0.0021  -1.00   37.2
2024/04/02 13:55:30.000   28.289437129  -16.546427334  2334.4335   1   8   0.0018   0.0010   0.0085  -0.0004  -0.0012   0.0019   0.00   59.9
2024/04/02 13:55:31.000   28.289437130  -16.546427334  2334.4335   1   8   0.0018   0.0010   0.0085  -0.0004  -0.0012   0.0019   1.00   63.0
2024/04/02 13:55:32.000   28.289437131  -16.546427334  2334.4334   1   8   0.0018   0.0010   0.0085  -0.0004  -0.0012   0.0019   2.00   68.1
2024/04/02 13:55:33.000   28.289437131  -16.546427334  2334.4334   1   8   0.0018   0.0010   0.0085  -0.0004  -0.0012   0.0019   3.00   73.0
2024/04/02 13:55:34.000   28.289437132  -16.546427334  2334.4333   1   8   0.0018   0.0010   0.0085  -0.0004  -0.0012   0.0020   4.00   77.3
2024/04/02 13:55:35.000   28.289437132  -16.546427334  2334.4333   1   8   0.0018   0.0010   0.0085  -0.0004  -0.0012   0.0020   5.00   81.2
2024/04/02 13:55:36.000   28.289437133  -16.546427335  2334.4332   1   8   0.0018   0.0010   0.0086  -0.0005  -0.0012   0.0020   6.00   84.4
2024/04/02 13:55:37.000   28.289437133  -16.546427335  2334.4332   1   8   0.0018   0.0011   0.0086  -0.0005  -0.0012   0.0020   7.00   86.7
2024/04/02 13:55:38.000   28.289437134  -16.546427335  2334.4331   1   8   0.0019   0.0011   0.0086  -0.0005  -0.0012   0.0020   8.00   88.5
2024/04/02 13:55:39.000   28.289437134  -16.546427335  2334.4331   1   8   0.0019   0.0011   0.0086  -0.0005  -0.0012   0.0020   9.00   89.8
2024/04/02 13:55:40.000   28.289437134  -16.546427335  2334.4331   1   8   0.0019   0.0011   0.0086  -0.0005  -0.0012   0.0020  10.00   90.5
2024/04/02 13:55:41.000   28.289437134  -16.546427335  2334.4330   1   8   0.0019   0.0011   0.0086  -0.0005  -0.0012   0.0020  11.00   91.2
2024/04/02 13:55:42.000   28.289437134  -16.546427335  2334.4330   1   8   0.0019   0.0011   0.0086  -0.0005  -0.0012   0.0020  12.00   91.6
2024/04/02 13:55:43.000   28.289437134  -16.546427335  2334.4330   1   8   0.0019   0.0011   0.0086  -0.0005  -0.0012   0.0020  13.00   91.2
2024/04/02 13:55:44.000   28.289437134  -16.546427335  2334.4330   1   8   0.0019   0.0011   0.0086  -0.0005  -0.0012   0.0020  14.00   91.0
