% program   : RTKPOST-EX 2.5.0
% inp file  : C:\Users\SallyHenry\Desktop\Sally Internship\GNSS gravi\DATA\Survey Rover Obs\LM006_2.24o
% inp file  : C:\Users\SallyHenry\Desktop\Sally Internship\GNSS gravi\DATA\BaseStations\IZAN\IZAN00ESP_R_20240930000_01D_30S_MO.rnx
% inp file  : C:\Users\SallyHenry\Desktop\Sally Internship\GNSS gravi\DATA\BaseStations\IZAN\IZAN00ESP_R_20240930000_01D_MN.rnx
% inp file  : C:\Users\SallyHenry\Desktop\Sally Internship\GNSS gravi\DATA\aux_files\Survey\IGS0OPSFIN_20240930000_01D_15M_ORB.SP3
% inp file  : C:\Users\SallyHenry\Desktop\Sally Internship\GNSS gravi\DATA\aux_files\Survey\IGS0OPSFIN_20240930000_01D_30S_CLK.CLK
% obs start : 2024/04/02 15:19:37.0 GPST (week2308 227977.0s)
% obs end   : 2024/04/02 15:34:38.0 GPST (week2308 228878.0s)
% pos mode  : Static
% freqs     : L1+L2/E5b
% solution  : Combined-No Phase Reset
% elev mask : 15.0 deg
% dynamics  : on
% tidecorr  : solid
% ionos opt : Estimate TEC
% tropo opt : Estimate ZTD+Grad
% ephemeris : Precise
% navi sys  : GPS GLONASS Galileo QZSS BDS
% amb res   : Fix and Hold
% amb glo   : Fix and Hold
% amb bds   : on
% val thres : 3.0
% antenna1  :                       ( 0.0000  0.0000  1.8000)
% antenna2  :                       ( 0.0000  0.0000  0.0000)
% ref pos   :  28.308069410  -16.499677180  2417.4044
%
% (lat/lon/height=WGS84/ellipsoidal,Q=1:fix,2:float,3:sbas,4:dgps,5:single,6:ppp,ns=# of satellites)
%  GPST                  latitude(deg) longitude(deg)  height(m)   Q  ns   sdn(m)   sde(m)   sdu(m)  sdne(m)  sdeu(m)  sdun(m) age(s)  ratio
2024/04/02 15:19:37.000   28.287120434  -16.538030659  2360.8822   1   8   0.0013   0.0010   0.0134   0.0002   0.0018  -0.0007   7.00  531.8
2024/04/02 15:19:38.001   28.287120434  -16.538030660  2360.8823   1   8   0.0013   0.0010   0.0134   0.0002   0.0018  -0.0007   8.00  531.7
2024/04/02 15:19:39.000   28.287120434  -16.538030660  2360.8823   1   8   0.0013   0.0010   0.0134   0.0002   0.0018  -0.0007   9.00  531.3
2024/04/02 15:19:40.000   28.287120434  -16.538030660  2360.8824   1   8   0.0013   0.0010   0.0134   0.0002   0.0018  -0.0007  10.00  531.1
2024/04/02 15:19:41.000   28.287120434  -16.538030660  2360.8824   1   8   0.0013   0.0010   0.0134   0.0002   0.0018  -0.0007  11.00  530.7
2024/04/02 15:19:42.000   28.287120434  -16.538030660  2360.8825   1   8   0.0013   0.0010   0.0134   0.0002   0.0018  -0.0007  12.00  530.5
2024/04/02 15:19:43.000   28.287120434  -16.538030660  2360.8825   1   8   0.0013   0.0010   0.0134   0.0002   0.0018  -0.0007  13.00  530.2
2024/04/02 15:19:44.000   28.287120434  -16.538030660  2360.8825   1   8   0.0013   0.0010   0.0134   0.0002   0.0018  -0.0007  14.00  529.8
2024/04/02 15:19:45.000   28.287120434  -16.538030660  2360.8826   1   8   0.0013   0.0010   0.0134   0.0002   0.0018  -0.0007  15.00  529.4
2024/04/02 15:19:46.000   28.287120434  -16.538030660  2360.8826   1   8   0.0013   0.0010   0.0133   0.0002   0.0018  -0.0007 -14.00  529.1
2024/04/02 15:19:47.000   28.287120434  -16.538030660  2360.8827   1   8   0.0013   0.0010   0.0133   0.0002   0.0018  -0.0007 -13.00  528.9
2024/04/02 15:19:48.000   28.287120434  -16.538030660  2360.8827   1   8   0.0013   0.0010   0.0133   0.0002   0.0018  -0.0007 -12.00  528.5
2024/04/02 15:19:49.000   28.287120434  -16.538030660  2360.8828   1   8   0.0013   0.0010   0.0133   0.0002   0.0018  -0.0007 -11.00  528.3
2024/04/02 15:19:50.000   28.287120434  -16.538030660  2360.8829   1   8   0.0013   0.0010   0.0133   0.0002   0.0018  -0.0007 -10.00  528.0
2024/04/02 15:19:51.000   28.287120434  -16.538030660  2360.8829   1   8   0.0013   0.0010   0.0133   0.0002   0.0018  -0.0007  -9.00  527.9
2024/04/02 15:19:52.000   28.287120434  -16.538030660  2360.8830   1   8   0.0013   0.0010   0.0133   0.0002   0.0018  -0.0007  -8.00  527.8
2024/04/02 15:19:53.000   28.287120434  -16.538030660  2360.8831   1   8   0.0013   0.0010   0.0133   0.0002   0.0018  -0.0007  -7.00  527.6
2024/04/02 15:19:54.000   28.287120434  -16.538030660  2360.8831   1   8   0.0013   0.0010   0.0133   0.0002   0.0018  -0.0007  -6.00  527.6
2024/04/02 15:19:55.000   28.287120434  -16.538030661  2360.8832   1   8   0.0013   0.0010   0.0133   0.0002   0.0018  -0.0007  -5.00  527.4
2024/04/02 15:19:56.000   28.287120434  -16.538030661  2360.8832   1   8   0.0013   0.0010   0.0133   0.0002   0.0019  -0.0007  -4.00  527.8
2024/04/02 15:19:57.000   28.287120434  -16.538030661  2360.8833   1   8   0.0013   0.0010   0.0133   0.0002   0.0019  -0.0007  -3.00  527.7
2024/04/02 15:19:58.000   28.287120435  -16.538030661  2360.8834   1   8   0.0013   0.0010   0.0133   0.0002   0.0019  -0.0007  -2.00  527.7
2024/04/02 15:19:59.000   28.287120435  -16.538030661  2360.8834   1   8   0.0013   0.0010   0.0134   0.0002   0.0019  -0.0007  -1.00  527.9
2024/04/02 15:20:00.000   28.287120435  -16.538030661  2360.8835   1   8   0.0013   0.0010   0.0134   0.0002   0.0019  -0.0007   0.00  528.1
2024/04/02 15:20:01.000   28.287120435  -16.538030662  2360.8836   1   8   0.0013   0.0010   0.0134   0.0002   0.0019  -0.0007   1.00  528.6
2024/04/02 15:20:02.000   28.287120435  -16.538030662  2360.8837   1   8   0.0013   0.0010   0.0134   0.0002   0.0019  -0.0007   2.00  528.4
2024/04/02 15:20:03.000   28.287120435  -16.538030662  2360.8838   1   8   0.0013   0.0010   0.0134   0.0002   0.0019  -0.0007   3.00  528.6
2024/04/02 15:20:04.000   28.287120435  -16.538030662  2360.8838   1   8   0.0013   0.0010   0.0134   0.0002   0.0019  -0.0007   4.00  529.0
2024/04/02 15:20:05.000   28.287120435  -16.538030662  2360.8839   1   8   0.0013   0.0010   0.0134   0.0002   0.0019  -0.0007   5.00  529.2
2024/04/02 15:20:06.000   28.287120435  -16.538030662  2360.8841   1   8   0.0013   0.0010   0.0134   0.0002   0.0019  -0.0007   6.00  529.4
2024/04/02 15:20:07.000   28.287120435  -16.538030662  2360.8841   1   8   0.0013   0.0010   0.0134   0.0002   0.0019  -0.0007   7.00  529.3
2024/04/02 15:20:08.000   28.287120435  -16.538030662  2360.8842   1   8   0.0013   0.0010   0.0134   0.0002   0.0019  -0.0007   8.00  529.0
2024/04/02 15:20:09.000   28.287120435  -16.538030662  2360.8843   1   8   0.0013   0.0010   0.0134   0.0002   0.0019  -0.0007   9.00  529.0
2024/04/02 15:20:10.000   28.287120435  -16.538030662  2360.8843   1   8   0.0013   0.0010   0.0134   0.0002   0.0019  -0.0007  10.00  528.7
2024/04/02 15:20:11.000   28.287120435  -16.538030662  2360.8844   1   8   0.0013   0.0010   0.0134   0.0002   0.0019  -0.0007  11.00  528.3
2024/04/02 15:20:12.000   28.287120435  -16.538030662  2360.8845   1   8   0.0013   0.0010   0.0134   0.0002   0.0019  -0.0006  12.00  527.8
2024/04/02 15:20:13.000   28.287120435  -16.538030662  2360.8846   1   8   0.0013   0.0010   0.0134   0.0002   0.0019  -0.0006  13.00  527.2
2024/04/02 15:20:14.000   28.287120435  -16.538030662  2360.8847   1   8   0.0013   0.0010   0.0134   0.0002   0.0019  -0.0006  14.00  526.7
2024/04/02 15:20:15.000   28.287120435  -16.538030662  2360.8847   1   8   0.0013   0.0010   0.0134   0.0002   0.0019  -0.0006  15.00  526.2
2024/04/02 15:20:16.000   28.287120435  -16.538030662  2360.8848   1   8   0.0013   0.0010   0.0134   0.0002   0.0019  -0.0006 -14.00  525.8
2024/04/02 15:20:17.000   28.287120435  -16.538030662  2360.8849   1   8   0.0013   0.0010   0.0134   0.0002   0.0019  -0.0006 -13.00  525.4
2024/04/02 15:20:18.000   28.287120435  -16.538030662  2360.8850   1   8   0.0013   0.0010   0.0134   0.0002   0.0019  -0.0006 -12.00  524.9
2024/04/02 15:20:19.000   28.287120435  -16.538030662  2360.8851   1   8   0.0013   0.0010   0.0134   0.0002   0.0019  -0.0006 -11.00  524.2
2024/04/02 15:20:20.000   28.287120435  -16.538030662  2360.8852   1   8   0.0013   0.0010   0.0134   0.0002   0.0019  -0.0006 -10.00  523.5
2024/04/02 15:20:21.000   28.287120435  -16.538030662  2360.8853   1   8   0.0013   0.0010   0.0134   0.0002   0.0019  -0.0006  -9.00  522.9
2024/04/02 15:20:22.000   28.287120435  -16.538030662  2360.8854   1   8   0.0013   0.0010   0.0134   0.0002   0.0019  -0.0006  -8.00  522.2
2024/04/02 15:20:23.000   28.287120435  -16.538030662  2360.8855   1   8   0.0013   0.0010   0.0134   0.0002   0.0019  -0.0006  -7.00  521.5
2024/04/02 15:20:24.000   28.287120435  -16.538030662  2360.8856   1   8   0.0013   0.0010   0.0134   0.0002   0.0019  -0.0006  -6.00  520.7
2024/04/02 15:20:25.000   28.287120435  -16.538030662  2360.8857   1   8   0.0013   0.0010   0.0134   0.0002   0.0019  -0.0006  -5.00  520.0
2024/04/02 15:20:26.000   28.287120435  -16.538030662  2360.8858   1   8   0.0013   0.0010   0.0134   0.0002   0.0019  -0.0006  -4.00  519.3
2024/04/02 15:20:27.000   28.287120435  -16.538030662  2360.8860   1   8   0.0013   0.0010   0.0134   0.0002   0.0019  -0.0006  -3.00  518.6
2024/04/02 15:20:28.000   28.287120435  -16.538030662  2360.8862   1   8   0.0013   0.0010   0.0134   0.0002   0.0019  -0.0006  -2.00  517.4
2024/04/02 15:20:29.000   28.287120435  -16.538030662  2360.8863   1   8   0.0013   0.0010   0.0134   0.0002   0.0019  -0.0006  -1.00  516.0
2024/04/02 15:20:30.000   28.287120435  -16.538030662  2360.8863   1   8   0.0013   0.0010   0.0134   0.0002   0.0019  -0.0006   0.00  515.1
2024/04/02 15:20:31.000   28.287120435  -16.538030663  2360.8862   1   8   0.0013   0.0010   0.0135   0.0002   0.0019  -0.0006   1.00  514.7
2024/04/02 15:20:32.000   28.287120435  -16.538030663  2360.8862   1   8   0.0013   0.0010   0.0135   0.0002   0.0019  -0.0006   2.00  513.4
2024/04/02 15:20:33.000   28.287120435  -16.538030663  2360.8863   1   8   0.0013   0.0010   0.0135   0.0002   0.0019  -0.0006   3.00  512.1
2024/04/02 15:20:34.000   28.287120435  -16.538030663  2360.8863   1   8   0.0013   0.0010   0.0135   0.0002   0.0019  -0.0006   4.00  511.2
2024/04/02 15:20:35.000   28.287120435  -16.538030663  2360.8864   1   8   0.0013   0.0010   0.0135   0.0002   0.0019  -0.0006   5.00  510.5
2024/04/02 15:20:36.000   28.287120435  -16.538030663  2360.8864   1   8   0.0013   0.0010   0.0135   0.0002   0.0019  -0.0006   6.00  510.0
2024/04/02 15:20:37.000   28.287120435  -16.538030663  2360.8864   1   8   0.0013   0.0010   0.0135   0.0002   0.0019  -0.0006   7.00  509.5
2024/04/02 15:20:38.000   28.287120435  -16.538030663  2360.8864   1   8   0.0013   0.0010   0.0135   0.0002   0.0019  -0.0006   8.00  509.1
2024/04/02 15:20:39.000   28.287120435  -16.538030663  2360.8864   1   8   0.0013   0.0010   0.0135   0.0002   0.0019  -0.0006   9.00  508.7
2024/04/02 15:20:40.000   28.287120435  -16.538030663  2360.8864   1   8   0.0013   0.0010   0.0135   0.0002   0.0019  -0.0006  10.00  508.3
2024/04/02 15:20:41.000   28.287120435  -16.538030663  2360.8865   1   8   0.0013   0.0010   0.0135   0.0002   0.0019  -0.0006  11.00  507.9
2024/04/02 15:20:42.000   28.287120435  -16.538030663  2360.8865   1   8   0.0013   0.0010   0.0135   0.0002   0.0019  -0.0006  12.00  507.7
2024/04/02 15:20:43.000   28.287120435  -16.538030663  2360.8865   1   8   0.0013   0.0010   0.0135   0.0002   0.0019  -0.0006  13.00  507.3
2024/04/02 15:20:44.000   28.287120435  -16.538030663  2360.8865   1   8   0.0013   0.0010   0.0135   0.0002   0.0019  -0.0006  14.00  507.0
2024/04/02 15:20:45.000   28.287120435  -16.538030663  2360.8866   1   8   0.0013   0.0010   0.0135   0.0002   0.0019  -0.0006  15.00  506.6
2024/04/02 15:20:46.000   28.287120435  -16.538030663  2360.8866   1   8   0.0013   0.0010   0.0135   0.0002   0.0019  -0.0006 -14.00  506.2
2024/04/02 15:20:47.000   28.287120434  -16.538030663  2360.8867   1   8   0.0013   0.0010   0.0135   0.0002   0.0019  -0.0006 -13.00  505.7
2024/04/02 15:20:48.000   28.287120434  -16.538030663  2360.8867   1   8   0.0013   0.0010   0.0135   0.0002   0.0019  -0.0006 -12.00  505.2
2024/04/02 15:20:49.000   28.287120434  -16.538030663  2360.8868   1   8   0.0013   0.0010   0.0135   0.0002   0.0019  -0.0006 -11.00  504.9
2024/04/02 15:20:50.000   28.287120434  -16.538030663  2360.8868   1   8   0.0013   0.0010   0.0135   0.0002   0.0019  -0.0006 -10.00  504.5
2024/04/02 15:20:51.000   28.287120434  -16.538030663  2360.8868   1   8   0.0013   0.0010   0.0135   0.0002   0.0019  -0.0005  -9.00  504.3
2024/04/02 15:20:52.000   28.287120434  -16.538030663  2360.8868   1   8   0.0013   0.0010   0.0135   0.0002   0.0019  -0.0005  -8.00  504.3
2024/04/02 15:20:53.000   28.287120434  -16.538030663  2360.8868   1   8   0.0013   0.0010   0.0135   0.0002   0.0019  -0.0005  -7.00  504.3
2024/04/02 15:20:54.000   28.287120434  -16.538030662  2360.8869   1   8   0.0013   0.0010   0.0135   0.0002   0.0019  -0.0005  -6.00  504.6
2024/04/02 15:20:55.000   28.287120434  -16.538030662  2360.8868   1   8   0.0013   0.0010   0.0135   0.0002   0.0019  -0.0005  -5.00  504.8
2024/04/02 15:20:56.000   28.287120434  -16.538030662  2360.8869   1   8   0.0013   0.0010   0.0135   0.0002   0.0019  -0.0005  -4.00  505.1
2024/04/02 15:20:57.000   28.287120434  -16.538030662  2360.8869   1   8   0.0013   0.0010   0.0135   0.0002   0.0019  -0.0005  -3.00  505.1
2024/04/02 15:20:58.000   28.287120434  -16.538030662  2360.8870   1   8   0.0013   0.0010   0.0135   0.0002   0.0019  -0.0005  -2.00  505.2
2024/04/02 15:20:59.000   28.287120434  -16.538030662  2360.8870   1   8   0.0013   0.0010   0.0135   0.0002   0.0019  -0.0005  -1.00  505.3
2024/04/02 15:21:00.000   28.287120434  -16.538030662  2360.8870   1   8   0.0013   0.0010   0.0135   0.0002   0.0019  -0.0005   0.00  505.4
2024/04/02 15:21:01.000   28.287120434  -16.538030661  2360.8870   1   8   0.0013   0.0010   0.0135   0.0002   0.0019  -0.0005   1.00  505.0
2024/04/02 15:21:02.000   28.287120434  -16.538030662  2360.8870   1   8   0.0013   0.0010   0.0135   0.0002   0.0019  -0.0005   2.00  504.0
2024/04/02 15:21:03.000   28.287120434  -16.538030662  2360.8869   1   8   0.0013   0.0010   0.0135   0.0002   0.0019  -0.0005   3.00  503.5
2024/04/02 15:21:04.000   28.287120434  -16.538030662  2360.8869   1   8   0.0013   0.0010   0.0136   0.0002   0.0019  -0.0005   4.00  502.3
2024/04/02 15:21:05.000   28.287120434  -16.538030662  2360.8869   1   8   0.0013   0.0010   0.0136   0.0002   0.0019  -0.0005   5.00  501.4
2024/04/02 15:21:06.000   28.287120434  -16.538030662  2360.8870   1   8   0.0013   0.0010   0.0136   0.0002   0.0019  -0.0005   6.00  500.5
2024/04/02 15:21:07.000   28.287120434  -16.538030662  2360.8870   1   8   0.0013   0.0010   0.0136   0.0002   0.0019  -0.0005   7.00  499.3
2024/04/02 15:21:08.000   28.287120434  -16.538030662  2360.8871   1   8   0.0013   0.0010   0.0136   0.0002   0.0019  -0.0005   8.00  498.3
2024/04/02 15:21:09.000   28.287120434  -16.538030662  2360.8871   1   8   0.0013   0.0010   0.0136   0.0002   0.0019  -0.0005   9.00  497.4
2024/04/02 15:21:10.000   28.287120434  -16.538030662  2360.8872   1   8   0.0013   0.0010   0.0136   0.0002   0.0019  -0.0005  10.00  496.5
2024/04/02 15:21:11.000   28.287120434  -16.538030662  2360.8872   1   8   0.0013   0.0010   0.0136   0.0002   0.0019  -0.0005  11.00  495.9
2024/04/02 15:21:12.000   28.287120434  -16.538030662  2360.8872   1   8   0.0013   0.0010   0.0136   0.0002   0.0019  -0.0005  12.00  495.3
2024/04/02 15:21:13.000   28.287120434  -16.538030662  2360.8872   1   8   0.0013   0.0010   0.0136   0.0002   0.0019  -0.0005  13.00  494.6
2024/04/02 15:21:14.000   28.287120434  -16.538030662  2360.8872   1   8   0.0013   0.0010   0.0136   0.0002   0.0019  -0.0005  14.00  494.0
2024/04/02 15:21:15.000   28.287120434  -16.538030662  2360.8872   1   8   0.0013   0.0010   0.0135   0.0002   0.0019  -0.0005  15.00  493.5
2024/04/02 15:21:16.000   28.287120434  -16.538030662  2360.8872   1   8   0.0013   0.0010   0.0135   0.0002   0.0019  -0.0005 -14.00  493.0
2024/04/02 15:21:17.000   28.287120434  -16.538030662  2360.8873   1   8   0.0013   0.0010   0.0135   0.0002   0.0019  -0.0005 -13.00  492.5
2024/04/02 15:21:18.000   28.287120434  -16.538030662  2360.8873   1   8   0.0013   0.0010   0.0135   0.0002   0.0019  -0.0005 -12.00  492.0
2024/04/02 15:21:19.000   28.287120434  -16.538030662  2360.8873   1   8   0.0013   0.0010   0.0135   0.0002   0.0019  -0.0005 -11.00  491.5
2024/04/02 15:21:20.000   28.287120434  -16.538030662  2360.8873   1   8   0.0013   0.0010   0.0135   0.0002   0.0019  -0.0005 -10.00  491.1
2024/04/02 15:21:21.000   28.287120434  -16.538030662  2360.8873   1   8   0.0013   0.0010   0.0135   0.0002   0.0019  -0.0005  -9.00  490.6
2024/04/02 15:21:22.000   28.287120434  -16.538030662  2360.8874   1   8   0.0013   0.0010   0.0135   0.0002   0.0019  -0.0005  -8.00  490.1
2024/04/02 15:21:23.000   28.287120434  -16.538030662  2360.8874   1   8   0.0013   0.0010   0.0135   0.0002   0.0019  -0.0005  -7.00  489.4
2024/04/02 15:21:24.000   28.287120434  -16.538030662  2360.8874   1   8   0.0013   0.0010   0.0135   0.0002   0.0019  -0.0005  -6.00  488.9
2024/04/02 15:21:25.000   28.287120434  -16.538030662  2360.8875   1   8   0.0013   0.0010   0.0135   0.0002   0.0019  -0.0005  -5.00  488.4
2024/04/02 15:21:26.000   28.287120434  -16.538030661  2360.8875   1   8   0.0013   0.0010   0.0135   0.0002   0.0019  -0.0004  -4.00  488.1
2024/04/02 15:21:27.000   28.287120434  -16.538030661  2360.8876   1   8   0.0013   0.0010   0.0135   0.0002   0.0019  -0.0004  -3.00  487.7
2024/04/02 15:21:28.000   28.287120434  -16.538030661  2360.8876   1   8   0.0013   0.0010   0.0135   0.0002   0.0019  -0.0004  -2.00  487.1
2024/04/02 15:21:29.000   28.287120434  -16.538030661  2360.8876   1   8   0.0013   0.0010   0.0136   0.0002   0.0019  -0.0004  -1.00  487.0
2024/04/02 15:21:30.000   28.287120434  -16.538030661  2360.8875   1   8   0.0013   0.0010   0.0136   0.0002   0.0019  -0.0004   0.00  486.9
2024/04/02 15:21:31.000   28.287120434  -16.538030661  2360.8875   1   8   0.0013   0.0010   0.0136   0.0002   0.0019  -0.0004   1.00  486.5
2024/04/02 15:21:32.000   28.287120434  -16.538030661  2360.8874   1   8   0.0013   0.0010   0.0136   0.0002   0.0019  -0.0004   2.00  486.4
2024/04/02 15:21:33.000   28.287120434  -16.538030661  2360.8873   1   8   0.0013   0.0010   0.0136   0.0002   0.0020  -0.0004   3.00  486.7
2024/04/02 15:21:34.000   28.287120434  -16.538030661  2360.8872   1   8   0.0013   0.0010   0.0136   0.0002   0.0020  -0.0004   4.00  486.6
2024/04/02 15:21:35.000   28.287120435  -16.538030661  2360.8871   1   8   0.0013   0.0010   0.0136   0.0002   0.0020  -0.0004   5.00  486.4
2024/04/02 15:21:36.000   28.287120435  -16.538030661  2360.8871   1   8   0.0013   0.0010   0.0136   0.0002   0.0020  -0.0004   6.00  485.9
2024/04/02 15:21:37.000   28.287120435  -16.538030661  2360.8871   1   8   0.0013   0.0010   0.0136   0.0002   0.0020  -0.0004   7.00  485.5
2024/04/02 15:21:38.000   28.287120435  -16.538030661  2360.8872   1   8   0.0013   0.0010   0.0136   0.0002   0.0020  -0.0004   8.00  484.7
2024/04/02 15:21:39.000   28.287120435  -16.538030661  2360.8872   1   8   0.0013   0.0010   0.0136   0.0002   0.0020  -0.0004   9.00  483.8
2024/04/02 15:21:40.000   28.287120435  -16.538030661  2360.8873   1   8   0.0013   0.0010   0.0136   0.0002   0.0020  -0.0004  10.00  482.9
2024/04/02 15:21:41.000   28.287120435  -16.538030661  2360.8873   1   8   0.0013   0.0010   0.0136   0.0002   0.0020  -0.0004  11.00  482.3
2024/04/02 15:21:42.000   28.287120435  -16.538030661  2360.8874   1   8   0.0013   0.0010   0.0136   0.0002   0.0020  -0.0004  12.00  481.8
2024/04/02 15:21:43.000   28.287120435  -16.538030661  2360.8874   1   8   0.0013   0.0010   0.0136   0.0002   0.0020  -0.0004  13.00  481.3
2024/04/02 15:21:44.000   28.287120435  -16.538030661  2360.8875   1   8   0.0013   0.0010   0.0136   0.0002   0.0020  -0.0004  14.00  480.7
2024/04/02 15:21:45.000   28.287120435  -16.538030661  2360.8875   1   8   0.0013   0.0010   0.0136   0.0002   0.0020  -0.0004  15.00  480.1
2024/04/02 15:21:46.000   28.287120435  -16.538030661  2360.8876   1   8   0.0013   0.0010   0.0136   0.0002   0.0020  -0.0004 -14.00  479.6
2024/04/02 15:21:47.000   28.287120435  -16.538030661  2360.8876   1   8   0.0013   0.0010   0.0136   0.0002   0.0020  -0.0004 -13.00  479.0
2024/04/02 15:21:48.000   28.287120435  -16.538030661  2360.8877   1   8   0.0013   0.0010   0.0136   0.0002   0.0020  -0.0004 -12.00  478.4
2024/04/02 15:21:49.000   28.287120435  -16.538030661  2360.8877   1   8   0.0013   0.0010   0.0136   0.0002   0.0020  -0.0004 -11.00  477.7
2024/04/02 15:21:50.000   28.287120435  -16.538030661  2360.8877   1   8   0.0013   0.0010   0.0136   0.0002   0.0020  -0.0004 -10.00  477.2
2024/04/02 15:21:51.000   28.287120435  -16.538030661  2360.8878   1   8   0.0013   0.0010   0.0136   0.0002   0.0020  -0.0004  -9.00  476.5
2024/04/02 15:21:52.000   28.287120435  -16.538030661  2360.8878   1   8   0.0013   0.0010   0.0136   0.0002   0.0020  -0.0004  -8.00  475.9
2024/04/02 15:21:53.000   28.287120435  -16.538030661  2360.8878   1   8   0.0013   0.0010   0.0136   0.0002   0.0020  -0.0004  -7.00  475.4
2024/04/02 15:21:54.000   28.287120435  -16.538030661  2360.8878   1   8   0.0013   0.0010   0.0136   0.0002   0.0020  -0.0004  -6.00  474.8
2024/04/02 15:21:55.000   28.287120435  -16.538030661  2360.8878   1   8   0.0013   0.0010   0.0136   0.0002   0.0020  -0.0004  -5.00  474.3
2024/04/02 15:21:56.000   28.287120435  -16.538030661  2360.8878   1   8   0.0013   0.0010   0.0136   0.0002   0.0020  -0.0004  -4.00  474.0
2024/04/02 15:21:57.000   28.287120435  -16.538030661  2360.8878   1   8   0.0013   0.0010   0.0136   0.0002   0.0020  -0.0003  -3.00  473.5
2024/04/02 15:21:58.000   28.287120435  -16.538030661  2360.8877   1   8   0.0013   0.0010   0.0136   0.0002   0.0020  -0.0003  -2.00  473.1
2024/04/02 15:21:59.000   28.287120436  -16.538030661  2360.8876   1   8   0.0013   0.0010   0.0136   0.0002   0.0020  -0.0003  -1.00  472.7
2024/04/02 15:22:00.000   28.287120436  -16.538030661  2360.8876   1   8   0.0013   0.0010   0.0136   0.0002   0.0020  -0.0003   0.00  472.1
2024/04/02 15:22:01.000   28.287120436  -16.538030661  2360.8875   1   8   0.0013   0.0010   0.0136   0.0002   0.0020  -0.0003   1.00  472.4
2024/04/02 15:22:02.000   28.287120436  -16.538030661  2360.8875   1   8   0.0013   0.0010   0.0137   0.0002   0.0020  -0.0003   2.00  472.1
2024/04/02 15:22:03.000   28.287120436  -16.538030661  2360.8875   1   8   0.0013   0.0010   0.0137   0.0002   0.0020  -0.0003   3.00  471.3
2024/04/02 15:22:04.000   28.287120436  -16.538030661  2360.8875   1   8   0.0013   0.0010   0.0137   0.0002   0.0020  -0.0003   4.00  471.0
2024/04/02 15:22:05.000   28.287120436  -16.538030661  2360.8875   1   8   0.0013   0.0010   0.0137   0.0002   0.0020  -0.0003   5.00  470.5
2024/04/02 15:22:06.000   28.287120436  -16.538030661  2360.8874   1   8   0.0013   0.0010   0.0137   0.0002   0.0020  -0.0003   6.00  470.1
2024/04/02 15:22:07.000   28.287120436  -16.538030661  2360.8875   1   8   0.0013   0.0010   0.0137   0.0002   0.0020  -0.0003   7.00  469.4
2024/04/02 15:22:08.000   28.287120437  -16.538030661  2360.8875   1   8   0.0013   0.0010   0.0137   0.0002   0.0020  -0.0003   8.00  468.9
2024/04/02 15:22:09.000   28.287120437  -16.538030661  2360.8876   1   8   0.0013   0.0010   0.0137   0.0002   0.0020  -0.0003   9.00  468.3
2024/04/02 15:22:10.000   28.287120437  -16.538030661  2360.8876   1   8   0.0013   0.0010   0.0137   0.0002   0.0020  -0.0003  10.00  467.6
2024/04/02 15:22:11.000   28.287120437  -16.538030660  2360.8861   1   8   0.0012   0.0009   0.0135   0.0001   0.0018  -0.0003  11.00    4.0
2024/04/02 15:22:12.000   28.287120437  -16.538030660  2360.8862   1   8   0.0012   0.0009   0.0135   0.0001   0.0018  -0.0003  12.00    4.0
2024/04/02 15:22:13.000   28.287120437  -16.538030660  2360.8862   1   8   0.0012   0.0009   0.0135   0.0001   0.0018  -0.0003  13.00    4.0
2024/04/02 15:22:14.000   28.287120437  -16.538030660  2360.8862   1   8   0.0012   0.0009   0.0135   0.0001   0.0018  -0.0003  14.00    4.0
2024/04/02 15:22:15.000   28.287120437  -16.538030660  2360.8863   1   8   0.0012   0.0009   0.0135   0.0001   0.0018  -0.0003 -15.00    4.0
2024/04/02 15:22:16.000   28.287120437  -16.538030660  2360.8863   1   8   0.0012   0.0009   0.0135   0.0001   0.0018  -0.0003 -14.00    4.1
2024/04/02 15:22:17.000   28.287120437  -16.538030660  2360.8864   1   8   0.0012   0.0009   0.0135   0.0001   0.0018  -0.0003 -13.00    4.1
2024/04/02 15:22:18.000   28.287120437  -16.538030660  2360.8864   1   8   0.0012   0.0009   0.0135   0.0001   0.0018  -0.0003 -12.00    4.1
2024/04/02 15:22:19.000   28.287120437  -16.538030660  2360.8865   1   8   0.0012   0.0009   0.0135   0.0001   0.0018  -0.0003 -11.00    4.1
2024/04/02 15:22:20.000   28.287120437  -16.538030660  2360.8865   1   8   0.0012   0.0009   0.0135   0.0001   0.0018  -0.0003 -10.00    4.1
2024/04/02 15:22:21.000   28.287120437  -16.538030660  2360.8866   1   8   0.0012   0.0009   0.0135   0.0001   0.0018  -0.0003  -9.00    4.1
2024/04/02 15:22:22.000   28.287120437  -16.538030660  2360.8866   1   8   0.0012   0.0009   0.0135   0.0001   0.0018  -0.0003  -8.00    4.2
2024/04/02 15:22:23.000   28.287120437  -16.538030660  2360.8866   1   8   0.0012   0.0009   0.0135   0.0001   0.0018  -0.0003  -7.00    4.2
2024/04/02 15:22:24.000   28.287120437  -16.538030660  2360.8867   1   8   0.0012   0.0009   0.0135   0.0001   0.0018  -0.0003  -6.00    4.2
2024/04/02 15:22:25.000   28.287120437  -16.538030660  2360.8867   1   8   0.0012   0.0009   0.0135   0.0001   0.0018  -0.0003  -5.00    4.3
2024/04/02 15:22:26.000   28.287120438  -16.538030660  2360.8866   1   8   0.0012   0.0009   0.0135   0.0001   0.0018  -0.0003  -4.00    4.4
2024/04/02 15:22:27.000   28.287120438  -16.538030660  2360.8866   1   8   0.0012   0.0009   0.0135   0.0001   0.0018  -0.0003  -3.00    4.5
2024/04/02 15:22:28.000   28.287120438  -16.538030661  2360.8865   1   8   0.0012   0.0009   0.0135   0.0001   0.0018  -0.0003  -2.00    4.6
2024/04/02 15:22:29.000   28.287120438  -16.538030661  2360.8864   1   8   0.0012   0.0009   0.0135   0.0001   0.0018  -0.0003  -1.00    4.6
2024/04/02 15:22:30.000   28.287120438  -16.538030661  2360.8863   1   8   0.0012   0.0009   0.0135   0.0001   0.0018  -0.0003   0.00    4.7
2024/04/02 15:22:31.000   28.287120438  -16.538030661  2360.8863   1   8   0.0012   0.0009   0.0135   0.0001   0.0018  -0.0003   1.00   14.8
2024/04/02 15:22:32.000   28.287120438  -16.538030661  2360.8862   1   8   0.0012   0.0009   0.0135   0.0001   0.0018  -0.0003   2.00   22.9
2024/04/02 15:22:33.000   28.287120438  -16.538030661  2360.8862   1   8   0.0012   0.0009   0.0136   0.0001   0.0018  -0.0003   3.00   31.1
2024/04/02 15:22:34.000   28.287120438  -16.538030661  2360.8862   1   8   0.0012   0.0009   0.0136   0.0001   0.0018  -0.0003   4.00   38.1
2024/04/02 15:22:35.000   28.287120438  -16.538030661  2360.8861   1   8   0.0012   0.0009   0.0136   0.0001   0.0018  -0.0003   5.00   41.5
2024/04/02 15:22:36.000   28.287120438  -16.538030661  2360.8862   1   8   0.0012   0.0009   0.0136   0.0001   0.0018  -0.0003   6.00   44.6
2024/04/02 15:22:37.000   28.287120438  -16.538030661  2360.8862   1   8   0.0012   0.0009   0.0136   0.0001   0.0018  -0.0003   7.00   47.9
2024/04/02 15:22:38.000   28.287120438  -16.538030661  2360.8862   1   8   0.0012   0.0009   0.0136   0.0001   0.0018  -0.0003   8.00   51.0
2024/04/02 15:22:39.000   28.287120438  -16.538030661  2360.8863   1   8   0.0012   0.0009   0.0136   0.0001   0.0018  -0.0002   9.00   54.2
2024/04/02 15:22:40.000   28.287120438  -16.538030661  2360.8864   1   8   0.0012   0.0009   0.0136   0.0001   0.0018  -0.0002  10.00   57.4
2024/04/02 15:22:41.000   28.287120438  -16.538030661  2360.8864   1   8   0.0012   0.0009   0.0136   0.0001   0.0018  -0.0002  11.00   60.7
2024/04/02 15:22:42.000   28.287120438  -16.538030661  2360.8865   1   8   0.0012   0.0009   0.0136   0.0001   0.0018  -0.0002  12.00   64.1
2024/04/02 15:22:43.000   28.287120438  -16.538030661  2360.8866   1   8   0.0012   0.0009   0.0136   0.0001   0.0018  -0.0002  13.00   67.4
2024/04/02 15:22:44.000   28.287120439  -16.538030661  2360.8866   1   8   0.0012   0.0009   0.0135   0.0001   0.0018  -0.0002  14.00   70.8
2024/04/02 15:22:45.000   28.287120439  -16.538030661  2360.8867   1   8   0.0012   0.0009   0.0135   0.0001   0.0018  -0.0002 -15.00   74.2
2024/04/02 15:22:46.000   28.287120439  -16.538030661  2360.8868   1   8   0.0012   0.0009   0.0135   0.0001   0.0018  -0.0002 -14.00   77.6
2024/04/02 15:22:47.000   28.287120439  -16.538030661  2360.8868   1   8   0.0012   0.0009   0.0135   0.0001   0.0018  -0.0002 -13.00   80.9
2024/04/02 15:22:48.000   28.287120439  -16.538030661  2360.8869   1   8   0.0012   0.0009   0.0135   0.0001   0.0018  -0.0002 -12.00   84.5
2024/04/02 15:22:49.000   28.287120439  -16.538030661  2360.8870   1   8   0.0012   0.0009   0.0135   0.0001   0.0018  -0.0002 -11.00   88.0
2024/04/02 15:22:50.000   28.287120439  -16.538030661  2360.8870   1   8   0.0012   0.0009   0.0135   0.0001   0.0018  -0.0002 -10.00   91.7
2024/04/02 15:22:51.000   28.287120439  -16.538030661  2360.8871   1   8   0.0012   0.0009   0.0135   0.0001   0.0018  -0.0002  -9.00   95.6
2024/04/02 15:22:52.000   28.287120439  -16.538030661  2360.8872   1   8   0.0012   0.0009   0.0135   0.0001   0.0018  -0.0002  -8.00   99.7
2024/04/02 15:22:53.000   28.287120439  -16.538030661  2360.8873   1   8   0.0012   0.0009   0.0135   0.0001   0.0018  -0.0002  -7.00  103.8
2024/04/02 15:22:54.000   28.287120439  -16.538030661  2360.8874   1   8   0.0012   0.0009   0.0135   0.0001   0.0018  -0.0002  -6.00  108.2
2024/04/02 15:22:55.000   28.287120439  -16.538030661  2360.8875   1   8   0.0012   0.0009   0.0135   0.0001   0.0018  -0.0002  -5.00  113.4
2024/04/02 15:22:56.000   28.287120439  -16.538030661  2360.8877   1   8   0.0012   0.0009   0.0135   0.0001   0.0018  -0.0002  -4.00  118.3
2024/04/02 15:22:57.000   28.287120439  -16.538030661  2360.8878   1   8   0.0012   0.0009   0.0135   0.0001   0.0018  -0.0002  -3.00  123.2
2024/04/02 15:22:58.000   28.287120439  -16.538030661  2360.8880   1   8   0.0012   0.0009   0.0135   0.0001   0.0018  -0.0002  -2.00  129.7
2024/04/02 15:22:59.000   28.287120439  -16.538030661  2360.8881   1   8   0.0012   0.0009   0.0135   0.0001   0.0018  -0.0002  -1.00  135.1
2024/04/02 15:23:00.000   28.287120439  -16.538030661  2360.8882   1   8   0.0012   0.0009   0.0135   0.0001   0.0018  -0.0002   0.00  139.6
2024/04/02 15:23:01.000   28.287120439  -16.538030661  2360.8883   1   8   0.0012   0.0009   0.0135   0.0001   0.0018  -0.0002   1.00  144.3
2024/04/02 15:23:02.000   28.287120439  -16.538030661  2360.8885   1   8   0.0012   0.0009   0.0136   0.0001   0.0018  -0.0002   2.00  148.7
2024/04/02 15:23:03.000   28.287120439  -16.538030661  2360.8887   1   8   0.0012   0.0009   0.0136   0.0001   0.0018  -0.0002   3.00  153.4
2024/04/02 15:23:04.000   28.287120439  -16.538030661  2360.8888   1   8   0.0012   0.0009   0.0136   0.0001   0.0018  -0.0002   4.00  157.9
2024/04/02 15:23:05.000   28.287120439  -16.538030661  2360.8889   1   8   0.0012   0.0009   0.0136   0.0001   0.0018  -0.0002   5.00  161.3
2024/04/02 15:23:06.000   28.287120439  -16.538030661  2360.8890   1   8   0.0012   0.0009   0.0136   0.0001   0.0018  -0.0002   6.00  164.9
2024/04/02 15:23:07.000   28.287120440  -16.538030661  2360.8891   1   8   0.0012   0.0009   0.0136   0.0001   0.0018  -0.0001   7.00  168.0
2024/04/02 15:23:08.000   28.287120440  -16.538030661  2360.8891   1   8   0.0012   0.0009   0.0136   0.0001   0.0018  -0.0001   8.00  171.9
2024/04/02 15:23:09.000   28.287120440  -16.538030661  2360.8892   1   8   0.0012   0.0009   0.0136   0.0001   0.0018  -0.0001   9.00  175.6
2024/04/02 15:23:10.000   28.287120440  -16.538030661  2360.8892   1   8   0.0012   0.0009   0.0136   0.0001   0.0018  -0.0001  10.00  179.7
2024/04/02 15:23:11.000   28.287120440  -16.538030661  2360.8892   1   8   0.0012   0.0009   0.0136   0.0001   0.0018  -0.0001  11.00  183.6
2024/04/02 15:23:12.000   28.287120440  -16.538030661  2360.8893   1   8   0.0012   0.0009   0.0136   0.0001   0.0018  -0.0001  12.00  187.4
2024/04/02 15:23:13.000   28.287120440  -16.538030661  2360.8894   1   8   0.0012   0.0009   0.0136   0.0001   0.0018  -0.0001  13.00  191.3
2024/04/02 15:23:14.000   28.287120440  -16.538030661  2360.8894   1   8   0.0012   0.0009   0.0136   0.0001   0.0018  -0.0001  14.00  195.1
2024/04/02 15:23:15.000   28.287120440  -16.538030661  2360.8895   1   8   0.0012   0.0009   0.0136   0.0001   0.0018  -0.0001 -15.00  198.8
2024/04/02 15:23:16.000   28.287120440  -16.538030661  2360.8896   1   8   0.0012   0.0009   0.0135   0.0001   0.0018  -0.0001 -14.00  203.0
2024/04/02 15:23:17.000   28.287120440  -16.538030661  2360.8896   1   8   0.0012   0.0009   0.0135   0.0001   0.0018  -0.0000 -13.00  206.7
2024/04/02 15:23:18.000   28.287120440  -16.538030661  2360.8897   1   8   0.0012   0.0009   0.0135   0.0001   0.0018  -0.0000 -12.00  210.2
2024/04/02 15:23:19.000   28.287120440  -16.538030661  2360.8897   1   8   0.0012   0.0009   0.0135   0.0001   0.0018   0.0000 -11.00  213.7
2024/04/02 15:23:20.000   28.287120440  -16.538030661  2360.8898   1   8   0.0012   0.0009   0.0135   0.0001   0.0018   0.0001 -10.00  217.6
2024/04/02 15:23:21.000   28.287120440  -16.538030661  2360.8898   1   8   0.0012   0.0009   0.0135   0.0001   0.0018   0.0001  -9.00  221.0
2024/04/02 15:23:22.000   28.287120440  -16.538030661  2360.8899   1   8   0.0012   0.0009   0.0135   0.0001   0.0018   0.0001  -8.00  223.9
2024/04/02 15:23:23.000   28.287120440  -16.538030661  2360.8900   1   8   0.0012   0.0009   0.0135   0.0001   0.0018   0.0001  -7.00  227.3
2024/04/02 15:23:24.000   28.287120440  -16.538030661  2360.8901   1   8   0.0012   0.0009   0.0135   0.0001   0.0018   0.0001  -6.00  230.2
2024/04/02 15:23:25.000   28.287120440  -16.538030661  2360.8902   1   8   0.0012   0.0009   0.0135   0.0000   0.0018   0.0001  -5.00  233.5
2024/04/02 15:23:26.000   28.287120440  -16.538030661  2360.8902   1   8   0.0012   0.0009   0.0135   0.0000   0.0018   0.0001  -4.00  236.5
2024/04/02 15:23:27.000   28.287120440  -16.538030661  2360.8903   1   8   0.0012   0.0009   0.0135   0.0000   0.0018   0.0001  -3.00  240.4
2024/04/02 15:23:28.000   28.287120440  -16.538030661  2360.8904   1   8   0.0012   0.0009   0.0135   0.0000   0.0018   0.0001  -2.00  244.1
2024/04/02 15:23:29.000   28.287120440  -16.538030661  2360.8906   1   8   0.0012   0.0009   0.0135   0.0000   0.0018   0.0001  -1.00  246.2
2024/04/02 15:23:30.000   28.287120440  -16.538030661  2360.8907   1   8   0.0012   0.0009   0.0135   0.0000   0.0018   0.0001   0.00  249.0
2024/04/02 15:23:31.000   28.287120440  -16.538030661  2360.8909   1   8   0.0012   0.0009   0.0136   0.0000   0.0018   0.0001   1.00  253.2
2024/04/02 15:23:32.000   28.287120440  -16.538030661  2360.8911   1   8   0.0012   0.0009   0.0136   0.0000   0.0018   0.0001   2.00  258.4
2024/04/02 15:23:33.000   28.287120440  -16.538030661  2360.8913   1   8   0.0012   0.0009   0.0136   0.0000   0.0018   0.0001   3.00  262.0
2024/04/02 15:23:34.000   28.287120440  -16.538030661  2360.8915   1   8   0.0012   0.0009   0.0136   0.0000   0.0018   0.0001   4.00  265.6
2024/04/02 15:23:35.000   28.287120440  -16.538030661  2360.8917   1   8   0.0012   0.0009   0.0136   0.0000   0.0018   0.0001   5.00  268.7
2024/04/02 15:23:36.000   28.287120440  -16.538030661  2360.8919   1   8   0.0012   0.0009   0.0136   0.0000   0.0018   0.0001   6.00  271.2
2024/04/02 15:23:37.000   28.287120440  -16.538030661  2360.8920   1   8   0.0012   0.0009   0.0136   0.0000   0.0018   0.0001   7.00  273.7
2024/04/02 15:23:38.000   28.287120440  -16.538030661  2360.8922   1   8   0.0012   0.0009   0.0136   0.0000   0.0018   0.0001   8.00  276.5
2024/04/02 15:23:39.000   28.287120440  -16.538030661  2360.8923   1   8   0.0012   0.0009   0.0136   0.0000   0.0018   0.0001   9.00  279.3
2024/04/02 15:23:40.000   28.287120440  -16.538030661  2360.8924   1   8   0.0012   0.0009   0.0136   0.0000   0.0018   0.0001  10.00  282.3
2024/04/02 15:23:41.000   28.287120440  -16.538030661  2360.8925   1   8   0.0012   0.0009   0.0136  -0.0000   0.0018   0.0001  11.00  285.8
2024/04/02 15:23:42.000   28.287120440  -16.538030661  2360.8926   1   8   0.0012   0.0009   0.0136  -0.0000   0.0018   0.0002  12.00  289.5
2024/04/02 15:23:43.000   28.287120440  -16.538030661  2360.8927   1   8   0.0012   0.0009   0.0136  -0.0000   0.0018   0.0002  13.00  293.2
2024/04/02 15:23:44.000   28.287120441  -16.538030661  2360.8928   1   8   0.0012   0.0009   0.0136  -0.0000   0.0018   0.0002  14.00  296.7
2024/04/02 15:23:45.000   28.287120441  -16.538030661  2360.8929   1   8   0.0012   0.0009   0.0136  -0.0000   0.0018   0.0002 -15.00  300.3
2024/04/02 15:23:46.000   28.287120441  -16.538030661  2360.8929   1   8   0.0012   0.0009   0.0135  -0.0000   0.0018   0.0002 -14.00  303.6
2024/04/02 15:23:47.000   28.287120441  -16.538030661  2360.8930   1   8   0.0012   0.0009   0.0135  -0.0000   0.0018   0.0002 -13.00  306.4
2024/04/02 15:23:48.000   28.287120441  -16.538030661  2360.8931   1   8   0.0012   0.0009   0.0135  -0.0000   0.0018   0.0002 -12.00  309.8
2024/04/02 15:23:49.000   28.287120441  -16.538030661  2360.8932   1   8   0.0012   0.0009   0.0135  -0.0000   0.0018   0.0002 -11.00  312.8
2024/04/02 15:23:50.000   28.287120441  -16.538030661  2360.8933   1   8   0.0012   0.0009   0.0135  -0.0000   0.0018   0.0002 -10.00  315.5
2024/04/02 15:23:51.000   28.287120441  -16.538030661  2360.8922   1   8   0.0012   0.0009   0.0134   0.0000   0.0018   0.0004  -9.00    3.0
2024/04/02 15:23:52.000   28.287120441  -16.538030661  2360.8923   1   8   0.0012   0.0009   0.0134   0.0000   0.0018   0.0004  -8.00    4.6
2024/04/02 15:23:53.000   28.287120439  -16.538030660  2360.9003   1   8   0.0012   0.0009   0.0123   0.0001   0.0016   0.0009  -7.00    4.5
2024/04/02 15:23:54.000   28.287120439  -16.538030660  2360.9004   1   8   0.0012   0.0009   0.0123   0.0001   0.0016   0.0009  -6.00    4.4
2024/04/02 15:23:55.000   28.287120439  -16.538030660  2360.9005   1   8   0.0012   0.0009   0.0123   0.0001   0.0016   0.0009  -5.00    5.4
2024/04/02 15:23:56.000   28.287120434  -16.538030658  2360.8939   1   8   0.0011   0.0009   0.0119   0.0002   0.0017   0.0003  -4.00   11.2
2024/04/02 15:23:57.000   28.287120434  -16.538030658  2360.8939   1   8   0.0011   0.0009   0.0119   0.0002   0.0017   0.0003  -3.00   12.9
2024/04/02 15:23:58.000   28.287120434  -16.538030658  2360.8940   1   8   0.0011   0.0009   0.0119   0.0002   0.0017   0.0003  -2.00   14.7
2024/04/02 15:23:59.000   28.287120434  -16.538030658  2360.8941   1   8   0.0011   0.0009   0.0119   0.0002   0.0017   0.0003  -1.00   16.4
2024/04/02 15:24:00.000   28.287120434  -16.538030658  2360.8942   1   8   0.0011   0.0009   0.0119   0.0002   0.0017   0.0003   0.00   18.1
2024/04/02 15:24:01.000   28.287120434  -16.538030658  2360.8943   1   8   0.0011   0.0009   0.0119   0.0002   0.0017   0.0003   1.00   19.8
2024/04/02 15:24:02.000   28.287120434  -16.538030658  2360.8944   1   8   0.0011   0.0009   0.0119   0.0002   0.0017   0.0004   2.00   21.5
2024/04/02 15:24:03.000   28.287120434  -16.538030658  2360.8944   1   8   0.0011   0.0009   0.0119   0.0002   0.0017   0.0004   3.00   23.2
2024/04/02 15:24:04.000   28.287120435  -16.538030658  2360.8944   1   8   0.0011   0.0009   0.0119   0.0002   0.0017   0.0004   4.00   24.9
2024/04/02 15:24:05.000   28.287120435  -16.538030658  2360.8944   1   8   0.0011   0.0009   0.0119   0.0002   0.0017   0.0004   5.00   26.6
2024/04/02 15:24:06.000   28.287120435  -16.538030658  2360.8945   1   8   0.0011   0.0009   0.0119   0.0002   0.0017   0.0004   6.00   28.4
2024/04/02 15:24:07.000   28.287120435  -16.538030658  2360.8945   1   8   0.0011   0.0009   0.0119   0.0002   0.0017   0.0004   7.00   30.1
2024/04/02 15:24:08.000   28.287120435  -16.538030658  2360.8946   1   8   0.0011   0.0009   0.0119   0.0002   0.0017   0.0004   8.00   31.8
2024/04/02 15:24:09.000   28.287120435  -16.538030658  2360.8946   1   8   0.0011   0.0009   0.0119   0.0002   0.0017   0.0004   9.00   33.5
2024/04/02 15:24:10.000   28.287120435  -16.538030658  2360.8947   1   8   0.0011   0.0009   0.0119   0.0002   0.0017   0.0004  10.00   35.3
2024/04/02 15:24:11.000   28.287120435  -16.538030658  2360.8947   1   8   0.0011   0.0009   0.0119   0.0002   0.0017   0.0004  11.00   37.1
2024/04/02 15:24:12.000   28.287120435  -16.538030658  2360.8947   1   8   0.0011   0.0009   0.0119   0.0002   0.0017   0.0004  12.00   38.8
2024/04/02 15:24:13.000   28.287120435  -16.538030658  2360.8948   1   8   0.0011   0.0009   0.0119   0.0002   0.0017   0.0004  13.00   40.6
2024/04/02 15:24:14.000   28.287120435  -16.538030658  2360.8948   1   8   0.0011   0.0009   0.0119   0.0002   0.0017   0.0004  14.00   42.4
2024/04/02 15:24:15.000   28.287120435  -16.538030658  2360.8949   1   8   0.0011   0.0009   0.0119   0.0002   0.0017   0.0004 -15.00   44.2
2024/04/02 15:24:16.000   28.287120435  -16.538030658  2360.8949   1   8   0.0011   0.0009   0.0119   0.0002   0.0017   0.0004 -14.00   45.9
2024/04/02 15:24:17.000   28.287120435  -16.538030658  2360.8950   1   8   0.0011   0.0009   0.0118   0.0002   0.0017   0.0004 -13.00   47.7
2024/04/02 15:24:18.000   28.287120435  -16.538030658  2360.8950   1   8   0.0011   0.0009   0.0118   0.0002   0.0017   0.0004 -12.00   49.5
2024/04/02 15:24:19.000   28.287120435  -16.538030658  2360.8950   1   8   0.0011   0.0009   0.0118   0.0002   0.0017   0.0004 -11.00   51.3
2024/04/02 15:24:20.000   28.287120435  -16.538030658  2360.8951   1   8   0.0011   0.0009   0.0118   0.0002   0.0017   0.0004 -10.00   53.1
2024/04/02 15:24:21.000   28.287120435  -16.538030658  2360.8951   1   8   0.0011   0.0009   0.0118   0.0002   0.0017   0.0004  -9.00   54.9
2024/04/02 15:24:22.000   28.287120435  -16.538030658  2360.8951   1   8   0.0011   0.0009   0.0118   0.0002   0.0017   0.0004  -8.00   56.8
2024/04/02 15:24:23.000   28.287120435  -16.538030658  2360.8952   1   8   0.0011   0.0009   0.0118   0.0002   0.0017   0.0004  -7.00   58.6
2024/04/02 15:24:24.000   28.287120435  -16.538030658  2360.8953   1   8   0.0011   0.0009   0.0118   0.0002   0.0017   0.0004  -6.00   60.4
2024/04/02 15:24:25.000   28.287120435  -16.538030658  2360.8953   1   8   0.0011   0.0009   0.0118   0.0002   0.0017   0.0004  -5.00   62.3
2024/04/02 15:24:26.000   28.287120435  -16.538030658  2360.8954   1   8   0.0011   0.0009   0.0118   0.0002   0.0017   0.0004  -4.00   64.2
2024/04/02 15:24:27.000   28.287120435  -16.538030658  2360.8955   1   8   0.0011   0.0009   0.0118   0.0002   0.0017   0.0004  -3.00   66.2
2024/04/02 15:24:28.000   28.287120435  -16.538030658  2360.8955   1   8   0.0011   0.0009   0.0118   0.0002   0.0017   0.0004  -2.00   68.3
2024/04/02 15:24:29.000   28.287120435  -16.538030658  2360.8955   1   8   0.0011   0.0009   0.0118   0.0002   0.0017   0.0004  -1.00   70.1
2024/04/02 15:24:30.000   28.287120435  -16.538030658  2360.8958   1   8   0.0011   0.0009   0.0118   0.0002   0.0017   0.0004   0.00   71.7
2024/04/02 15:24:31.000   28.287120435  -16.538030659  2360.8958   1   8   0.0011   0.0009   0.0118   0.0002   0.0017   0.0004   1.00   73.4
2024/04/02 15:24:32.000   28.287120435  -16.538030659  2360.8959   1   8   0.0011   0.0009   0.0118   0.0002   0.0017   0.0004   2.00   75.5
2024/04/02 15:24:33.000   28.287120435  -16.538030659  2360.8960   1   8   0.0011   0.0009   0.0118   0.0002   0.0017   0.0004   3.00   77.2
2024/04/02 15:24:34.000   28.287120435  -16.538030659  2360.8960   1   8   0.0011   0.0009   0.0118   0.0002   0.0017   0.0004   4.00   79.1
2024/04/02 15:24:35.000   28.287120435  -16.538030659  2360.8961   1   8   0.0011   0.0009   0.0118   0.0002   0.0017   0.0004   5.00   81.0
2024/04/02 15:24:36.000   28.287120435  -16.538030659  2360.8961   1   8   0.0011   0.0009   0.0118   0.0002   0.0017   0.0004   6.00   83.0
2024/04/02 15:24:37.000   28.287120435  -16.538030659  2360.8962   1   8   0.0011   0.0009   0.0118   0.0002   0.0017   0.0004   7.00   84.9
2024/04/02 15:24:38.000   28.287120435  -16.538030659  2360.8962   1   8   0.0011   0.0009   0.0118   0.0002   0.0017   0.0004   8.00   86.9
2024/04/02 15:24:39.000   28.287120435  -16.538030659  2360.8963   1   8   0.0011   0.0009   0.0118   0.0002   0.0017   0.0004   9.00   88.9
2024/04/02 15:24:40.000   28.287120435  -16.538030659  2360.8964   1   8   0.0011   0.0009   0.0118   0.0002   0.0017   0.0004  10.00   90.9
2024/04/02 15:24:41.000   28.287120435  -16.538030659  2360.8964   1   8   0.0011   0.0009   0.0118   0.0002   0.0017   0.0004  11.00   92.8
2024/04/02 15:24:42.000   28.287120435  -16.538030659  2360.8965   1   8   0.0011   0.0009   0.0118   0.0002   0.0017   0.0004  12.00   94.9
2024/04/02 15:24:43.000   28.287120435  -16.538030659  2360.8965   1   8   0.0011   0.0009   0.0118   0.0002   0.0017   0.0004  13.00   96.9
2024/04/02 15:24:44.000   28.287120435  -16.538030659  2360.8966   1   8   0.0011   0.0009   0.0117   0.0002   0.0017   0.0004  14.00   98.9
2024/04/02 15:24:45.000   28.287120435  -16.538030659  2360.8966   1   8   0.0011   0.0009   0.0117   0.0002   0.0017   0.0004 -15.00  101.0
2024/04/02 15:24:46.000   28.287120435  -16.538030659  2360.8967   1   8   0.0011   0.0009   0.0117   0.0002   0.0017   0.0004 -14.00  103.0
2024/04/02 15:24:47.000   28.287120435  -16.538030659  2360.8967   1   8   0.0011   0.0009   0.0117   0.0002   0.0017   0.0004 -13.00  105.0
2024/04/02 15:24:48.000   28.287120435  -16.538030659  2360.8968   1   8   0.0011   0.0009   0.0117   0.0002   0.0017   0.0004 -12.00  106.9
2024/04/02 15:24:49.000   28.287120435  -16.538030659  2360.8968   1   8   0.0011   0.0008   0.0117   0.0002   0.0017   0.0004 -11.00  108.8
2024/04/02 15:24:50.000   28.287120435  -16.538030659  2360.8969   1   8   0.0011   0.0008   0.0117   0.0002   0.0017   0.0004 -10.00  110.8
2024/04/02 15:24:51.000   28.287120435  -16.538030659  2360.8969   1   8   0.0011   0.0008   0.0117   0.0002   0.0017   0.0004  -9.00  112.5
2024/04/02 15:24:52.000   28.287120435  -16.538030659  2360.8970   1   8   0.0011   0.0008   0.0117   0.0002   0.0017   0.0004  -8.00  114.2
2024/04/02 15:24:53.000   28.287120435  -16.538030659  2360.8971   1   8   0.0011   0.0008   0.0117   0.0002   0.0017   0.0004  -7.00  115.8
2024/04/02 15:24:54.000   28.287120435  -16.538030659  2360.8972   1   8   0.0011   0.0008   0.0117   0.0002   0.0017   0.0004  -6.00  117.3
2024/04/02 15:24:55.000   28.287120435  -16.538030659  2360.8973   1   8   0.0011   0.0008   0.0117   0.0002   0.0017   0.0004  -5.00  118.8
2024/04/02 15:24:56.000   28.287120435  -16.538030659  2360.8974   1   8   0.0011   0.0008   0.0117   0.0002   0.0017   0.0004  -4.00  120.0
2024/04/02 15:24:57.000   28.287120435  -16.538030658  2360.8974   1   8   0.0011   0.0008   0.0117   0.0002   0.0017   0.0004  -3.00  121.3
2024/04/02 15:24:58.000   28.287120435  -16.538030658  2360.8974   1   8   0.0011   0.0008   0.0117   0.0002   0.0017   0.0004  -2.00  122.3
2024/04/02 15:24:59.000   28.287120435  -16.538030658  2360.8975   1   8   0.0011   0.0008   0.0117   0.0002   0.0017   0.0004  -1.00  123.5
2024/04/02 15:25:00.000   28.287120435  -16.538030658  2360.8976   1   8   0.0011   0.0008   0.0117   0.0002   0.0017   0.0004   0.00  124.3
2024/04/02 15:25:01.000   28.287120435  -16.538030658  2360.8977   1   8   0.0011   0.0008   0.0117   0.0002   0.0017   0.0004   1.00  125.3
2024/04/02 15:25:02.000   28.287120435  -16.538030658  2360.8977   1   8   0.0011   0.0008   0.0117   0.0002   0.0017   0.0004   2.00  126.2
2024/04/02 15:25:03.000   28.287120435  -16.538030658  2360.8978   1   8   0.0011   0.0008   0.0117   0.0002   0.0017   0.0004   3.00  127.0
2024/04/02 15:25:04.000   28.287120435  -16.538030658  2360.8979   1   8   0.0011   0.0008   0.0117   0.0002   0.0017   0.0004   4.00  127.8
2024/04/02 15:25:05.000   28.287120435  -16.538030658  2360.8979   1   8   0.0011   0.0008   0.0117   0.0002   0.0017   0.0004   5.00  128.9
2024/04/02 15:25:06.000   28.287120435  -16.538030658  2360.8980   1   8   0.0011   0.0008   0.0117   0.0002   0.0017   0.0004   6.00  130.1
2024/04/02 15:25:07.000   28.287120435  -16.538030658  2360.8980   1   8   0.0011   0.0008   0.0117   0.0002   0.0017   0.0004   7.00  131.2
2024/04/02 15:25:08.000   28.287120435  -16.538030658  2360.8980   1   8   0.0011   0.0008   0.0117   0.0002   0.0017   0.0004   8.00  132.6
2024/04/02 15:25:09.000   28.287120435  -16.538030658  2360.8981   1   8   0.0011   0.0008   0.0117   0.0002   0.0017   0.0004   9.00  134.1
2024/04/02 15:25:10.000   28.287120435  -16.538030658  2360.8981   1   8   0.0011   0.0008   0.0117   0.0002   0.0017   0.0004  10.00  135.5
2024/04/02 15:25:11.000   28.287120435  -16.538030658  2360.8982   1   8   0.0011   0.0008   0.0117   0.0002   0.0017   0.0004  11.00  137.1
2024/04/02 15:25:12.000   28.287120435  -16.538030658  2360.8982   1   8   0.0011   0.0008   0.0116   0.0002   0.0017   0.0004  12.00  138.8
2024/04/02 15:25:13.000   28.287120435  -16.538030658  2360.8982   1   8   0.0011   0.0008   0.0116   0.0002   0.0017   0.0004  13.00  140.5
2024/04/02 15:25:14.000   28.287120435  -16.538030658  2360.8983   1   8   0.0011   0.0008   0.0116   0.0002   0.0017   0.0004  14.00  142.2
2024/04/02 15:25:15.000   28.287120435  -16.538030658  2360.8983   1   8   0.0011   0.0008   0.0116   0.0002   0.0017   0.0004 -15.00  143.8
2024/04/02 15:25:16.000   28.287120435  -16.538030658  2360.8984   1   8   0.0011   0.0008   0.0116   0.0002   0.0017   0.0004 -14.00  145.6
2024/04/02 15:25:17.000   28.287120435  -16.538030658  2360.8984   1   8   0.0011   0.0008   0.0116   0.0002   0.0017   0.0004 -13.00  147.4
2024/04/02 15:25:18.000   28.287120435  -16.538030658  2360.8984   1   8   0.0011   0.0008   0.0116   0.0002   0.0017   0.0004 -12.00  149.0
2024/04/02 15:25:19.000   28.287120435  -16.538030658  2360.8984   1   8   0.0011   0.0008   0.0116   0.0002   0.0017   0.0004 -11.00  150.7
2024/04/02 15:25:20.000   28.287120435  -16.538030658  2360.8985   1   8   0.0011   0.0008   0.0116   0.0002   0.0017   0.0004 -10.00  152.1
2024/04/02 15:25:21.000   28.287120435  -16.538030658  2360.8985   1   8   0.0011   0.0008   0.0116   0.0002   0.0017   0.0004  -9.00  153.6
2024/04/02 15:25:22.000   28.287120435  -16.538030658  2360.8985   1   8   0.0011   0.0008   0.0116   0.0002   0.0017   0.0004  -8.00  155.4
2024/04/02 15:25:23.000   28.287120435  -16.538030658  2360.8986   1   8   0.0011   0.0008   0.0116   0.0002   0.0017   0.0004  -7.00  157.0
2024/04/02 15:25:24.000   28.287120435  -16.538030658  2360.8986   1   8   0.0011   0.0008   0.0116   0.0002   0.0017   0.0004  -6.00  158.6
2024/04/02 15:25:25.000   28.287120435  -16.538030658  2360.8986   1   8   0.0011   0.0008   0.0116   0.0002   0.0017   0.0004  -5.00  160.1
2024/04/02 15:25:26.000   28.287120435  -16.538030658  2360.8987   1   8   0.0011   0.0008   0.0116   0.0002   0.0017   0.0004  -4.00  161.5
2024/04/02 15:25:27.000   28.287120435  -16.538030658  2360.8987   1   8   0.0011   0.0008   0.0116   0.0002   0.0017   0.0004  -3.00  163.1
2024/04/02 15:25:28.000   28.287120435  -16.538030658  2360.8988   1   8   0.0011   0.0008   0.0116   0.0002   0.0017   0.0005  -2.00  165.4
2024/04/02 15:25:29.000   28.287120435  -16.538030658  2360.8988   1   8   0.0011   0.0008   0.0116   0.0002   0.0017   0.0005  -1.00  167.5
2024/04/02 15:25:30.000   28.287120435  -16.538030658  2360.8988   1   8   0.0011   0.0008   0.0116   0.0002   0.0017   0.0005   0.00  169.5
2024/04/02 15:25:31.000   28.287120435  -16.538030658  2360.8989   1   8   0.0011   0.0008   0.0116   0.0002   0.0017   0.0005   1.00  171.7
2024/04/02 15:25:32.000   28.287120435  -16.538030658  2360.8990   1   8   0.0011   0.0008   0.0116   0.0002   0.0017   0.0005   2.00  172.8
2024/04/02 15:25:33.000   28.287120435  -16.538030658  2360.8991   1   8   0.0011   0.0008   0.0116   0.0002   0.0017   0.0005   3.00  174.0
2024/04/02 15:25:34.000   28.287120435  -16.538030658  2360.8991   1   8   0.0011   0.0008   0.0116   0.0002   0.0017   0.0005   4.00  176.3
2024/04/02 15:25:35.000   28.287120436  -16.538030659  2360.8991   1   8   0.0011   0.0008   0.0116   0.0002   0.0017   0.0005   5.00  178.5
2024/04/02 15:25:36.000   28.287120436  -16.538030659  2360.8992   1   8   0.0011   0.0008   0.0116   0.0002   0.0017   0.0005   6.00  180.8
2024/04/02 15:25:37.000   28.287120436  -16.538030659  2360.8992   1   8   0.0011   0.0008   0.0116   0.0002   0.0017   0.0005   7.00  182.3
2024/04/02 15:25:38.000   28.287120436  -16.538030659  2360.8993   1   8   0.0011   0.0008   0.0116   0.0002   0.0017   0.0005   8.00  183.9
2024/04/02 15:25:39.000   28.287120436  -16.538030659  2360.8993   1   8   0.0011   0.0008   0.0116   0.0002   0.0017   0.0005   9.00  185.8
2024/04/02 15:25:40.000   28.287120436  -16.538030659  2360.8994   1   8   0.0011   0.0008   0.0116   0.0002   0.0017   0.0005  10.00  187.9
2024/04/02 15:25:41.000   28.287120436  -16.538030659  2360.8994   1   8   0.0011   0.0008   0.0116   0.0002   0.0017   0.0005  11.00  190.0
2024/04/02 15:25:42.000   28.287120436  -16.538030659  2360.8995   1   8   0.0011   0.0008   0.0116   0.0002   0.0017   0.0005  12.00  191.9
2024/04/02 15:25:43.000   28.287120436  -16.538030659  2360.8995   1   8   0.0011   0.0008   0.0115   0.0002   0.0017   0.0005  13.00  193.7
2024/04/02 15:25:44.000   28.287120436  -16.538030659  2360.8995   1   8   0.0011   0.0008   0.0115   0.0002   0.0017   0.0005  14.00  195.6
2024/04/02 15:25:45.000   28.287120436  -16.538030659  2360.8996   1   8   0.0011   0.0008   0.0115   0.0002   0.0017   0.0005 -15.00  197.6
2024/04/02 15:25:46.000   28.287120436  -16.538030659  2360.8996   1   8   0.0011   0.0008   0.0115   0.0002   0.0017   0.0005 -14.00  199.6
2024/04/02 15:25:47.000   28.287120436  -16.538030659  2360.8996   1   8   0.0011   0.0008   0.0115   0.0002   0.0017   0.0005 -13.00  201.7
2024/04/02 15:25:48.000   28.287120436  -16.538030659  2360.8997   1   8   0.0011   0.0008   0.0115   0.0002   0.0017   0.0005 -12.00  204.1
2024/04/02 15:25:49.000   28.287120436  -16.538030659  2360.8997   1   8   0.0011   0.0008   0.0115   0.0002   0.0017   0.0005 -11.00  206.6
2024/04/02 15:25:50.000   28.287120436  -16.538030659  2360.8997   1   8   0.0011   0.0008   0.0115   0.0002   0.0017   0.0005 -10.00  208.9
2024/04/02 15:25:51.000   28.287120436  -16.538030659  2360.8998   1   8   0.0011   0.0008   0.0115   0.0002   0.0017   0.0005  -9.00  211.3
2024/04/02 15:25:52.000   28.287120436  -16.538030659  2360.8998   1   8   0.0011   0.0008   0.0115   0.0002   0.0017   0.0005  -8.00  213.7
2024/04/02 15:25:53.000   28.287120436  -16.538030659  2360.8999   1   8   0.0011   0.0008   0.0115   0.0002   0.0017   0.0005  -7.00  216.1
2024/04/02 15:25:54.000   28.287120436  -16.538030659  2360.8999   1   8   0.0011   0.0008   0.0115   0.0002   0.0017   0.0005  -6.00  218.9
2024/04/02 15:25:55.000   28.287120436  -16.538030659  2360.9000   1   8   0.0011   0.0008   0.0115   0.0002   0.0017   0.0005  -5.00  221.5
2024/04/02 15:25:56.000   28.287120436  -16.538030659  2360.9001   1   8   0.0011   0.0008   0.0115   0.0002   0.0017   0.0005  -4.00  224.3
2024/04/02 15:25:57.000   28.287120436  -16.538030659  2360.9002   1   8   0.0011   0.0008   0.0115   0.0002   0.0017   0.0005  -3.00  226.6
2024/04/02 15:25:58.000   28.287120436  -16.538030659  2360.9003   1   8   0.0011   0.0008   0.0115   0.0002   0.0017   0.0005  -2.00  229.2
2024/04/02 15:25:59.000   28.287120436  -16.538030659  2360.9002   1   8   0.0011   0.0008   0.0115   0.0002   0.0017   0.0005  -1.00  231.8
2024/04/02 15:26:00.000   28.287120436  -16.538030659  2360.9003   1   8   0.0011   0.0008   0.0115   0.0002   0.0017   0.0005   0.00  234.5
2024/04/02 15:26:01.000   28.287120436  -16.538030659  2360.9003   1   8   0.0011   0.0008   0.0115   0.0002   0.0017   0.0005   1.00  237.2
2024/04/02 15:26:02.000   28.287120436  -16.538030659  2360.9003   1   8   0.0011   0.0008   0.0115   0.0002   0.0017   0.0005   2.00  240.3
2024/04/02 15:26:03.000   28.287120436  -16.538030659  2360.9004   1   8   0.0011   0.0008   0.0115   0.0002   0.0017   0.0005   3.00  243.5
2024/04/02 15:26:04.000   28.287120436  -16.538030659  2360.9004   1   8   0.0011   0.0008   0.0115   0.0002   0.0017   0.0005   4.00  246.6
2024/04/02 15:26:05.000   28.287120436  -16.538030659  2360.9004   1   8   0.0011   0.0008   0.0115   0.0002   0.0017   0.0005   5.00  249.8
2024/04/02 15:26:06.000   28.287120436  -16.538030659  2360.9005   1   8   0.0011   0.0008   0.0115   0.0002   0.0017   0.0005   6.00  252.9
2024/04/02 15:26:07.000   28.287120436  -16.538030659  2360.9005   1   8   0.0011   0.0008   0.0115   0.0002   0.0017   0.0005   7.00  256.2
2024/04/02 15:26:08.000   28.287120436  -16.538030659  2360.9006   1   8   0.0011   0.0008   0.0115   0.0002   0.0017   0.0005   8.00  259.2
2024/04/02 15:26:09.000   28.287120436  -16.538030659  2360.9006   1   8   0.0011   0.0008   0.0115   0.0002   0.0017   0.0005   9.00  262.4
2024/04/02 15:26:10.000   28.287120436  -16.538030659  2360.9006   1   8   0.0011   0.0008   0.0115   0.0002   0.0017   0.0005  10.00  265.4
2024/04/02 15:26:11.000   28.287120436  -16.538030659  2360.9007   1   8   0.0011   0.0008   0.0115   0.0002   0.0017   0.0005  11.00  268.2
2024/04/02 15:26:12.000   28.287120436  -16.538030659  2360.9007   1   8   0.0011   0.0008   0.0115   0.0002   0.0017   0.0005  12.00  270.9
2024/04/02 15:26:13.000   28.287120436  -16.538030659  2360.9008   1   8   0.0011   0.0008   0.0115   0.0002   0.0017   0.0005  13.00  273.7
2024/04/02 15:26:14.000   28.287120436  -16.538030659  2360.9008   1   8   0.0011   0.0008   0.0115   0.0002   0.0017   0.0005  14.00  276.5
2024/04/02 15:26:15.000   28.287120436  -16.538030659  2360.9008   1   8   0.0011   0.0008   0.0115   0.0002   0.0017   0.0005 -15.00  279.2
2024/04/02 15:26:16.000   28.287120436  -16.538030659  2360.9009   1   8   0.0011   0.0008   0.0114   0.0002   0.0017   0.0005 -14.00  281.9
2024/04/02 15:26:17.000   28.287120437  -16.538030659  2360.9009   1   8   0.0011   0.0008   0.0114   0.0002   0.0017   0.0005 -13.00  284.6
2024/04/02 15:26:18.000   28.287120437  -16.538030659  2360.9009   1   8   0.0011   0.0008   0.0114   0.0002   0.0017   0.0005 -12.00  287.3
2024/04/02 15:26:19.000   28.287120437  -16.538030659  2360.9009   1   8   0.0011   0.0008   0.0114   0.0002   0.0017   0.0005 -11.00  290.5
2024/04/02 15:26:20.000   28.287120437  -16.538030659  2360.9010   1   8   0.0011   0.0008   0.0114   0.0002   0.0017   0.0005 -10.00  293.8
2024/04/02 15:26:21.000   28.287120437  -16.538030659  2360.9010   1   8   0.0011   0.0008   0.0114   0.0002   0.0017   0.0005  -9.00  297.6
2024/04/02 15:26:22.000   28.287120437  -16.538030659  2360.9011   1   8   0.0011   0.0008   0.0114   0.0002   0.0017   0.0005  -8.00  301.3
2024/04/02 15:26:23.000   28.287120437  -16.538030659  2360.9012   1   8   0.0011   0.0008   0.0114   0.0002   0.0017   0.0005  -7.00  304.9
2024/04/02 15:26:24.000   28.287120437  -16.538030659  2360.9013   1   8   0.0011   0.0008   0.0114   0.0002   0.0017   0.0005  -6.00  308.0
2024/04/02 15:26:25.000   28.287120437  -16.538030659  2360.9014   1   8   0.0011   0.0008   0.0114   0.0002   0.0017   0.0005  -5.00  312.0
2024/04/02 15:26:26.000   28.287120437  -16.538030659  2360.9014   1   8   0.0011   0.0008   0.0114   0.0002   0.0017   0.0005  -4.00  317.1
2024/04/02 15:26:27.000   28.287120437  -16.538030659  2360.9015   1   8   0.0011   0.0008   0.0114   0.0002   0.0017   0.0005  -3.00  322.2
