% program   : RTKPOST-EX 2.5.0
% inp file  : C:\Users\SallyHenry\Desktop\Sally Internship\GNSS gravi\DATA\Survey Rover Obs\LM002.24o
% inp file  : C:\Users\SallyHenry\Desktop\Sally Internship\GNSS gravi\DATA\BaseStations\IZAN\IZAN00ESP_R_20240930000_01D_30S_MO.rnx
% inp file  : C:\Users\SallyHenry\Desktop\Sally Internship\GNSS gravi\DATA\BaseStations\IZAN\IZAN00ESP_R_20240930000_01D_MN.rnx
% inp file  : C:\Users\SallyHenry\Desktop\Sally Internship\GNSS gravi\DATA\aux_files\Survey\IGS0OPSFIN_20240930000_01D_15M_ORB.SP3
% inp file  : C:\Users\SallyHenry\Desktop\Sally Internship\GNSS gravi\DATA\aux_files\Survey\IGS0OPSFIN_20240930000_01D_30S_CLK.CLK
% obs start : 2024/04/02 12:14:31.0 GPST (week2308 216871.0s)
% obs end   : 2024/04/02 12:46:30.0 GPST (week2308 218790.0s)
% pos mode  : Static
% freqs     : L1+L2/E5b
% solution  : Combined-No Phase Reset
% elev mask : 15.0 deg
% dynamics  : on
% tidecorr  : solid
% ionos opt : Estimate TEC
% tropo opt : Estimate ZTD+Grad
% ephemeris : Precise
% navi sys  : GPS GLONASS Galileo QZSS BDS
% amb res   : Fix and Hold
% amb glo   : Fix and Hold
% amb bds   : on
% val thres : 3.0
% antenna1  :                       ( 0.0000  0.0000  1.8000)
% antenna2  :                       ( 0.0000  0.0000  0.0000)
% ref pos   :  28.308069410  -16.499677180  2417.4044
%
% (lat/lon/height=WGS84/ellipsoidal,Q=1:fix,2:float,3:sbas,4:dgps,5:single,6:ppp,ns=# of satellites)
%  GPST                  latitude(deg) longitude(deg)  height(m)   Q  ns   sdn(m)   sde(m)   sdu(m)  sdne(m)  sdeu(m)  sdun(m) age(s)  ratio
2024/04/02 12:14:31.000   28.288213193  -16.539957893  2349.5763   2   6   0.0082   0.0285   0.0554   0.0116  -0.0333  -0.0152 -29.00    0.0
2024/04/02 12:14:32.000   28.288213193  -16.539957893  2349.5764   2   6   0.0082   0.0285   0.0554   0.0116  -0.0332  -0.0152 -28.00    0.0
2024/04/02 12:14:33.000   28.288213194  -16.539957893  2349.5766   2   6   0.0082   0.0285   0.0554   0.0116  -0.0332  -0.0152 -27.00    0.0
2024/04/02 12:14:34.000   28.288213195  -16.539957892  2349.5765   2   6   0.0082   0.0285   0.0553   0.0116  -0.0332  -0.0152 -26.00    0.0
2024/04/02 12:14:35.000   28.288213195  -16.539957892  2349.5766   2   6   0.0082   0.0285   0.0553   0.0116  -0.0332  -0.0152 -25.00    0.0
2024/04/02 12:14:36.000   28.288213196  -16.539957892  2349.5767   2   6   0.0082   0.0285   0.0553   0.0116  -0.0332  -0.0152 -24.00    0.0
2024/04/02 12:14:37.000   28.288213196  -16.539957892  2349.5767   2   6   0.0082   0.0285   0.0553   0.0116  -0.0332  -0.0152 -23.00    0.0
2024/04/02 12:14:38.000   28.288213196  -16.539957892  2349.5767   2   6   0.0082   0.0285   0.0553   0.0116  -0.0332  -0.0152 -22.00    0.0
2024/04/02 12:14:39.000   28.288213197  -16.539957892  2349.5767   2   6   0.0082   0.0285   0.0553   0.0116  -0.0332  -0.0152 -21.00    0.0
2024/04/02 12:14:40.000   28.288213197  -16.539957892  2349.5766   2   6   0.0082   0.0285   0.0553   0.0116  -0.0332  -0.0152 -20.00    0.0
2024/04/02 12:14:41.000   28.288213197  -16.539957892  2349.5766   2   6   0.0082   0.0285   0.0553   0.0116  -0.0332  -0.0152 -19.00    0.0
2024/04/02 12:14:42.000   28.288213197  -16.539957892  2349.5766   2   6   0.0082   0.0285   0.0553   0.0116  -0.0332  -0.0152 -18.00    0.0
2024/04/02 12:14:43.000   28.288213198  -16.539957892  2349.5765   2   6   0.0082   0.0285   0.0553   0.0116  -0.0332  -0.0152 -17.00    0.0
2024/04/02 12:14:44.000   28.288213198  -16.539957892  2349.5765   2   6   0.0082   0.0285   0.0553   0.0116  -0.0332  -0.0152 -16.00    0.0
2024/04/02 12:14:45.000   28.288213198  -16.539957892  2349.5763   2   6   0.0082   0.0284   0.0553   0.0116  -0.0332  -0.0152 -15.00    0.0
2024/04/02 12:14:46.000   28.288213198  -16.539957892  2349.5762   2   6   0.0082   0.0284   0.0553   0.0116  -0.0332  -0.0152 -14.00    0.0
2024/04/02 12:14:47.000   28.288213198  -16.539957892  2349.5761   2   6   0.0082   0.0284   0.0553   0.0116  -0.0332  -0.0152 -13.00    0.0
2024/04/02 12:14:48.000   28.288213199  -16.539957892  2349.5759   2   6   0.0082   0.0284   0.0553   0.0116  -0.0332  -0.0152 -12.00    0.0
2024/04/02 12:14:49.000   28.288213199  -16.539957891  2349.5756   2   6   0.0082   0.0284   0.0553   0.0116  -0.0332  -0.0152 -11.00    0.0
2024/04/02 12:14:50.000   28.288213199  -16.539957890  2349.5753   2   6   0.0082   0.0284   0.0553   0.0116  -0.0332  -0.0152 -10.00    0.0
2024/04/02 12:14:51.000   28.288213199  -16.539957890  2349.5750   2   6   0.0082   0.0284   0.0553   0.0116  -0.0332  -0.0152  -9.00    0.0
2024/04/02 12:14:52.000   28.288213200  -16.539957889  2349.5747   2   6   0.0082   0.0284   0.0553   0.0116  -0.0332  -0.0152  -8.00    0.0
2024/04/02 12:14:53.000   28.288213200  -16.539957888  2349.5742   2   6   0.0082   0.0284   0.0553   0.0116  -0.0332  -0.0152  -7.00    0.0
2024/04/02 12:14:54.000   28.288213200  -16.539957887  2349.5737   2   6   0.0082   0.0284   0.0553   0.0116  -0.0332  -0.0152  -6.00    0.0
2024/04/02 12:14:55.000   28.288213201  -16.539957885  2349.5732   2   6   0.0082   0.0284   0.0553   0.0116  -0.0332  -0.0152  -5.00    0.0
2024/04/02 12:14:56.000   28.288213201  -16.539957884  2349.5724   2   6   0.0082   0.0284   0.0553   0.0116  -0.0332  -0.0152  -4.00    0.0
2024/04/02 12:14:57.000   28.288213202  -16.539957882  2349.5715   2   6   0.0082   0.0284   0.0553   0.0116  -0.0332  -0.0152  -3.00    0.0
2024/04/02 12:14:58.000   28.288213203  -16.539957879  2349.5707   2   6   0.0082   0.0284   0.0553   0.0116  -0.0332  -0.0152  -2.00    0.0
2024/04/02 12:14:59.000   28.288213204  -16.539957878  2349.5700   2   6   0.0082   0.0284   0.0553   0.0116  -0.0332  -0.0152  -1.00    0.0
2024/04/02 12:15:00.000   28.288213205  -16.539957876  2349.5693   2   6   0.0082   0.0284   0.0553   0.0116  -0.0332  -0.0152   0.00    0.0
2024/04/02 12:15:01.000   28.288213206  -16.539957876  2349.5694   2   6   0.0082   0.0284   0.0553   0.0116  -0.0331  -0.0152   1.00    0.0
2024/04/02 12:15:02.000   28.288213206  -16.539957875  2349.5694   2   6   0.0082   0.0284   0.0553   0.0116  -0.0331  -0.0152   2.00    0.0
2024/04/02 12:15:03.000   28.288213207  -16.539957875  2349.5693   2   6   0.0082   0.0284   0.0553   0.0116  -0.0331  -0.0152   3.00    0.0
2024/04/02 12:15:04.000   28.288213207  -16.539957876  2349.5692   2   6   0.0082   0.0284   0.0553   0.0116  -0.0331  -0.0152   4.00    0.0
2024/04/02 12:15:05.000   28.288213207  -16.539957877  2349.5693   2   6   0.0082   0.0284   0.0553   0.0116  -0.0331  -0.0152   5.00    0.0
2024/04/02 12:15:06.000   28.288213207  -16.539957878  2349.5693   2   6   0.0082   0.0284   0.0553   0.0116  -0.0331  -0.0152   6.00    0.0
2024/04/02 12:15:07.000   28.288213207  -16.539957878  2349.5693   2   6   0.0082   0.0284   0.0553   0.0116  -0.0331  -0.0152   7.00    0.0
2024/04/02 12:15:08.000   28.288213207  -16.539957879  2349.5693   2   6   0.0082   0.0284   0.0553   0.0116  -0.0331  -0.0152   8.00    0.0
2024/04/02 12:15:09.000   28.288213207  -16.539957879  2349.5692   2   6   0.0082   0.0284   0.0553   0.0116  -0.0331  -0.0152   9.00    0.0
2024/04/02 12:15:10.000   28.288213208  -16.539957879  2349.5693   2   6   0.0082   0.0284   0.0553   0.0116  -0.0331  -0.0152  10.00    0.0
2024/04/02 12:15:11.000   28.288213207  -16.539957879  2349.5693   2   6   0.0082   0.0284   0.0553   0.0116  -0.0331  -0.0152  11.00    0.0
2024/04/02 12:15:12.000   28.288213207  -16.539957880  2349.5693   2   6   0.0082   0.0284   0.0553   0.0116  -0.0331  -0.0152  12.00    0.0
2024/04/02 12:15:13.000   28.288213207  -16.539957880  2349.5693   2   6   0.0082   0.0284   0.0553   0.0116  -0.0331  -0.0152  13.00    0.0
2024/04/02 12:15:14.000   28.288213207  -16.539957880  2349.5692   2   6   0.0082   0.0284   0.0553   0.0116  -0.0331  -0.0152  14.00    0.0
2024/04/02 12:15:15.000   28.288213207  -16.539957880  2349.5692   2   6   0.0082   0.0284   0.0553   0.0116  -0.0331  -0.0152 -15.00    0.0
2024/04/02 12:15:16.000   28.288213207  -16.539957880  2349.5692   2   6   0.0082   0.0284   0.0552   0.0116  -0.0331  -0.0152 -14.00    0.0
2024/04/02 12:15:17.000   28.288213207  -16.539957880  2349.5693   2   6   0.0082   0.0284   0.0552   0.0116  -0.0331  -0.0152 -13.00    0.0
2024/04/02 12:15:18.000   28.288213207  -16.539957881  2349.5693   2   6   0.0082   0.0284   0.0552   0.0116  -0.0331  -0.0152 -12.00    0.0
2024/04/02 12:15:19.000   28.288213207  -16.539957881  2349.5692   2   6   0.0082   0.0284   0.0552   0.0116  -0.0331  -0.0152 -11.00    0.0
2024/04/02 12:15:20.000   28.288213207  -16.539957881  2349.5692   2   6   0.0082   0.0284   0.0552   0.0116  -0.0331  -0.0151 -10.00    0.0
2024/04/02 12:15:21.000   28.288213207  -16.539957881  2349.5692   2   6   0.0082   0.0284   0.0552   0.0116  -0.0331  -0.0151  -9.00    0.0
2024/04/02 12:15:22.000   28.288213207  -16.539957882  2349.5692   2   6   0.0082   0.0284   0.0552   0.0116  -0.0331  -0.0151  -8.00    0.0
2024/04/02 12:15:23.000   28.288213207  -16.539957882  2349.5691   2   6   0.0082   0.0284   0.0552   0.0116  -0.0331  -0.0151  -7.00    0.0
2024/04/02 12:15:24.000   28.288213208  -16.539957882  2349.5690   2   6   0.0082   0.0284   0.0552   0.0116  -0.0331  -0.0151  -6.00    0.0
2024/04/02 12:15:25.000   28.288213208  -16.539957882  2349.5689   2   6   0.0082   0.0284   0.0552   0.0116  -0.0331  -0.0151  -5.00    0.0
2024/04/02 12:15:26.000   28.288213208  -16.539957882  2349.5688   2   6   0.0082   0.0284   0.0552   0.0116  -0.0331  -0.0151  -4.00    0.0
2024/04/02 12:15:27.000   28.288213209  -16.539957882  2349.5687   2   6   0.0082   0.0284   0.0552   0.0116  -0.0331  -0.0151  -3.00    0.0
2024/04/02 12:15:28.000   28.288213210  -16.539957883  2349.5688   2   6   0.0082   0.0284   0.0552   0.0116  -0.0330  -0.0151  -2.00    0.0
2024/04/02 12:15:29.000   28.288213211  -16.539957882  2349.5687   2   6   0.0082   0.0284   0.0552   0.0116  -0.0330  -0.0151  -1.00    0.0
2024/04/02 12:15:30.000   28.288213212  -16.539957881  2349.5684   2   6   0.0082   0.0284   0.0552   0.0116  -0.0330  -0.0151   0.00    0.0
2024/04/02 12:15:31.000   28.288213213  -16.539957880  2349.5685   2   6   0.0082   0.0284   0.0552   0.0116  -0.0330  -0.0151   1.00    0.0
2024/04/02 12:15:32.000   28.288213213  -16.539957880  2349.5686   2   6   0.0082   0.0284   0.0552   0.0116  -0.0330  -0.0151   2.00    0.0
2024/04/02 12:15:33.000   28.288213214  -16.539957881  2349.5685   2   6   0.0082   0.0284   0.0552   0.0116  -0.0330  -0.0151   3.00    0.0
2024/04/02 12:15:34.000   28.288213214  -16.539957882  2349.5685   2   6   0.0082   0.0284   0.0552   0.0116  -0.0330  -0.0151   4.00    0.0
2024/04/02 12:15:35.000   28.288213214  -16.539957884  2349.5685   2   6   0.0082   0.0284   0.0552   0.0116  -0.0330  -0.0151   5.00    0.0
2024/04/02 12:15:36.000   28.288213214  -16.539957885  2349.5684   2   6   0.0082   0.0284   0.0552   0.0116  -0.0330  -0.0151   6.00    0.0
2024/04/02 12:15:37.000   28.288213214  -16.539957887  2349.5684   2   6   0.0082   0.0284   0.0552   0.0116  -0.0330  -0.0151   7.00    0.0
2024/04/02 12:15:38.000   28.288213213  -16.539957889  2349.5684   2   6   0.0082   0.0284   0.0552   0.0116  -0.0330  -0.0151   8.00    0.0
2024/04/02 12:15:39.000   28.288213213  -16.539957890  2349.5685   2   6   0.0082   0.0284   0.0552   0.0116  -0.0330  -0.0151   9.00    0.0
2024/04/02 12:15:40.000   28.288213213  -16.539957892  2349.5685   2   6   0.0082   0.0284   0.0552   0.0116  -0.0330  -0.0151  10.00    0.0
2024/04/02 12:15:41.000   28.288213213  -16.539957893  2349.5686   2   6   0.0082   0.0284   0.0552   0.0116  -0.0330  -0.0151  11.00    0.0
2024/04/02 12:15:42.000   28.288213213  -16.539957894  2349.5687   2   6   0.0082   0.0284   0.0552   0.0116  -0.0330  -0.0151  12.00    0.0
2024/04/02 12:15:43.000   28.288213213  -16.539957895  2349.5687   2   6   0.0082   0.0284   0.0552   0.0115  -0.0330  -0.0151  13.00    0.0
2024/04/02 12:15:44.000   28.288213213  -16.539957896  2349.5688   2   6   0.0082   0.0284   0.0552   0.0115  -0.0330  -0.0151  14.00    0.0
2024/04/02 12:15:45.000   28.288213213  -16.539957897  2349.5689   2   6   0.0082   0.0284   0.0552   0.0115  -0.0330  -0.0151 -15.00    0.0
2024/04/02 12:15:46.000   28.288213213  -16.539957897  2349.5690   2   6   0.0082   0.0284   0.0552   0.0115  -0.0330  -0.0151 -14.00    0.0
2024/04/02 12:15:47.000   28.288213213  -16.539957898  2349.5691   2   6   0.0082   0.0284   0.0552   0.0115  -0.0330  -0.0151 -13.00    0.0
2024/04/02 12:15:48.000   28.288213213  -16.539957899  2349.5692   2   6   0.0082   0.0284   0.0552   0.0115  -0.0330  -0.0151 -12.00    0.0
2024/04/02 12:15:49.000   28.288213213  -16.539957899  2349.5693   2   6   0.0082   0.0284   0.0552   0.0115  -0.0330  -0.0151 -11.00    0.0
2024/04/02 12:15:50.000   28.288213213  -16.539957900  2349.5694   2   6   0.0082   0.0284   0.0552   0.0115  -0.0330  -0.0151 -10.00    0.0
2024/04/02 12:15:51.000   28.288213213  -16.539957901  2349.5696   2   6   0.0082   0.0284   0.0552   0.0115  -0.0330  -0.0151  -9.00    0.0
2024/04/02 12:15:52.000   28.288213213  -16.539957901  2349.5697   2   6   0.0082   0.0284   0.0552   0.0115  -0.0330  -0.0151  -8.00    0.0
2024/04/02 12:15:53.000   28.288213213  -16.539957903  2349.5700   2   6   0.0082   0.0284   0.0552   0.0115  -0.0330  -0.0151  -7.00    0.0
2024/04/02 12:15:54.000   28.288213214  -16.539957904  2349.5703   2   6   0.0082   0.0283   0.0552   0.0115  -0.0330  -0.0151  -6.00    0.0
2024/04/02 12:15:55.000   28.288213214  -16.539957905  2349.5707   2   6   0.0082   0.0283   0.0552   0.0115  -0.0330  -0.0151  -5.00    0.0
2024/04/02 12:15:56.000   28.288213215  -16.539957907  2349.5711   2   6   0.0082   0.0283   0.0551   0.0115  -0.0329  -0.0151  -4.00    0.0
2024/04/02 12:15:57.000   28.288213215  -16.539957909  2349.5714   2   6   0.0082   0.0283   0.0551   0.0115  -0.0329  -0.0151  -3.00    0.0
2024/04/02 12:15:58.000   28.288213215  -16.539957910  2349.5719   2   6   0.0082   0.0283   0.0551   0.0115  -0.0329  -0.0151  -2.00    0.0
2024/04/02 12:15:59.000   28.288213216  -16.539957912  2349.5722   2   6   0.0082   0.0283   0.0551   0.0115  -0.0329  -0.0151  -1.00    0.0
2024/04/02 12:16:00.000   28.288213216  -16.539957914  2349.5725   2   6   0.0082   0.0283   0.0551   0.0115  -0.0329  -0.0151   0.00    0.0
2024/04/02 12:16:01.000   28.288213217  -16.539957916  2349.5727   2   6   0.0082   0.0283   0.0551   0.0115  -0.0329  -0.0151   1.00    0.0
2024/04/02 12:16:02.000   28.288213217  -16.539957917  2349.5729   2   6   0.0082   0.0283   0.0551   0.0115  -0.0329  -0.0151   2.00    0.0
2024/04/02 12:16:03.000   28.288213218  -16.539957919  2349.5731   2   6   0.0082   0.0283   0.0551   0.0115  -0.0329  -0.0151   3.00    0.0
2024/04/02 12:16:04.000   28.288213219  -16.539957919  2349.5733   2   6   0.0082   0.0283   0.0551   0.0115  -0.0329  -0.0151   4.00    0.0
2024/04/02 12:16:05.000   28.288213220  -16.539957920  2349.5735   2   6   0.0082   0.0283   0.0551   0.0115  -0.0329  -0.0151   5.00    0.0
2024/04/02 12:16:06.000   28.288213220  -16.539957921  2349.5737   2   6   0.0082   0.0283   0.0551   0.0115  -0.0329  -0.0151   6.00    0.0
2024/04/02 12:16:07.000   28.288213220  -16.539957922  2349.5739   2   6   0.0082   0.0283   0.0551   0.0115  -0.0329  -0.0151   7.00    0.0
2024/04/02 12:16:08.000   28.288213221  -16.539957922  2349.5740   2   6   0.0082   0.0283   0.0551   0.0115  -0.0329  -0.0151   8.00    0.0
2024/04/02 12:16:09.000   28.288213221  -16.539957922  2349.5741   2   6   0.0082   0.0283   0.0551   0.0115  -0.0329  -0.0151   9.00    0.0
2024/04/02 12:16:10.000   28.288213222  -16.539957923  2349.5742   2   6   0.0082   0.0283   0.0551   0.0115  -0.0329  -0.0151  10.00    0.0
2024/04/02 12:16:11.000   28.288213222  -16.539957923  2349.5743   2   6   0.0082   0.0283   0.0551   0.0115  -0.0329  -0.0151  11.00    0.0
2024/04/02 12:16:12.000   28.288213222  -16.539957923  2349.5744   2   6   0.0082   0.0283   0.0551   0.0115  -0.0329  -0.0151  12.00    0.0
2024/04/02 12:16:13.000   28.288213222  -16.539957923  2349.5744   2   6   0.0082   0.0283   0.0551   0.0115  -0.0329  -0.0151  13.00    0.0
2024/04/02 12:16:14.000   28.288213222  -16.539957924  2349.5745   2   6   0.0082   0.0283   0.0551   0.0115  -0.0329  -0.0151  14.00    0.0
2024/04/02 12:16:15.000   28.288213223  -16.539957924  2349.5747   2   6   0.0082   0.0283   0.0551   0.0115  -0.0329  -0.0151 -15.00    0.0
2024/04/02 12:16:16.000   28.288213223  -16.539957925  2349.5748   2   6   0.0082   0.0283   0.0551   0.0115  -0.0329  -0.0151 -14.00    0.0
2024/04/02 12:16:17.000   28.288213223  -16.539957925  2349.5749   2   6   0.0082   0.0283   0.0551   0.0115  -0.0329  -0.0151 -13.00    0.0
2024/04/02 12:16:18.000   28.288213223  -16.539957926  2349.5750   2   6   0.0082   0.0283   0.0551   0.0115  -0.0329  -0.0151 -12.00    0.0
2024/04/02 12:16:19.000   28.288213223  -16.539957926  2349.5751   2   6   0.0082   0.0283   0.0551   0.0115  -0.0329  -0.0151 -11.00    0.0
2024/04/02 12:16:20.000   28.288213223  -16.539957927  2349.5753   2   6   0.0082   0.0283   0.0551   0.0115  -0.0329  -0.0151 -10.00    0.0
2024/04/02 12:16:21.000   28.288213223  -16.539957927  2349.5755   2   6   0.0082   0.0283   0.0551   0.0115  -0.0329  -0.0151  -9.00    0.0
2024/04/02 12:16:22.000   28.288213223  -16.539957928  2349.5756   2   6   0.0082   0.0283   0.0551   0.0115  -0.0329  -0.0151  -8.00    0.0
2024/04/02 12:16:23.000   28.288213223  -16.539957929  2349.5758   2   6   0.0082   0.0283   0.0551   0.0115  -0.0329  -0.0151  -7.00    0.0
2024/04/02 12:16:24.000   28.288213223  -16.539957930  2349.5759   2   6   0.0082   0.0283   0.0551   0.0115  -0.0328  -0.0151  -6.00    0.0
2024/04/02 12:16:25.000   28.288213224  -16.539957931  2349.5760   2   6   0.0082   0.0283   0.0551   0.0115  -0.0328  -0.0151  -5.00    0.0
2024/04/02 12:16:26.000   28.288213224  -16.539957932  2349.5762   2   6   0.0082   0.0283   0.0551   0.0115  -0.0328  -0.0151  -4.00    0.0
2024/04/02 12:16:27.000   28.288213224  -16.539957933  2349.5763   2   6   0.0082   0.0283   0.0551   0.0115  -0.0328  -0.0151  -3.00    0.0
2024/04/02 12:16:28.000   28.288213225  -16.539957933  2349.5764   2   6   0.0082   0.0283   0.0551   0.0115  -0.0328  -0.0151  -2.00    0.0
2024/04/02 12:16:29.000   28.288213226  -16.539957933  2349.5764   2   6   0.0082   0.0283   0.0551   0.0115  -0.0328  -0.0151  -1.00    0.0
2024/04/02 12:16:30.000   28.288213226  -16.539957934  2349.5765   2   6   0.0082   0.0283   0.0551   0.0115  -0.0328  -0.0151   0.00    0.0
2024/04/02 12:16:31.000   28.288213227  -16.539957935  2349.5766   2   6   0.0082   0.0283   0.0551   0.0115  -0.0328  -0.0151   1.00    0.0
2024/04/02 12:16:32.000   28.288213227  -16.539957935  2349.5769   2   6   0.0082   0.0283   0.0551   0.0115  -0.0328  -0.0150   2.00    0.0
2024/04/02 12:16:33.000   28.288213228  -16.539957936  2349.5771   2   6   0.0083   0.0283   0.0551   0.0115  -0.0328  -0.0150   3.00    0.0
2024/04/02 12:16:34.000   28.288213228  -16.539957937  2349.5771   2   6   0.0083   0.0283   0.0551   0.0115  -0.0328  -0.0150   4.00    0.0
2024/04/02 12:16:35.000   28.288213229  -16.539957938  2349.5770   2   6   0.0083   0.0283   0.0551   0.0115  -0.0328  -0.0150   5.00    0.0
2024/04/02 12:16:36.000   28.288213229  -16.539957939  2349.5771   2   6   0.0083   0.0283   0.0551   0.0115  -0.0328  -0.0150   6.00    0.0
2024/04/02 12:16:37.000   28.288213229  -16.539957939  2349.5772   2   6   0.0083   0.0283   0.0551   0.0115  -0.0328  -0.0150   7.00    0.0
2024/04/02 12:16:38.000   28.288213229  -16.539957940  2349.5773   2   6   0.0083   0.0283   0.0551   0.0115  -0.0328  -0.0150   8.00    0.0
2024/04/02 12:16:39.000   28.288213229  -16.539957941  2349.5775   2   6   0.0083   0.0283   0.0551   0.0115  -0.0328  -0.0150   9.00    0.0
2024/04/02 12:16:40.000   28.288213229  -16.539957942  2349.5777   2   6   0.0083   0.0283   0.0551   0.0115  -0.0328  -0.0150  10.00    0.0
2024/04/02 12:16:41.000   28.288213229  -16.539957942  2349.5778   2   6   0.0083   0.0283   0.0551   0.0115  -0.0328  -0.0150  11.00    0.0
2024/04/02 12:16:42.000   28.288213229  -16.539957943  2349.5779   2   6   0.0083   0.0283   0.0551   0.0115  -0.0328  -0.0150  12.00    0.0
2024/04/02 12:16:43.000   28.288213230  -16.539957943  2349.5780   2   6   0.0083   0.0283   0.0551   0.0115  -0.0328  -0.0150  13.00    0.0
2024/04/02 12:16:44.000   28.288213230  -16.539957944  2349.5781   2   6   0.0083   0.0283   0.0551   0.0115  -0.0328  -0.0150  14.00    0.0
2024/04/02 12:16:45.000   28.288213230  -16.539957944  2349.5782   2   6   0.0083   0.0283   0.0551   0.0115  -0.0328  -0.0150 -15.00    0.0
2024/04/02 12:16:46.000   28.288213230  -16.539957945  2349.5783   2   6   0.0083   0.0283   0.0551   0.0115  -0.0328  -0.0150 -14.00    0.0
2024/04/02 12:16:47.000   28.288213230  -16.539957945  2349.5784   2   6   0.0083   0.0283   0.0551   0.0115  -0.0328  -0.0150 -13.00    0.0
2024/04/02 12:16:48.000   28.288213230  -16.539957946  2349.5785   2   6   0.0083   0.0283   0.0551   0.0115  -0.0328  -0.0150 -12.00    0.0
2024/04/02 12:16:49.000   28.288213230  -16.539957947  2349.5787   2   6   0.0083   0.0283   0.0551   0.0115  -0.0328  -0.0150 -11.00    0.0
2024/04/02 12:16:50.000   28.288213230  -16.539957948  2349.5788   2   6   0.0083   0.0283   0.0550   0.0115  -0.0328  -0.0150 -10.00    0.0
2024/04/02 12:16:51.000   28.288213230  -16.539957949  2349.5789   2   6   0.0083   0.0283   0.0550   0.0115  -0.0328  -0.0150  -9.00    0.0
2024/04/02 12:16:52.000   28.288213230  -16.539957949  2349.5790   2   6   0.0083   0.0283   0.0550   0.0115  -0.0327  -0.0150  -8.00    0.0
2024/04/02 12:16:53.000   28.288213230  -16.539957951  2349.5792   2   6   0.0083   0.0283   0.0550   0.0115  -0.0327  -0.0150  -7.00    0.0
2024/04/02 12:16:54.000   28.288213230  -16.539957951  2349.5793   2   6   0.0083   0.0283   0.0550   0.0115  -0.0327  -0.0150  -6.00    0.0
2024/04/02 12:16:55.000   28.288213231  -16.539957951  2349.5794   2   6   0.0083   0.0283   0.0550   0.0115  -0.0327  -0.0150  -5.00    0.0
2024/04/02 12:16:56.000   28.288213231  -16.539957952  2349.5795   2   6   0.0083   0.0283   0.0550   0.0115  -0.0327  -0.0150  -4.00    0.0
2024/04/02 12:16:57.000   28.288213232  -16.539957953  2349.5795   2   6   0.0083   0.0283   0.0550   0.0115  -0.0327  -0.0150  -3.00    0.0
2024/04/02 12:16:58.000   28.288213233  -16.539957953  2349.5796   2   6   0.0083   0.0283   0.0550   0.0115  -0.0327  -0.0150  -2.00    0.0
2024/04/02 12:16:59.000   28.288213234  -16.539957954  2349.5799   2   6   0.0083   0.0283   0.0550   0.0115  -0.0327  -0.0150  -1.00    0.0
2024/04/02 12:17:00.000   28.288213235  -16.539957953  2349.5799   2   6   0.0083   0.0283   0.0550   0.0115  -0.0327  -0.0150   0.00    0.0
2024/04/02 12:17:01.000   28.288213236  -16.539957954  2349.5799   2   6   0.0083   0.0283   0.0550   0.0115  -0.0327  -0.0150   1.00    0.0
2024/04/02 12:17:02.000   28.288213236  -16.539957954  2349.5800   2   6   0.0083   0.0283   0.0550   0.0115  -0.0327  -0.0150   2.00    0.0
2024/04/02 12:17:03.000   28.288213237  -16.539957955  2349.5800   2   6   0.0083   0.0283   0.0550   0.0115  -0.0327  -0.0150   3.00    0.0
2024/04/02 12:17:04.000   28.288213237  -16.539957956  2349.5801   2   6   0.0083   0.0283   0.0550   0.0115  -0.0327  -0.0150   4.00    0.0
2024/04/02 12:17:05.000   28.288213237  -16.539957957  2349.5801   2   6   0.0083   0.0283   0.0550   0.0115  -0.0327  -0.0150   5.00    0.0
2024/04/02 12:17:06.000   28.288213237  -16.539957958  2349.5801   2   6   0.0083   0.0283   0.0550   0.0114  -0.0327  -0.0150   6.00    0.0
2024/04/02 12:17:07.000   28.288213237  -16.539957959  2349.5801   2   6   0.0083   0.0283   0.0550   0.0114  -0.0327  -0.0150   7.00    0.0
2024/04/02 12:17:08.000   28.288213237  -16.539957959  2349.5802   2   6   0.0083   0.0283   0.0550   0.0114  -0.0327  -0.0150   8.00    0.0
2024/04/02 12:17:09.000   28.288213238  -16.539957960  2349.5802   2   6   0.0083   0.0283   0.0550   0.0114  -0.0327  -0.0150   9.00    0.0
2024/04/02 12:17:10.000   28.288213238  -16.539957960  2349.5803   2   6   0.0083   0.0283   0.0550   0.0114  -0.0327  -0.0150  10.00    0.0
2024/04/02 12:17:11.000   28.288213238  -16.539957960  2349.5804   2   6   0.0083   0.0282   0.0550   0.0114  -0.0327  -0.0150  11.00    0.0
2024/04/02 12:17:12.000   28.288213238  -16.539957960  2349.5804   2   6   0.0083   0.0282   0.0550   0.0114  -0.0327  -0.0150  12.00    0.0
2024/04/02 12:17:13.000   28.288213238  -16.539957960  2349.5805   2   6   0.0083   0.0282   0.0550   0.0114  -0.0327  -0.0150  13.00    0.0
2024/04/02 12:17:14.000   28.288213238  -16.539957960  2349.5805   2   6   0.0083   0.0282   0.0550   0.0114  -0.0327  -0.0150  14.00    0.0
2024/04/02 12:17:15.000   28.288213238  -16.539957960  2349.5806   2   6   0.0083   0.0282   0.0550   0.0114  -0.0327  -0.0150 -15.00    0.0
2024/04/02 12:17:16.000   28.288213239  -16.539957960  2349.5806   2   6   0.0083   0.0282   0.0550   0.0114  -0.0327  -0.0150 -14.00    0.0
2024/04/02 12:17:17.000   28.288213239  -16.539957960  2349.5807   2   6   0.0083   0.0282   0.0550   0.0114  -0.0327  -0.0150 -13.00    0.0
2024/04/02 12:17:18.000   28.288213239  -16.539957961  2349.5808   2   6   0.0083   0.0282   0.0550   0.0114  -0.0327  -0.0150 -12.00    0.0
2024/04/02 12:17:19.000   28.288213239  -16.539957961  2349.5808   2   6   0.0083   0.0282   0.0550   0.0114  -0.0327  -0.0150 -11.00    0.0
2024/04/02 12:17:20.000   28.288213239  -16.539957961  2349.5809   2   6   0.0083   0.0282   0.0550   0.0114  -0.0327  -0.0150 -10.00    0.0
2024/04/02 12:17:21.000   28.288213239  -16.539957961  2349.5810   2   6   0.0083   0.0282   0.0550   0.0114  -0.0326  -0.0150  -9.00    0.0
2024/04/02 12:17:22.000   28.288213240  -16.539957961  2349.5811   2   6   0.0083   0.0282   0.0550   0.0114  -0.0326  -0.0150  -8.00    0.0
2024/04/02 12:17:23.000   28.288213240  -16.539957960  2349.5810   2   6   0.0083   0.0282   0.0550   0.0114  -0.0326  -0.0150  -7.00    0.0
2024/04/02 12:17:24.000   28.288213240  -16.539957959  2349.5811   2   6   0.0083   0.0282   0.0550   0.0114  -0.0326  -0.0150  -6.00    0.0
2024/04/02 12:17:25.000   28.288213241  -16.539957959  2349.5812   2   6   0.0083   0.0282   0.0550   0.0114  -0.0326  -0.0150  -5.00    0.0
2024/04/02 12:17:26.000   28.288213241  -16.539957959  2349.5813   2   6   0.0083   0.0282   0.0550   0.0114  -0.0326  -0.0150  -4.00    0.0
2024/04/02 12:17:27.000   28.288213242  -16.539957958  2349.5814   2   6   0.0083   0.0282   0.0550   0.0114  -0.0326  -0.0150  -3.00    0.0
2024/04/02 12:17:28.000   28.288213243  -16.539957957  2349.5814   2   6   0.0083   0.0282   0.0550   0.0114  -0.0326  -0.0150  -2.00    0.0
2024/04/02 12:17:29.000   28.288213243  -16.539957956  2349.5814   2   6   0.0083   0.0282   0.0550   0.0114  -0.0326  -0.0150  -1.00    0.0
2024/04/02 12:17:30.000   28.288213244  -16.539957956  2349.5813   2   6   0.0083   0.0282   0.0550   0.0114  -0.0326  -0.0150   0.00    0.0
2024/04/02 12:17:31.000   28.288213245  -16.539957957  2349.5812   2   6   0.0083   0.0282   0.0550   0.0114  -0.0326  -0.0150   1.00    0.0
2024/04/02 12:17:32.000   28.288213245  -16.539957956  2349.5812   2   6   0.0083   0.0282   0.0550   0.0114  -0.0326  -0.0150   2.00    0.0
2024/04/02 12:17:33.000   28.288213245  -16.539957957  2349.5812   2   6   0.0083   0.0282   0.0550   0.0114  -0.0326  -0.0150   3.00    0.0
2024/04/02 12:17:34.000   28.288213244  -16.539957959  2349.5813   2   6   0.0083   0.0282   0.0550   0.0114  -0.0326  -0.0150   4.00    0.0
2024/04/02 12:17:35.000   28.288213244  -16.539957960  2349.5812   2   6   0.0083   0.0282   0.0550   0.0114  -0.0326  -0.0150   5.00    0.0
2024/04/02 12:17:36.000   28.288213244  -16.539957960  2349.5810   2   6   0.0083   0.0282   0.0550   0.0114  -0.0326  -0.0150   6.00    0.0
2024/04/02 12:17:37.000   28.288213243  -16.539957961  2349.5809   2   6   0.0083   0.0282   0.0550   0.0114  -0.0326  -0.0150   7.00    0.0
2024/04/02 12:17:38.000   28.288213243  -16.539957962  2349.5808   2   6   0.0083   0.0282   0.0550   0.0114  -0.0326  -0.0150   8.00    0.0
2024/04/02 12:17:39.000   28.288213243  -16.539957962  2349.5808   2   6   0.0083   0.0282   0.0550   0.0114  -0.0326  -0.0150   9.00    0.0
2024/04/02 12:17:40.000   28.288213242  -16.539957963  2349.5807   2   6   0.0083   0.0282   0.0550   0.0114  -0.0326  -0.0150  10.00    0.0
2024/04/02 12:17:41.000   28.288213242  -16.539957963  2349.5807   2   6   0.0083   0.0282   0.0550   0.0114  -0.0326  -0.0150  11.00    0.0
2024/04/02 12:17:42.000   28.288213242  -16.539957963  2349.5806   2   6   0.0083   0.0282   0.0550   0.0114  -0.0326  -0.0150  12.00    0.0
2024/04/02 12:17:43.000   28.288213242  -16.539957963  2349.5806   2   6   0.0083   0.0282   0.0550   0.0114  -0.0326  -0.0150  13.00    0.0
2024/04/02 12:17:44.000   28.288213242  -16.539957964  2349.5806   2   6   0.0083   0.0282   0.0550   0.0114  -0.0326  -0.0150  14.00    0.0
2024/04/02 12:17:45.000   28.288213242  -16.539957964  2349.5806   2   6   0.0083   0.0282   0.0550   0.0114  -0.0326  -0.0150 -15.00    0.0
2024/04/02 12:17:46.000   28.288213242  -16.539957964  2349.5805   2   6   0.0083   0.0282   0.0550   0.0114  -0.0326  -0.0150 -14.00    0.0
2024/04/02 12:17:47.000   28.288213242  -16.539957964  2349.5805   2   6   0.0083   0.0282   0.0550   0.0114  -0.0326  -0.0150 -13.00    0.0
2024/04/02 12:17:48.000   28.288213242  -16.539957964  2349.5805   2   6   0.0083   0.0282   0.0550   0.0114  -0.0326  -0.0149 -12.00    0.0
2024/04/02 12:17:49.000   28.288213242  -16.539957964  2349.5805   2   6   0.0083   0.0282   0.0550   0.0114  -0.0325  -0.0149 -11.00    0.0
2024/04/02 12:17:50.000   28.288213242  -16.539957964  2349.5805   2   6   0.0083   0.0282   0.0550   0.0114  -0.0325  -0.0149 -10.00    0.0
2024/04/02 12:17:51.000   28.288213242  -16.539957965  2349.5805   2   6   0.0083   0.0282   0.0549   0.0114  -0.0325  -0.0149  -9.00    0.0
2024/04/02 12:17:52.000   28.288213242  -16.539957965  2349.5805   2   6   0.0083   0.0282   0.0549   0.0114  -0.0325  -0.0149  -8.00    0.0
2024/04/02 12:17:53.000   28.288213242  -16.539957965  2349.5806   2   6   0.0083   0.0282   0.0549   0.0114  -0.0325  -0.0149  -7.00    0.0
2024/04/02 12:17:54.000   28.288213243  -16.539957965  2349.5806   2   6   0.0083   0.0282   0.0549   0.0114  -0.0325  -0.0149  -6.00    0.0
2024/04/02 12:17:55.000   28.288213243  -16.539957965  2349.5805   2   6   0.0083   0.0282   0.0549   0.0114  -0.0325  -0.0149  -5.00    0.0
2024/04/02 12:17:56.000   28.288213243  -16.539957965  2349.5804   2   6   0.0083   0.0282   0.0549   0.0114  -0.0325  -0.0149  -4.00    0.0
2024/04/02 12:17:57.000   28.288213243  -16.539957965  2349.5804   2   6   0.0083   0.0282   0.0549   0.0114  -0.0325  -0.0149  -3.00    0.0
2024/04/02 12:17:58.000   28.288213244  -16.539957967  2349.5804   2   6   0.0083   0.0282   0.0549   0.0114  -0.0325  -0.0149  -2.00    0.0
2024/04/02 12:17:59.000   28.288213244  -16.539957966  2349.5802   2   6   0.0083   0.0282   0.0549   0.0114  -0.0325  -0.0149  -1.00    0.0
2024/04/02 12:18:00.000   28.288213245  -16.539957967  2349.5801   2   6   0.0083   0.0282   0.0549   0.0114  -0.0325  -0.0149   0.00    0.0
2024/04/02 12:18:01.000   28.288213246  -16.539957967  2349.5799   2   6   0.0083   0.0282   0.0549   0.0114  -0.0325  -0.0149   1.00    1.5
2024/04/02 12:18:02.000   28.288213246  -16.539957967  2349.5799   2   6   0.0083   0.0282   0.0549   0.0114  -0.0325  -0.0149   2.00    1.7
2024/04/02 12:18:03.000   28.288213247  -16.539957967  2349.5799   2   6   0.0083   0.0282   0.0549   0.0114  -0.0325  -0.0149   3.00    1.6
2024/04/02 12:18:04.000   28.288213248  -16.539957967  2349.5800   2   6   0.0083   0.0282   0.0549   0.0114  -0.0325  -0.0149   4.00    1.3
2024/04/02 12:18:05.000   28.288213249  -16.539957966  2349.5799   2   6   0.0083   0.0282   0.0549   0.0114  -0.0325  -0.0149   5.00    1.6
2024/04/02 12:18:06.000   28.288213250  -16.539957966  2349.5799   2   6   0.0083   0.0282   0.0549   0.0114  -0.0325  -0.0149   6.00    1.5
2024/04/02 12:18:07.000   28.288213250  -16.539957966  2349.5799   2   6   0.0083   0.0282   0.0549   0.0114  -0.0325  -0.0149   7.00    1.6
2024/04/02 12:18:08.000   28.288213251  -16.539957966  2349.5799   2   6   0.0083   0.0282   0.0549   0.0114  -0.0325  -0.0149   8.00    1.5
2024/04/02 12:18:09.000   28.288213251  -16.539957966  2349.5799   2   6   0.0083   0.0282   0.0549   0.0114  -0.0325  -0.0149   9.00    1.6
2024/04/02 12:18:10.000   28.288213251  -16.539957966  2349.5799   2   6   0.0083   0.0282   0.0549   0.0114  -0.0325  -0.0149  10.00    1.9
2024/04/02 12:18:11.000   28.288213251  -16.539957966  2349.5798   2   6   0.0083   0.0282   0.0549   0.0114  -0.0325  -0.0149  11.00    1.7
2024/04/02 12:18:12.000   28.288213251  -16.539957967  2349.5799   2   6   0.0083   0.0282   0.0549   0.0114  -0.0325  -0.0149  12.00    1.6
2024/04/02 12:18:13.000   28.288213251  -16.539957966  2349.5798   2   6   0.0083   0.0282   0.0549   0.0114  -0.0325  -0.0149  13.00    1.7
2024/04/02 12:18:14.000   28.288213251  -16.539957967  2349.5798   2   6   0.0083   0.0281   0.0549   0.0114  -0.0325  -0.0149  14.00    1.8
2024/04/02 12:18:15.001   28.288213251  -16.539957966  2349.5798   2   6   0.0083   0.0281   0.0549   0.0114  -0.0325  -0.0149 -15.00    1.7
2024/04/02 12:18:16.000   28.288213251  -16.539957967  2349.5798   2   6   0.0083   0.0281   0.0549   0.0114  -0.0325  -0.0149 -14.00    1.3
2024/04/02 12:18:17.000   28.288213252  -16.539957966  2349.5798   2   6   0.0083   0.0281   0.0549   0.0114  -0.0325  -0.0149 -13.00    1.7
2024/04/02 12:18:18.000   28.288213252  -16.539957967  2349.5798   2   6   0.0083   0.0281   0.0549   0.0114  -0.0325  -0.0149 -12.00    1.5
2024/04/02 12:18:19.000   28.288213252  -16.539957967  2349.5798   2   6   0.0083   0.0281   0.0549   0.0114  -0.0324  -0.0149 -11.00    1.7
2024/04/02 12:18:20.000   28.288213252  -16.539957967  2349.5798   2   6   0.0083   0.0281   0.0549   0.0114  -0.0324  -0.0149 -10.00    1.5
2024/04/02 12:18:21.000   28.288213252  -16.539957967  2349.5798   2   6   0.0083   0.0281   0.0549   0.0114  -0.0324  -0.0149  -9.00    1.7
2024/04/02 12:18:22.000   28.288213252  -16.539957967  2349.5798   2   6   0.0083   0.0281   0.0549   0.0114  -0.0324  -0.0149  -8.00    1.9
2024/04/02 12:18:23.000   28.288213252  -16.539957968  2349.5798   2   6   0.0083   0.0281   0.0549   0.0114  -0.0324  -0.0149  -7.00    1.7
2024/04/02 12:18:24.000   28.288213252  -16.539957968  2349.5798   2   6   0.0083   0.0281   0.0549   0.0114  -0.0324  -0.0149  -6.00    1.7
2024/04/02 12:18:25.000   28.288213252  -16.539957969  2349.5799   2   6   0.0083   0.0281   0.0549   0.0114  -0.0324  -0.0149  -5.00    1.7
2024/04/02 12:18:26.000   28.288213252  -16.539957971  2349.5800   2   6   0.0083   0.0281   0.0549   0.0114  -0.0324  -0.0149  -4.00    1.8
2024/04/02 12:18:27.000   28.288213252  -16.539957972  2349.5801   2   6   0.0083   0.0281   0.0549   0.0114  -0.0324  -0.0149  -3.00    1.7
2024/04/02 12:18:28.000   28.288213252  -16.539957974  2349.5802   2   6   0.0083   0.0281   0.0549   0.0114  -0.0324  -0.0149  -2.00    1.3
2024/04/02 12:18:29.000   28.288213253  -16.539957975  2349.5802   2   6   0.0083   0.0281   0.0549   0.0113  -0.0324  -0.0149  -1.00    1.7
2024/04/02 12:18:30.000   28.288213253  -16.539957978  2349.5804   2   6   0.0083   0.0281   0.0549   0.0113  -0.0324  -0.0149   0.00    1.5
2024/04/02 12:18:31.000   28.288213253  -16.539957978  2349.5803   2   6   0.0083   0.0281   0.0549   0.0113  -0.0324  -0.0149   1.00    1.6
2024/04/02 12:18:32.000   28.288213254  -16.539957978  2349.5803   2   6   0.0083   0.0281   0.0549   0.0113  -0.0324  -0.0149   2.00    1.4
2024/04/02 12:18:33.000   28.288213255  -16.539957978  2349.5803   2   6   0.0083   0.0281   0.0549   0.0113  -0.0324  -0.0149   3.00    1.6
2024/04/02 12:18:34.000   28.288213257  -16.539957976  2349.5804   2   6   0.0083   0.0281   0.0549   0.0113  -0.0324  -0.0149   4.00    1.9
2024/04/02 12:18:35.000   28.288213259  -16.539957973  2349.5806   2   6   0.0083   0.0281   0.0549   0.0113  -0.0324  -0.0149   5.00    1.7
2024/04/02 12:18:36.000   28.288213260  -16.539957971  2349.5807   2   6   0.0083   0.0281   0.0549   0.0113  -0.0324  -0.0149   6.00    1.7
2024/04/02 12:18:37.000   28.288213262  -16.539957970  2349.5809   2   6   0.0083   0.0281   0.0549   0.0113  -0.0324  -0.0149   7.00    1.7
2024/04/02 12:18:38.000   28.288213263  -16.539957968  2349.5810   2   6   0.0083   0.0281   0.0549   0.0113  -0.0324  -0.0149   8.00    1.9
2024/04/02 12:18:39.000   28.288213264  -16.539957966  2349.5811   2   6   0.0083   0.0281   0.0549   0.0113  -0.0324  -0.0149   9.00    1.8
2024/04/02 12:18:40.000   28.288213265  -16.539957964  2349.5811   2   6   0.0083   0.0281   0.0549   0.0113  -0.0324  -0.0149  10.00    1.4
2024/04/02 12:18:41.000   28.288213266  -16.539957963  2349.5812   2   6   0.0083   0.0281   0.0549   0.0113  -0.0324  -0.0149  11.00    1.8
2024/04/02 12:18:42.000   28.288213266  -16.539957962  2349.5813   2   6   0.0083   0.0281   0.0549   0.0113  -0.0324  -0.0149  12.00    1.5
2024/04/02 12:18:43.000   28.288213267  -16.539957961  2349.5814   2   6   0.0083   0.0281   0.0549   0.0113  -0.0324  -0.0149  13.00    1.8
2024/04/02 12:18:44.000   28.288213268  -16.539957960  2349.5814   2   6   0.0083   0.0281   0.0549   0.0113  -0.0324  -0.0149  14.00    1.6
2024/04/02 12:18:45.000   28.288213268  -16.539957960  2349.5815   2   6   0.0083   0.0281   0.0549   0.0113  -0.0324  -0.0149 -15.00    1.8
2024/04/02 12:18:46.000   28.288213268  -16.539957959  2349.5816   2   6   0.0083   0.0281   0.0549   0.0113  -0.0324  -0.0149 -14.00    1.9
2024/04/02 12:18:47.000   28.288213269  -16.539957958  2349.5816   2   6   0.0083   0.0281   0.0549   0.0113  -0.0324  -0.0149 -13.00    1.8
2024/04/02 12:18:48.000   28.288213269  -16.539957958  2349.5816   2   6   0.0083   0.0281   0.0549   0.0113  -0.0323  -0.0149 -12.00    1.6
2024/04/02 12:18:49.000   28.288213270  -16.539957957  2349.5817   2   6   0.0083   0.0281   0.0549   0.0113  -0.0323  -0.0149 -11.00    1.8
2024/04/02 12:18:50.000   28.288213270  -16.539957956  2349.5817   2   6   0.0083   0.0281   0.0549   0.0113  -0.0323  -0.0149 -10.00    2.0
2024/04/02 12:18:51.000   28.288213271  -16.539957954  2349.5816   2   6   0.0083   0.0281   0.0549   0.0113  -0.0323  -0.0149  -9.00    1.8
2024/04/02 12:18:52.000   28.288213272  -16.539957954  2349.5817   2   6   0.0083   0.0281   0.0549   0.0113  -0.0323  -0.0149  -8.00    1.4
2024/04/02 12:18:53.000   28.288213272  -16.539957952  2349.5817   2   6   0.0083   0.0281   0.0549   0.0113  -0.0323  -0.0149  -7.00    1.9
2024/04/02 12:18:54.000   28.288213273  -16.539957951  2349.5818   2   6   0.0083   0.0281   0.0549   0.0113  -0.0323  -0.0149  -6.00    1.5
2024/04/02 12:18:55.000   28.288213274  -16.539957950  2349.5818   2   6   0.0083   0.0281   0.0549   0.0113  -0.0323  -0.0149  -5.00    1.9
2024/04/02 12:18:56.000   28.288213274  -16.539957949  2349.5818   2   6   0.0083   0.0281   0.0549   0.0113  -0.0323  -0.0149  -4.00    1.7
2024/04/02 12:18:57.000   28.288213274  -16.539957948  2349.5818   2   6   0.0084   0.0281   0.0549   0.0113  -0.0323  -0.0149  -3.00    2.0
2024/04/02 12:18:58.000   28.288213275  -16.539957947  2349.5818   2   6   0.0084   0.0281   0.0549   0.0113  -0.0323  -0.0149  -2.00    1.9
2024/04/02 12:18:59.000   28.288213275  -16.539957946  2349.5817   2   6   0.0084   0.0281   0.0549   0.0113  -0.0323  -0.0149  -1.00    2.0
2024/04/02 12:19:00.000   28.288213275  -16.539957946  2349.5816   2   6   0.0084   0.0281   0.0549   0.0113  -0.0323  -0.0149   0.00    1.7
2024/04/02 12:19:01.000   28.288213276  -16.539957946  2349.5815   2   6   0.0084   0.0281   0.0549   0.0113  -0.0323  -0.0149   1.00    1.7
2024/04/02 12:19:02.000   28.288213276  -16.539957947  2349.5815   2   6   0.0084   0.0281   0.0549   0.0113  -0.0323  -0.0149   2.00    1.8
2024/04/02 12:19:03.000   28.288213276  -16.539957947  2349.5814   2   6   0.0084   0.0281   0.0549   0.0113  -0.0323  -0.0149   3.00    1.7
2024/04/02 12:19:04.000   28.288213276  -16.539957947  2349.5813   2   6   0.0084   0.0281   0.0549   0.0113  -0.0323  -0.0149   4.00    1.4
2024/04/02 12:19:05.000   28.288213276  -16.539957947  2349.5812   2   6   0.0084   0.0281   0.0549   0.0113  -0.0323  -0.0148   5.00    1.8
2024/04/02 12:19:06.000   28.288213277  -16.539957947  2349.5811   2   6   0.0084   0.0281   0.0549   0.0113  -0.0323  -0.0148   6.00    1.5
2024/04/02 12:19:07.000   28.288213277  -16.539957947  2349.5809   2   6   0.0084   0.0281   0.0549   0.0113  -0.0323  -0.0148   7.00    1.8
2024/04/02 12:19:08.000   28.288213277  -16.539957947  2349.5808   2   6   0.0084   0.0281   0.0549   0.0113  -0.0323  -0.0148   8.00    1.6
2024/04/02 12:19:09.000   28.288213277  -16.539957947  2349.5808   2   6   0.0084   0.0281   0.0548   0.0113  -0.0323  -0.0148   9.00    1.8
2024/04/02 12:19:10.000   28.288213278  -16.539957946  2349.5807   2   6   0.0084   0.0281   0.0548   0.0113  -0.0323  -0.0148  10.00    2.0
2024/04/02 12:19:11.000   28.288213278  -16.539957946  2349.5806   2   6   0.0084   0.0281   0.0548   0.0113  -0.0323  -0.0148  11.00    1.8
2024/04/02 12:19:12.000   28.288213278  -16.539957946  2349.5806   2   6   0.0084   0.0281   0.0548   0.0113  -0.0323  -0.0148  12.00    1.7
2024/04/02 12:19:13.000   28.288213278  -16.539957946  2349.5806   2   6   0.0084   0.0281   0.0548   0.0113  -0.0323  -0.0148  13.00    1.8
2024/04/02 12:19:14.000   28.288213278  -16.539957946  2349.5806   2   6   0.0084   0.0281   0.0548   0.0113  -0.0323  -0.0148  14.00    2.1
2024/04/02 12:19:15.000   28.288213278  -16.539957946  2349.5806   2   6   0.0084   0.0280   0.0548   0.0113  -0.0323  -0.0148 -15.00    1.8
2024/04/02 12:19:16.000   28.288213278  -16.539957946  2349.5805   2   6   0.0084   0.0280   0.0548   0.0113  -0.0323  -0.0148 -14.00    1.3
2024/04/02 12:19:17.000   28.288213278  -16.539957946  2349.5805   2   6   0.0084   0.0280   0.0548   0.0113  -0.0323  -0.0148 -13.00    1.8
2024/04/02 12:19:18.000   28.288213278  -16.539957946  2349.5804   2   6   0.0084   0.0280   0.0548   0.0113  -0.0322  -0.0148 -12.00    1.5
2024/04/02 12:19:19.000   28.288213278  -16.539957946  2349.5804   2   6   0.0084   0.0280   0.0548   0.0113  -0.0322  -0.0148 -11.00    1.8
2024/04/02 12:19:20.000   28.288213278  -16.539957946  2349.5803   2   6   0.0084   0.0280   0.0548   0.0113  -0.0322  -0.0148 -10.00    1.6
2024/04/02 12:19:21.000   28.288213278  -16.539957946  2349.5803   2   6   0.0084   0.0280   0.0548   0.0113  -0.0322  -0.0148  -9.00    1.8
2024/04/02 12:19:22.000   28.288213278  -16.539957946  2349.5803   2   6   0.0084   0.0280   0.0548   0.0113  -0.0322  -0.0148  -8.00    1.9
2024/04/02 12:19:23.000   28.288213278  -16.539957946  2349.5802   2   6   0.0084   0.0280   0.0548   0.0113  -0.0322  -0.0148  -7.00    1.8
2024/04/02 12:19:24.000   28.288213278  -16.539957947  2349.5802   2   6   0.0084   0.0280   0.0548   0.0113  -0.0322  -0.0148  -6.00    1.7
2024/04/02 12:19:25.000   28.288213278  -16.539957948  2349.5801   2   6   0.0084   0.0280   0.0548   0.0113  -0.0322  -0.0148  -5.00    1.9
2024/04/02 12:19:26.000   28.288213278  -16.539957947  2349.5800   2   6   0.0084   0.0280   0.0548   0.0113  -0.0322  -0.0148  -4.00    2.3
2024/04/02 12:19:27.000   28.288213278  -16.539957948  2349.5800   2   6   0.0084   0.0280   0.0548   0.0113  -0.0322  -0.0148  -3.00    1.9
2024/04/02 12:19:28.000   28.288213279  -16.539957949  2349.5798   2   6   0.0084   0.0280   0.0548   0.0113  -0.0322  -0.0148  -2.00    1.3
2024/04/02 12:19:29.000   28.288213279  -16.539957951  2349.5799   2   6   0.0084   0.0280   0.0548   0.0113  -0.0322  -0.0148  -1.00    1.9
2024/04/02 12:19:30.000   28.288213280  -16.539957952  2349.5797   2   6   0.0084   0.0280   0.0548   0.0113  -0.0322  -0.0148   0.00    1.5
2024/04/02 12:19:31.000   28.288213281  -16.539957953  2349.5796   2   6   0.0084   0.0280   0.0548   0.0113  -0.0322  -0.0148   1.00    1.5
2024/04/02 12:19:32.000   28.288213281  -16.539957954  2349.5794   2   6   0.0084   0.0280   0.0548   0.0113  -0.0322  -0.0148   2.00    1.5
2024/04/02 12:19:33.000   28.288213281  -16.539957956  2349.5793   2   6   0.0084   0.0280   0.0548   0.0113  -0.0322  -0.0148   3.00    1.6
2024/04/02 12:19:34.000   28.288213282  -16.539957957  2349.5791   2   6   0.0084   0.0280   0.0548   0.0113  -0.0322  -0.0148   4.00    1.9
2024/04/02 12:19:35.000   28.288213282  -16.539957959  2349.5790   2   6   0.0084   0.0280   0.0548   0.0113  -0.0322  -0.0148   5.00    1.7
2024/04/02 12:19:36.000   28.288213282  -16.539957959  2349.5790   2   6   0.0084   0.0280   0.0548   0.0113  -0.0322  -0.0148   6.00    1.7
2024/04/02 12:19:37.000   28.288213282  -16.539957960  2349.5789   2   6   0.0084   0.0280   0.0548   0.0113  -0.0322  -0.0148   7.00    1.7
2024/04/02 12:19:38.000   28.288213282  -16.539957961  2349.5789   2   6   0.0084   0.0280   0.0548   0.0113  -0.0322  -0.0148   8.00    2.1
2024/04/02 12:19:39.000   28.288213282  -16.539957963  2349.5789   2   6   0.0084   0.0280   0.0548   0.0113  -0.0322  -0.0148   9.00    1.7
2024/04/02 12:19:40.000   28.288213282  -16.539957964  2349.5789   2   6   0.0084   0.0280   0.0548   0.0113  -0.0322  -0.0148  10.00    1.2
2024/04/02 12:19:41.000   28.288213281  -16.539957965  2349.5789   2   6   0.0084   0.0280   0.0548   0.0113  -0.0322  -0.0148  11.00    1.7
2024/04/02 12:19:42.000   28.288213281  -16.539957966  2349.5789   2   6   0.0084   0.0280   0.0548   0.0113  -0.0322  -0.0148  12.00    1.5
2024/04/02 12:19:43.000   28.288213281  -16.539957967  2349.5789   2   6   0.0084   0.0280   0.0548   0.0113  -0.0322  -0.0148  13.00    1.7
2024/04/02 12:19:44.000   28.288213281  -16.539957968  2349.5789   2   6   0.0084   0.0280   0.0548   0.0113  -0.0322  -0.0148  14.00    1.7
2024/04/02 12:19:45.000   28.288213281  -16.539957969  2349.5789   2   6   0.0084   0.0280   0.0548   0.0113  -0.0322  -0.0148 -15.00    1.7
2024/04/02 12:19:46.000   28.288213281  -16.539957970  2349.5789   2   6   0.0084   0.0280   0.0548   0.0113  -0.0322  -0.0148 -14.00    1.8
2024/04/02 12:19:47.000   28.288213281  -16.539957971  2349.5789   2   6   0.0084   0.0280   0.0548   0.0113  -0.0322  -0.0148 -13.00    1.7
2024/04/02 12:19:48.000   28.288213280  -16.539957972  2349.5789   2   6   0.0084   0.0280   0.0548   0.0113  -0.0322  -0.0148 -12.00    1.7
2024/04/02 12:19:49.000   28.288213280  -16.539957973  2349.5790   2   6   0.0084   0.0280   0.0548   0.0113  -0.0321  -0.0148 -11.00    1.7
2024/04/02 12:19:50.000   28.288213280  -16.539957975  2349.5790   2   6   0.0084   0.0280   0.0548   0.0113  -0.0321  -0.0148 -10.00    2.2
2024/04/02 12:19:51.000   28.288213279  -16.539957976  2349.5790   2   6   0.0084   0.0280   0.0548   0.0113  -0.0321  -0.0148  -9.00    1.7
2024/04/02 12:19:52.000   28.288213279  -16.539957978  2349.5790   2   6   0.0084   0.0280   0.0548   0.0113  -0.0321  -0.0148  -8.00    1.1
2024/04/02 12:19:53.000   28.288213279  -16.539957979  2349.5790   2   6   0.0084   0.0280   0.0548   0.0112  -0.0321  -0.0148  -7.00    1.7
2024/04/02 12:19:54.000   28.288213279  -16.539957982  2349.5790   2   6   0.0084   0.0280   0.0548   0.0112  -0.0321  -0.0148  -6.00    1.5
2024/04/02 12:19:55.000   28.288213278  -16.539957984  2349.5790   2   6   0.0084   0.0280   0.0548   0.0112  -0.0321  -0.0148  -5.00    1.7
2024/04/02 12:19:56.000   28.288213278  -16.539957986  2349.5790   2   6   0.0084   0.0280   0.0548   0.0112  -0.0321  -0.0148  -4.00    1.8
2024/04/02 12:19:57.000   28.288213277  -16.539957989  2349.5790   2   6   0.0084   0.0280   0.0548   0.0112  -0.0321  -0.0148  -3.00    1.7
2024/04/02 12:19:58.000   28.288213277  -16.539957992  2349.5791   2   6   0.0084   0.0280   0.0548   0.0112  -0.0321  -0.0148  -2.00    1.8
2024/04/02 12:19:59.000   28.288213277  -16.539957993  2349.5792   2   6   0.0084   0.0280   0.0548   0.0112  -0.0321  -0.0148  -1.00    1.7
2024/04/02 12:20:00.000   28.288213277  -16.539957994  2349.5792   2   6   0.0084   0.0280   0.0548   0.0112  -0.0321  -0.0148   0.00    1.6
2024/04/02 12:20:01.000   28.288213277  -16.539957995  2349.5792   2   6   0.0084   0.0280   0.0548   0.0112  -0.0321  -0.0148   1.00    1.5
2024/04/02 12:20:02.000   28.288213277  -16.539957996  2349.5793   2   6   0.0084   0.0280   0.0548   0.0112  -0.0321  -0.0148   2.00    2.0
2024/04/02 12:20:03.000   28.288213278  -16.539957997  2349.5790   2   6   0.0084   0.0280   0.0548   0.0112  -0.0321  -0.0148   3.00    1.5
2024/04/02 12:20:04.000   28.288213278  -16.539957996  2349.5790   2   6   0.0084   0.0280   0.0548   0.0112  -0.0321  -0.0148   4.00    1.1
2024/04/02 12:20:05.000   28.288213279  -16.539957997  2349.5790   2   6   0.0084   0.0280   0.0548   0.0112  -0.0321  -0.0148   5.00    1.5
2024/04/02 12:20:06.000   28.288213279  -16.539957997  2349.5790   2   6   0.0084   0.0280   0.0548   0.0112  -0.0321  -0.0148   6.00    1.5
2024/04/02 12:20:07.000   28.288213279  -16.539957997  2349.5790   2   6   0.0084   0.0280   0.0548   0.0112  -0.0321  -0.0148   7.00    1.5
2024/04/02 12:20:08.000   28.288213279  -16.539957998  2349.5790   2   6   0.0084   0.0280   0.0548   0.0112  -0.0321  -0.0148   8.00    1.7
2024/04/02 12:20:09.000   28.288213280  -16.539957998  2349.5791   2   6   0.0084   0.0280   0.0548   0.0112  -0.0321  -0.0148   9.00    1.5
2024/04/02 12:20:10.000   28.288213280  -16.539957998  2349.5791   2   6   0.0084   0.0280   0.0548   0.0112  -0.0321  -0.0148  10.00    1.8
2024/04/02 12:20:11.000   28.288213280  -16.539957998  2349.5792   2   6   0.0084   0.0280   0.0548   0.0112  -0.0321  -0.0148  11.00    1.5
2024/04/02 12:20:12.000   28.288213280  -16.539957998  2349.5792   2   6   0.0084   0.0280   0.0548   0.0112  -0.0321  -0.0148  12.00    1.5
2024/04/02 12:20:13.000   28.288213280  -16.539957999  2349.5792   2   6   0.0084   0.0280   0.0548   0.0112  -0.0321  -0.0148  13.00    1.5
2024/04/02 12:20:14.000   28.288213280  -16.539957999  2349.5792   2   6   0.0084   0.0280   0.0548   0.0112  -0.0321  -0.0148  14.00    2.1
2024/04/02 12:20:15.000   28.288213280  -16.539957999  2349.5793   2   6   0.0084   0.0279   0.0548   0.0112  -0.0321  -0.0148 -15.00    1.5
2024/04/02 12:20:16.000   28.288213280  -16.539957999  2349.5793   2   6   0.0084   0.0279   0.0548   0.0112  -0.0321  -0.0148 -14.00    1.1
2024/04/02 12:20:17.000   28.288213280  -16.539957999  2349.5793   2   6   0.0084   0.0279   0.0548   0.0112  -0.0321  -0.0148 -13.00    1.5
2024/04/02 12:20:18.000   28.288213281  -16.539958000  2349.5794   2   6   0.0084   0.0279   0.0548   0.0112  -0.0321  -0.0148 -12.00    1.5
2024/04/02 12:20:19.000   28.288213281  -16.539958000  2349.5794   2   6   0.0084   0.0279   0.0548   0.0112  -0.0321  -0.0148 -11.00    1.5
2024/04/02 12:20:20.000   28.288213281  -16.539958001  2349.5795   2   6   0.0084   0.0279   0.0548   0.0112  -0.0320  -0.0148 -10.00    1.8
2024/04/02 12:20:21.000   28.288213281  -16.539958000  2349.5795   2   6   0.0084   0.0279   0.0548   0.0112  -0.0320  -0.0148  -9.00    1.5
2024/04/02 12:20:22.000   28.288213281  -16.539958001  2349.5795   2   6   0.0084   0.0279   0.0548   0.0112  -0.0320  -0.0148  -8.00    1.7
2024/04/02 12:20:23.000   28.288213282  -16.539958001  2349.5795   2   6   0.0084   0.0279   0.0548   0.0112  -0.0320  -0.0148  -7.00    1.6
2024/04/02 12:20:24.000   28.288213282  -16.539958000  2349.5795   2   6   0.0084   0.0279   0.0547   0.0112  -0.0320  -0.0148  -6.00    1.5
2024/04/02 12:20:25.000   28.288213282  -16.539958001  2349.5795   2   6   0.0084   0.0279   0.0547   0.0112  -0.0320  -0.0147  -5.00    1.6
2024/04/02 12:20:26.000   28.288213282  -16.539958002  2349.5795   2   6   0.0084   0.0279   0.0547   0.0112  -0.0320  -0.0147  -4.00    2.1
2024/04/02 12:20:27.000   28.288213283  -16.539958003  2349.5795   2   6   0.0084   0.0279   0.0547   0.0112  -0.0320  -0.0147  -3.00    1.6
2024/04/02 12:20:28.000   28.288213283  -16.539958003  2349.5794   2   6   0.0084   0.0279   0.0547   0.0112  -0.0320  -0.0147  -2.00    1.1
2024/04/02 12:20:29.000   28.288213283  -16.539958005  2349.5794   2   6   0.0084   0.0279   0.0547   0.0112  -0.0320  -0.0147  -1.00    1.6
2024/04/02 12:20:30.000   28.288213283  -16.539958005  2349.5793   2   6   0.0084   0.0279   0.0547   0.0112  -0.0320  -0.0147   0.00    1.4
2024/04/02 12:20:31.000   28.288213284  -16.539958007  2349.5791   2   6   0.0084   0.0279   0.0547   0.0112  -0.0320  -0.0147   1.00    1.4
2024/04/02 12:20:32.000   28.288213284  -16.539958008  2349.5790   2   6   0.0084   0.0279   0.0547   0.0112  -0.0320  -0.0147   2.00    1.5
2024/04/02 12:20:33.000   28.288213285  -16.539958009  2349.5790   2   6   0.0084   0.0279   0.0547   0.0112  -0.0320  -0.0147   3.00    1.5
2024/04/02 12:20:34.000   28.288213285  -16.539958011  2349.5790   2   6   0.0084   0.0279   0.0547   0.0112  -0.0320  -0.0147   4.00    1.7
2024/04/02 12:20:35.000   28.288213285  -16.539958013  2349.5789   2   6   0.0084   0.0279   0.0547   0.0112  -0.0320  -0.0147   5.00    1.5
2024/04/02 12:20:36.000   28.288213285  -16.539958014  2349.5789   2   6   0.0084   0.0279   0.0547   0.0112  -0.0320  -0.0147   6.00    1.5
2024/04/02 12:20:37.000   28.288213285  -16.539958016  2349.5789   2   6   0.0084   0.0279   0.0547   0.0112  -0.0320  -0.0147   7.00    1.5
2024/04/02 12:20:38.000   28.288213285  -16.539958017  2349.5790   2   6   0.0084   0.0279   0.0547   0.0112  -0.0320  -0.0147   8.00    2.0
2024/04/02 12:20:39.000   28.288213285  -16.539958019  2349.5790   2   6   0.0084   0.0279   0.0547   0.0112  -0.0320  -0.0147   9.00    1.5
2024/04/02 12:20:40.000   28.288213285  -16.539958020  2349.5790   2   6   0.0084   0.0279   0.0547   0.0112  -0.0320  -0.0147  10.00    1.1
2024/04/02 12:20:41.000   28.288213285  -16.539958021  2349.5791   2   6   0.0084   0.0279   0.0547   0.0112  -0.0320  -0.0147  11.00    1.5
2024/04/02 12:20:42.000   28.288213285  -16.539958022  2349.5791   2   6   0.0084   0.0279   0.0547   0.0112  -0.0320  -0.0147  12.00    1.5
2024/04/02 12:20:43.000   28.288213285  -16.539958023  2349.5792   2   6   0.0084   0.0279   0.0547   0.0112  -0.0320  -0.0147  13.00    1.5
2024/04/02 12:20:44.000   28.288213285  -16.539958024  2349.5792   2   6   0.0084   0.0279   0.0547   0.0112  -0.0320  -0.0147  14.00    1.7
2024/04/02 12:20:45.000   28.288213285  -16.539958025  2349.5793   2   6   0.0084   0.0279   0.0547   0.0112  -0.0320  -0.0147 -15.00    1.5
2024/04/02 12:20:46.000   28.288213285  -16.539958026  2349.5793   2   6   0.0084   0.0279   0.0547   0.0112  -0.0320  -0.0147 -14.00    1.7
2024/04/02 12:20:47.000   28.288213285  -16.539958026  2349.5794   2   6   0.0084   0.0279   0.0547   0.0112  -0.0320  -0.0147 -13.00    1.5
2024/04/02 12:20:48.000   28.288213285  -16.539958027  2349.5794   2   6   0.0084   0.0279   0.0547   0.0112  -0.0320  -0.0147 -12.00    1.5
2024/04/02 12:20:49.000   28.288213285  -16.539958028  2349.5795   2   6   0.0084   0.0279   0.0547   0.0112  -0.0320  -0.0147 -11.00    1.5
2024/04/02 12:20:50.000   28.288213285  -16.539958029  2349.5795   2   6   0.0084   0.0279   0.0547   0.0112  -0.0320  -0.0147 -10.00    2.0
2024/04/02 12:20:51.000   28.288213285  -16.539958029  2349.5796   2   6   0.0084   0.0279   0.0547   0.0112  -0.0320  -0.0147  -9.00    1.5
2024/04/02 12:20:52.000   28.288213286  -16.539958030  2349.5796   2   6   0.0084   0.0279   0.0547   0.0112  -0.0319  -0.0147  -8.00    1.1
2024/04/02 12:20:53.000   28.288213286  -16.539958031  2349.5798   2   6   0.0084   0.0279   0.0547   0.0112  -0.0319  -0.0147  -7.00    1.5
2024/04/02 12:20:54.000   28.288213286  -16.539958031  2349.5799   2   6   0.0084   0.0279   0.0547   0.0112  -0.0319  -0.0147  -6.00    1.4
2024/04/02 12:20:55.000   28.288213286  -16.539958032  2349.5800   2   6   0.0084   0.0279   0.0547   0.0112  -0.0319  -0.0147  -5.00    1.5
2024/04/02 12:20:56.000   28.288213286  -16.539958032  2349.5801   2   6   0.0084   0.0279   0.0547   0.0112  -0.0319  -0.0147  -4.00    1.7
2024/04/02 12:20:57.000   28.288213287  -16.539958033  2349.5802   2   6   0.0084   0.0279   0.0547   0.0112  -0.0319  -0.0147  -3.00    1.5
2024/04/02 12:20:58.000   28.288213287  -16.539958034  2349.5801   2   6   0.0084   0.0279   0.0547   0.0112  -0.0319  -0.0147  -2.00    1.7
2024/04/02 12:20:59.000   28.288213288  -16.539958035  2349.5801   2   6   0.0084   0.0279   0.0547   0.0112  -0.0319  -0.0147  -1.00    1.5
2024/04/02 12:21:00.000   28.288213289  -16.539958035  2349.5800   2   6   0.0084   0.0279   0.0547   0.0112  -0.0319  -0.0147   0.00    1.5
2024/04/02 12:21:01.000   28.288213289  -16.539958036  2349.5797   2   6   0.0084   0.0279   0.0547   0.0112  -0.0319  -0.0147   1.00    1.4
2024/04/02 12:21:02.000   28.288213290  -16.539958038  2349.5795   2   6   0.0084   0.0279   0.0547   0.0112  -0.0319  -0.0147   2.00    1.8
2024/04/02 12:21:03.000   28.288213290  -16.539958038  2349.5793   2   6   0.0084   0.0279   0.0547   0.0112  -0.0319  -0.0147   3.00    1.4
2024/04/02 12:21:04.000   28.288213290  -16.539958039  2349.5790   2   6   0.0085   0.0279   0.0547   0.0112  -0.0319  -0.0147   4.00    1.1
2024/04/02 12:21:05.000   28.288213290  -16.539958041  2349.5787   2   6   0.0085   0.0279   0.0547   0.0112  -0.0319  -0.0147   5.00    1.4
2024/04/02 12:21:06.000   28.288213290  -16.539958041  2349.5785   2   6   0.0085   0.0279   0.0547   0.0112  -0.0319  -0.0147   6.00    1.4
2024/04/02 12:21:07.000   28.288213290  -16.539958042  2349.5784   2   6   0.0085   0.0279   0.0547   0.0112  -0.0319  -0.0147   7.00    1.4
2024/04/02 12:21:08.000   28.288213290  -16.539958042  2349.5783   2   6   0.0085   0.0279   0.0547   0.0112  -0.0319  -0.0147   8.00    1.6
2024/04/02 12:21:09.000   28.288213291  -16.539958042  2349.5783   2   6   0.0085   0.0279   0.0547   0.0112  -0.0319  -0.0147   9.00    1.4
2024/04/02 12:21:10.000   28.288213291  -16.539958042  2349.5782   2   6   0.0085   0.0279   0.0547   0.0112  -0.0319  -0.0147  10.00    1.6
2024/04/02 12:21:11.000   28.288213290  -16.539958042  2349.5782   2   6   0.0085   0.0279   0.0547   0.0112  -0.0319  -0.0147  11.00    1.4
2024/04/02 12:21:12.000   28.288213290  -16.539958042  2349.5781   2   6   0.0085   0.0278   0.0547   0.0112  -0.0319  -0.0147  12.00    1.5
2024/04/02 12:21:13.000   28.288213291  -16.539958042  2349.5780   2   6   0.0085   0.0278   0.0547   0.0112  -0.0319  -0.0147  13.00    1.4
2024/04/02 12:21:14.000   28.288213291  -16.539958042  2349.5780   2   6   0.0085   0.0278   0.0547   0.0112  -0.0319  -0.0147  14.00    1.9
2024/04/02 12:21:15.000   28.288213291  -16.539958042  2349.5780   2   6   0.0085   0.0278   0.0547   0.0112  -0.0319  -0.0147 -15.00    1.4
2024/04/02 12:21:16.000   28.288213291  -16.539958042  2349.5780   2   6   0.0085   0.0278   0.0547   0.0112  -0.0319  -0.0147 -14.00    1.1
2024/04/02 12:21:17.000   28.288213291  -16.539958042  2349.5779   2   6   0.0085   0.0278   0.0547   0.0112  -0.0319  -0.0147 -13.00    1.4
2024/04/02 12:21:18.000   28.288213291  -16.539958042  2349.5779   2   6   0.0085   0.0278   0.0547   0.0112  -0.0319  -0.0147 -12.00    1.4
2024/04/02 12:21:19.000   28.288213291  -16.539958042  2349.5778   2   6   0.0085   0.0278   0.0547   0.0112  -0.0319  -0.0147 -11.00    1.4
2024/04/02 12:21:20.000   28.288213291  -16.539958042  2349.5778   2   6   0.0085   0.0278   0.0547   0.0111  -0.0319  -0.0147 -10.00    1.6
2024/04/02 12:21:21.000   28.288213292  -16.539958041  2349.5778   2   6   0.0085   0.0278   0.0547   0.0111  -0.0319  -0.0147  -9.00    1.4
