% program   : RTKPOST-EX 2.5.0
% inp file  : C:\Users\SallyHenry\Desktop\Sally Internship\GNSS gravi\DATA\Survey Rover Obs\LM003.24o
% inp file  : C:\Users\SallyHenry\Desktop\Sally Internship\GNSS gravi\DATA\BaseStations\IZAN\IZAN00ESP_R_20240930000_01D_30S_MO.rnx
% inp file  : C:\Users\SallyHenry\Desktop\Sally Internship\GNSS gravi\DATA\BaseStations\IZAN\IZAN00ESP_R_20240930000_01D_MN.rnx
% inp file  : C:\Users\SallyHenry\Desktop\Sally Internship\GNSS gravi\DATA\aux_files\Survey\IGS0OPSFIN_20240930000_01D_15M_ORB.SP3
% inp file  : C:\Users\SallyHenry\Desktop\Sally Internship\GNSS gravi\DATA\aux_files\Survey\IGS0OPSFIN_20240930000_01D_30S_CLK.CLK
% obs start : 2024/04/02 12:55:48.0 GPST (week2308 219348.0s)
% obs end   : 2024/04/02 13:36:47.0 GPST (week2308 221807.0s)
% pos mode  : Static
% freqs     : L1+L2/E5b
% solution  : Combined-No Phase Reset
% elev mask : 15.0 deg
% dynamics  : on
% tidecorr  : solid
% ionos opt : Estimate TEC
% tropo opt : Estimate ZTD+Grad
% ephemeris : Precise
% navi sys  : GPS GLONASS Galileo QZSS BDS
% amb res   : Fix and Hold
% amb glo   : Fix and Hold
% amb bds   : on
% val thres : 3.0
% antenna1  :                       ( 0.0000  0.0000  1.8000)
% antenna2  :                       ( 0.0000  0.0000  0.0000)
% ref pos   :  28.308069410  -16.499677180  2417.4044
%
% (lat/lon/height=WGS84/ellipsoidal,Q=1:fix,2:float,3:sbas,4:dgps,5:single,6:ppp,ns=# of satellites)
%  GPST                  latitude(deg) longitude(deg)  height(m)   Q  ns   sdn(m)   sde(m)   sdu(m)  sdne(m)  sdeu(m)  sdun(m) age(s)  ratio
2024/04/02 12:55:48.000   28.289387832  -16.542121181  2336.9696   1   8   0.0017   0.0009   0.0084   0.0004  -0.0009   0.0019 -12.00   33.6
2024/04/02 12:55:50.000   28.289387832  -16.542121181  2336.9696   1   8   0.0017   0.0009   0.0084   0.0004  -0.0009   0.0019 -10.00   32.8
2024/04/02 12:55:51.000   28.289387833  -16.542121181  2336.9696   1   8   0.0017   0.0009   0.0084   0.0004  -0.0009   0.0019  -9.00   31.8
2024/04/02 12:55:52.000   28.289387833  -16.542121181  2336.9696   1   8   0.0017   0.0009   0.0084   0.0004  -0.0009   0.0019  -8.00   30.3
2024/04/02 12:55:53.000   28.289387833  -16.542121181  2336.9697   1   8   0.0017   0.0009   0.0084   0.0004  -0.0009   0.0019  -7.00   28.8
2024/04/02 12:55:54.000   28.289387833  -16.542121181  2336.9697   1   8   0.0017   0.0009   0.0084   0.0004  -0.0009   0.0020  -6.00   26.9
2024/04/02 12:55:55.000   28.289387833  -16.542121181  2336.9698   1   8   0.0017   0.0009   0.0084   0.0004  -0.0009   0.0020  -5.00   24.8
2024/04/02 12:55:56.000   28.289387833  -16.542121181  2336.9698   1   8   0.0017   0.0009   0.0084   0.0004  -0.0009   0.0020  -4.00   21.5
2024/04/02 12:55:57.000   28.289387834  -16.542121181  2336.9698   1   8   0.0017   0.0009   0.0084   0.0004  -0.0009   0.0020  -3.00   17.5
2024/04/02 12:55:58.000   28.289387834  -16.542121181  2336.9698   1   8   0.0017   0.0009   0.0084   0.0004  -0.0009   0.0020  -2.00   12.8
2024/04/02 12:55:59.000   28.289387835  -16.542121180  2336.9699   1   8   0.0018   0.0009   0.0084   0.0004  -0.0009   0.0020  -1.00    7.3
2024/04/02 12:56:00.000   28.289387828  -16.542121182  2336.9685   1   9   0.0017   0.0009   0.0080   0.0004  -0.0011   0.0019   0.00   42.8
2024/04/02 12:56:01.000   28.289387829  -16.542121181  2336.9685   1   9   0.0017   0.0009   0.0080   0.0004  -0.0011   0.0020   1.00   43.1
2024/04/02 12:56:02.000   28.289387829  -16.542121181  2336.9686   1   9   0.0017   0.0009   0.0080   0.0004  -0.0011   0.0020   2.00   43.6
2024/04/02 12:56:03.000   28.289387829  -16.542121181  2336.9686   1   9   0.0017   0.0009   0.0080   0.0004  -0.0011   0.0020   3.00   43.9
2024/04/02 12:56:04.000   28.289387830  -16.542121181  2336.9687   1   9   0.0017   0.0009   0.0080   0.0004  -0.0011   0.0020   4.00   43.8
2024/04/02 12:56:05.000   28.289387830  -16.542121181  2336.9687   1   9   0.0017   0.0009   0.0080   0.0004  -0.0011   0.0020   5.00   43.7
2024/04/02 12:56:06.000   28.289387831  -16.542121181  2336.9688   1   9   0.0017   0.0009   0.0080   0.0004  -0.0011   0.0020   6.00   43.8
2024/04/02 12:56:07.000   28.289387831  -16.542121181  2336.9688   1   9   0.0017   0.0009   0.0080   0.0004  -0.0011   0.0020   7.00   43.8
2024/04/02 12:56:08.000   28.289387831  -16.542121181  2336.9688   1   9   0.0017   0.0009   0.0080   0.0004  -0.0011   0.0020   8.00   43.4
2024/04/02 12:56:09.000   28.289387831  -16.542121181  2336.9688   1   9   0.0017   0.0009   0.0080   0.0004  -0.0011   0.0020   9.00   43.1
2024/04/02 12:56:10.000   28.289387831  -16.542121181  2336.9688   1   9   0.0017   0.0009   0.0080   0.0004  -0.0011   0.0020  10.00   42.6
2024/04/02 12:56:11.000   28.289387831  -16.542121181  2336.9688   1   9   0.0017   0.0009   0.0080   0.0004  -0.0011   0.0020  11.00   42.0
2024/04/02 12:56:12.000   28.289387831  -16.542121181  2336.9688   1   9   0.0017   0.0009   0.0080   0.0004  -0.0011   0.0020  12.00   41.3
2024/04/02 12:56:13.000   28.289387831  -16.542121181  2336.9688   1   9   0.0017   0.0009   0.0080   0.0004  -0.0011   0.0020  13.00   40.7
2024/04/02 12:56:14.000   28.289387831  -16.542121181  2336.9688   1   9   0.0017   0.0009   0.0080   0.0004  -0.0011   0.0020  14.00   40.0
2024/04/02 12:56:15.000   28.289387831  -16.542121181  2336.9687   1   9   0.0017   0.0009   0.0080   0.0004  -0.0011   0.0020  15.00   39.3
2024/04/02 12:56:16.000   28.289387831  -16.542121180  2336.9687   1   9   0.0017   0.0009   0.0080   0.0004  -0.0011   0.0020 -14.00   38.5
2024/04/02 12:56:17.000   28.289387831  -16.542121180  2336.9687   1   9   0.0017   0.0009   0.0080   0.0004  -0.0011   0.0020 -13.00   37.7
2024/04/02 12:56:18.000   28.289387831  -16.542121180  2336.9687   1   9   0.0017   0.0009   0.0080   0.0004  -0.0011   0.0020 -12.00   36.9
2024/04/02 12:56:19.000   28.289387831  -16.542121180  2336.9687   1   9   0.0017   0.0009   0.0080   0.0004  -0.0011   0.0020 -11.00   36.2
2024/04/02 12:56:20.000   28.289387832  -16.542121180  2336.9687   1   9   0.0017   0.0009   0.0080   0.0004  -0.0011   0.0021 -10.00   35.4
2024/04/02 12:56:21.000   28.289387832  -16.542121180  2336.9688   1   9   0.0017   0.0009   0.0080   0.0004  -0.0011   0.0021  -9.00   34.6
2024/04/02 12:56:22.000   28.289387832  -16.542121180  2336.9688   1   9   0.0017   0.0009   0.0080   0.0004  -0.0011   0.0021  -8.00   33.7
2024/04/02 12:56:23.000   28.289387832  -16.542121180  2336.9689   1   9   0.0017   0.0009   0.0080   0.0004  -0.0011   0.0021  -7.00   32.6
2024/04/02 12:56:24.000   28.289387832  -16.542121180  2336.9689   1   9   0.0017   0.0009   0.0081   0.0004  -0.0011   0.0021  -6.00   30.6
2024/04/02 12:56:25.000   28.289387832  -16.542121180  2336.9690   1   9   0.0017   0.0009   0.0081   0.0004  -0.0011   0.0021  -5.00   28.2
2024/04/02 12:56:26.000   28.289387833  -16.542121180  2336.9691   1   9   0.0017   0.0009   0.0081   0.0004  -0.0011   0.0021  -4.00   24.7
2024/04/02 12:56:27.000   28.289387833  -16.542121180  2336.9693   1   9   0.0017   0.0009   0.0081   0.0004  -0.0011   0.0021  -3.00   20.0
2024/04/02 12:56:28.000   28.289387833  -16.542121180  2336.9694   1   9   0.0017   0.0009   0.0081   0.0004  -0.0011   0.0021  -2.00   14.5
2024/04/02 12:56:29.000   28.289387834  -16.542121180  2336.9695   1   9   0.0017   0.0009   0.0081   0.0004  -0.0011   0.0021  -1.00    8.1
2024/04/02 12:56:30.000   28.289387811  -16.542121181  2336.9649   1   9   0.0014   0.0009   0.0078   0.0004  -0.0011   0.0015   0.00   47.3
2024/04/02 12:56:31.000   28.289387812  -16.542121181  2336.9649   1   9   0.0014   0.0009   0.0078   0.0004  -0.0011   0.0016   1.00   46.8
2024/04/02 12:56:32.000   28.289387812  -16.542121181  2336.9650   1   9   0.0014   0.0009   0.0079   0.0004  -0.0011   0.0016   2.00   46.2
2024/04/02 12:56:33.000   28.289387812  -16.542121181  2336.9651   1   9   0.0014   0.0009   0.0079   0.0004  -0.0011   0.0016   3.00   45.6
2024/04/02 12:56:34.000   28.289387812  -16.542121181  2336.9651   1   9   0.0014   0.0009   0.0079   0.0004  -0.0011   0.0016   4.00   45.2
2024/04/02 12:56:35.000   28.289387812  -16.542121181  2336.9652   1   9   0.0014   0.0009   0.0079   0.0004  -0.0011   0.0016   5.00   44.7
2024/04/02 12:56:36.000   28.289387813  -16.542121181  2336.9652   1   9   0.0014   0.0009   0.0079   0.0004  -0.0011   0.0016   6.00   44.0
2024/04/02 12:56:37.000   28.289387813  -16.542121181  2336.9652   1   9   0.0014   0.0009   0.0079   0.0004  -0.0011   0.0016   7.00   43.3
2024/04/02 12:56:38.000   28.289387813  -16.542121181  2336.9652   1   9   0.0014   0.0009   0.0079   0.0004  -0.0011   0.0016   8.00   42.6
2024/04/02 12:56:39.000   28.289387813  -16.542121181  2336.9652   1   9   0.0014   0.0009   0.0079   0.0004  -0.0011   0.0016   9.00   41.9
2024/04/02 12:56:40.000   28.289387813  -16.542121181  2336.9652   1   9   0.0014   0.0009   0.0079   0.0004  -0.0011   0.0016  10.00   41.2
2024/04/02 12:56:41.000   28.289387813  -16.542121181  2336.9653   1   9   0.0014   0.0009   0.0079   0.0004  -0.0011   0.0016  11.00   40.4
2024/04/02 12:56:42.000   28.289387813  -16.542121181  2336.9653   1   9   0.0014   0.0009   0.0079   0.0004  -0.0011   0.0016  12.00   39.6
2024/04/02 12:56:43.000   28.289387813  -16.542121181  2336.9654   1   9   0.0014   0.0009   0.0079   0.0004  -0.0011   0.0016  13.00   38.9
2024/04/02 12:56:44.000   28.289387813  -16.542121181  2336.9654   1   9   0.0014   0.0009   0.0079   0.0004  -0.0011   0.0016  14.00   38.2
2024/04/02 12:56:45.000   28.289387813  -16.542121181  2336.9654   1   9   0.0014   0.0009   0.0079   0.0004  -0.0011   0.0016  15.00   37.5
2024/04/02 12:56:46.000   28.289387813  -16.542121181  2336.9654   1   9   0.0014   0.0009   0.0079   0.0004  -0.0011   0.0016 -14.00   36.7
2024/04/02 12:56:47.000   28.289387814  -16.542121181  2336.9655   1   9   0.0014   0.0009   0.0079   0.0004  -0.0011   0.0016 -13.00   36.0
2024/04/02 12:56:48.000   28.289387814  -16.542121181  2336.9655   1   9   0.0014   0.0009   0.0079   0.0004  -0.0011   0.0016 -12.00   35.2
2024/04/02 12:56:49.000   28.289387814  -16.542121181  2336.9655   1   9   0.0014   0.0009   0.0079   0.0004  -0.0011   0.0016 -11.00   34.4
2024/04/02 12:56:50.000   28.289387814  -16.542121181  2336.9656   1   9   0.0014   0.0009   0.0079   0.0004  -0.0011   0.0016 -10.00   33.6
2024/04/02 12:56:51.000   28.289387814  -16.542121181  2336.9656   1   9   0.0014   0.0009   0.0079   0.0004  -0.0011   0.0016  -9.00   32.8
2024/04/02 12:56:52.000   28.289387814  -16.542121181  2336.9657   1   9   0.0014   0.0009   0.0079   0.0004  -0.0011   0.0016  -8.00   31.8
2024/04/02 12:56:53.000   28.289387814  -16.542121181  2336.9657   1   9   0.0014   0.0009   0.0079   0.0004  -0.0011   0.0016  -7.00   30.8
2024/04/02 12:56:54.000   28.289387814  -16.542121181  2336.9657   1   9   0.0014   0.0009   0.0079   0.0004  -0.0011   0.0016  -6.00   28.9
2024/04/02 12:56:55.000   28.289387815  -16.542121181  2336.9658   1   9   0.0014   0.0009   0.0079   0.0004  -0.0011   0.0016  -5.00   26.3
2024/04/02 12:56:56.000   28.289387815  -16.542121181  2336.9658   1   9   0.0014   0.0009   0.0079   0.0004  -0.0011   0.0016  -4.00   22.8
2024/04/02 12:56:57.000   28.289387815  -16.542121181  2336.9658   1   9   0.0015   0.0009   0.0079   0.0004  -0.0011   0.0016  -3.00   18.2
2024/04/02 12:56:58.000   28.289387815  -16.542121181  2336.9658   1   9   0.0015   0.0009   0.0079   0.0004  -0.0011   0.0016  -2.00   13.2
2024/04/02 12:56:59.000   28.289387816  -16.542121180  2336.9659   1   9   0.0015   0.0009   0.0079   0.0004  -0.0011   0.0017  -1.00    7.4
2024/04/02 12:57:00.000   28.289387814  -16.542121181  2336.9658   1   9   0.0014   0.0009   0.0079   0.0004  -0.0011   0.0016   0.00   49.7
2024/04/02 12:57:01.000   28.289387815  -16.542121181  2336.9659   1   9   0.0014   0.0009   0.0079   0.0004  -0.0011   0.0016   1.00   48.9
2024/04/02 12:57:02.000   28.289387815  -16.542121181  2336.9659   1   9   0.0014   0.0009   0.0080   0.0004  -0.0011   0.0016   2.00   48.0
2024/04/02 12:57:03.000   28.289387815  -16.542121181  2336.9660   1   9   0.0014   0.0009   0.0080   0.0004  -0.0011   0.0016   3.00   47.0
2024/04/02 12:57:04.000   28.289387815  -16.542121181  2336.9660   1   9   0.0014   0.0009   0.0080   0.0004  -0.0011   0.0016   4.00   46.3
2024/04/02 12:57:05.000   28.289387815  -16.542121181  2336.9661   1   9   0.0014   0.0009   0.0080   0.0004  -0.0011   0.0016   5.00   45.6
2024/04/02 12:57:06.000   28.289387816  -16.542121181  2336.9661   1   9   0.0014   0.0009   0.0080   0.0004  -0.0011   0.0016   6.00   44.9
2024/04/02 12:57:07.000   28.289387816  -16.542121181  2336.9662   1   9   0.0014   0.0009   0.0080   0.0004  -0.0011   0.0017   7.00   44.1
2024/04/02 12:57:08.000   28.289387816  -16.542121181  2336.9663   1   9   0.0014   0.0009   0.0080   0.0004  -0.0011   0.0017   8.00   43.3
2024/04/02 12:57:09.000   28.289387816  -16.542121181  2336.9664   1   9   0.0014   0.0009   0.0080   0.0004  -0.0011   0.0017   9.00   42.6
2024/04/02 12:57:10.000   28.289387816  -16.542121181  2336.9664   1   9   0.0015   0.0009   0.0080   0.0004  -0.0011   0.0017  10.00   41.8
2024/04/02 12:57:11.000   28.289387816  -16.542121181  2336.9665   1   9   0.0015   0.0009   0.0080   0.0004  -0.0011   0.0017  11.00   41.1
2024/04/02 12:57:12.000   28.289387817  -16.542121181  2336.9665   1   9   0.0015   0.0009   0.0080   0.0004  -0.0011   0.0017  12.00   40.3
2024/04/02 12:57:13.000   28.289387817  -16.542121181  2336.9666   1   9   0.0015   0.0009   0.0080   0.0004  -0.0011   0.0017  13.00   39.6
2024/04/02 12:57:14.000   28.289387817  -16.542121181  2336.9666   1   9   0.0015   0.0009   0.0080   0.0004  -0.0011   0.0017  14.00   38.8
2024/04/02 12:57:15.000   28.289387817  -16.542121181  2336.9666   1   9   0.0015   0.0009   0.0080   0.0004  -0.0011   0.0017  15.00   38.1
2024/04/02 12:57:16.000   28.289387817  -16.542121181  2336.9666   1   9   0.0015   0.0009   0.0080   0.0004  -0.0011   0.0017 -14.00   37.3
2024/04/02 12:57:17.000   28.289387817  -16.542121181  2336.9667   1   9   0.0015   0.0009   0.0080   0.0004  -0.0011   0.0017 -13.00   36.5
2024/04/02 12:57:18.000   28.289387817  -16.542121181  2336.9667   1   9   0.0015   0.0009   0.0080   0.0004  -0.0011   0.0017 -12.00   35.7
2024/04/02 12:57:19.000   28.289387817  -16.542121181  2336.9667   1   9   0.0015   0.0009   0.0080   0.0004  -0.0011   0.0017 -11.00   34.9
2024/04/02 12:57:20.000   28.289387817  -16.542121181  2336.9667   1   9   0.0015   0.0009   0.0080   0.0004  -0.0011   0.0017 -10.00   34.1
2024/04/02 12:57:21.000   28.289387817  -16.542121181  2336.9667   1   9   0.0015   0.0009   0.0080   0.0004  -0.0011   0.0017  -9.00   33.1
2024/04/02 12:57:22.000   28.289387817  -16.542121181  2336.9668   1   9   0.0015   0.0009   0.0080   0.0004  -0.0011   0.0017  -8.00   32.1
2024/04/02 12:57:23.000   28.289387817  -16.542121181  2336.9668   1   9   0.0015   0.0009   0.0080   0.0004  -0.0011   0.0017  -7.00   31.1
2024/04/02 12:57:24.000   28.289387817  -16.542121181  2336.9668   1   9   0.0015   0.0009   0.0080   0.0004  -0.0011   0.0017  -6.00   29.7
2024/04/02 12:57:25.000   28.289387817  -16.542121181  2336.9669   1   9   0.0015   0.0009   0.0080   0.0004  -0.0011   0.0017  -5.00   27.4
2024/04/02 12:57:26.000   28.289387818  -16.542121181  2336.9669   1   9   0.0015   0.0009   0.0080   0.0004  -0.0011   0.0017  -4.00   23.5
2024/04/02 12:57:27.000   28.289387818  -16.542121181  2336.9670   1   9   0.0015   0.0009   0.0080   0.0004  -0.0011   0.0017  -3.00   18.9
2024/04/02 12:57:28.000   28.289387818  -16.542121181  2336.9670   1   9   0.0015   0.0009   0.0080   0.0004  -0.0011   0.0017  -2.00   13.6
2024/04/02 12:57:29.000   28.289387818  -16.542121181  2336.9671   1   9   0.0015   0.0009   0.0080   0.0004  -0.0011   0.0017  -1.00    7.5
2024/04/02 12:57:30.000   28.289387821  -16.542121181  2336.9678   1   9   0.0014   0.0009   0.0080   0.0004  -0.0011   0.0017   0.00   52.6
2024/04/02 12:57:31.000   28.289387821  -16.542121181  2336.9679   1   9   0.0014   0.0009   0.0080   0.0004  -0.0011   0.0017   1.00   52.3
2024/04/02 12:57:32.000   28.289387821  -16.542121182  2336.9680   1   9   0.0014   0.0009   0.0080   0.0004  -0.0011   0.0017   2.00   52.1
2024/04/02 12:57:33.000   28.289387821  -16.542121182  2336.9680   1   9   0.0015   0.0009   0.0081   0.0004  -0.0011   0.0017   3.00   51.6
2024/04/02 12:57:34.000   28.289387822  -16.542121182  2336.9681   1   9   0.0015   0.0009   0.0081   0.0004  -0.0011   0.0017   4.00   51.1
2024/04/02 12:57:35.000   28.289387822  -16.542121182  2336.9681   1   9   0.0015   0.0009   0.0081   0.0004  -0.0011   0.0017   5.00   50.6
2024/04/02 12:57:36.000   28.289387822  -16.542121182  2336.9682   1   9   0.0015   0.0009   0.0081   0.0004  -0.0011   0.0017   6.00   49.9
2024/04/02 12:57:37.000   28.289387822  -16.542121182  2336.9682   1   9   0.0015   0.0009   0.0081   0.0004  -0.0011   0.0017   7.00   49.2
2024/04/02 12:57:38.000   28.289387822  -16.542121182  2336.9683   1   9   0.0015   0.0009   0.0081   0.0004  -0.0011   0.0017   8.00   48.5
2024/04/02 12:57:39.000   28.289387822  -16.542121182  2336.9683   1   9   0.0015   0.0009   0.0081   0.0004  -0.0011   0.0017   9.00   47.7
2024/04/02 12:57:40.000   28.289387822  -16.542121182  2336.9683   1   9   0.0015   0.0009   0.0081   0.0004  -0.0011   0.0017  10.00   47.0
2024/04/02 12:57:41.000   28.289387822  -16.542121182  2336.9683   1   9   0.0015   0.0009   0.0081   0.0004  -0.0011   0.0017  11.00   46.3
2024/04/02 12:57:42.000   28.289387822  -16.542121182  2336.9683   1   9   0.0015   0.0009   0.0081   0.0004  -0.0011   0.0017  12.00   45.4
2024/04/02 12:57:43.000   28.289387822  -16.542121182  2336.9683   1   9   0.0015   0.0009   0.0081   0.0004  -0.0011   0.0017  13.00   44.7
2024/04/02 12:57:44.000   28.289387822  -16.542121182  2336.9683   1   9   0.0015   0.0009   0.0081   0.0004  -0.0011   0.0017  14.00   43.8
2024/04/02 12:57:45.000   28.289387822  -16.542121182  2336.9683   1   9   0.0015   0.0009   0.0081   0.0004  -0.0011   0.0017  15.00   43.0
2024/04/02 12:57:46.000   28.289387822  -16.542121182  2336.9683   1   9   0.0015   0.0009   0.0081   0.0004  -0.0011   0.0017 -14.00   42.1
2024/04/02 12:57:47.000   28.289387822  -16.542121182  2336.9683   1   9   0.0015   0.0009   0.0081   0.0004  -0.0011   0.0017 -13.00   41.2
2024/04/02 12:57:48.000   28.289387822  -16.542121182  2336.9683   1   9   0.0015   0.0009   0.0081   0.0004  -0.0011   0.0017 -12.00   40.3
2024/04/02 12:57:49.000   28.289387822  -16.542121182  2336.9682   1   9   0.0015   0.0009   0.0081   0.0004  -0.0011   0.0017 -11.00   39.4
2024/04/02 12:57:50.000   28.289387822  -16.542121182  2336.9683   1   9   0.0015   0.0009   0.0081   0.0004  -0.0011   0.0017 -10.00   38.4
2024/04/02 12:57:51.000   28.289387822  -16.542121182  2336.9683   1   9   0.0015   0.0009   0.0081   0.0004  -0.0011   0.0018  -9.00   37.4
2024/04/02 12:57:52.000   28.289387822  -16.542121182  2336.9683   1   9   0.0015   0.0009   0.0081   0.0004  -0.0011   0.0018  -8.00   36.3
2024/04/02 12:57:53.000   28.289387822  -16.542121182  2336.9683   1   9   0.0015   0.0009   0.0081   0.0004  -0.0011   0.0018  -7.00   35.3
2024/04/02 12:57:54.000   28.289387822  -16.542121182  2336.9683   1   9   0.0015   0.0009   0.0081   0.0004  -0.0011   0.0018  -6.00   34.2
2024/04/02 12:57:55.000   28.289387822  -16.542121182  2336.9683   1   9   0.0015   0.0009   0.0081   0.0004  -0.0011   0.0018  -5.00   31.8
2024/04/02 12:57:56.000   28.289387822  -16.542121182  2336.9684   1   9   0.0015   0.0009   0.0081   0.0004  -0.0011   0.0018  -4.00   27.9
2024/04/02 12:57:57.000   28.289387822  -16.542121182  2336.9684   1   9   0.0015   0.0009   0.0081   0.0004  -0.0011   0.0018  -3.00   22.6
2024/04/02 12:57:58.000   28.289387822  -16.542121183  2336.9684   1   9   0.0015   0.0009   0.0081   0.0004  -0.0011   0.0018  -2.00   16.3
2024/04/02 12:57:59.000   28.289387822  -16.542121183  2336.9685   1   9   0.0015   0.0009   0.0081   0.0004  -0.0011   0.0018  -1.00    9.2
2024/04/02 12:58:00.000   28.289387822  -16.542121183  2336.9685   1   9   0.0015   0.0009   0.0081   0.0004  -0.0011   0.0017   0.00   66.2
2024/04/02 12:58:01.000   28.289387822  -16.542121183  2336.9685   1   9   0.0015   0.0009   0.0081   0.0004  -0.0011   0.0017   1.00   66.0
2024/04/02 12:58:02.000   28.289387822  -16.542121183  2336.9685   1   9   0.0015   0.0009   0.0081   0.0004  -0.0011   0.0018   2.00   65.7
2024/04/02 12:58:03.000   28.289387823  -16.542121183  2336.9685   1   9   0.0015   0.0009   0.0082   0.0004  -0.0011   0.0018   3.00   65.2
2024/04/02 12:58:04.000   28.289387823  -16.542121184  2336.9686   1   9   0.0015   0.0009   0.0082   0.0004  -0.0011   0.0018   4.00   64.7
2024/04/02 12:58:05.000   28.289387823  -16.542121184  2336.9686   1   9   0.0015   0.0009   0.0082   0.0004  -0.0011   0.0018   5.00   64.0
2024/04/02 12:58:06.000   28.289387823  -16.542121184  2336.9687   1   9   0.0015   0.0009   0.0082   0.0004  -0.0011   0.0018   6.00   63.2
2024/04/02 12:58:07.000   28.289387823  -16.542121184  2336.9687   1   9   0.0015   0.0009   0.0082   0.0004  -0.0011   0.0018   7.00   62.3
2024/04/02 12:58:08.000   28.289387823  -16.542121184  2336.9687   1   9   0.0015   0.0009   0.0082   0.0004  -0.0011   0.0018   8.00   61.2
2024/04/02 12:58:09.000   28.289387823  -16.542121184  2336.9687   1   9   0.0015   0.0009   0.0082   0.0004  -0.0011   0.0018   9.00   60.2
2024/04/02 12:58:10.000   28.289387823  -16.542121184  2336.9688   1   9   0.0015   0.0009   0.0082   0.0004  -0.0011   0.0018  10.00   59.0
2024/04/02 12:58:11.000   28.289387823  -16.542121184  2336.9688   1   9   0.0015   0.0009   0.0082   0.0004  -0.0011   0.0018  11.00   58.0
2024/04/02 12:58:12.000   28.289387823  -16.542121184  2336.9688   1   9   0.0015   0.0009   0.0082   0.0004  -0.0011   0.0018  12.00   56.8
2024/04/02 12:58:13.000   28.289387823  -16.542121184  2336.9689   1   9   0.0015   0.0009   0.0082   0.0004  -0.0011   0.0018  13.00   55.7
2024/04/02 12:58:14.000   28.289387823  -16.542121184  2336.9689   1   9   0.0015   0.0009   0.0082   0.0004  -0.0011   0.0018  14.00   54.6
2024/04/02 12:58:15.000   28.289387823  -16.542121184  2336.9689   1   9   0.0015   0.0009   0.0082   0.0004  -0.0011   0.0018  15.00   53.5
2024/04/02 12:58:16.000   28.289387823  -16.542121184  2336.9690   1   9   0.0015   0.0009   0.0082   0.0004  -0.0011   0.0018 -14.00   52.4
2024/04/02 12:58:17.000   28.289387823  -16.542121184  2336.9690   1   9   0.0015   0.0009   0.0082   0.0004  -0.0011   0.0018 -13.00   51.3
2024/04/02 12:58:18.000   28.289387824  -16.542121184  2336.9691   1   9   0.0015   0.0009   0.0082   0.0004  -0.0011   0.0018 -12.00   50.2
2024/04/02 12:58:19.000   28.289387824  -16.542121184  2336.9691   1   9   0.0015   0.0009   0.0082   0.0004  -0.0011   0.0018 -11.00   49.0
2024/04/02 12:58:20.000   28.289387824  -16.542121184  2336.9692   1   9   0.0015   0.0009   0.0082   0.0004  -0.0011   0.0018 -10.00   47.8
2024/04/02 12:58:21.000   28.289387824  -16.542121184  2336.9692   1   9   0.0015   0.0009   0.0082   0.0004  -0.0011   0.0018  -9.00   46.7
2024/04/02 12:58:22.000   28.289387824  -16.542121184  2336.9693   1   9   0.0015   0.0009   0.0082   0.0004  -0.0011   0.0018  -8.00   45.2
2024/04/02 12:58:23.000   28.289387824  -16.542121184  2336.9693   1   9   0.0015   0.0009   0.0082   0.0004  -0.0011   0.0018  -7.00   43.9
2024/04/02 12:58:24.000   28.289387824  -16.542121184  2336.9694   1   9   0.0015   0.0009   0.0082   0.0004  -0.0011   0.0018  -6.00   41.3
2024/04/02 12:58:25.000   28.289387824  -16.542121184  2336.9695   1   9   0.0015   0.0009   0.0082   0.0004  -0.0011   0.0018  -5.00   37.9
2024/04/02 12:58:26.000   28.289387825  -16.542121185  2336.9695   1   9   0.0015   0.0009   0.0082   0.0004  -0.0011   0.0018  -4.00   33.2
2024/04/02 12:58:27.000   28.289387825  -16.542121185  2336.9696   1   9   0.0015   0.0009   0.0082   0.0004  -0.0011   0.0018  -3.00   26.7
2024/04/02 12:58:28.000   28.289387825  -16.542121185  2336.9697   1   9   0.0015   0.0009   0.0082   0.0004  -0.0011   0.0018  -2.00   19.4
2024/04/02 12:58:29.000   28.289387825  -16.542121185  2336.9697   1   9   0.0015   0.0009   0.0082   0.0004  -0.0011   0.0019  -1.00   10.7
2024/04/02 12:58:30.000   28.289387825  -16.542121184  2336.9696   1   9   0.0015   0.0009   0.0082   0.0004  -0.0011   0.0018   0.00   72.7
2024/04/02 12:58:31.000   28.289387825  -16.542121185  2336.9696   1   9   0.0015   0.0009   0.0082   0.0004  -0.0011   0.0018   1.00   72.6
2024/04/02 12:58:32.000   28.289387826  -16.542121185  2336.9696   1   9   0.0015   0.0009   0.0082   0.0004  -0.0011   0.0018   2.00   72.9
2024/04/02 12:58:33.000   28.289387826  -16.542121185  2336.9697   1   9   0.0015   0.0009   0.0082   0.0004  -0.0011   0.0018   3.00   72.9
2024/04/02 12:58:34.000   28.289387826  -16.542121185  2336.9698   1   9   0.0015   0.0009   0.0083   0.0004  -0.0011   0.0018   4.00   72.7
2024/04/02 12:58:35.001   28.289387826  -16.542121186  2336.9699   1   9   0.0015   0.0009   0.0083   0.0004  -0.0011   0.0018   5.00   72.3
2024/04/02 12:58:36.000   28.289387826  -16.542121186  2336.9700   1   9   0.0015   0.0009   0.0083   0.0004  -0.0011   0.0018   6.00   71.6
2024/04/02 12:58:37.000   28.289387826  -16.542121186  2336.9701   1   9   0.0015   0.0009   0.0083   0.0004  -0.0011   0.0018   7.00   70.9
2024/04/02 12:58:38.000   28.289387826  -16.542121186  2336.9701   1   9   0.0015   0.0009   0.0083   0.0004  -0.0011   0.0018   8.00   70.1
2024/04/02 12:58:39.000   28.289387826  -16.542121186  2336.9702   1   9   0.0015   0.0009   0.0083   0.0004  -0.0011   0.0019   9.00   68.9
2024/04/02 12:58:40.000   28.289387827  -16.542121186  2336.9702   1   9   0.0015   0.0009   0.0083   0.0004  -0.0011   0.0019  10.00   67.6
2024/04/02 12:58:41.000   28.289387827  -16.542121186  2336.9703   1   9   0.0015   0.0009   0.0083   0.0004  -0.0011   0.0019  11.00   66.4
2024/04/02 12:58:42.000   28.289387827  -16.542121186  2336.9703   1   9   0.0015   0.0009   0.0083   0.0004  -0.0011   0.0019  12.00   65.0
2024/04/02 12:58:43.000   28.289387827  -16.542121186  2336.9703   1   9   0.0015   0.0009   0.0083   0.0004  -0.0011   0.0019  13.00   63.6
2024/04/02 12:58:44.000   28.289387827  -16.542121186  2336.9703   1   9   0.0015   0.0009   0.0083   0.0004  -0.0011   0.0019  14.00   62.2
2024/04/02 12:58:45.000   28.289387827  -16.542121186  2336.9703   1   9   0.0015   0.0009   0.0083   0.0004  -0.0011   0.0019  15.00   60.9
2024/04/02 12:58:46.000   28.289387827  -16.542121186  2336.9704   1   9   0.0015   0.0009   0.0083   0.0004  -0.0011   0.0019 -14.00   59.6
2024/04/02 12:58:47.000   28.289387827  -16.542121186  2336.9704   1   9   0.0015   0.0009   0.0083   0.0004  -0.0011   0.0019 -13.00   58.3
2024/04/02 12:58:48.000   28.289387826  -16.542121186  2336.9704   1   9   0.0015   0.0009   0.0083   0.0004  -0.0011   0.0019 -12.00   56.9
2024/04/02 12:58:49.000   28.289387826  -16.542121186  2336.9704   1   9   0.0015   0.0009   0.0083   0.0004  -0.0011   0.0019 -11.00   55.5
2024/04/02 12:58:50.000   28.289387827  -16.542121186  2336.9704   1   9   0.0015   0.0009   0.0083   0.0004  -0.0011   0.0019 -10.00   54.1
2024/04/02 12:58:51.000   28.289387827  -16.542121186  2336.9705   1   9   0.0015   0.0009   0.0083   0.0004  -0.0011   0.0019  -9.00   52.7
2024/04/02 12:58:52.000   28.289387827  -16.542121186  2336.9705   1   9   0.0015   0.0009   0.0083   0.0004  -0.0011   0.0019  -8.00   51.1
2024/04/02 12:58:53.000   28.289387827  -16.542121186  2336.9706   1   9   0.0015   0.0009   0.0083   0.0004  -0.0011   0.0019  -7.00   49.3
2024/04/02 12:58:54.000   28.289387827  -16.542121187  2336.9706   1   9   0.0015   0.0009   0.0083   0.0004  -0.0011   0.0019  -6.00   47.2
2024/04/02 12:58:55.000   28.289387827  -16.542121187  2336.9707   1   9   0.0015   0.0009   0.0083   0.0004  -0.0011   0.0019  -5.00   42.8
2024/04/02 12:58:56.000   28.289387827  -16.542121187  2336.9707   1   9   0.0015   0.0009   0.0083   0.0004  -0.0011   0.0019  -4.00   36.4
2024/04/02 12:58:57.000   28.289387827  -16.542121187  2336.9708   1   9   0.0015   0.0009   0.0083   0.0004  -0.0011   0.0019  -3.00   29.1
2024/04/02 12:58:58.000   28.289387827  -16.542121187  2336.9709   1   9   0.0015   0.0009   0.0083   0.0004  -0.0011   0.0019  -2.00   21.0
2024/04/02 12:58:59.000   28.289387827  -16.542121188  2336.9710   1   9   0.0015   0.0009   0.0083   0.0004  -0.0011   0.0019  -1.00   11.8
2024/04/02 12:59:00.000   28.289387827  -16.542121187  2336.9709   1   9   0.0015   0.0009   0.0083   0.0004  -0.0011   0.0019   0.00   83.5
2024/04/02 12:59:01.000   28.289387827  -16.542121187  2336.9710   1   9   0.0015   0.0009   0.0083   0.0004  -0.0011   0.0019   1.00   83.6
2024/04/02 12:59:02.000   28.289387827  -16.542121188  2336.9710   1   9   0.0015   0.0009   0.0083   0.0004  -0.0011   0.0019   2.00   83.8
2024/04/02 12:59:03.000   28.289387827  -16.542121188  2336.9712   1   9   0.0015   0.0009   0.0083   0.0004  -0.0011   0.0019   3.00   83.9
2024/04/02 12:59:04.000   28.289387827  -16.542121188  2336.9713   1   9   0.0015   0.0009   0.0084   0.0004  -0.0011   0.0019   4.00   83.8
2024/04/02 12:59:05.000   28.289387827  -16.542121188  2336.9714   1   9   0.0015   0.0009   0.0084   0.0004  -0.0011   0.0019   5.00   83.6
2024/04/02 12:59:06.000   28.289387828  -16.542121189  2336.9715   1   9   0.0015   0.0009   0.0084   0.0004  -0.0011   0.0019   6.00   82.9
2024/04/02 12:59:07.000   28.289387828  -16.542121189  2336.9716   1   9   0.0015   0.0009   0.0084   0.0004  -0.0011   0.0019   7.00   82.1
2024/04/02 12:59:08.000   28.289387828  -16.542121189  2336.9716   1   9   0.0015   0.0009   0.0084   0.0004  -0.0011   0.0019   8.00   81.0
2024/04/02 12:59:09.000   28.289387828  -16.542121189  2336.9717   1   9   0.0015   0.0009   0.0084   0.0004  -0.0011   0.0019   9.00   79.7
2024/04/02 12:59:10.000   28.289387828  -16.542121189  2336.9717   1   9   0.0015   0.0009   0.0084   0.0004  -0.0011   0.0019  10.00   78.6
2024/04/02 12:59:11.000   28.289387828  -16.542121189  2336.9718   1   9   0.0015   0.0009   0.0084   0.0004  -0.0011   0.0019  11.00   77.3
2024/04/02 12:59:12.000   28.289387828  -16.542121189  2336.9718   1   9   0.0015   0.0009   0.0084   0.0004  -0.0011   0.0019  12.00   76.0
2024/04/02 12:59:13.000   28.289387828  -16.542121189  2336.9719   1   9   0.0015   0.0009   0.0084   0.0004  -0.0011   0.0019  13.00   74.6
2024/04/02 12:59:14.000   28.289387828  -16.542121189  2336.9719   1   9   0.0015   0.0009   0.0084   0.0004  -0.0011   0.0019  14.00   73.2
2024/04/02 12:59:15.000   28.289387828  -16.542121189  2336.9719   1   9   0.0015   0.0009   0.0084   0.0004  -0.0011   0.0019  15.00   71.8
2024/04/02 12:59:16.000   28.289387828  -16.542121189  2336.9720   1   9   0.0015   0.0009   0.0084   0.0004  -0.0011   0.0019 -14.00   70.4
2024/04/02 12:59:17.000   28.289387828  -16.542121189  2336.9720   1   9   0.0015   0.0009   0.0084   0.0004  -0.0011   0.0019 -13.00   68.9
2024/04/02 12:59:18.000   28.289387828  -16.542121189  2336.9720   1   9   0.0015   0.0009   0.0084   0.0004  -0.0011   0.0019 -12.00   67.4
2024/04/02 12:59:19.000   28.289387828  -16.542121189  2336.9720   1   9   0.0015   0.0009   0.0084   0.0004  -0.0011   0.0019 -11.00   65.8
2024/04/02 12:59:20.000   28.289387828  -16.542121189  2336.9721   1   9   0.0015   0.0009   0.0084   0.0004  -0.0011   0.0019 -10.00   64.4
2024/04/02 12:59:21.000   28.289387826  -16.542121183  2336.9800   1   9   0.0015   0.0009   0.0081   0.0004  -0.0012   0.0019  -9.00    3.4
2024/04/02 12:59:22.000   28.289387826  -16.542121183  2336.9801   1   9   0.0015   0.0009   0.0081   0.0004  -0.0012   0.0019  -8.00    3.4
2024/04/02 12:59:23.000   28.289387826  -16.542121183  2336.9801   1   9   0.0015   0.0009   0.0081   0.0004  -0.0012   0.0019  -7.00    3.4
2024/04/02 12:59:24.000   28.289387826  -16.542121183  2336.9802   1   9   0.0015   0.0009   0.0081   0.0004  -0.0012   0.0019  -6.00    3.4
2024/04/02 12:59:25.000   28.289387826  -16.542121183  2336.9803   1   9   0.0015   0.0009   0.0081   0.0004  -0.0013   0.0019  -5.00    3.4
2024/04/02 12:59:26.000   28.289387826  -16.542121183  2336.9804   1   9   0.0015   0.0009   0.0081   0.0004  -0.0013   0.0019  -4.00    3.4
2024/04/02 12:59:27.000   28.289387826  -16.542121183  2336.9805   1   9   0.0015   0.0009   0.0081   0.0004  -0.0013   0.0019  -3.00    3.3
2024/04/02 12:59:28.000   28.289387826  -16.542121183  2336.9806   1   9   0.0015   0.0009   0.0081   0.0004  -0.0013   0.0019  -2.00    3.3
2024/04/02 12:59:29.000   28.289387826  -16.542121184  2336.9808   1   9   0.0015   0.0009   0.0081   0.0004  -0.0013   0.0019  -1.00    3.3
2024/04/02 12:59:30.000   28.289387828  -16.542121183  2336.9815   1   9   0.0014   0.0009   0.0081   0.0004  -0.0013   0.0018   0.00    3.3
2024/04/02 12:59:31.000   28.289387830  -16.542121190  2336.9731   1   9   0.0015   0.0009   0.0084   0.0004  -0.0011   0.0019   1.00   97.4
2024/04/02 12:59:32.000   28.289387830  -16.542121190  2336.9733   1   9   0.0015   0.0009   0.0084   0.0004  -0.0011   0.0019   2.00   97.7
2024/04/02 12:59:33.000   28.289387830  -16.542121190  2336.9734   1   9   0.0015   0.0009   0.0084   0.0004  -0.0011   0.0019   3.00   97.2
2024/04/02 12:59:34.000   28.289387830  -16.542121191  2336.9735   1   9   0.0015   0.0009   0.0085   0.0004  -0.0011   0.0020   4.00   96.5
2024/04/02 12:59:35.000   28.289387830  -16.542121191  2336.9736   1   9   0.0015   0.0009   0.0085   0.0004  -0.0011   0.0020   5.00   95.6
2024/04/02 12:59:36.000   28.289387830  -16.542121191  2336.9737   1   9   0.0015   0.0009   0.0085   0.0004  -0.0011   0.0020   6.00   94.6
2024/04/02 12:59:37.000   28.289387830  -16.542121191  2336.9738   1   9   0.0015   0.0009   0.0085   0.0004  -0.0011   0.0020   7.00   93.5
2024/04/02 12:59:38.000   28.289387830  -16.542121191  2336.9739   1   9   0.0015   0.0009   0.0085   0.0004  -0.0011   0.0020   8.00   92.3
2024/04/02 12:59:39.000   28.289387830  -16.542121191  2336.9739   1   9   0.0015   0.0009   0.0085   0.0004  -0.0011   0.0020   9.00   91.0
2024/04/02 12:59:40.000   28.289387830  -16.542121191  2336.9740   1   9   0.0015   0.0009   0.0085   0.0004  -0.0011   0.0020  10.00   89.7
2024/04/02 12:59:41.000   28.289387831  -16.542121191  2336.9740   1   9   0.0015   0.0009   0.0085   0.0004  -0.0011   0.0020  11.00   88.3
2024/04/02 12:59:42.000   28.289387831  -16.542121191  2336.9741   1   9   0.0015   0.0009   0.0085   0.0004  -0.0011   0.0020  12.00   86.7
2024/04/02 12:59:43.000   28.289387831  -16.542121191  2336.9741   1   9   0.0015   0.0009   0.0085   0.0004  -0.0011   0.0020  13.00   85.2
2024/04/02 12:59:44.000   28.289387831  -16.542121191  2336.9741   1   9   0.0015   0.0009   0.0085   0.0004  -0.0011   0.0020  14.00   83.6
2024/04/02 12:59:45.000   28.289387831  -16.542121191  2336.9742   1   9   0.0015   0.0009   0.0085   0.0004  -0.0011   0.0020  15.00   81.9
2024/04/02 12:59:46.000   28.289387831  -16.542121191  2336.9742   1   9   0.0015   0.0009   0.0085   0.0004  -0.0011   0.0020 -14.00   80.2
2024/04/02 12:59:47.000   28.289387831  -16.542121191  2336.9742   1   9   0.0015   0.0009   0.0085   0.0004  -0.0011   0.0020 -13.00   78.5
2024/04/02 12:59:48.000   28.289387831  -16.542121191  2336.9742   1   9   0.0015   0.0009   0.0085   0.0004  -0.0011   0.0020 -12.00   76.7
2024/04/02 12:59:49.000   28.289387831  -16.542121191  2336.9743   1   9   0.0015   0.0009   0.0085   0.0004  -0.0011   0.0020 -11.00   74.9
2024/04/02 12:59:50.000   28.289387831  -16.542121192  2336.9743   1   9   0.0015   0.0009   0.0085   0.0004  -0.0011   0.0020 -10.00   73.1
2024/04/02 12:59:51.000   28.289387831  -16.542121192  2336.9743   1   9   0.0015   0.0009   0.0085   0.0004  -0.0011   0.0020  -9.00   71.1
2024/04/02 12:59:52.000   28.289387831  -16.542121192  2336.9743   1   9   0.0015   0.0009   0.0085   0.0004  -0.0011   0.0020  -8.00   69.1
2024/04/02 12:59:53.000   28.289387831  -16.542121192  2336.9743   1   9   0.0015   0.0009   0.0085   0.0004  -0.0011   0.0020  -7.00   66.9
2024/04/02 12:59:54.000   28.289387831  -16.542121192  2336.9744   1   9   0.0015   0.0009   0.0085   0.0004  -0.0011   0.0020  -6.00   64.3
2024/04/02 12:59:55.000   28.289387831  -16.542121192  2336.9744   1   9   0.0015   0.0009   0.0085   0.0004  -0.0011   0.0020  -5.00   59.9
2024/04/02 12:59:56.000   28.289387830  -16.542121192  2336.9744   1   9   0.0015   0.0009   0.0085   0.0004  -0.0011   0.0020  -4.00   51.0
2024/04/02 12:59:57.000   28.289387830  -16.542121192  2336.9745   1   9   0.0015   0.0009   0.0085   0.0004  -0.0011   0.0020  -3.00   40.9
2024/04/02 12:59:58.000   28.289387830  -16.542121192  2336.9745   1   9   0.0015   0.0009   0.0085   0.0004  -0.0011   0.0020  -2.00   29.2
2024/04/02 12:59:59.000   28.289387831  -16.542121193  2336.9746   1   9   0.0015   0.0009   0.0085   0.0004  -0.0011   0.0020  -1.00   15.8
2024/04/02 13:00:00.000   28.289387830  -16.542121193  2336.9743   1   9   0.0015   0.0009   0.0085   0.0004  -0.0011   0.0020   0.00  124.0
2024/04/02 13:00:01.000   28.289387830  -16.542121193  2336.9743   1   9   0.0015   0.0009   0.0085   0.0004  -0.0011   0.0020   1.00  123.5
2024/04/02 13:00:02.000   28.289387829  -16.542121193  2336.9744   1   9   0.0015   0.0009   0.0085   0.0004  -0.0011   0.0020   2.00  122.5
2024/04/02 13:00:03.000   28.289387829  -16.542121193  2336.9744   1   9   0.0015   0.0009   0.0085   0.0004  -0.0011   0.0020   3.00  121.2
2024/04/02 13:00:04.000   28.289387829  -16.542121194  2336.9744   1   9   0.0015   0.0009   0.0086   0.0004  -0.0011   0.0020   4.00  118.9
2024/04/02 13:00:05.000   28.289387829  -16.542121194  2336.9744   1   9   0.0015   0.0009   0.0086   0.0004  -0.0011   0.0020   5.00  116.3
2024/04/02 13:00:06.000   28.289387829  -16.542121194  2336.9744   1   9   0.0015   0.0009   0.0086   0.0004  -0.0011   0.0020   6.00  113.7
2024/04/02 13:00:07.000   28.289387829  -16.542121194  2336.9744   1   9   0.0015   0.0009   0.0086   0.0004  -0.0011   0.0020   7.00  111.0
2024/04/02 13:00:08.000   28.289387829  -16.542121194  2336.9744   1   9   0.0015   0.0009   0.0086   0.0004  -0.0011   0.0020   8.00  108.6
2024/04/02 13:00:09.000   28.289387828  -16.542121194  2336.9745   1   9   0.0015   0.0009   0.0086   0.0004  -0.0011   0.0020   9.00  106.1
2024/04/02 13:00:10.000   28.289387828  -16.542121194  2336.9745   1   9   0.0015   0.0009   0.0086   0.0004  -0.0011   0.0020  10.00  103.8
2024/04/02 13:00:11.000   28.289387829  -16.542121194  2336.9745   1   9   0.0015   0.0009   0.0086   0.0004  -0.0011   0.0020  11.00  101.7
2024/04/02 13:00:12.000   28.289387829  -16.542121194  2336.9746   1   9   0.0015   0.0009   0.0086   0.0004  -0.0011   0.0020  12.00   99.9
2024/04/02 13:00:13.000   28.289387829  -16.542121194  2336.9746   1   9   0.0015   0.0009   0.0086   0.0004  -0.0011   0.0020  13.00   97.9
2024/04/02 13:00:14.000   28.289387829  -16.542121194  2336.9747   1   9   0.0015   0.0009   0.0086   0.0004  -0.0011   0.0020  14.00   95.8
2024/04/02 13:00:15.000   28.289387829  -16.542121194  2336.9747   1   9   0.0015   0.0009   0.0086   0.0004  -0.0011   0.0020  15.00   93.7
2024/04/02 13:00:16.000   28.289387829  -16.542121194  2336.9747   1   9   0.0015   0.0009   0.0086   0.0004  -0.0011   0.0020 -14.00   91.7
2024/04/02 13:00:17.000   28.289387829  -16.542121194  2336.9747   1   9   0.0015   0.0009   0.0086   0.0004  -0.0011   0.0021 -13.00   89.6
2024/04/02 13:00:18.000   28.289387829  -16.542121194  2336.9748   1   9   0.0015   0.0009   0.0086   0.0004  -0.0011   0.0021 -12.00   87.4
2024/04/02 13:00:19.000   28.289387829  -16.542121194  2336.9748   1   9   0.0015   0.0009   0.0086   0.0004  -0.0011   0.0021 -11.00   85.3
2024/04/02 13:00:20.000   28.289387829  -16.542121194  2336.9749   1   9   0.0015   0.0009   0.0086   0.0004  -0.0011   0.0021 -10.00   83.1
2024/04/02 13:00:21.000   28.289387829  -16.542121194  2336.9749   1   9   0.0015   0.0009   0.0086   0.0004  -0.0011   0.0021  -9.00   80.9
2024/04/02 13:00:22.000   28.289387829  -16.542121194  2336.9750   1   9   0.0015   0.0009   0.0086   0.0004  -0.0011   0.0021  -8.00   78.5
2024/04/02 13:00:23.000   28.289387829  -16.542121194  2336.9750   1   9   0.0015   0.0009   0.0086   0.0004  -0.0011   0.0021  -7.00   75.8
2024/04/02 13:00:24.000   28.289387829  -16.542121194  2336.9751   1   9   0.0015   0.0009   0.0086   0.0004  -0.0011   0.0021  -6.00   73.3
2024/04/02 13:00:25.000   28.289387830  -16.542121194  2336.9752   1   9   0.0015   0.0009   0.0086   0.0004  -0.0011   0.0021  -5.00   67.6
2024/04/02 13:00:26.000   28.289387830  -16.542121194  2336.9753   1   9   0.0015   0.0009   0.0086   0.0004  -0.0011   0.0021  -4.00   59.1
2024/04/02 13:00:27.000   28.289387830  -16.542121194  2336.9754   1   9   0.0015   0.0009   0.0086   0.0004  -0.0011   0.0021  -3.00   47.8
2024/04/02 13:00:28.000   28.289387831  -16.542121195  2336.9755   1   9   0.0015   0.0009   0.0086   0.0004  -0.0011   0.0021  -2.00   34.3
2024/04/02 13:00:29.000   28.289387831  -16.542121195  2336.9755   1   9   0.0015   0.0009   0.0086   0.0004  -0.0011   0.0021  -1.00   18.5
2024/04/02 13:00:30.000   28.289387828  -16.542121195  2336.9746   1   9   0.0015   0.0009   0.0086   0.0004  -0.0011   0.0020   0.00  124.7
2024/04/02 13:00:31.000   28.289387828  -16.542121196  2336.9747   1   9   0.0015   0.0009   0.0086   0.0004  -0.0011   0.0020   1.00  123.2
2024/04/02 13:00:32.000   28.289387828  -16.542121196  2336.9747   1   9   0.0015   0.0009   0.0086   0.0004  -0.0011   0.0020   2.00  122.8
2024/04/02 13:00:33.000   28.289387828  -16.542121196  2336.9747   1   9   0.0015   0.0009   0.0086   0.0004  -0.0011   0.0021   3.00  122.4
2024/04/02 13:00:34.000   28.289387829  -16.542121196  2336.9748   1   9   0.0015   0.0009   0.0087   0.0004  -0.0011   0.0021   4.00  121.4
2024/04/02 13:00:35.000   28.289387829  -16.542121196  2336.9748   1   9   0.0015   0.0009   0.0087   0.0004  -0.0011   0.0021   5.00  120.4
2024/04/02 13:00:36.000   28.289387829  -16.542121196  2336.9749   1   9   0.0015   0.0009   0.0087   0.0004  -0.0011   0.0021   6.00  119.1
2024/04/02 13:00:37.000   28.289387829  -16.542121196  2336.9749   1   9   0.0015   0.0009   0.0087   0.0004  -0.0011   0.0021   7.00  117.3
2024/04/02 13:00:38.000   28.289387812  -16.542121175  2336.9658   1   9   0.0013   0.0008   0.0074   0.0004  -0.0009   0.0017   8.00    3.1
2024/04/02 13:00:39.000   28.289387812  -16.542121175  2336.9658   1   9   0.0013   0.0008   0.0074   0.0004  -0.0009   0.0017   9.00    3.2
2024/04/02 13:00:40.000   28.289387813  -16.542121175  2336.9658   1   9   0.0013   0.0008   0.0074   0.0004  -0.0009   0.0017  10.00    3.2
2024/04/02 13:00:41.000   28.289387813  -16.542121175  2336.9658   1   9   0.0013   0.0008   0.0074   0.0004  -0.0009   0.0017  11.00    3.2
2024/04/02 13:00:42.000   28.289387813  -16.542121175  2336.9658   1   9   0.0013   0.0008   0.0074   0.0004  -0.0009   0.0017  12.00    3.2
2024/04/02 13:00:43.000   28.289387813  -16.542121175  2336.9659   1   9   0.0013   0.0008   0.0074   0.0004  -0.0009   0.0017  13.00    3.2
2024/04/02 13:00:44.000   28.289387813  -16.542121175  2336.9659   1   9   0.0013   0.0008   0.0074   0.0004  -0.0009   0.0017  14.00    3.2
2024/04/02 13:00:45.000   28.289387813  -16.542121175  2336.9659   1   9   0.0013   0.0008   0.0074   0.0004  -0.0009   0.0017 -15.00    3.2
2024/04/02 13:00:46.000   28.289387813  -16.542121175  2336.9659   1   9   0.0013   0.0008   0.0074   0.0004  -0.0009   0.0017 -14.00    3.2
2024/04/02 13:00:47.000   28.289387813  -16.542121175  2336.9659   1   9   0.0013   0.0008   0.0074   0.0004  -0.0009   0.0017 -13.00    3.2
2024/04/02 13:00:48.000   28.289387813  -16.542121175  2336.9659   1   9   0.0013   0.0008   0.0074   0.0004  -0.0009   0.0017 -12.00    3.2
2024/04/02 13:00:49.000   28.289387813  -16.542121175  2336.9659   1   9   0.0013   0.0008   0.0074   0.0004  -0.0009   0.0017 -11.00    3.3
2024/04/02 13:00:50.000   28.289387813  -16.542121175  2336.9659   1   9   0.0013   0.0008   0.0074   0.0004  -0.0009   0.0017 -10.00    3.3
2024/04/02 13:00:51.000   28.289387813  -16.542121175  2336.9659   1   9   0.0013   0.0008   0.0074   0.0004  -0.0009   0.0017  -9.00    3.3
2024/04/02 13:00:52.000   28.289387813  -16.542121175  2336.9658   1   9   0.0013   0.0008   0.0074   0.0004  -0.0009   0.0017  -8.00    3.2
2024/04/02 13:00:53.000   28.289387813  -16.542121175  2336.9658   1   9   0.0013   0.0008   0.0073   0.0004  -0.0009   0.0017  -7.00    3.2
2024/04/02 13:00:54.000   28.289387812  -16.542121175  2336.9658   1   9   0.0013   0.0008   0.0073   0.0004  -0.0009   0.0017  -6.00    3.2
2024/04/02 13:00:55.000   28.289387812  -16.542121175  2336.9658   1   9   0.0013   0.0008   0.0073   0.0004  -0.0009   0.0017  -5.00    3.2
2024/04/02 13:00:56.000   28.289387812  -16.542121175  2336.9658   1   9   0.0013   0.0008   0.0073   0.0004  -0.0009   0.0017  -4.00    3.2
2024/04/02 13:00:57.000   28.289387813  -16.542121175  2336.9658   1   9   0.0013   0.0008   0.0073   0.0004  -0.0009   0.0017  -3.00    3.3
2024/04/02 13:00:58.000   28.289387813  -16.542121175  2336.9658   1   9   0.0013   0.0008   0.0073   0.0004  -0.0009   0.0017  -2.00    6.8
2024/04/02 13:00:59.000   28.289387813  -16.542121175  2336.9659   1   9   0.0013   0.0008   0.0073   0.0004  -0.0009   0.0017  -1.00    8.3
2024/04/02 13:01:00.000   28.289387812  -16.542121175  2336.9658   1   9   0.0013   0.0008   0.0073   0.0003  -0.0009   0.0017   0.00    9.6
2024/04/02 13:01:01.000   28.289387814  -16.542121175  2336.9661   1   9   0.0013   0.0008   0.0073   0.0004  -0.0009   0.0017   1.00    4.6
2024/04/02 13:01:02.000   28.289387814  -16.542121175  2336.9661   1   9   0.0013   0.0008   0.0073   0.0004  -0.0009   0.0017   2.00    6.3
2024/04/02 13:01:03.000   28.289387814  -16.542121175  2336.9661   1   9   0.0013   0.0008   0.0073   0.0004  -0.0009   0.0017   3.00    7.9
2024/04/02 13:01:04.000   28.289387814  -16.542121175  2336.9660   1   9   0.0013   0.0008   0.0073   0.0004  -0.0009   0.0017   4.00    9.4
2024/04/02 13:01:05.000   28.289387814  -16.542121175  2336.9660   1   9   0.0013   0.0008   0.0073   0.0004  -0.0009   0.0017   5.00   10.8
2024/04/02 13:01:06.000   28.289387814  -16.542121175  2336.9661   1   9   0.0013   0.0008   0.0073   0.0004  -0.0009   0.0017   6.00   12.3
2024/04/02 13:01:07.000   28.289387814  -16.542121175  2336.9661   1   9   0.0013   0.0008   0.0073   0.0004  -0.0009   0.0017   7.00   13.7
2024/04/02 13:01:08.000   28.289387814  -16.542121175  2336.9661   1   9   0.0013   0.0008   0.0073   0.0004  -0.0009   0.0017   8.00   15.1
2024/04/02 13:01:09.000   28.289387814  -16.542121175  2336.9661   1   9   0.0013   0.0008   0.0073   0.0004  -0.0009   0.0017   9.00   16.6
2024/04/02 13:01:10.000   28.289387814  -16.542121175  2336.9661   1   9   0.0013   0.0008   0.0073   0.0004  -0.0009   0.0017  10.00   18.0
2024/04/02 13:01:11.000   28.289387814  -16.542121175  2336.9661   1   9   0.0013   0.0008   0.0073   0.0004  -0.0009   0.0017  11.00   19.3
2024/04/02 13:01:12.000   28.289387814  -16.542121175  2336.9661   1   9   0.0013   0.0008   0.0073   0.0004  -0.0009   0.0017  12.00   20.7
2024/04/02 13:01:13.000   28.289387814  -16.542121175  2336.9661   1   9   0.0013   0.0008   0.0073   0.0004  -0.0009   0.0017  13.00   22.1
2024/04/02 13:01:14.000   28.289387814  -16.542121175  2336.9661   1   9   0.0013   0.0008   0.0073   0.0004  -0.0009   0.0017  14.00   23.4
2024/04/02 13:01:15.000   28.289387814  -16.542121175  2336.9661   1   9   0.0013   0.0008   0.0073   0.0003  -0.0009   0.0017 -15.00   24.8
2024/04/02 13:01:16.000   28.289387814  -16.542121175  2336.9661   1   9   0.0013   0.0008   0.0073   0.0003  -0.0009   0.0017 -14.00   26.1
2024/04/02 13:01:17.000   28.289387814  -16.542121175  2336.9661   1   9   0.0013   0.0008   0.0073   0.0003  -0.0009   0.0017 -13.00   27.5
2024/04/02 13:01:18.000   28.289387814  -16.542121175  2336.9662   1   9   0.0013   0.0008   0.0073   0.0003  -0.0009   0.0017 -12.00   28.9
2024/04/02 13:01:19.000   28.289387814  -16.542121175  2336.9661   1   9   0.0013   0.0008   0.0073   0.0003  -0.0009   0.0017 -11.00   30.3
2024/04/02 13:01:20.000   28.289387814  -16.542121175  2336.9662   1   9   0.0013   0.0008   0.0073   0.0003  -0.0009   0.0017 -10.00   31.8
2024/04/02 13:01:21.000   28.289387814  -16.542121175  2336.9662   1   9   0.0013   0.0008   0.0073   0.0003  -0.0009   0.0017  -9.00   33.3
2024/04/02 13:01:22.000   28.289387814  -16.542121175  2336.9662   1   9   0.0013   0.0008   0.0073   0.0003  -0.0009   0.0017  -8.00   34.8
2024/04/02 13:01:23.000   28.289387814  -16.542121175  2336.9662   1   9   0.0013   0.0008   0.0073   0.0003  -0.0009   0.0017  -7.00   36.4
2024/04/02 13:01:24.000   28.289387814  -16.542121175  2336.9662   1   9   0.0013   0.0008   0.0073   0.0003  -0.0009   0.0017  -6.00   38.0
2024/04/02 13:01:25.000   28.289387814  -16.542121175  2336.9662   1   9   0.0013   0.0008   0.0073   0.0003  -0.0009   0.0017  -5.00   39.6
2024/04/02 13:01:26.000   28.289387814  -16.542121175  2336.9663   1   9   0.0013   0.0008   0.0073   0.0003  -0.0009   0.0017  -4.00   41.2
2024/04/02 13:01:27.000   28.289387814  -16.542121175  2336.9663   1   9   0.0013   0.0008   0.0073   0.0003  -0.0009   0.0017  -3.00   42.8
2024/04/02 13:01:28.000   28.289387814  -16.542121175  2336.9663   1   9   0.0013   0.0008   0.0073   0.0003  -0.0009   0.0017  -2.00   44.4
2024/04/02 13:01:29.000   28.289387815  -16.542121175  2336.9663   1   9   0.0013   0.0008   0.0073   0.0003  -0.0009   0.0017  -1.00   46.0
2024/04/02 13:01:30.000   28.289387812  -16.542121175  2336.9655   1   9   0.0013   0.0008   0.0073   0.0003  -0.0009   0.0017   0.00   47.6
2024/04/02 13:01:31.000   28.289387812  -16.542121175  2336.9653   1   9   0.0013   0.0008   0.0073   0.0003  -0.0009   0.0017   1.00   13.2
2024/04/02 13:01:32.000   28.289387812  -16.542121175  2336.9653   1   9   0.0013   0.0008   0.0073   0.0003  -0.0009   0.0017   2.00   24.1
2024/04/02 13:01:33.000   28.289387811  -16.542121175  2336.9653   1   9   0.0013   0.0008   0.0073   0.0003  -0.0009   0.0017   3.00   31.0
2024/04/02 13:01:34.000   28.289387811  -16.542121175  2336.9653   1   9   0.0013   0.0008   0.0073   0.0003  -0.0009   0.0017   4.00   34.4
2024/04/02 13:01:35.000   28.289387812  -16.542121175  2336.9653   1   9   0.0013   0.0008   0.0073   0.0003  -0.0009   0.0017   5.00   37.2
2024/04/02 13:01:36.000   28.289387812  -16.542121175  2336.9653   1   9   0.0013   0.0008   0.0073   0.0003  -0.0009   0.0017   6.00   39.6
2024/04/02 13:01:37.000   28.289387812  -16.542121175  2336.9653   1   9   0.0013   0.0008   0.0073   0.0003  -0.0009   0.0017   7.00   41.8
2024/04/02 13:01:38.000   28.289387812  -16.542121175  2336.9653   1   9   0.0013   0.0008   0.0073   0.0003  -0.0009   0.0017   8.00   43.9
2024/04/02 13:01:39.000   28.289387812  -16.542121175  2336.9653   1   9   0.0013   0.0008   0.0073   0.0003  -0.0009   0.0017   9.00   45.7
2024/04/02 13:01:40.000   28.289387812  -16.542121175  2336.9653   1   9   0.0013   0.0008   0.0073   0.0003  -0.0009   0.0017  10.00   47.4
2024/04/02 13:01:41.000   28.289387812  -16.542121175  2336.9653   1   9   0.0013   0.0008   0.0073   0.0003  -0.0009   0.0017  11.00   49.1
2024/04/02 13:01:42.000   28.289387812  -16.542121175  2336.9653   1   9   0.0013   0.0008   0.0073   0.0003  -0.0009   0.0017  12.00   50.7
2024/04/02 13:01:43.000   28.289387812  -16.542121175  2336.9653   1   9   0.0013   0.0008   0.0073   0.0003  -0.0009   0.0017  13.00   52.4
2024/04/02 13:01:44.000   28.289387812  -16.542121175  2336.9653   1   9   0.0013   0.0008   0.0073   0.0003  -0.0009   0.0017  14.00   54.0
2024/04/02 13:01:45.000   28.289387812  -16.542121175  2336.9653   1   9   0.0013   0.0008   0.0073   0.0003  -0.0009   0.0017 -15.00   55.6
2024/04/02 13:01:46.000   28.289387812  -16.542121175  2336.9653   1   9   0.0013   0.0008   0.0073   0.0003  -0.0009   0.0017 -14.00   57.3
2024/04/02 13:01:47.000   28.289387812  -16.542121175  2336.9653   1   9   0.0013   0.0008   0.0073   0.0003  -0.0009   0.0017 -13.00   58.8
2024/04/02 13:01:48.000   28.289387812  -16.542121175  2336.9653   1   9   0.0013   0.0008   0.0073   0.0003  -0.0009   0.0017 -12.00   60.5
2024/04/02 13:01:49.000   28.289387812  -16.542121175  2336.9653   1   9   0.0013   0.0008   0.0073   0.0003  -0.0009   0.0017 -11.00   62.0
2024/04/02 13:01:50.000   28.289387812  -16.542121175  2336.9653   1   9   0.0013   0.0008   0.0073   0.0003  -0.0009   0.0017 -10.00   63.6
2024/04/02 13:01:51.000   28.289387812  -16.542121175  2336.9653   1   9   0.0013   0.0008   0.0073   0.0003  -0.0009   0.0018  -9.00   65.1
2024/04/02 13:01:52.000   28.289387812  -16.542121175  2336.9653   1   9   0.0013   0.0008   0.0073   0.0003  -0.0009   0.0018  -8.00   66.6
2024/04/02 13:01:53.000   28.289387812  -16.542121175  2336.9653   1   9   0.0013   0.0008   0.0073   0.0003  -0.0009   0.0018  -7.00   68.1
2024/04/02 13:01:54.000   28.289387812  -16.542121175  2336.9653   1   9   0.0013   0.0008   0.0073   0.0003  -0.0009   0.0018  -6.00   69.8
2024/04/02 13:01:55.000   28.289387812  -16.542121176  2336.9654   1   9   0.0013   0.0008   0.0073   0.0003  -0.0009   0.0018  -5.00   71.4
2024/04/02 13:01:56.000   28.289387812  -16.542121176  2336.9654   1   9   0.0013   0.0008   0.0073   0.0003  -0.0009   0.0018  -4.00   73.0
2024/04/02 13:01:57.000   28.289387812  -16.542121176  2336.9654   1   9   0.0013   0.0008   0.0073   0.0003  -0.0009   0.0018  -3.00   74.6
2024/04/02 13:01:58.000   28.289387812  -16.542121176  2336.9654   1   9   0.0013   0.0008   0.0073   0.0003  -0.0009   0.0018  -2.00   76.6
2024/04/02 13:01:59.000   28.289387812  -16.542121176  2336.9654   1   9   0.0013   0.0008   0.0073   0.0003  -0.0009   0.0018  -1.00   78.5
2024/04/02 13:02:00.000   28.289387809  -16.542121176  2336.9647   1   9   0.0013   0.0008   0.0073   0.0003  -0.0009   0.0017   0.00   80.0
2024/04/02 13:02:01.000   28.289387812  -16.542121176  2336.9653   1   9   0.0013   0.0008   0.0073   0.0003  -0.0009   0.0017   1.00   14.1
2024/04/02 13:02:02.000   28.289387812  -16.542121176  2336.9653   1   9   0.0013   0.0008   0.0073   0.0003  -0.0009   0.0017   2.00   26.0
2024/04/02 13:02:03.000   28.289387812  -16.542121176  2336.9653   1   9   0.0013   0.0008   0.0073   0.0003  -0.0009   0.0018   3.00   36.4
2024/04/02 13:02:04.000   28.289387812  -16.542121176  2336.9654   1   9   0.0013   0.0008   0.0073   0.0003  -0.0009   0.0018   4.00   44.2
2024/04/02 13:02:05.000   28.289387812  -16.542121176  2336.9654   1   9   0.0013   0.0008   0.0073   0.0003  -0.0009   0.0018   5.00   49.8
2024/04/02 13:02:06.000   28.289387812  -16.542121176  2336.9654   1   9   0.0013   0.0008   0.0073   0.0003  -0.0009   0.0018   6.00   52.4
2024/04/02 13:02:07.000   28.289387812  -16.542121176  2336.9654   1   9   0.0013   0.0008   0.0073   0.0003  -0.0009   0.0018   7.00   54.3
2024/04/02 13:02:08.000   28.289387812  -16.542121176  2336.9655   1   9   0.0013   0.0008   0.0073   0.0003  -0.0009   0.0018   8.00   55.9
2024/04/02 13:02:09.000   28.289387812  -16.542121176  2336.9655   1   9   0.0013   0.0008   0.0073   0.0003  -0.0009   0.0018   9.00   57.5
2024/04/02 13:02:10.000   28.289387812  -16.542121176  2336.9655   1   9   0.0013   0.0008   0.0073   0.0003  -0.0009   0.0018  10.00   58.9
2024/04/02 13:02:11.000   28.289387812  -16.542121176  2336.9655   1   9   0.0013   0.0008   0.0073   0.0003  -0.0009   0.0018  11.00   60.4
2024/04/02 13:02:12.000   28.289387812  -16.542121176  2336.9655   1   9   0.0013   0.0008   0.0073   0.0003  -0.0009   0.0018  12.00   61.7
2024/04/02 13:02:13.000   28.289387812  -16.542121176  2336.9656   1   9   0.0013   0.0008   0.0073   0.0003  -0.0009   0.0018  13.00   63.0
2024/04/02 13:02:14.000   28.289387812  -16.542121176  2336.9656   1   9   0.0013   0.0008   0.0073   0.0003  -0.0009   0.0018  14.00   64.4
2024/04/02 13:02:15.000   28.289387812  -16.542121176  2336.9656   1   9   0.0013   0.0008   0.0073   0.0003  -0.0009   0.0018 -15.00   65.7
2024/04/02 13:02:16.000   28.289387812  -16.542121176  2336.9656   1   9   0.0013   0.0008   0.0073   0.0003  -0.0009   0.0018 -14.00   67.0
2024/04/02 13:02:17.000   28.289387812  -16.542121176  2336.9656   1   9   0.0013   0.0008   0.0073   0.0003  -0.0009   0.0018 -13.00   68.4
2024/04/02 13:02:18.000   28.289387812  -16.542121176  2336.9656   1   9   0.0013   0.0008   0.0073   0.0003  -0.0009   0.0018 -12.00   69.6
2024/04/02 13:02:19.000   28.289387812  -16.542121176  2336.9656   1   9   0.0013   0.0008   0.0073   0.0003  -0.0009   0.0018 -11.00   71.0
2024/04/02 13:02:20.000   28.289387812  -16.542121176  2336.9656   1   9   0.0013   0.0008   0.0073   0.0003  -0.0009   0.0018 -10.00   72.3
2024/04/02 13:02:21.000   28.289387812  -16.542121176  2336.9656   1   9   0.0013   0.0008   0.0073   0.0003  -0.0009   0.0018  -9.00   73.7
2024/04/02 13:02:22.000   28.289387812  -16.542121176  2336.9657   1   9   0.0013   0.0008   0.0073   0.0003  -0.0009   0.0018  -8.00   75.1
2024/04/02 13:02:23.000   28.289387812  -16.542121176  2336.9657   1   9   0.0013   0.0008   0.0073   0.0003  -0.0009   0.0018  -7.00   76.1
2024/04/02 13:02:24.000   28.289387812  -16.542121176  2336.9657   1   9   0.0013   0.0008   0.0073   0.0003  -0.0009   0.0018  -6.00   77.1
2024/04/02 13:02:25.000   28.289387812  -16.542121176  2336.9657   1   9   0.0013   0.0008   0.0073   0.0003  -0.0009   0.0018  -5.00   78.0
2024/04/02 13:02:26.000   28.289387812  -16.542121176  2336.9657   1   9   0.0013   0.0008   0.0073   0.0003  -0.0009   0.0018  -4.00   78.9
2024/04/02 13:02:27.000   28.289387812  -16.542121176  2336.9657   1   9   0.0013   0.0008   0.0073   0.0003  -0.0009   0.0018  -3.00   80.0
2024/04/02 13:02:28.000   28.289387812  -16.542121176  2336.9657   1   9   0.0013   0.0008   0.0073   0.0003  -0.0009   0.0018  -2.00   80.8
2024/04/02 13:02:29.000   28.289387812  -16.542121176  2336.9657   1   9   0.0013   0.0008   0.0073   0.0003  -0.0009   0.0018  -1.00   81.5
2024/04/02 13:02:30.000   28.289387807  -16.542121178  2336.9642   1   9   0.0013   0.0008   0.0073   0.0003  -0.0009   0.0017   0.00   82.7
2024/04/02 13:02:31.000   28.289387809  -16.542121177  2336.9649   1   9   0.0013   0.0008   0.0073   0.0003  -0.0009   0.0018   1.00   13.5
2024/04/02 13:02:32.000   28.289387809  -16.542121177  2336.9649   1   9   0.0013   0.0008   0.0073   0.0003  -0.0009   0.0018   2.00   24.4
2024/04/02 13:02:33.000   28.289387810  -16.542121177  2336.9649   1   9   0.0013   0.0008   0.0073   0.0003  -0.0009   0.0018   3.00   33.0
2024/04/02 13:02:34.000   28.289387810  -16.542121177  2336.9650   1   9   0.0013   0.0008   0.0073   0.0003  -0.0009   0.0018   4.00   40.6
2024/04/02 13:02:35.000   28.289387810  -16.542121177  2336.9651   1   9   0.0013   0.0008   0.0073   0.0003  -0.0009   0.0018   5.00   45.1
2024/04/02 13:02:36.000   28.289387810  -16.542121177  2336.9652   1   9   0.0013   0.0008   0.0073   0.0003  -0.0009   0.0018   6.00   48.8
2024/04/02 13:02:37.000   28.289387810  -16.542121177  2336.9652   1   9   0.0013   0.0008   0.0073   0.0003  -0.0009   0.0018   7.00   51.2
2024/04/02 13:02:38.000   28.289387810  -16.542121177  2336.9653   1   9   0.0013   0.0008   0.0073   0.0003  -0.0009   0.0018   8.00   52.0
2024/04/02 13:02:39.000   28.289387810  -16.542121177  2336.9653   1   9   0.0013   0.0008   0.0073   0.0003  -0.0009   0.0018   9.00   52.9
