% program   : RTKPOST-EX 2.5.0
% inp file  : C:\Users\SallyHenry\Desktop\Sally Internship\GNSS gravi\DATA\Survey Rover Obs\LM009_G5.24o
% inp file  : C:\Users\SallyHenry\Desktop\Sally Internship\GNSS gravi\DATA\BaseStations\IZAN\IZAN00ESP_R_20241900000_01D_30S_MO.rnx
% inp file  : C:\Users\SallyHenry\Desktop\Sally Internship\GNSS gravi\DATA\BaseStations\IZAN\IZAN00ESP_R_20241900000_01D_MN.rnx
% inp file  : C:\Users\SallyHenry\Desktop\Sally Internship\GNSS gravi\DATA\aux_files\Survey\IGS0OPSFIN_20241900000_01D_15M_ORB.SP3
% inp file  : C:\Users\SallyHenry\Desktop\Sally Internship\GNSS gravi\DATA\aux_files\Survey\IGS0OPSFIN_20241900000_01D_30S_CLK.CLK
% obs start : 2024/07/08 11:00:29.0 GPST (week2322 126029.0s)
% obs end   : 2024/07/08 11:26:18.0 GPST (week2322 127578.0s)
% pos mode  : Static
% freqs     : L1+L2/E5b
% solution  : Combined-No Phase Reset
% elev mask : 15.0 deg
% dynamics  : on
% tidecorr  : solid
% ionos opt : Estimate TEC
% tropo opt : Estimate ZTD+Grad
% ephemeris : Precise
% navi sys  : GPS GLONASS Galileo QZSS BDS
% amb res   : Fix and Hold
% amb glo   : Fix and Hold
% amb bds   : on
% val thres : 3.0
% antenna1  :                       ( 0.0000  0.0000  1.7600)
% antenna2  :                       ( 0.0000  0.0000  0.0000)
% ref pos   :  28.308069410  -16.499677180  2417.4044
%
% (lat/lon/height=WGS84/ellipsoidal,Q=1:fix,2:float,3:sbas,4:dgps,5:single,6:ppp,ns=# of satellites)
%  GPST                  latitude(deg) longitude(deg)  height(m)   Q  ns   sdn(m)   sde(m)   sdu(m)  sdne(m)  sdeu(m)  sdun(m) age(s)  ratio
2024/07/08 11:00:29.000   28.292656657  -16.544447705  2329.4587   1   6   0.0018   0.0018   0.0142   0.0008   0.0007   0.0025  -1.00  999.9
2024/07/08 11:00:30.000   28.292656657  -16.544447704  2329.4586   1   6   0.0018   0.0018   0.0142   0.0008   0.0007   0.0025   0.00  999.9
2024/07/08 11:00:31.000   28.292656656  -16.544447705  2329.4584   1   6   0.0018   0.0018   0.0142   0.0008   0.0007   0.0025   1.00  999.9
2024/07/08 11:00:32.000   28.292656656  -16.544447705  2329.4583   1   6   0.0018   0.0018   0.0142   0.0008   0.0007   0.0025   2.00  999.9
2024/07/08 11:00:33.000   28.292656656  -16.544447705  2329.4582   1   6   0.0018   0.0018   0.0142   0.0008   0.0007   0.0025   3.00  999.9
2024/07/08 11:00:34.000   28.292656656  -16.544447705  2329.4581   1   6   0.0018   0.0018   0.0142   0.0008   0.0007   0.0025   4.00  999.9
2024/07/08 11:00:35.000   28.292656655  -16.544447705  2329.4580   1   6   0.0018   0.0018   0.0142   0.0008   0.0007   0.0025   5.00  999.9
2024/07/08 11:00:36.000   28.292656655  -16.544447705  2329.4579   1   6   0.0018   0.0018   0.0142   0.0008   0.0007   0.0025   6.00  999.9
2024/07/08 11:00:37.000   28.292656655  -16.544447705  2329.4579   1   6   0.0018   0.0018   0.0142   0.0008   0.0007   0.0025   7.00  999.9
2024/07/08 11:00:38.000   28.292656655  -16.544447705  2329.4578   1   6   0.0018   0.0018   0.0142   0.0008   0.0007   0.0025   8.00  999.9
2024/07/08 11:00:39.000   28.292656655  -16.544447705  2329.4578   1   6   0.0018   0.0018   0.0142   0.0008   0.0007   0.0025   9.00  999.9
2024/07/08 11:00:40.000   28.292656654  -16.544447705  2329.4578   1   6   0.0018   0.0018   0.0142   0.0008   0.0007   0.0025  10.00  999.9
2024/07/08 11:00:41.000   28.292656654  -16.544447705  2329.4578   1   6   0.0018   0.0018   0.0142   0.0008   0.0007   0.0025  11.00  999.9
2024/07/08 11:00:42.000   28.292656654  -16.544447705  2329.4577   1   6   0.0018   0.0018   0.0142   0.0008   0.0007   0.0025  12.00  999.9
2024/07/08 11:00:43.000   28.292656654  -16.544447705  2329.4577   1   6   0.0018   0.0018   0.0142   0.0008   0.0007   0.0025  13.00  999.9
2024/07/08 11:00:44.000   28.292656654  -16.544447705  2329.4577   1   6   0.0018   0.0018   0.0142   0.0008   0.0007   0.0025  14.00  999.9
2024/07/08 11:00:45.000   28.292656654  -16.544447705  2329.4577   1   6   0.0018   0.0018   0.0142   0.0008   0.0007   0.0025  15.00  999.9
2024/07/08 11:00:46.000   28.292656654  -16.544447705  2329.4577   1   6   0.0018   0.0018   0.0142   0.0008   0.0007   0.0025 -14.00  999.9
2024/07/08 11:00:47.000   28.292656654  -16.544447705  2329.4577   1   6   0.0018   0.0018   0.0142   0.0008   0.0007   0.0025 -13.00  999.9
2024/07/08 11:00:48.000   28.292656654  -16.544447705  2329.4577   1   6   0.0018   0.0018   0.0142   0.0008   0.0007   0.0025 -12.00  999.9
2024/07/08 11:00:49.000   28.292656654  -16.544447705  2329.4577   1   6   0.0018   0.0018   0.0142   0.0008   0.0007   0.0025 -11.00  999.9
2024/07/08 11:00:50.000   28.292656654  -16.544447705  2329.4577   1   6   0.0018   0.0018   0.0142   0.0008   0.0007   0.0025 -10.00  999.9
2024/07/08 11:00:51.000   28.292656654  -16.544447705  2329.4577   1   6   0.0018   0.0018   0.0142   0.0008   0.0007   0.0025  -9.00  999.9
2024/07/08 11:00:52.000   28.292656654  -16.544447705  2329.4577   1   6   0.0018   0.0018   0.0142   0.0008   0.0007   0.0025  -8.00  999.9
2024/07/08 11:00:53.000   28.292656654  -16.544447705  2329.4577   1   6   0.0018   0.0018   0.0142   0.0008   0.0008   0.0025  -7.00  999.9
2024/07/08 11:00:54.000   28.292656654  -16.544447706  2329.4577   1   6   0.0018   0.0018   0.0141   0.0008   0.0008   0.0025  -6.00  999.9
2024/07/08 11:00:55.000   28.292656654  -16.544447705  2329.4576   1   6   0.0018   0.0018   0.0141   0.0008   0.0008   0.0025  -5.00  999.9
2024/07/08 11:00:56.000   28.292656654  -16.544447706  2329.4576   1   6   0.0018   0.0018   0.0141   0.0008   0.0008   0.0025  -4.00  999.9
2024/07/08 11:00:57.000   28.292656654  -16.544447706  2329.4576   1   6   0.0018   0.0018   0.0141   0.0008   0.0008   0.0025  -3.00  999.9
2024/07/08 11:00:58.000   28.292656654  -16.544447706  2329.4576   1   6   0.0018   0.0018   0.0141   0.0008   0.0008   0.0025  -2.00  999.9
2024/07/08 11:00:59.000   28.292656654  -16.544447706  2329.4575   1   6   0.0018   0.0018   0.0141   0.0008   0.0008   0.0025  -1.00  999.9
2024/07/08 11:01:00.000   28.292656654  -16.544447706  2329.4575   1   6   0.0018   0.0018   0.0141   0.0008   0.0008   0.0025   0.00  999.9
2024/07/08 11:01:01.000   28.292656654  -16.544447706  2329.4575   1   6   0.0018   0.0018   0.0141   0.0008   0.0008   0.0025   1.00  999.9
2024/07/08 11:01:02.000   28.292656654  -16.544447706  2329.4575   1   6   0.0018   0.0018   0.0141   0.0008   0.0008   0.0025   2.00  999.9
2024/07/08 11:01:03.000   28.292656654  -16.544447706  2329.4575   1   6   0.0018   0.0018   0.0141   0.0008   0.0008   0.0025   3.00  999.9
2024/07/08 11:01:04.000   28.292656655  -16.544447706  2329.4576   1   6   0.0018   0.0018   0.0141   0.0008   0.0008   0.0025   4.00  999.9
2024/07/08 11:01:05.000   28.292656655  -16.544447706  2329.4576   1   6   0.0018   0.0018   0.0141   0.0008   0.0008   0.0025   5.00  999.9
2024/07/08 11:01:06.000   28.292656655  -16.544447706  2329.4577   1   6   0.0018   0.0018   0.0141   0.0008   0.0008   0.0025   6.00  999.9
2024/07/08 11:01:07.000   28.292656655  -16.544447706  2329.4577   1   6   0.0018   0.0018   0.0141   0.0008   0.0008   0.0025   7.00  999.9
2024/07/08 11:01:08.000   28.292656655  -16.544447706  2329.4577   1   6   0.0018   0.0018   0.0141   0.0008   0.0008   0.0025   8.00  999.8
2024/07/08 11:01:09.000   28.292656655  -16.544447706  2329.4577   1   6   0.0018   0.0018   0.0141   0.0008   0.0008   0.0025   9.00  995.6
2024/07/08 11:01:10.000   28.292656655  -16.544447706  2329.4577   1   6   0.0018   0.0018   0.0141   0.0008   0.0008   0.0025  10.00  992.7
2024/07/08 11:01:11.000   28.292656656  -16.544447706  2329.4577   1   6   0.0018   0.0018   0.0141   0.0008   0.0008   0.0025  11.00  989.6
2024/07/08 11:01:12.000   28.292656656  -16.544447706  2329.4577   1   6   0.0018   0.0018   0.0141   0.0008   0.0008   0.0025  12.00  986.8
2024/07/08 11:01:13.000   28.292656656  -16.544447706  2329.4577   1   6   0.0018   0.0018   0.0141   0.0008   0.0008   0.0025  13.00  986.0
2024/07/08 11:01:14.000   28.292656656  -16.544447706  2329.4577   1   6   0.0018   0.0018   0.0141   0.0008   0.0008   0.0025  14.00  985.6
2024/07/08 11:01:15.000   28.292656656  -16.544447706  2329.4577   1   6   0.0018   0.0018   0.0141   0.0008   0.0008   0.0025  15.00  985.3
2024/07/08 11:01:16.000   28.292656656  -16.544447706  2329.4577   1   6   0.0018   0.0018   0.0141   0.0008   0.0008   0.0025 -14.00  984.6
2024/07/08 11:01:17.000   28.292656655  -16.544447706  2329.4577   1   6   0.0018   0.0018   0.0141   0.0008   0.0008   0.0025 -13.00  983.8
2024/07/08 11:01:18.000   28.292656655  -16.544447706  2329.4577   1   6   0.0018   0.0018   0.0141   0.0008   0.0008   0.0025 -12.00  983.0
2024/07/08 11:01:19.000   28.292656655  -16.544447706  2329.4577   1   6   0.0018   0.0018   0.0141   0.0008   0.0008   0.0025 -11.00  982.6
2024/07/08 11:01:20.000   28.292656655  -16.544447706  2329.4577   1   6   0.0018   0.0018   0.0141   0.0008   0.0008   0.0025 -10.00  982.9
2024/07/08 11:01:21.000   28.292656655  -16.544447706  2329.4577   1   6   0.0018   0.0018   0.0141   0.0008   0.0008   0.0025  -9.00  983.8
2024/07/08 11:01:22.000   28.292656655  -16.544447706  2329.4576   1   6   0.0018   0.0018   0.0141   0.0008   0.0008   0.0025  -8.00  985.8
2024/07/08 11:01:23.000   28.292656655  -16.544447706  2329.4575   1   6   0.0018   0.0018   0.0141   0.0008   0.0008   0.0025  -7.00  988.2
2024/07/08 11:01:24.000   28.292656655  -16.544447706  2329.4575   1   6   0.0018   0.0018   0.0141   0.0008   0.0008   0.0025  -6.00  991.1
2024/07/08 11:01:25.000   28.292656655  -16.544447706  2329.4574   1   6   0.0018   0.0018   0.0141   0.0008   0.0008   0.0025  -5.00  994.4
2024/07/08 11:01:26.000   28.292656655  -16.544447706  2329.4573   1   6   0.0018   0.0018   0.0141   0.0008   0.0009   0.0025  -4.00  999.3
2024/07/08 11:01:27.000   28.292656655  -16.544447706  2329.4572   1   6   0.0018   0.0018   0.0141   0.0008   0.0009   0.0025  -3.00  999.9
2024/07/08 11:01:28.000   28.292656654  -16.544447706  2329.4570   1   6   0.0018   0.0018   0.0141   0.0008   0.0009   0.0025  -2.00  999.9
2024/07/08 11:01:29.000   28.292656654  -16.544447706  2329.4569   1   6   0.0018   0.0018   0.0141   0.0008   0.0009   0.0025  -1.00  999.9
2024/07/08 11:01:30.000   28.292656654  -16.544447706  2329.4567   1   6   0.0018   0.0018   0.0141   0.0008   0.0009   0.0025   0.00  999.9
2024/07/08 11:01:31.000   28.292656654  -16.544447706  2329.4566   1   6   0.0018   0.0018   0.0141   0.0008   0.0009   0.0025   1.00  999.9
2024/07/08 11:01:32.000   28.292656653  -16.544447706  2329.4565   1   6   0.0018   0.0018   0.0141   0.0008   0.0009   0.0025   2.00  999.9
2024/07/08 11:01:33.000   28.292656653  -16.544447706  2329.4563   1   6   0.0018   0.0018   0.0141   0.0008   0.0009   0.0025   3.00  999.9
2024/07/08 11:01:34.000   28.292656653  -16.544447706  2329.4562   1   6   0.0018   0.0018   0.0141   0.0008   0.0009   0.0025   4.00  999.9
2024/07/08 11:01:35.000   28.292656653  -16.544447706  2329.4562   1   6   0.0018   0.0018   0.0141   0.0008   0.0009   0.0025   5.00  999.9
2024/07/08 11:01:36.000   28.292656653  -16.544447706  2329.4561   1   6   0.0018   0.0018   0.0141   0.0008   0.0009   0.0025   6.00  999.9
2024/07/08 11:01:37.000   28.292656653  -16.544447706  2329.4560   1   6   0.0018   0.0018   0.0141   0.0008   0.0009   0.0025   7.00  999.9
2024/07/08 11:01:38.000   28.292656653  -16.544447706  2329.4560   1   6   0.0018   0.0018   0.0141   0.0008   0.0009   0.0025   8.00  999.9
2024/07/08 11:01:39.000   28.292656653  -16.544447706  2329.4559   1   6   0.0018   0.0018   0.0141   0.0008   0.0009   0.0025   9.00  999.9
2024/07/08 11:01:40.000   28.292656653  -16.544447706  2329.4559   1   6   0.0018   0.0018   0.0141   0.0008   0.0009   0.0025  10.00  999.9
2024/07/08 11:01:41.000   28.292656653  -16.544447706  2329.4559   1   6   0.0018   0.0018   0.0141   0.0008   0.0009   0.0025  11.00  999.9
2024/07/08 11:01:42.000   28.292656653  -16.544447706  2329.4559   1   6   0.0018   0.0018   0.0141   0.0008   0.0009   0.0025  12.00  999.9
2024/07/08 11:01:43.000   28.292656653  -16.544447706  2329.4558   1   6   0.0018   0.0018   0.0141   0.0008   0.0009   0.0025  13.00  999.9
2024/07/08 11:01:44.000   28.292656653  -16.544447706  2329.4558   1   6   0.0018   0.0018   0.0141   0.0008   0.0009   0.0025  14.00  999.9
2024/07/08 11:01:45.000   28.292656653  -16.544447706  2329.4558   1   6   0.0018   0.0018   0.0141   0.0008   0.0009   0.0025  15.00  999.9
2024/07/08 11:01:46.000   28.292656653  -16.544447706  2329.4558   1   6   0.0018   0.0018   0.0140   0.0008   0.0009   0.0025 -14.00  999.9
2024/07/08 11:01:47.000   28.292656653  -16.544447706  2329.4558   1   6   0.0018   0.0018   0.0140   0.0008   0.0009   0.0025 -13.00  999.9
2024/07/08 11:01:48.000   28.292656653  -16.544447706  2329.4558   1   6   0.0018   0.0018   0.0140   0.0008   0.0009   0.0025 -12.00  999.9
2024/07/08 11:01:49.000   28.292656653  -16.544447706  2329.4557   1   6   0.0018   0.0018   0.0140   0.0008   0.0009   0.0025 -11.00  999.9
2024/07/08 11:01:50.000   28.292656653  -16.544447706  2329.4557   1   6   0.0018   0.0018   0.0140   0.0008   0.0009   0.0025 -10.00  999.9
2024/07/08 11:01:51.000   28.292656653  -16.544447706  2329.4557   1   6   0.0018   0.0018   0.0140   0.0008   0.0009   0.0025  -9.00  999.9
2024/07/08 11:01:52.000   28.292656653  -16.544447706  2329.4556   1   6   0.0018   0.0018   0.0140   0.0008   0.0009   0.0025  -8.00  999.9
2024/07/08 11:01:53.000   28.292656653  -16.544447706  2329.4556   1   6   0.0018   0.0018   0.0140   0.0008   0.0009   0.0025  -7.00  999.9
2024/07/08 11:01:54.000   28.292656653  -16.544447706  2329.4555   1   6   0.0018   0.0018   0.0140   0.0008   0.0009   0.0025  -6.00  999.9
2024/07/08 11:01:55.000   28.292656653  -16.544447706  2329.4554   1   6   0.0018   0.0018   0.0140   0.0008   0.0009   0.0025  -5.00  999.9
2024/07/08 11:01:56.000   28.292656653  -16.544447706  2329.4553   1   6   0.0018   0.0018   0.0140   0.0008   0.0009   0.0025  -4.00  999.9
2024/07/08 11:01:57.000   28.292656653  -16.544447706  2329.4551   1   6   0.0018   0.0018   0.0140   0.0008   0.0009   0.0025  -3.00  999.9
2024/07/08 11:01:58.000   28.292656653  -16.544447706  2329.4550   1   6   0.0018   0.0018   0.0140   0.0008   0.0009   0.0025  -2.00  999.9
2024/07/08 11:01:59.000   28.292656653  -16.544447706  2329.4549   1   6   0.0018   0.0018   0.0140   0.0008   0.0009   0.0025  -1.00  999.9
2024/07/08 11:02:00.000   28.292656653  -16.544447706  2329.4547   1   6   0.0018   0.0018   0.0140   0.0008   0.0009   0.0025   0.00  999.9
2024/07/08 11:02:01.000   28.292656652  -16.544447706  2329.4544   1   6   0.0018   0.0018   0.0140   0.0008   0.0009   0.0025   1.00  999.9
2024/07/08 11:02:02.000   28.292656652  -16.544447706  2329.4542   1   6   0.0018   0.0018   0.0140   0.0008   0.0009   0.0025   2.00  999.9
2024/07/08 11:02:03.000   28.292656652  -16.544447706  2329.4541   1   6   0.0018   0.0018   0.0140   0.0008   0.0009   0.0025   3.00  999.9
2024/07/08 11:02:04.000   28.292656652  -16.544447706  2329.4539   1   6   0.0018   0.0018   0.0140   0.0008   0.0009   0.0025   4.00  999.9
2024/07/08 11:02:05.000   28.292656652  -16.544447706  2329.4538   1   6   0.0019   0.0018   0.0140   0.0008   0.0009   0.0025   5.00  999.9
2024/07/08 11:02:06.000   28.292656652  -16.544447706  2329.4537   1   6   0.0019   0.0018   0.0140   0.0008   0.0009   0.0025   6.00  999.9
2024/07/08 11:02:07.000   28.292656652  -16.544447706  2329.4536   1   6   0.0019   0.0018   0.0140   0.0008   0.0010   0.0025   7.00  999.9
2024/07/08 11:02:08.000   28.292656652  -16.544447706  2329.4535   1   6   0.0019   0.0018   0.0140   0.0008   0.0010   0.0025   8.00  999.9
2024/07/08 11:02:09.000   28.292656652  -16.544447706  2329.4535   1   6   0.0019   0.0018   0.0140   0.0008   0.0010   0.0025   9.00  999.9
2024/07/08 11:02:10.000   28.292656652  -16.544447706  2329.4535   1   6   0.0019   0.0018   0.0140   0.0008   0.0010   0.0025  10.00  999.9
2024/07/08 11:02:11.000   28.292656652  -16.544447706  2329.4535   1   6   0.0018   0.0018   0.0140   0.0008   0.0010   0.0025  11.00  999.9
2024/07/08 11:02:12.000   28.292656652  -16.544447706  2329.4534   1   6   0.0018   0.0018   0.0140   0.0008   0.0010   0.0025  12.00  999.9
2024/07/08 11:02:13.000   28.292656652  -16.544447706  2329.4534   1   6   0.0018   0.0018   0.0140   0.0008   0.0010   0.0025  13.00  999.9
2024/07/08 11:02:14.000   28.292656652  -16.544447706  2329.4534   1   6   0.0018   0.0018   0.0140   0.0008   0.0010   0.0025  14.00  999.9
2024/07/08 11:02:15.000   28.292656652  -16.544447706  2329.4534   1   6   0.0018   0.0018   0.0140   0.0008   0.0010   0.0025  15.00  999.9
2024/07/08 11:02:16.000   28.292656652  -16.544447706  2329.4534   1   6   0.0018   0.0018   0.0140   0.0008   0.0010   0.0025 -14.00  999.9
2024/07/08 11:02:17.000   28.292656652  -16.544447706  2329.4534   1   6   0.0018   0.0018   0.0140   0.0008   0.0010   0.0025 -13.00  999.9
2024/07/08 11:02:18.000   28.292656652  -16.544447706  2329.4534   1   6   0.0018   0.0018   0.0140   0.0008   0.0010   0.0025 -12.00  999.9
2024/07/08 11:02:19.000   28.292656652  -16.544447706  2329.4534   1   6   0.0018   0.0018   0.0140   0.0008   0.0010   0.0025 -11.00  999.9
2024/07/08 11:02:20.000   28.292656652  -16.544447706  2329.4533   1   6   0.0018   0.0018   0.0140   0.0008   0.0010   0.0025 -10.00  999.9
2024/07/08 11:02:21.000   28.292656652  -16.544447706  2329.4533   1   6   0.0018   0.0018   0.0140   0.0008   0.0010   0.0025  -9.00  999.9
2024/07/08 11:02:22.000   28.292656652  -16.544447706  2329.4532   1   6   0.0018   0.0018   0.0140   0.0008   0.0010   0.0025  -8.00  999.9
2024/07/08 11:02:23.000   28.292656652  -16.544447706  2329.4532   1   6   0.0018   0.0018   0.0140   0.0008   0.0010   0.0025  -7.00  999.9
2024/07/08 11:02:24.000   28.292656652  -16.544447706  2329.4531   1   6   0.0018   0.0018   0.0140   0.0008   0.0010   0.0025  -6.00  999.9
2024/07/08 11:02:25.000   28.292656651  -16.544447706  2329.4530   1   6   0.0018   0.0018   0.0140   0.0008   0.0010   0.0025  -5.00  999.9
2024/07/08 11:02:26.000   28.292656651  -16.544447706  2329.4529   1   6   0.0018   0.0018   0.0140   0.0008   0.0010   0.0025  -4.00  999.9
2024/07/08 11:02:27.000   28.292656651  -16.544447706  2329.4528   1   6   0.0018   0.0018   0.0140   0.0008   0.0010   0.0025  -3.00  999.9
2024/07/08 11:02:28.000   28.292656651  -16.544447706  2329.4526   1   6   0.0018   0.0018   0.0140   0.0008   0.0010   0.0025  -2.00  999.9
2024/07/08 11:02:29.000   28.292656651  -16.544447706  2329.4525   1   6   0.0018   0.0018   0.0140   0.0008   0.0010   0.0025  -1.00  999.9
2024/07/08 11:02:30.000   28.292656651  -16.544447706  2329.4523   1   6   0.0018   0.0018   0.0140   0.0008   0.0010   0.0025   0.00  999.9
2024/07/08 11:02:31.000   28.292656650  -16.544447705  2329.4521   1   6   0.0019   0.0018   0.0140   0.0008   0.0010   0.0025   1.00  999.9
2024/07/08 11:02:32.000   28.292656650  -16.544447705  2329.4519   1   6   0.0019   0.0018   0.0140   0.0008   0.0010   0.0025   2.00  999.9
2024/07/08 11:02:33.000   28.292656650  -16.544447705  2329.4518   1   6   0.0019   0.0018   0.0140   0.0008   0.0010   0.0025   3.00  999.9
2024/07/08 11:02:34.000   28.292656650  -16.544447705  2329.4517   1   6   0.0019   0.0018   0.0140   0.0009   0.0010   0.0025   4.00  999.9
2024/07/08 11:02:35.000   28.292656650  -16.544447705  2329.4517   1   6   0.0019   0.0018   0.0140   0.0009   0.0010   0.0025   5.00  999.9
2024/07/08 11:02:36.000   28.292656650  -16.544447705  2329.4516   1   6   0.0019   0.0018   0.0140   0.0009   0.0010   0.0025   6.00  999.9
2024/07/08 11:02:37.000   28.292656650  -16.544447705  2329.4516   1   6   0.0019   0.0018   0.0140   0.0009   0.0010   0.0025   7.00  999.9
2024/07/08 11:02:38.000   28.292656650  -16.544447705  2329.4516   1   6   0.0019   0.0018   0.0140   0.0009   0.0010   0.0025   8.00  999.9
2024/07/08 11:02:39.000   28.292656650  -16.544447705  2329.4516   1   6   0.0019   0.0018   0.0140   0.0009   0.0010   0.0025   9.00  999.9
2024/07/08 11:02:40.000   28.292656650  -16.544447705  2329.4516   1   6   0.0019   0.0018   0.0140   0.0009   0.0010   0.0025  10.00  999.9
2024/07/08 11:02:41.000   28.292656651  -16.544447705  2329.4516   1   6   0.0019   0.0018   0.0140   0.0009   0.0010   0.0025  11.00  999.9
2024/07/08 11:02:42.000   28.292656651  -16.544447705  2329.4516   1   6   0.0019   0.0018   0.0139   0.0009   0.0010   0.0025  12.00  999.9
2024/07/08 11:02:43.000   28.292656651  -16.544447705  2329.4516   1   6   0.0019   0.0018   0.0139   0.0009   0.0010   0.0025  13.00  999.9
2024/07/08 11:02:44.000   28.292656651  -16.544447705  2329.4516   1   6   0.0019   0.0018   0.0139   0.0009   0.0010   0.0025  14.00  999.9
2024/07/08 11:02:45.000   28.292656651  -16.544447705  2329.4516   1   6   0.0019   0.0018   0.0139   0.0009   0.0010   0.0025  15.00  999.9
2024/07/08 11:02:46.000   28.292656651  -16.544447705  2329.4516   1   6   0.0019   0.0018   0.0139   0.0008   0.0011   0.0025 -14.00  999.9
2024/07/08 11:02:47.000   28.292656651  -16.544447705  2329.4516   1   6   0.0019   0.0018   0.0139   0.0008   0.0011   0.0025 -13.00  999.9
2024/07/08 11:02:48.000   28.292656651  -16.544447705  2329.4516   1   6   0.0019   0.0018   0.0139   0.0008   0.0011   0.0025 -12.00  999.9
2024/07/08 11:02:49.000   28.292656651  -16.544447705  2329.4516   1   6   0.0018   0.0018   0.0139   0.0008   0.0011   0.0025 -11.00  999.9
2024/07/08 11:02:50.000   28.292656651  -16.544447706  2329.4516   1   6   0.0018   0.0018   0.0139   0.0008   0.0011   0.0025 -10.00  999.9
2024/07/08 11:02:51.000   28.292656651  -16.544447706  2329.4515   1   6   0.0018   0.0018   0.0139   0.0008   0.0011   0.0025  -9.00  999.9
2024/07/08 11:02:52.000   28.292656651  -16.544447706  2329.4515   1   6   0.0018   0.0018   0.0139   0.0008   0.0011   0.0025  -8.00  999.9
2024/07/08 11:02:53.000   28.292656651  -16.544447706  2329.4515   1   6   0.0018   0.0018   0.0139   0.0008   0.0011   0.0025  -7.00  999.9
2024/07/08 11:02:54.000   28.292656651  -16.544447706  2329.4514   1   6   0.0018   0.0018   0.0139   0.0008   0.0011   0.0025  -6.00  999.9
2024/07/08 11:02:55.000   28.292656651  -16.544447706  2329.4514   1   6   0.0018   0.0018   0.0139   0.0008   0.0011   0.0025  -5.00  999.9
2024/07/08 11:02:56.000   28.292656652  -16.544447706  2329.4513   1   6   0.0018   0.0018   0.0139   0.0008   0.0011   0.0025  -4.00  999.9
2024/07/08 11:02:57.000   28.292656652  -16.544447706  2329.4512   1   6   0.0018   0.0018   0.0139   0.0008   0.0011   0.0025  -3.00  999.9
2024/07/08 11:02:58.000   28.292656652  -16.544447706  2329.4511   1   6   0.0019   0.0018   0.0139   0.0009   0.0011   0.0025  -2.00  999.9
2024/07/08 11:02:59.000   28.292656652  -16.544447706  2329.4510   1   6   0.0019   0.0018   0.0139   0.0009   0.0011   0.0025  -1.00  999.9
2024/07/08 11:03:00.000   28.292656652  -16.544447706  2329.4508   1   6   0.0019   0.0018   0.0139   0.0009   0.0011   0.0025   0.00  999.9
2024/07/08 11:03:01.000   28.292656651  -16.544447706  2329.4506   1   6   0.0019   0.0018   0.0139   0.0009   0.0011   0.0025   1.00  999.9
2024/07/08 11:03:02.000   28.292656651  -16.544447706  2329.4504   1   6   0.0019   0.0018   0.0139   0.0009   0.0011   0.0025   2.00  999.9
2024/07/08 11:03:03.000   28.292656651  -16.544447706  2329.4502   1   6   0.0019   0.0018   0.0139   0.0009   0.0011   0.0025   3.00  999.9
2024/07/08 11:03:04.000   28.292656651  -16.544447706  2329.4502   1   6   0.0019   0.0018   0.0139   0.0009   0.0011   0.0025   4.00  999.9
2024/07/08 11:03:05.000   28.292656651  -16.544447706  2329.4501   1   6   0.0019   0.0018   0.0139   0.0009   0.0011   0.0025   5.00  999.9
2024/07/08 11:03:06.000   28.292656651  -16.544447705  2329.4500   1   6   0.0019   0.0018   0.0139   0.0009   0.0011   0.0025   6.00  999.9
2024/07/08 11:03:07.000   28.292656650  -16.544447705  2329.4500   1   6   0.0019   0.0018   0.0139   0.0009   0.0011   0.0025   7.00  999.9
2024/07/08 11:03:08.000   28.292656650  -16.544447705  2329.4500   1   6   0.0019   0.0018   0.0139   0.0009   0.0011   0.0025   8.00  999.9
2024/07/08 11:03:09.000   28.292656650  -16.544447705  2329.4500   1   6   0.0019   0.0018   0.0139   0.0009   0.0011   0.0025   9.00  999.9
2024/07/08 11:03:10.000   28.292656650  -16.544447705  2329.4500   1   6   0.0019   0.0018   0.0139   0.0009   0.0011   0.0025  10.00  999.9
2024/07/08 11:03:11.000   28.292656650  -16.544447705  2329.4500   1   6   0.0019   0.0018   0.0139   0.0009   0.0011   0.0025  11.00  999.9
2024/07/08 11:03:12.000   28.292656650  -16.544447705  2329.4499   1   6   0.0019   0.0018   0.0139   0.0009   0.0011   0.0025  12.00  999.9
2024/07/08 11:03:13.000   28.292656650  -16.544447705  2329.4499   1   6   0.0019   0.0018   0.0139   0.0009   0.0011   0.0025  13.00  999.9
2024/07/08 11:03:14.000   28.292656650  -16.544447705  2329.4499   1   6   0.0019   0.0018   0.0139   0.0009   0.0011   0.0025  14.00  999.9
2024/07/08 11:03:15.000   28.292656650  -16.544447705  2329.4499   1   6   0.0019   0.0018   0.0139   0.0009   0.0011   0.0025  15.00  999.9
2024/07/08 11:03:16.000   28.292656650  -16.544447705  2329.4499   1   6   0.0019   0.0018   0.0139   0.0009   0.0011   0.0025 -14.00  999.9
2024/07/08 11:03:17.000   28.292656650  -16.544447705  2329.4499   1   6   0.0019   0.0018   0.0139   0.0009   0.0011   0.0025 -13.00  999.9
2024/07/08 11:03:18.000   28.292656650  -16.544447705  2329.4499   1   6   0.0019   0.0018   0.0139   0.0009   0.0011   0.0025 -12.00  999.9
2024/07/08 11:03:19.000   28.292656650  -16.544447705  2329.4499   1   6   0.0019   0.0018   0.0139   0.0009   0.0011   0.0025 -11.00  999.9
2024/07/08 11:03:20.000   28.292656650  -16.544447705  2329.4498   1   6   0.0019   0.0018   0.0139   0.0009   0.0011   0.0025 -10.00  999.9
2024/07/08 11:03:21.000   28.292656650  -16.544447705  2329.4498   1   6   0.0019   0.0018   0.0139   0.0009   0.0011   0.0025  -9.00  999.9
2024/07/08 11:03:22.000   28.292656650  -16.544447705  2329.4498   1   6   0.0019   0.0018   0.0139   0.0009   0.0011   0.0025  -8.00  999.9
2024/07/08 11:03:23.000   28.292656650  -16.544447705  2329.4497   1   6   0.0019   0.0018   0.0139   0.0009   0.0011   0.0025  -7.00  999.9
2024/07/08 11:03:24.000   28.292656650  -16.544447705  2329.4496   1   6   0.0019   0.0018   0.0139   0.0009   0.0011   0.0025  -6.00  999.9
2024/07/08 11:03:25.000   28.292656650  -16.544447705  2329.4495   1   6   0.0019   0.0018   0.0139   0.0009   0.0011   0.0025  -5.00  999.9
2024/07/08 11:03:26.000   28.292656650  -16.544447705  2329.4494   1   6   0.0019   0.0018   0.0139   0.0009   0.0011   0.0025  -4.00  999.9
2024/07/08 11:03:27.000   28.292656650  -16.544447705  2329.4493   1   6   0.0019   0.0018   0.0139   0.0009   0.0011   0.0025  -3.00  999.9
2024/07/08 11:03:28.000   28.292656650  -16.544447706  2329.4491   1   6   0.0019   0.0018   0.0139   0.0009   0.0011   0.0025  -2.00  999.9
2024/07/08 11:03:29.000   28.292656650  -16.544447706  2329.4489   1   6   0.0019   0.0018   0.0139   0.0009   0.0011   0.0025  -1.00  999.9
2024/07/08 11:03:30.000   28.292656650  -16.544447706  2329.4487   1   6   0.0019   0.0018   0.0139   0.0009   0.0011   0.0025   0.00  999.9
2024/07/08 11:03:31.000   28.292656649  -16.544447706  2329.4484   1   6   0.0019   0.0018   0.0139   0.0009   0.0011   0.0025   1.00  999.9
2024/07/08 11:03:32.000   28.292656649  -16.544447706  2329.4481   1   6   0.0019   0.0018   0.0139   0.0009   0.0011   0.0025   2.00  999.9
2024/07/08 11:03:33.000   28.292656649  -16.544447706  2329.4479   1   6   0.0019   0.0018   0.0139   0.0009   0.0012   0.0025   3.00  999.9
2024/07/08 11:03:34.000   28.292656649  -16.544447706  2329.4478   1   6   0.0019   0.0018   0.0139   0.0009   0.0012   0.0025   4.00  999.9
2024/07/08 11:03:35.000   28.292656649  -16.544447706  2329.4477   1   6   0.0019   0.0018   0.0139   0.0009   0.0012   0.0025   5.00  999.9
2024/07/08 11:03:36.000   28.292656649  -16.544447707  2329.4476   1   6   0.0019   0.0018   0.0139   0.0009   0.0012   0.0025   6.00  999.9
2024/07/08 11:03:37.000   28.292656648  -16.544447707  2329.4476   1   6   0.0019   0.0018   0.0139   0.0009   0.0012   0.0025   7.00  999.9
2024/07/08 11:03:38.000   28.292656648  -16.544447707  2329.4476   1   6   0.0019   0.0018   0.0139   0.0009   0.0012   0.0025   8.00  999.9
2024/07/08 11:03:39.000   28.292656649  -16.544447707  2329.4475   1   6   0.0019   0.0018   0.0139   0.0009   0.0012   0.0025   9.00  999.9
2024/07/08 11:03:40.000   28.292656649  -16.544447707  2329.4476   1   6   0.0019   0.0018   0.0139   0.0009   0.0012   0.0025  10.00  999.9
2024/07/08 11:03:41.000   28.292656649  -16.544447707  2329.4476   1   6   0.0019   0.0018   0.0139   0.0009   0.0012   0.0025  11.00  999.9
2024/07/08 11:03:42.000   28.292656649  -16.544447707  2329.4476   1   6   0.0019   0.0018   0.0138   0.0009   0.0012   0.0025  12.00  999.9
2024/07/08 11:03:43.000   28.292656649  -16.544447707  2329.4476   1   6   0.0019   0.0018   0.0138   0.0009   0.0012   0.0025  13.00  999.9
2024/07/08 11:03:44.000   28.292656649  -16.544447707  2329.4476   1   6   0.0019   0.0018   0.0138   0.0009   0.0012   0.0025  14.00  999.9
2024/07/08 11:03:45.000   28.292656649  -16.544447707  2329.4476   1   6   0.0019   0.0018   0.0138   0.0009   0.0012   0.0025  15.00  999.9
2024/07/08 11:03:46.000   28.292656649  -16.544447707  2329.4477   1   6   0.0019   0.0018   0.0138   0.0009   0.0012   0.0025 -14.00  999.9
2024/07/08 11:03:47.000   28.292656649  -16.544447707  2329.4477   1   6   0.0019   0.0018   0.0138   0.0009   0.0012   0.0025 -13.00  999.9
2024/07/08 11:03:48.000   28.292656649  -16.544447707  2329.4477   1   6   0.0019   0.0018   0.0138   0.0009   0.0012   0.0025 -12.00  999.9
2024/07/08 11:03:49.000   28.292656649  -16.544447707  2329.4478   1   6   0.0019   0.0018   0.0138   0.0009   0.0012   0.0025 -11.00  999.9
2024/07/08 11:03:50.000   28.292656649  -16.544447706  2329.4478   1   6   0.0019   0.0018   0.0138   0.0009   0.0012   0.0025 -10.00  999.9
2024/07/08 11:03:51.000   28.292656649  -16.544447706  2329.4479   1   6   0.0019   0.0017   0.0138   0.0009   0.0012   0.0025  -9.00  999.9
2024/07/08 11:03:52.000   28.292656649  -16.544447706  2329.4479   1   6   0.0019   0.0017   0.0138   0.0009   0.0012   0.0025  -8.00  999.9
2024/07/08 11:03:53.000   28.292656649  -16.544447706  2329.4479   1   6   0.0019   0.0017   0.0138   0.0009   0.0012   0.0025  -7.00  999.9
2024/07/08 11:03:54.000   28.292656649  -16.544447706  2329.4480   1   6   0.0019   0.0017   0.0138   0.0009   0.0012   0.0025  -6.00  999.9
2024/07/08 11:03:55.000   28.292656649  -16.544447706  2329.4480   1   6   0.0019   0.0017   0.0138   0.0009   0.0012   0.0025  -5.00  999.9
2024/07/08 11:03:56.000   28.292656649  -16.544447706  2329.4481   1   6   0.0019   0.0017   0.0138   0.0009   0.0012   0.0025  -4.00  999.9
2024/07/08 11:03:57.000   28.292656649  -16.544447706  2329.4481   1   6   0.0019   0.0017   0.0138   0.0009   0.0012   0.0025  -3.00  999.9
2024/07/08 11:03:58.000   28.292656649  -16.544447706  2329.4481   1   6   0.0019   0.0017   0.0138   0.0009   0.0012   0.0025  -2.00  999.9
2024/07/08 11:03:59.000   28.292656649  -16.544447706  2329.4481   1   6   0.0019   0.0018   0.0138   0.0009   0.0012   0.0025  -1.00  999.9
2024/07/08 11:04:00.000   28.292656649  -16.544447706  2329.4480   1   6   0.0019   0.0018   0.0138   0.0009   0.0012   0.0025   0.00  999.9
2024/07/08 11:04:01.000   28.292656648  -16.544447706  2329.4479   1   6   0.0019   0.0018   0.0138   0.0009   0.0012   0.0025   1.00  999.9
2024/07/08 11:04:02.000   28.292656648  -16.544447706  2329.4477   1   6   0.0019   0.0018   0.0138   0.0009   0.0012   0.0025   2.00  999.9
2024/07/08 11:04:03.000   28.292656648  -16.544447706  2329.4475   1   6   0.0019   0.0018   0.0138   0.0009   0.0012   0.0026   3.00  999.9
2024/07/08 11:04:04.000   28.292656647  -16.544447706  2329.4473   1   6   0.0019   0.0018   0.0138   0.0009   0.0012   0.0026   4.00  999.9
2024/07/08 11:04:05.000   28.292656647  -16.544447706  2329.4472   1   6   0.0019   0.0018   0.0138   0.0009   0.0012   0.0026   5.00  999.9
2024/07/08 11:04:06.000   28.292656647  -16.544447707  2329.4470   1   6   0.0019   0.0018   0.0138   0.0009   0.0012   0.0026   6.00  999.9
2024/07/08 11:04:07.000   28.292656646  -16.544447707  2329.4469   1   6   0.0019   0.0018   0.0138   0.0009   0.0012   0.0026   7.00  999.9
2024/07/08 11:04:08.000   28.292656646  -16.544447707  2329.4468   1   6   0.0019   0.0018   0.0138   0.0009   0.0012   0.0026   8.00  999.9
2024/07/08 11:04:09.000   28.292656646  -16.544447707  2329.4467   1   6   0.0019   0.0018   0.0138   0.0009   0.0012   0.0026   9.00  999.9
2024/07/08 11:04:10.000   28.292656646  -16.544447707  2329.4466   1   6   0.0019   0.0018   0.0138   0.0009   0.0012   0.0026  10.00  999.9
2024/07/08 11:04:11.000   28.292656646  -16.544447707  2329.4466   1   6   0.0019   0.0018   0.0138   0.0009   0.0012   0.0026  11.00  999.9
2024/07/08 11:04:12.000   28.292656646  -16.544447707  2329.4465   1   6   0.0019   0.0018   0.0138   0.0009   0.0012   0.0026  12.00  999.9
2024/07/08 11:04:13.000   28.292656646  -16.544447707  2329.4465   1   6   0.0019   0.0018   0.0138   0.0009   0.0012   0.0025  13.00  999.9
2024/07/08 11:04:14.000   28.292656646  -16.544447707  2329.4464   1   6   0.0019   0.0018   0.0138   0.0009   0.0012   0.0025  14.00  999.9
2024/07/08 11:04:15.000   28.292656645  -16.544447707  2329.4464   1   6   0.0019   0.0018   0.0138   0.0009   0.0012   0.0025  15.00  999.9
2024/07/08 11:04:16.000   28.292656645  -16.544447707  2329.4464   1   6   0.0019   0.0018   0.0138   0.0009   0.0012   0.0025 -14.00  999.9
2024/07/08 11:04:17.000   28.292656645  -16.544447707  2329.4463   1   6   0.0019   0.0018   0.0138   0.0009   0.0012   0.0025 -13.00  999.9
2024/07/08 11:04:18.000   28.292656645  -16.544447707  2329.4463   1   6   0.0019   0.0018   0.0138   0.0009   0.0012   0.0025 -12.00  999.9
2024/07/08 11:04:19.000   28.292656645  -16.544447707  2329.4463   1   6   0.0019   0.0017   0.0138   0.0009   0.0012   0.0025 -11.00  999.9
2024/07/08 11:04:20.000   28.292656645  -16.544447707  2329.4462   1   6   0.0019   0.0017   0.0138   0.0009   0.0013   0.0025 -10.00  999.9
2024/07/08 11:04:21.000   28.292656645  -16.544447707  2329.4461   1   6   0.0019   0.0017   0.0138   0.0009   0.0013   0.0025  -9.00  999.9
2024/07/08 11:04:22.000   28.292656645  -16.544447707  2329.4461   1   6   0.0019   0.0017   0.0138   0.0009   0.0013   0.0025  -8.00  999.9
2024/07/08 11:04:23.000   28.292656645  -16.544447707  2329.4460   1   6   0.0019   0.0017   0.0138   0.0009   0.0013   0.0025  -7.00  999.9
2024/07/08 11:04:24.000   28.292656645  -16.544447707  2329.4459   1   6   0.0019   0.0017   0.0138   0.0009   0.0013   0.0025  -6.00  999.9
2024/07/08 11:04:25.000   28.292656644  -16.544447707  2329.4458   1   6   0.0019   0.0017   0.0138   0.0009   0.0013   0.0025  -5.00  999.9
2024/07/08 11:04:26.000   28.292656644  -16.544447707  2329.4457   1   6   0.0019   0.0017   0.0138   0.0009   0.0013   0.0025  -4.00  999.9
2024/07/08 11:04:27.000   28.292656644  -16.544447707  2329.4456   1   6   0.0019   0.0017   0.0138   0.0009   0.0013   0.0025  -3.00  999.9
2024/07/08 11:04:28.000   28.292656644  -16.544447707  2329.4454   1   6   0.0019   0.0017   0.0138   0.0009   0.0013   0.0025  -2.00  999.9
2024/07/08 11:04:29.000   28.292656643  -16.544447707  2329.4452   1   6   0.0019   0.0017   0.0138   0.0009   0.0013   0.0025  -1.00  999.9
2024/07/08 11:04:30.000   28.292656643  -16.544447707  2329.4450   1   6   0.0019   0.0018   0.0138   0.0009   0.0013   0.0025   0.00  999.9
2024/07/08 11:04:31.000   28.292656643  -16.544447707  2329.4449   1   6   0.0019   0.0018   0.0138   0.0009   0.0013   0.0025   1.00  999.9
2024/07/08 11:04:32.000   28.292656643  -16.544447707  2329.4447   1   6   0.0019   0.0018   0.0138   0.0009   0.0013   0.0026   2.00  999.9
2024/07/08 11:04:33.000   28.292656643  -16.544447707  2329.4446   1   6   0.0019   0.0018   0.0138   0.0009   0.0013   0.0026   3.00  999.9
2024/07/08 11:04:34.000   28.292656643  -16.544447707  2329.4444   1   6   0.0019   0.0018   0.0138   0.0009   0.0013   0.0026   4.00  999.9
2024/07/08 11:04:35.000   28.292656643  -16.544447707  2329.4443   1   6   0.0019   0.0018   0.0138   0.0009   0.0013   0.0026   5.00  999.9
2024/07/08 11:04:36.000   28.292656643  -16.544447707  2329.4442   1   6   0.0019   0.0018   0.0138   0.0009   0.0013   0.0026   6.00  999.9
2024/07/08 11:04:37.000   28.292656643  -16.544447706  2329.4442   1   6   0.0019   0.0018   0.0138   0.0009   0.0013   0.0026   7.00  999.9
2024/07/08 11:04:38.000   28.292656643  -16.544447706  2329.4441   1   6   0.0019   0.0018   0.0138   0.0009   0.0013   0.0026   8.00  999.9
2024/07/08 11:04:39.000   28.292656642  -16.544447706  2329.4441   1   6   0.0019   0.0018   0.0138   0.0009   0.0013   0.0026   9.00  999.9
2024/07/08 11:04:40.000   28.292656642  -16.544447706  2329.4441   1   6   0.0019   0.0018   0.0138   0.0009   0.0013   0.0026  10.00  999.9
2024/07/08 11:04:41.000   28.292656642  -16.544447706  2329.4441   1   6   0.0019   0.0018   0.0138   0.0009   0.0013   0.0026  11.00  999.9
2024/07/08 11:04:42.000   28.292656642  -16.544447706  2329.4441   1   6   0.0019   0.0018   0.0138   0.0009   0.0013   0.0026  12.00  999.9
2024/07/08 11:04:43.000   28.292656642  -16.544447706  2329.4441   1   6   0.0019   0.0018   0.0138   0.0009   0.0013   0.0025  13.00  999.9
2024/07/08 11:04:44.000   28.292656643  -16.544447706  2329.4441   1   6   0.0019   0.0018   0.0138   0.0009   0.0013   0.0025  14.00  999.9
2024/07/08 11:04:45.000   28.292656643  -16.544447706  2329.4441   1   6   0.0019   0.0018   0.0138   0.0009   0.0013   0.0025  15.00  999.9
2024/07/08 11:04:46.000   28.292656643  -16.544447706  2329.4441   1   6   0.0019   0.0017   0.0138   0.0009   0.0013   0.0025 -14.00  999.9
2024/07/08 11:04:47.000   28.292656643  -16.544447706  2329.4441   1   6   0.0019   0.0017   0.0138   0.0009   0.0013   0.0025 -13.00  999.9
2024/07/08 11:04:48.000   28.292656643  -16.544447706  2329.4442   1   6   0.0019   0.0017   0.0137   0.0009   0.0013   0.0025 -12.00  999.9
2024/07/08 11:04:49.000   28.292656643  -16.544447706  2329.4442   1   6   0.0019   0.0017   0.0137   0.0009   0.0013   0.0025 -11.00  999.9
2024/07/08 11:04:50.000   28.292656643  -16.544447706  2329.4442   1   6   0.0019   0.0017   0.0137   0.0009   0.0013   0.0025 -10.00  999.9
2024/07/08 11:04:51.000   28.292656643  -16.544447706  2329.4442   1   6   0.0019   0.0017   0.0137   0.0009   0.0013   0.0025  -9.00  999.9
2024/07/08 11:04:52.000   28.292656643  -16.544447706  2329.4442   1   6   0.0019   0.0017   0.0137   0.0009   0.0013   0.0025  -8.00  999.9
2024/07/08 11:04:53.000   28.292656643  -16.544447706  2329.4442   1   6   0.0019   0.0017   0.0137   0.0009   0.0013   0.0025  -7.00  999.9
2024/07/08 11:04:54.000   28.292656643  -16.544447706  2329.4442   1   6   0.0019   0.0017   0.0137   0.0009   0.0013   0.0025  -6.00  999.9
2024/07/08 11:04:55.000   28.292656643  -16.544447706  2329.4441   1   6   0.0019   0.0017   0.0137   0.0009   0.0013   0.0025  -5.00  999.9
2024/07/08 11:04:56.000   28.292656643  -16.544447706  2329.4441   1   6   0.0019   0.0017   0.0137   0.0009   0.0013   0.0025  -4.00  999.9
2024/07/08 11:04:57.000   28.292656642  -16.544447706  2329.4440   1   6   0.0019   0.0017   0.0137   0.0009   0.0013   0.0025  -3.00  999.9
2024/07/08 11:04:58.000   28.292656642  -16.544447706  2329.4439   1   6   0.0019   0.0017   0.0137   0.0009   0.0013   0.0025  -2.00  999.9
2024/07/08 11:04:59.000   28.292656642  -16.544447706  2329.4437   1   6   0.0019   0.0017   0.0137   0.0009   0.0013   0.0025  -1.00  999.9
2024/07/08 11:05:00.000   28.292656642  -16.544447706  2329.4435   1   6   0.0019   0.0017   0.0137   0.0009   0.0013   0.0025   0.00  999.9
2024/07/08 11:05:01.000   28.292656642  -16.544447706  2329.4434   1   6   0.0019   0.0018   0.0137   0.0009   0.0013   0.0025   1.00  999.9
2024/07/08 11:05:02.000   28.292656642  -16.544447706  2329.4432   1   6   0.0019   0.0018   0.0137   0.0009   0.0013   0.0025   2.00  999.9
2024/07/08 11:05:03.000   28.292656641  -16.544447707  2329.4430   1   6   0.0019   0.0018   0.0137   0.0009   0.0013   0.0026   3.00  999.9
2024/07/08 11:05:04.000   28.292656641  -16.544447707  2329.4428   1   6   0.0019   0.0018   0.0137   0.0009   0.0013   0.0026   4.00  999.9
2024/07/08 11:05:05.000   28.292656641  -16.544447707  2329.4427   1   6   0.0019   0.0018   0.0137   0.0009   0.0013   0.0026   5.00  999.9
2024/07/08 11:05:06.000   28.292656641  -16.544447707  2329.4426   1   6   0.0019   0.0018   0.0137   0.0009   0.0013   0.0026   6.00  999.9
2024/07/08 11:05:07.000   28.292656641  -16.544447707  2329.4425   1   6   0.0019   0.0018   0.0137   0.0009   0.0013   0.0026   7.00  999.9
2024/07/08 11:05:08.000   28.292656641  -16.544447707  2329.4425   1   6   0.0019   0.0018   0.0137   0.0009   0.0013   0.0026   8.00  999.9
2024/07/08 11:05:09.000   28.292656640  -16.544447707  2329.4424   1   6   0.0019   0.0018   0.0137   0.0009   0.0013   0.0026   9.00  999.9
2024/07/08 11:05:10.000   28.292656640  -16.544447707  2329.4424   1   6   0.0019   0.0018   0.0137   0.0009   0.0013   0.0026  10.00  999.9
2024/07/08 11:05:11.000   28.292656640  -16.544447707  2329.4424   1   6   0.0019   0.0018   0.0137   0.0009   0.0013   0.0025  11.00  999.9
2024/07/08 11:05:12.000   28.292656640  -16.544447707  2329.4423   1   6   0.0019   0.0018   0.0137   0.0009   0.0013   0.0025  12.00  999.9
2024/07/08 11:05:13.000   28.292656640  -16.544447707  2329.4423   1   6   0.0019   0.0018   0.0137   0.0009   0.0014   0.0025  13.00  999.9
2024/07/08 11:05:14.000   28.292656640  -16.544447707  2329.4423   1   6   0.0019   0.0018   0.0137   0.0009   0.0014   0.0025  14.00  999.9
2024/07/08 11:05:15.000   28.292656640  -16.544447707  2329.4423   1   6   0.0019   0.0017   0.0137   0.0009   0.0014   0.0025  15.00  999.9
2024/07/08 11:05:16.000   28.292656640  -16.544447707  2329.4423   1   6   0.0019   0.0017   0.0137   0.0009   0.0014   0.0025 -14.00  999.9
2024/07/08 11:05:17.000   28.292656640  -16.544447707  2329.4423   1   6   0.0019   0.0017   0.0137   0.0009   0.0014   0.0025 -13.00  999.9
2024/07/08 11:05:18.000   28.292656640  -16.544447707  2329.4423   1   6   0.0019   0.0017   0.0137   0.0009   0.0014   0.0025 -12.00  999.9
2024/07/08 11:05:19.000   28.292656640  -16.544447707  2329.4423   1   6   0.0019   0.0017   0.0137   0.0009   0.0014   0.0025 -11.00  999.9
2024/07/08 11:05:20.000   28.292656640  -16.544447707  2329.4423   1   6   0.0019   0.0017   0.0137   0.0009   0.0014   0.0025 -10.00  999.9
2024/07/08 11:05:21.000   28.292656640  -16.544447707  2329.4423   1   6   0.0019   0.0017   0.0137   0.0009   0.0014   0.0025  -9.00  999.9
2024/07/08 11:05:22.000   28.292656640  -16.544447707  2329.4423   1   6   0.0019   0.0017   0.0137   0.0009   0.0014   0.0025  -8.00  999.9
2024/07/08 11:05:23.000   28.292656640  -16.544447707  2329.4423   1   6   0.0019   0.0017   0.0137   0.0009   0.0014   0.0025  -7.00  999.9
2024/07/08 11:05:24.000   28.292656640  -16.544447707  2329.4423   1   6   0.0019   0.0017   0.0137   0.0009   0.0014   0.0025  -6.00  999.9
2024/07/08 11:05:25.000   28.292656640  -16.544447707  2329.4423   1   6   0.0019   0.0017   0.0137   0.0009   0.0014   0.0025  -5.00  999.9
2024/07/08 11:05:26.000   28.292656640  -16.544447706  2329.4423   1   6   0.0019   0.0017   0.0137   0.0009   0.0014   0.0025  -4.00  999.9
2024/07/08 11:05:27.000   28.292656640  -16.544447706  2329.4423   1   6   0.0019   0.0017   0.0137   0.0009   0.0014   0.0025  -3.00  999.9
2024/07/08 11:05:28.000   28.292656640  -16.544447706  2329.4422   1   6   0.0019   0.0017   0.0137   0.0009   0.0014   0.0025  -2.00  999.9
2024/07/08 11:05:29.000   28.292656639  -16.544447706  2329.4421   1   6   0.0019   0.0017   0.0137   0.0009   0.0014   0.0025  -1.00  999.9
2024/07/08 11:05:30.000   28.292656639  -16.544447706  2329.4420   1   6   0.0019   0.0017   0.0137   0.0009   0.0014   0.0025   0.00  999.9
2024/07/08 11:05:31.000   28.292656639  -16.544447706  2329.4419   1   6   0.0019   0.0017   0.0137   0.0009   0.0014   0.0025   1.00  999.9
2024/07/08 11:05:32.000   28.292656638  -16.544447706  2329.4418   1   6   0.0019   0.0018   0.0137   0.0009   0.0014   0.0025   2.00  999.9
2024/07/08 11:05:33.000   28.292656638  -16.544447706  2329.4417   1   6   0.0019   0.0018   0.0137   0.0009   0.0014   0.0025   3.00  999.9
2024/07/08 11:05:34.000   28.292656638  -16.544447706  2329.4415   1   6   0.0019   0.0018   0.0137   0.0009   0.0014   0.0025   4.00  999.9
2024/07/08 11:05:35.000   28.292656638  -16.544447706  2329.4415   1   6   0.0019   0.0018   0.0137   0.0009   0.0014   0.0025   5.00  999.9
2024/07/08 11:05:36.000   28.292656637  -16.544447706  2329.4414   1   6   0.0019   0.0018   0.0137   0.0009   0.0014   0.0025   6.00  999.9
2024/07/08 11:05:37.000   28.292656637  -16.544447706  2329.4413   1   6   0.0019   0.0018   0.0137   0.0009   0.0014   0.0025   7.00  999.9
2024/07/08 11:05:38.000   28.292656637  -16.544447706  2329.4412   1   6   0.0019   0.0018   0.0137   0.0009   0.0014   0.0025   8.00  999.9
2024/07/08 11:05:39.000   28.292656637  -16.544447706  2329.4412   1   6   0.0019   0.0018   0.0137   0.0009   0.0014   0.0025   9.00  999.9
2024/07/08 11:05:40.000   28.292656637  -16.544447706  2329.4411   1   6   0.0019   0.0018   0.0137   0.0009   0.0014   0.0025  10.00  999.9
2024/07/08 11:05:41.000   28.292656637  -16.544447706  2329.4411   1   6   0.0019   0.0018   0.0137   0.0009   0.0014   0.0025  11.00  999.9
2024/07/08 11:05:42.000   28.292656637  -16.544447706  2329.4411   1   6   0.0019   0.0018   0.0137   0.0009   0.0014   0.0025  12.00  999.9
2024/07/08 11:05:43.000   28.292656637  -16.544447706  2329.4411   1   6   0.0019   0.0017   0.0137   0.0009   0.0014   0.0025  13.00  999.9
2024/07/08 11:05:44.000   28.292656637  -16.544447706  2329.4411   1   6   0.0019   0.0017   0.0137   0.0009   0.0014   0.0025  14.00  999.9
2024/07/08 11:05:45.000   28.292656637  -16.544447706  2329.4410   1   6   0.0019   0.0017   0.0137   0.0009   0.0014   0.0025  15.00  999.9
2024/07/08 11:05:46.000   28.292656637  -16.544447706  2329.4410   1   6   0.0019   0.0017   0.0137   0.0009   0.0014   0.0025 -14.00  999.9
2024/07/08 11:05:47.000   28.292656637  -16.544447706  2329.4410   1   6   0.0019   0.0017   0.0137   0.0009   0.0014   0.0025 -13.00  999.9
2024/07/08 11:05:48.000   28.292656637  -16.544447706  2329.4410   1   6   0.0019   0.0017   0.0137   0.0009   0.0014   0.0025 -12.00  999.9
2024/07/08 11:05:49.000   28.292656637  -16.544447706  2329.4410   1   6   0.0019   0.0017   0.0137   0.0009   0.0014   0.0025 -11.00  999.9
2024/07/08 11:05:50.000   28.292656637  -16.544447706  2329.4410   1   6   0.0019   0.0017   0.0137   0.0009   0.0014   0.0025 -10.00  999.9
2024/07/08 11:05:51.000   28.292656636  -16.544447706  2329.4409   1   6   0.0019   0.0017   0.0137   0.0009   0.0014   0.0025  -9.00  999.9
2024/07/08 11:05:52.000   28.292656636  -16.544447707  2329.4409   1   6   0.0019   0.0017   0.0137   0.0009   0.0014   0.0025  -8.00  999.9
2024/07/08 11:05:53.000   28.292656636  -16.544447707  2329.4409   1   6   0.0019   0.0017   0.0137   0.0009   0.0014   0.0025  -7.00  999.9
2024/07/08 11:05:54.000   28.292656636  -16.544447707  2329.4408   1   6   0.0019   0.0017   0.0137   0.0009   0.0014   0.0025  -6.00  999.9
2024/07/08 11:05:55.000   28.292656636  -16.544447707  2329.4408   1   6   0.0019   0.0017   0.0137   0.0009   0.0014   0.0025  -5.00  999.9
2024/07/08 11:05:56.000   28.292656636  -16.544447707  2329.4407   1   6   0.0019   0.0017   0.0137   0.0009   0.0014   0.0025  -4.00  999.9
2024/07/08 11:05:57.000   28.292656636  -16.544447707  2329.4406   1   6   0.0019   0.0017   0.0137   0.0009   0.0014   0.0025  -3.00  999.9
2024/07/08 11:05:58.000   28.292656636  -16.544447707  2329.4405   1   6   0.0019   0.0017   0.0137   0.0009   0.0014   0.0025  -2.00  999.9
2024/07/08 11:05:59.000   28.292656635  -16.544447707  2329.4403   1   6   0.0019   0.0017   0.0137   0.0009   0.0014   0.0025  -1.00  999.9
2024/07/08 11:06:00.000   28.292656635  -16.544447707  2329.4412   1   7   0.0019   0.0017   0.0123   0.0009   0.0006   0.0022   0.00  999.9
2024/07/08 11:06:01.000   28.292656634  -16.544447707  2329.4397   1   7   0.0019   0.0017   0.0123   0.0009   0.0006   0.0022   1.00  999.9
2024/07/08 11:06:02.000   28.292656634  -16.544447707  2329.4403   1   7   0.0019   0.0017   0.0108   0.0008  -0.0011   0.0019   2.00  999.9
2024/07/08 11:06:03.000   28.292656634  -16.544447707  2329.4403   1   7   0.0019   0.0017   0.0108   0.0008  -0.0011   0.0019   3.00  999.9
2024/07/08 11:06:04.000   28.292656634  -16.544447707  2329.4402   1   7   0.0019   0.0017   0.0108   0.0008  -0.0011   0.0019   4.00  999.9
2024/07/08 11:06:05.000   28.292656633  -16.544447707  2329.4400   1   7   0.0019   0.0017   0.0108   0.0008  -0.0011   0.0019   5.00  999.9
2024/07/08 11:06:06.000   28.292656633  -16.544447707  2329.4399   1   7   0.0019   0.0017   0.0108   0.0008  -0.0011   0.0019   6.00  999.9
2024/07/08 11:06:07.000   28.292656633  -16.544447707  2329.4398   1   7   0.0019   0.0017   0.0108   0.0008  -0.0011   0.0019   7.00  999.9
2024/07/08 11:06:08.000   28.292656633  -16.544447707  2329.4397   1   7   0.0019   0.0017   0.0108   0.0008  -0.0011   0.0019   8.00  999.9
2024/07/08 11:06:09.000   28.292656633  -16.544447707  2329.4396   1   7   0.0019   0.0017   0.0108   0.0008  -0.0011   0.0019   9.00  999.9
2024/07/08 11:06:10.000   28.292656633  -16.544447707  2329.4395   1   7   0.0019   0.0017   0.0108   0.0008  -0.0011   0.0019  10.00  999.9
2024/07/08 11:06:11.000   28.292656633  -16.544447707  2329.4395   1   7   0.0019   0.0017   0.0108   0.0008  -0.0011   0.0019  11.00  999.9
2024/07/08 11:06:12.000   28.292656633  -16.544447707  2329.4395   1   7   0.0019   0.0017   0.0108   0.0008  -0.0011   0.0019  12.00  999.9
2024/07/08 11:06:13.000   28.292656633  -16.544447708  2329.4394   1   7   0.0019   0.0017   0.0108   0.0008  -0.0011   0.0019  13.00  999.9
2024/07/08 11:06:14.000   28.292656633  -16.544447708  2329.4394   1   7   0.0019   0.0017   0.0108   0.0008  -0.0011   0.0019  14.00  999.9
2024/07/08 11:06:15.000   28.292656633  -16.544447708  2329.4393   1   7   0.0019   0.0017   0.0108   0.0008  -0.0011   0.0019  15.00  999.9
2024/07/08 11:06:16.000   28.292656633  -16.544447708  2329.4393   1   7   0.0019   0.0017   0.0108   0.0008  -0.0011   0.0019 -14.00  999.9
2024/07/08 11:06:17.000   28.292656633  -16.544447708  2329.4393   1   7   0.0019   0.0017   0.0108   0.0008  -0.0011   0.0019 -13.00  999.9
2024/07/08 11:06:18.000   28.292656633  -16.544447708  2329.4392   1   7   0.0019   0.0017   0.0108   0.0008  -0.0011   0.0019 -12.00  999.9
2024/07/08 11:06:19.000   28.292656633  -16.544447708  2329.4391   1   7   0.0019   0.0017   0.0108   0.0008  -0.0011   0.0019 -11.00  999.9
2024/07/08 11:06:20.000   28.292656633  -16.544447708  2329.4391   1   7   0.0019   0.0017   0.0108   0.0008  -0.0011   0.0019 -10.00  999.9
2024/07/08 11:06:21.000   28.292656633  -16.544447708  2329.4390   1   7   0.0019   0.0017   0.0108   0.0008  -0.0011   0.0019  -9.00  999.9
2024/07/08 11:06:22.000   28.292656633  -16.544447708  2329.4389   1   7   0.0019   0.0017   0.0108   0.0008  -0.0011   0.0019  -8.00  999.9
2024/07/08 11:06:23.000   28.292656632  -16.544447708  2329.4388   1   7   0.0019   0.0017   0.0108   0.0008  -0.0011   0.0019  -7.00  999.9
2024/07/08 11:06:24.000   28.292656632  -16.544447708  2329.4386   1   7   0.0019   0.0017   0.0108   0.0008  -0.0011   0.0019  -6.00  999.9
2024/07/08 11:06:25.000   28.292656632  -16.544447708  2329.4385   1   7   0.0019   0.0017   0.0108   0.0008  -0.0011   0.0019  -5.00  999.9
2024/07/08 11:06:26.000   28.292656632  -16.544447708  2329.4383   1   7   0.0019   0.0017   0.0108   0.0008  -0.0011   0.0019  -4.00  999.9
2024/07/08 11:06:27.000   28.292656632  -16.544447708  2329.4382   1   7   0.0019   0.0017   0.0108   0.0008  -0.0011   0.0019  -3.00  999.9
2024/07/08 11:06:28.000   28.292656632  -16.544447708  2329.4379   1   7   0.0019   0.0017   0.0108   0.0008  -0.0011   0.0019  -2.00  999.9
2024/07/08 11:06:29.000   28.292656631  -16.544447708  2329.4377   1   7   0.0019   0.0017   0.0108   0.0008  -0.0011   0.0019  -1.00  999.9
2024/07/08 11:06:30.000   28.292656631  -16.544447708  2329.4375   1   7   0.0019   0.0017   0.0108   0.0008  -0.0011   0.0019   0.00  999.9
2024/07/08 11:06:31.000   28.292656631  -16.544447708  2329.4373   1   7   0.0019   0.0017   0.0108   0.0008  -0.0011   0.0019   1.00  999.9
2024/07/08 11:06:32.000   28.292656631  -16.544447708  2329.4372   1   7   0.0019   0.0017   0.0108   0.0008  -0.0011   0.0019   2.00  999.9
2024/07/08 11:06:33.000   28.292656630  -16.544447708  2329.4370   1   7   0.0019   0.0017   0.0108   0.0008  -0.0011   0.0019   3.00  999.9
2024/07/08 11:06:34.000   28.292656630  -16.544447708  2329.4369   1   7   0.0019   0.0017   0.0109   0.0008  -0.0011   0.0019   4.00  999.9
2024/07/08 11:06:35.000   28.292656630  -16.544447708  2329.4369   1   7   0.0019   0.0017   0.0109   0.0008  -0.0011   0.0019   5.00  999.9
2024/07/08 11:06:36.000   28.292656630  -16.544447708  2329.4368   1   7   0.0019   0.0017   0.0109   0.0008  -0.0011   0.0019   6.00  999.9
2024/07/08 11:06:37.000   28.292656630  -16.544447708  2329.4367   1   7   0.0019   0.0017   0.0109   0.0008  -0.0010   0.0019   7.00  999.9
2024/07/08 11:06:38.000   28.292656630  -16.544447708  2329.4367   1   7   0.0019   0.0017   0.0109   0.0008  -0.0010   0.0019   8.00  999.9
2024/07/08 11:06:39.000   28.292656630  -16.544447708  2329.4366   1   7   0.0019   0.0017   0.0109   0.0008  -0.0010   0.0019   9.00  999.9
2024/07/08 11:06:40.000   28.292656630  -16.544447708  2329.4366   1   7   0.0019   0.0017   0.0109   0.0008  -0.0010   0.0019  10.00  999.9
2024/07/08 11:06:41.000   28.292656630  -16.544447708  2329.4365   1   7   0.0019   0.0017   0.0109   0.0008  -0.0010   0.0019  11.00  999.9
2024/07/08 11:06:42.000   28.292656630  -16.544447708  2329.4365   1   7   0.0019   0.0017   0.0109   0.0008  -0.0010   0.0019  12.00  999.9
2024/07/08 11:06:43.000   28.292656630  -16.544447708  2329.4365   1   7   0.0019   0.0017   0.0108   0.0008  -0.0010   0.0019  13.00  999.9
2024/07/08 11:06:44.000   28.292656630  -16.544447708  2329.4364   1   7   0.0019   0.0017   0.0108   0.0008  -0.0010   0.0019  14.00  999.9
2024/07/08 11:06:45.000   28.292656630  -16.544447708  2329.4364   1   7   0.0019   0.0017   0.0108   0.0008  -0.0010   0.0019  15.00  999.9
2024/07/08 11:06:46.000   28.292656630  -16.544447708  2329.4364   1   7   0.0019   0.0017   0.0108   0.0008  -0.0010   0.0019 -14.00  999.9
2024/07/08 11:06:47.000   28.292656630  -16.544447708  2329.4364   1   7   0.0019   0.0017   0.0108   0.0008  -0.0010   0.0019 -13.00  999.9
2024/07/08 11:06:48.000   28.292656630  -16.544447708  2329.4363   1   7   0.0019   0.0017   0.0108   0.0008  -0.0010   0.0019 -12.00  999.9
2024/07/08 11:06:49.000   28.292656630  -16.544447708  2329.4363   1   7   0.0019   0.0017   0.0108   0.0008  -0.0010   0.0019 -11.00  999.9
2024/07/08 11:06:50.000   28.292656630  -16.544447708  2329.4363   1   7   0.0019   0.0017   0.0108   0.0008  -0.0010   0.0019 -10.00  999.9
2024/07/08 11:06:51.000   28.292656629  -16.544447708  2329.4362   1   7   0.0019   0.0017   0.0108   0.0008  -0.0010   0.0019  -9.00  999.9
2024/07/08 11:06:52.000   28.292656629  -16.544447708  2329.4362   1   7   0.0019   0.0017   0.0108   0.0008  -0.0010   0.0019  -8.00  999.9
2024/07/08 11:06:53.000   28.292656629  -16.544447708  2329.4361   1   7   0.0019   0.0017   0.0108   0.0008  -0.0010   0.0019  -7.00  999.9
2024/07/08 11:06:54.000   28.292656629  -16.544447708  2329.4360   1   7   0.0019   0.0017   0.0108   0.0008  -0.0010   0.0019  -6.00  999.9
2024/07/08 11:06:55.000   28.292656629  -16.544447708  2329.4360   1   7   0.0019   0.0017   0.0108   0.0008  -0.0010   0.0019  -5.00  999.9
2024/07/08 11:06:56.000   28.292656629  -16.544447708  2329.4359   1   7   0.0019   0.0017   0.0108   0.0008  -0.0010   0.0019  -4.00  999.9
2024/07/08 11:06:57.000   28.292656629  -16.544447708  2329.4358   1   7   0.0019   0.0017   0.0108   0.0008  -0.0010   0.0019  -3.00  999.9
2024/07/08 11:06:58.000   28.292656629  -16.544447708  2329.4357   1   7   0.0019   0.0017   0.0108   0.0008  -0.0010   0.0019  -2.00  999.9
2024/07/08 11:06:59.000   28.292656629  -16.544447708  2329.4356   1   7   0.0019   0.0017   0.0108   0.0008  -0.0010   0.0019  -1.00  999.9
2024/07/08 11:07:00.000   28.292656628  -16.544447708  2329.4356   1   7   0.0019   0.0017   0.0108   0.0008  -0.0010   0.0019   0.00  999.9
2024/07/08 11:07:01.000   28.292656628  -16.544447708  2329.4356   1   7   0.0019   0.0017   0.0108   0.0008  -0.0010   0.0019   1.00  999.9
2024/07/08 11:07:02.000   28.292656627  -16.544447708  2329.4356   1   7   0.0019   0.0017   0.0109   0.0008  -0.0010   0.0019   2.00  999.9
2024/07/08 11:07:03.000   28.292656627  -16.544447708  2329.4355   1   7   0.0019   0.0017   0.0109   0.0009  -0.0010   0.0019   3.00  999.9
2024/07/08 11:07:04.000   28.292656627  -16.544447708  2329.4354   1   7   0.0019   0.0017   0.0109   0.0009  -0.0010   0.0019   4.00  999.9
2024/07/08 11:07:05.000   28.292656626  -16.544447708  2329.4353   1   7   0.0019   0.0017   0.0109   0.0009  -0.0010   0.0019   5.00  999.9
2024/07/08 11:07:06.000   28.292656626  -16.544447708  2329.4352   1   7   0.0019   0.0017   0.0109   0.0009  -0.0010   0.0019   6.00  999.9
2024/07/08 11:07:07.000   28.292656626  -16.544447708  2329.4351   1   7   0.0019   0.0017   0.0109   0.0009  -0.0010   0.0019   7.00  999.9
2024/07/08 11:07:08.000   28.292656626  -16.544447708  2329.4350   1   7   0.0019   0.0017   0.0109   0.0009  -0.0010   0.0019   8.00  999.9
2024/07/08 11:07:09.000   28.292656626  -16.544447708  2329.4349   1   7   0.0019   0.0017   0.0109   0.0009  -0.0010   0.0019   9.00  999.9
2024/07/08 11:07:10.000   28.292656625  -16.544447708  2329.4349   1   7   0.0019   0.0017   0.0109   0.0009  -0.0010   0.0019  10.00  999.9
2024/07/08 11:07:11.000   28.292656625  -16.544447708  2329.4348   1   7   0.0019   0.0017   0.0109   0.0009  -0.0010   0.0019  11.00  999.9
2024/07/08 11:07:12.000   28.292656625  -16.544447708  2329.4347   1   7   0.0019   0.0017   0.0109   0.0009  -0.0009   0.0019  12.00  999.9
2024/07/08 11:07:13.000   28.292656625  -16.544447708  2329.4347   1   7   0.0019   0.0017   0.0109   0.0009  -0.0009   0.0019  13.00  999.9
2024/07/08 11:07:14.000   28.292656625  -16.544447708  2329.4346   1   7   0.0019   0.0017   0.0109   0.0009  -0.0009   0.0019  14.00  999.9
2024/07/08 11:07:15.000   28.292656625  -16.544447708  2329.4346   1   7   0.0019   0.0017   0.0109   0.0009  -0.0009   0.0019  15.00  999.9
2024/07/08 11:07:16.000   28.292656625  -16.544447708  2329.4345   1   7   0.0019   0.0017   0.0108   0.0008  -0.0009   0.0019 -14.00  999.9
2024/07/08 11:07:17.000   28.292656625  -16.544447708  2329.4345   1   7   0.0019   0.0017   0.0108   0.0008  -0.0009   0.0019 -13.00  999.9
2024/07/08 11:07:18.000   28.292656625  -16.544447708  2329.4344   1   7   0.0019   0.0017   0.0108   0.0008  -0.0009   0.0019 -12.00  999.9
2024/07/08 11:07:19.000   28.292656625  -16.544447708  2329.4344   1   7   0.0019   0.0017   0.0108   0.0008  -0.0009   0.0019 -11.00  999.9
