% program   : RTKPOST-EX 2.5.0
% inp file  : C:\Users\SallyHenry\Desktop\Sally Internship\GNSS gravi\DATA\Survey Rover Obs\LM007_G1.24o
% inp file  : C:\Users\SallyHenry\Desktop\Sally Internship\GNSS gravi\DATA\BaseStations\IZAN\IZAN00ESP_R_20241900000_01D_30S_MO.rnx
% inp file  : C:\Users\SallyHenry\Desktop\Sally Internship\GNSS gravi\DATA\BaseStations\IZAN\IZAN00ESP_R_20241900000_01D_MN.rnx
% inp file  : C:\Users\SallyHenry\Desktop\Sally Internship\GNSS gravi\DATA\aux_files\Survey\IGS0OPSFIN_20241900000_01D_15M_ORB.SP3
% inp file  : C:\Users\SallyHenry\Desktop\Sally Internship\GNSS gravi\DATA\aux_files\Survey\IGS0OPSFIN_20241900000_01D_30S_CLK.CLK
% obs start : 2024/07/08 10:03:10.0 GPST (week2322 122590.0s)
% obs end   : 2024/07/08 10:23:59.0 GPST (week2322 123839.0s)
% pos mode  : Static
% freqs     : L1+L2/E5b
% solution  : Combined-No Phase Reset
% elev mask : 15.0 deg
% dynamics  : on
% tidecorr  : solid
% ionos opt : Estimate TEC
% tropo opt : Estimate ZTD+Grad
% ephemeris : Precise
% navi sys  : GPS GLONASS Galileo QZSS BDS
% amb res   : Fix and Hold
% amb glo   : Fix and Hold
% amb bds   : on
% val thres : 3.0
% antenna1  :                       ( 0.0000  0.0000  1.7570)
% antenna2  :                       ( 0.0000  0.0000  0.0000)
% ref pos   :  28.308069410  -16.499677180  2417.4044
%
% (lat/lon/height=WGS84/ellipsoidal,Q=1:fix,2:float,3:sbas,4:dgps,5:single,6:ppp,ns=# of satellites)
%  GPST                  latitude(deg) longitude(deg)  height(m)   Q  ns   sdn(m)   sde(m)   sdu(m)  sdne(m)  sdeu(m)  sdun(m) age(s)  ratio
2024/07/08 10:03:10.000   28.292546116  -16.545474005  2329.7003   2   7   0.0152   0.0274   0.0504  -0.0143   0.0263  -0.0217 -20.00    0.0
2024/07/08 10:03:11.000   28.292546116  -16.545474006  2329.7002   2   7   0.0152   0.0274   0.0504  -0.0143   0.0263  -0.0217 -19.00    0.0
2024/07/08 10:03:12.000   28.292546116  -16.545474005  2329.7001   2   7   0.0152   0.0274   0.0504  -0.0143   0.0263  -0.0217 -18.00    0.0
2024/07/08 10:03:13.000   28.292546117  -16.545474006  2329.6999   2   7   0.0152   0.0274   0.0504  -0.0143   0.0263  -0.0217 -17.00    0.0
2024/07/08 10:03:14.000   28.292546117  -16.545474006  2329.6998   2   7   0.0152   0.0274   0.0504  -0.0143   0.0263  -0.0217 -16.00    0.0
2024/07/08 10:03:15.000   28.292546117  -16.545474007  2329.6996   2   7   0.0152   0.0274   0.0504  -0.0143   0.0263  -0.0217 -15.00    0.0
2024/07/08 10:03:16.000   28.292546117  -16.545474007  2329.6994   2   7   0.0152   0.0274   0.0504  -0.0143   0.0262  -0.0217 -14.00    0.0
2024/07/08 10:03:17.000   28.292546118  -16.545474007  2329.6993   2   7   0.0152   0.0274   0.0504  -0.0143   0.0262  -0.0217 -13.00    0.0
2024/07/08 10:03:18.000   28.292546118  -16.545474008  2329.6991   2   7   0.0152   0.0274   0.0505  -0.0143   0.0262  -0.0217 -12.00    0.0
2024/07/08 10:03:19.000   28.292546119  -16.545474009  2329.6987   2   7   0.0152   0.0274   0.0505  -0.0143   0.0262  -0.0217 -11.00    0.0
2024/07/08 10:03:20.000   28.292546119  -16.545474010  2329.6985   2   7   0.0152   0.0274   0.0505  -0.0143   0.0262  -0.0217 -10.00    0.0
2024/07/08 10:03:21.000   28.292546120  -16.545474011  2329.6981   2   7   0.0152   0.0274   0.0505  -0.0142   0.0262  -0.0217  -9.00    0.0
2024/07/08 10:03:22.000   28.292546120  -16.545474012  2329.6978   2   7   0.0152   0.0274   0.0505  -0.0142   0.0262  -0.0217  -8.00    0.0
2024/07/08 10:03:23.000   28.292546121  -16.545474015  2329.6974   2   7   0.0152   0.0274   0.0505  -0.0142   0.0262  -0.0217  -7.00    0.0
2024/07/08 10:03:24.000   28.292546122  -16.545474017  2329.6971   2   7   0.0152   0.0274   0.0505  -0.0142   0.0262  -0.0217  -6.00    0.0
2024/07/08 10:03:25.000   28.292546123  -16.545474019  2329.6966   2   7   0.0152   0.0274   0.0505  -0.0142   0.0262  -0.0217  -5.00    0.0
2024/07/08 10:03:26.000   28.292546124  -16.545474021  2329.6963   2   7   0.0152   0.0274   0.0505  -0.0143   0.0262  -0.0217  -4.00    0.0
2024/07/08 10:03:27.000   28.292546125  -16.545474024  2329.6958   2   7   0.0152   0.0274   0.0505  -0.0143   0.0263  -0.0217  -3.00    0.0
2024/07/08 10:03:28.000   28.292546126  -16.545474026  2329.6953   2   7   0.0152   0.0274   0.0505  -0.0143   0.0263  -0.0217  -2.00    0.0
2024/07/08 10:03:29.000   28.292546127  -16.545474026  2329.6948   2   7   0.0152   0.0274   0.0506  -0.0143   0.0263  -0.0218  -1.00    0.0
2024/07/08 10:03:30.000   28.292546129  -16.545474028  2329.6942   2   7   0.0152   0.0275   0.0506  -0.0143   0.0263  -0.0218   0.00    0.0
2024/07/08 10:03:31.000   28.292546132  -16.545474031  2329.6944   2   7   0.0153   0.0275   0.0506  -0.0143   0.0263  -0.0218   1.00    0.0
2024/07/08 10:03:32.000   28.292546134  -16.545474034  2329.6943   2   7   0.0153   0.0275   0.0506  -0.0143   0.0263  -0.0218   2.00    0.0
2024/07/08 10:03:33.000   28.292546135  -16.545474035  2329.6944   2   7   0.0153   0.0275   0.0507  -0.0143   0.0263  -0.0218   3.00    0.0
2024/07/08 10:03:34.000   28.292546135  -16.545474035  2329.6944   2   7   0.0153   0.0275   0.0507  -0.0143   0.0263  -0.0218   4.00    0.0
2024/07/08 10:03:35.000   28.292546137  -16.545474036  2329.6941   2   7   0.0153   0.0275   0.0507  -0.0143   0.0263  -0.0218   5.00    0.0
2024/07/08 10:03:36.000   28.292546138  -16.545474036  2329.6938   2   7   0.0153   0.0275   0.0507  -0.0143   0.0263  -0.0218   6.00    0.0
2024/07/08 10:03:37.000   28.292546139  -16.545474037  2329.6936   2   7   0.0153   0.0275   0.0507  -0.0143   0.0263  -0.0218   7.00    0.0
2024/07/08 10:03:38.000   28.292546140  -16.545474037  2329.6933   2   7   0.0153   0.0275   0.0507  -0.0143   0.0263  -0.0219   8.00    0.0
2024/07/08 10:03:39.000   28.292546141  -16.545474037  2329.6930   2   7   0.0153   0.0275   0.0507  -0.0143   0.0263  -0.0219   9.00    0.0
2024/07/08 10:03:40.000   28.292546142  -16.545474037  2329.6927   2   7   0.0153   0.0275   0.0508  -0.0143   0.0263  -0.0219  10.00    0.0
2024/07/08 10:03:41.000   28.292546143  -16.545474037  2329.6924   2   7   0.0153   0.0275   0.0508  -0.0143   0.0263  -0.0219  11.00    0.0
2024/07/08 10:03:42.000   28.292546144  -16.545474038  2329.6921   2   7   0.0153   0.0275   0.0508  -0.0143   0.0263  -0.0219  12.00    0.0
2024/07/08 10:03:43.000   28.292546145  -16.545474038  2329.6919   2   7   0.0153   0.0275   0.0508  -0.0143   0.0263  -0.0219  13.00    0.0
2024/07/08 10:03:44.000   28.292546146  -16.545474038  2329.6917   2   7   0.0153   0.0275   0.0508  -0.0143   0.0263  -0.0219  14.00    0.0
2024/07/08 10:03:45.000   28.292546146  -16.545474038  2329.6916   2   7   0.0153   0.0275   0.0508  -0.0143   0.0263  -0.0219 -15.00    0.0
2024/07/08 10:03:46.000   28.292546147  -16.545474038  2329.6914   2   7   0.0153   0.0275   0.0508  -0.0143   0.0263  -0.0219 -14.00    0.0
2024/07/08 10:03:47.000   28.292546147  -16.545474038  2329.6913   2   7   0.0153   0.0275   0.0508  -0.0143   0.0263  -0.0219 -13.00    0.0
2024/07/08 10:03:48.000   28.292546148  -16.545474038  2329.6912   2   7   0.0153   0.0275   0.0508  -0.0143   0.0263  -0.0219 -12.00    0.0
2024/07/08 10:03:49.000   28.292546148  -16.545474038  2329.6911   2   7   0.0153   0.0275   0.0508  -0.0143   0.0263  -0.0219 -11.00    0.0
2024/07/08 10:03:50.000   28.292546149  -16.545474038  2329.6909   2   7   0.0153   0.0275   0.0508  -0.0143   0.0263  -0.0219 -10.00    0.0
2024/07/08 10:03:51.000   28.292546150  -16.545474038  2329.6908   2   7   0.0153   0.0275   0.0508  -0.0143   0.0263  -0.0219  -9.00    0.0
2024/07/08 10:03:52.000   28.292546150  -16.545474038  2329.6906   2   7   0.0153   0.0275   0.0508  -0.0143   0.0263  -0.0219  -8.00    0.0
2024/07/08 10:03:53.000   28.292546151  -16.545474038  2329.6905   2   7   0.0153   0.0275   0.0508  -0.0143   0.0263  -0.0219  -7.00    0.0
2024/07/08 10:03:54.000   28.292546151  -16.545474039  2329.6903   2   7   0.0153   0.0275   0.0508  -0.0143   0.0263  -0.0219  -6.00    0.0
2024/07/08 10:03:55.000   28.292546151  -16.545474038  2329.6901   2   7   0.0153   0.0275   0.0508  -0.0143   0.0263  -0.0219  -5.00    0.0
2024/07/08 10:03:56.000   28.292546152  -16.545474039  2329.6898   2   7   0.0153   0.0275   0.0508  -0.0143   0.0263  -0.0219  -4.00    0.0
2024/07/08 10:03:57.000   28.292546153  -16.545474040  2329.6895   2   7   0.0154   0.0275   0.0508  -0.0143   0.0263  -0.0219  -3.00    0.0
2024/07/08 10:03:58.000   28.292546154  -16.545474042  2329.6892   2   7   0.0154   0.0275   0.0509  -0.0143   0.0263  -0.0219  -2.00    0.0
2024/07/08 10:03:59.000   28.292546154  -16.545474043  2329.6889   2   7   0.0154   0.0275   0.0509  -0.0143   0.0263  -0.0219  -1.00    0.0
2024/07/08 10:04:00.000   28.292546154  -16.545474045  2329.6885   2   7   0.0154   0.0275   0.0509  -0.0143   0.0263  -0.0219   0.00    0.0
2024/07/08 10:04:01.000   28.292546156  -16.545474049  2329.6884   2   7   0.0154   0.0275   0.0509  -0.0143   0.0263  -0.0219   1.00    0.0
2024/07/08 10:04:02.000   28.292546157  -16.545474050  2329.6883   2   7   0.0154   0.0275   0.0510  -0.0143   0.0263  -0.0220   2.00    0.0
2024/07/08 10:04:03.000   28.292546158  -16.545474053  2329.6881   2   7   0.0154   0.0275   0.0510  -0.0143   0.0264  -0.0220   3.00    0.0
2024/07/08 10:04:04.000   28.292546159  -16.545474056  2329.6879   2   7   0.0154   0.0275   0.0510  -0.0143   0.0264  -0.0220   4.00    0.0
2024/07/08 10:04:05.000   28.292546159  -16.545474059  2329.6876   2   7   0.0154   0.0275   0.0510  -0.0143   0.0264  -0.0220   5.00    0.0
2024/07/08 10:04:06.000   28.292546160  -16.545474061  2329.6873   2   7   0.0154   0.0275   0.0510  -0.0143   0.0264  -0.0220   6.00    0.0
2024/07/08 10:04:07.000   28.292546160  -16.545474062  2329.6872   2   7   0.0154   0.0275   0.0510  -0.0143   0.0264  -0.0220   7.00    0.0
2024/07/08 10:04:08.000   28.292546161  -16.545474064  2329.6867   2   7   0.0154   0.0275   0.0511  -0.0143   0.0264  -0.0220   8.00    0.0
2024/07/08 10:04:09.000   28.292546161  -16.545474064  2329.6866   2   7   0.0155   0.0275   0.0511  -0.0143   0.0264  -0.0220   9.00    0.0
2024/07/08 10:04:10.000   28.292546161  -16.545474065  2329.6864   2   7   0.0155   0.0275   0.0511  -0.0143   0.0264  -0.0220  10.00    0.0
2024/07/08 10:04:11.000   28.292546161  -16.545474066  2329.6861   2   7   0.0155   0.0275   0.0511  -0.0143   0.0264  -0.0220  11.00    0.0
2024/07/08 10:04:12.000   28.292546161  -16.545474067  2329.6859   2   7   0.0155   0.0275   0.0511  -0.0143   0.0264  -0.0220  12.00    0.0
2024/07/08 10:04:13.000   28.292546161  -16.545474068  2329.6857   2   7   0.0155   0.0275   0.0511  -0.0143   0.0264  -0.0220  13.00    0.0
2024/07/08 10:04:14.000   28.292546162  -16.545474069  2329.6855   2   7   0.0155   0.0275   0.0511  -0.0143   0.0264  -0.0220  14.00    0.0
2024/07/08 10:04:15.000   28.292546162  -16.545474069  2329.6854   2   7   0.0155   0.0275   0.0511  -0.0143   0.0264  -0.0220 -15.00    0.0
2024/07/08 10:04:16.000   28.292546162  -16.545474070  2329.6852   2   7   0.0155   0.0275   0.0511  -0.0143   0.0264  -0.0220 -14.00    0.0
2024/07/08 10:04:17.000   28.292546162  -16.545474070  2329.6850   2   7   0.0155   0.0275   0.0511  -0.0143   0.0264  -0.0220 -13.00    0.0
2024/07/08 10:04:18.000   28.292546162  -16.545474071  2329.6848   2   7   0.0155   0.0275   0.0511  -0.0143   0.0264  -0.0220 -12.00    0.0
2024/07/08 10:04:19.000   28.292546162  -16.545474071  2329.6847   2   7   0.0155   0.0275   0.0511  -0.0143   0.0264  -0.0220 -11.00    0.0
2024/07/08 10:04:20.000   28.292546162  -16.545474072  2329.6845   2   7   0.0155   0.0275   0.0511  -0.0143   0.0264  -0.0220 -10.00    0.0
2024/07/08 10:04:21.000   28.292546162  -16.545474072  2329.6844   2   7   0.0155   0.0275   0.0511  -0.0143   0.0264  -0.0220  -9.00    0.0
2024/07/08 10:04:22.000   28.292546162  -16.545474073  2329.6842   2   7   0.0155   0.0275   0.0511  -0.0143   0.0264  -0.0220  -8.00    0.0
2024/07/08 10:04:23.000   28.292546161  -16.545474074  2329.6840   2   7   0.0155   0.0275   0.0511  -0.0143   0.0264  -0.0220  -7.00    0.0
2024/07/08 10:04:24.000   28.292546161  -16.545474075  2329.6838   2   7   0.0155   0.0275   0.0511  -0.0143   0.0264  -0.0220  -6.00    0.0
2024/07/08 10:04:25.000   28.292546161  -16.545474077  2329.6836   2   7   0.0155   0.0275   0.0511  -0.0143   0.0264  -0.0220  -5.00    0.0
2024/07/08 10:04:26.000   28.292546161  -16.545474079  2329.6833   2   7   0.0155   0.0275   0.0511  -0.0143   0.0264  -0.0220  -4.00    0.0
2024/07/08 10:04:27.000   28.292546161  -16.545474082  2329.6829   2   7   0.0155   0.0275   0.0512  -0.0143   0.0264  -0.0220  -3.00    0.0
2024/07/08 10:04:28.000   28.292546160  -16.545474084  2329.6828   2   7   0.0155   0.0275   0.0512  -0.0143   0.0264  -0.0221  -2.00    0.0
2024/07/08 10:04:29.000   28.292546160  -16.545474083  2329.6830   2   7   0.0155   0.0276   0.0512  -0.0143   0.0264  -0.0221  -1.00    0.0
2024/07/08 10:04:30.000   28.292546159  -16.545474085  2329.6830   2   7   0.0155   0.0276   0.0512  -0.0143   0.0264  -0.0221   0.00    0.0
2024/07/08 10:04:31.000   28.292546159  -16.545474087  2329.6828   2   7   0.0155   0.0276   0.0512  -0.0143   0.0264  -0.0221   1.00    0.0
2024/07/08 10:04:32.000   28.292546160  -16.545474089  2329.6828   2   7   0.0155   0.0276   0.0513  -0.0143   0.0264  -0.0221   2.00    0.0
2024/07/08 10:04:33.000   28.292546161  -16.545474091  2329.6828   2   7   0.0156   0.0276   0.0513  -0.0143   0.0264  -0.0221   3.00    0.0
2024/07/08 10:04:34.000   28.292546161  -16.545474091  2329.6829   2   7   0.0156   0.0276   0.0513  -0.0143   0.0264  -0.0221   4.00    0.0
2024/07/08 10:04:35.000   28.292546162  -16.545474092  2329.6827   2   7   0.0156   0.0276   0.0513  -0.0143   0.0264  -0.0221   5.00    0.0
2024/07/08 10:04:36.000   28.292546162  -16.545474092  2329.6826   2   7   0.0156   0.0276   0.0513  -0.0143   0.0264  -0.0222   6.00    0.0
2024/07/08 10:04:37.000   28.292546163  -16.545474093  2329.6824   2   7   0.0156   0.0276   0.0513  -0.0143   0.0264  -0.0222   7.00    0.0
2024/07/08 10:04:38.000   28.292546164  -16.545474094  2329.6824   2   7   0.0156   0.0276   0.0514  -0.0143   0.0264  -0.0222   8.00    0.0
2024/07/08 10:04:39.000   28.292546165  -16.545474094  2329.6823   2   7   0.0156   0.0276   0.0514  -0.0143   0.0264  -0.0222   9.00    0.0
2024/07/08 10:04:40.000   28.292546165  -16.545474094  2329.6823   2   7   0.0156   0.0276   0.0514  -0.0143   0.0264  -0.0222  10.00    0.0
2024/07/08 10:04:41.000   28.292546165  -16.545474095  2329.6823   2   7   0.0156   0.0276   0.0514  -0.0143   0.0264  -0.0222  11.00    0.0
2024/07/08 10:04:42.000   28.292546166  -16.545474096  2329.6822   2   7   0.0156   0.0276   0.0514  -0.0143   0.0264  -0.0222  12.00    0.0
2024/07/08 10:04:43.000   28.292546166  -16.545474096  2329.6823   2   7   0.0156   0.0276   0.0514  -0.0143   0.0264  -0.0222  13.00    0.0
2024/07/08 10:04:44.000   28.292546167  -16.545474096  2329.6823   2   7   0.0156   0.0276   0.0514  -0.0143   0.0264  -0.0222  14.00    0.0
2024/07/08 10:04:45.000   28.292546167  -16.545474097  2329.6824   2   7   0.0156   0.0276   0.0514  -0.0143   0.0264  -0.0222 -15.00    0.0
2024/07/08 10:04:46.000   28.292546167  -16.545474097  2329.6825   2   7   0.0156   0.0276   0.0514  -0.0143   0.0264  -0.0222 -14.00    0.0
2024/07/08 10:04:47.000   28.292546167  -16.545474097  2329.6826   2   7   0.0156   0.0276   0.0514  -0.0143   0.0264  -0.0222 -13.00    0.0
2024/07/08 10:04:48.000   28.292546167  -16.545474097  2329.6827   2   7   0.0156   0.0276   0.0514  -0.0143   0.0264  -0.0222 -12.00    0.0
2024/07/08 10:04:49.000   28.292546167  -16.545474098  2329.6828   2   7   0.0156   0.0276   0.0514  -0.0143   0.0264  -0.0222 -11.00    0.0
2024/07/08 10:04:50.000   28.292546167  -16.545474099  2329.6830   2   7   0.0156   0.0276   0.0514  -0.0143   0.0264  -0.0222 -10.00    0.0
2024/07/08 10:04:51.000   28.292546167  -16.545474099  2329.6833   2   7   0.0156   0.0276   0.0514  -0.0143   0.0264  -0.0222  -9.00    0.0
2024/07/08 10:04:52.000   28.292546167  -16.545474099  2329.6835   2   7   0.0156   0.0276   0.0514  -0.0143   0.0264  -0.0222  -8.00    0.0
2024/07/08 10:04:53.000   28.292546168  -16.545474099  2329.6838   2   7   0.0156   0.0276   0.0514  -0.0143   0.0264  -0.0222  -7.00    0.0
2024/07/08 10:04:54.000   28.292546168  -16.545474099  2329.6841   2   7   0.0156   0.0276   0.0514  -0.0143   0.0264  -0.0222  -6.00    0.0
2024/07/08 10:04:55.000   28.292546168  -16.545474098  2329.6844   2   7   0.0156   0.0276   0.0514  -0.0143   0.0264  -0.0222  -5.00    0.0
2024/07/08 10:04:56.000   28.292546168  -16.545474098  2329.6846   2   7   0.0156   0.0276   0.0514  -0.0143   0.0264  -0.0222  -4.00    0.0
2024/07/08 10:04:57.000   28.292546169  -16.545474098  2329.6847   2   7   0.0156   0.0276   0.0515  -0.0143   0.0264  -0.0222  -3.00    0.0
2024/07/08 10:04:58.000   28.292546169  -16.545474099  2329.6850   2   7   0.0156   0.0276   0.0515  -0.0143   0.0264  -0.0222  -2.00    0.0
2024/07/08 10:04:59.000   28.292546169  -16.545474098  2329.6853   2   7   0.0156   0.0276   0.0515  -0.0143   0.0264  -0.0222  -1.00    0.0
2024/07/08 10:05:00.000   28.292546169  -16.545474096  2329.6859   2   7   0.0156   0.0276   0.0515  -0.0143   0.0264  -0.0222   0.00    0.0
2024/07/08 10:05:01.000   28.292546171  -16.545474095  2329.6863   2   7   0.0157   0.0276   0.0515  -0.0143   0.0264  -0.0223   1.00    0.0
2024/07/08 10:05:02.000   28.292546171  -16.545474095  2329.6864   2   7   0.0157   0.0276   0.0516  -0.0143   0.0264  -0.0223   2.00    0.0
2024/07/08 10:05:03.000   28.292546172  -16.545474095  2329.6865   2   7   0.0157   0.0276   0.0516  -0.0143   0.0264  -0.0223   3.00    0.0
2024/07/08 10:05:04.000   28.292546173  -16.545474095  2329.6864   2   7   0.0157   0.0276   0.0516  -0.0143   0.0264  -0.0223   4.00    0.0
2024/07/08 10:05:05.000   28.292546174  -16.545474095  2329.6861   2   7   0.0157   0.0276   0.0516  -0.0143   0.0264  -0.0223   5.00    0.0
2024/07/08 10:05:06.000   28.292546175  -16.545474095  2329.6862   2   7   0.0157   0.0276   0.0516  -0.0143   0.0265  -0.0223   6.00    0.0
2024/07/08 10:05:07.000   28.292546176  -16.545474095  2329.6861   2   7   0.0157   0.0276   0.0516  -0.0143   0.0265  -0.0223   7.00    0.0
2024/07/08 10:05:08.000   28.292546176  -16.545474095  2329.6862   2   7   0.0157   0.0276   0.0516  -0.0143   0.0265  -0.0223   8.00    0.0
2024/07/08 10:05:09.000   28.292546177  -16.545474096  2329.6863   2   7   0.0157   0.0276   0.0516  -0.0143   0.0265  -0.0223   9.00    0.0
2024/07/08 10:05:10.000   28.292546177  -16.545474097  2329.6863   2   7   0.0157   0.0276   0.0517  -0.0143   0.0265  -0.0223  10.00    0.0
2024/07/08 10:05:11.000   28.292546178  -16.545474097  2329.6863   2   7   0.0157   0.0276   0.0517  -0.0143   0.0265  -0.0223  11.00    0.0
2024/07/08 10:05:12.000   28.292546178  -16.545474097  2329.6862   2   7   0.0157   0.0276   0.0517  -0.0143   0.0265  -0.0223  12.00    0.0
2024/07/08 10:05:13.000   28.292546179  -16.545474098  2329.6862   2   7   0.0157   0.0276   0.0517  -0.0143   0.0264  -0.0223  13.00    0.0
2024/07/08 10:05:14.000   28.292546179  -16.545474098  2329.6862   2   7   0.0157   0.0276   0.0517  -0.0143   0.0264  -0.0223  14.00    0.0
2024/07/08 10:05:15.000   28.292546179  -16.545474099  2329.6862   2   7   0.0157   0.0276   0.0517  -0.0143   0.0264  -0.0223 -15.00    0.0
2024/07/08 10:05:16.000   28.292546179  -16.545474100  2329.6862   2   7   0.0157   0.0276   0.0517  -0.0143   0.0264  -0.0223 -14.00    0.0
2024/07/08 10:05:17.000   28.292546180  -16.545474101  2329.6862   2   7   0.0157   0.0276   0.0517  -0.0143   0.0264  -0.0223 -13.00    0.0
2024/07/08 10:05:18.000   28.292546180  -16.545474102  2329.6861   2   7   0.0157   0.0276   0.0517  -0.0143   0.0264  -0.0223 -12.00    0.0
2024/07/08 10:05:19.000   28.292546180  -16.545474104  2329.6860   2   7   0.0157   0.0276   0.0517  -0.0143   0.0264  -0.0223 -11.00    0.0
2024/07/08 10:05:20.000   28.292546181  -16.545474105  2329.6859   2   7   0.0157   0.0276   0.0517  -0.0143   0.0264  -0.0223 -10.00    0.0
2024/07/08 10:05:21.000   28.292546181  -16.545474107  2329.6858   2   7   0.0157   0.0276   0.0517  -0.0143   0.0264  -0.0223  -9.00    0.0
2024/07/08 10:05:22.000   28.292546181  -16.545474108  2329.6857   2   7   0.0157   0.0276   0.0517  -0.0143   0.0264  -0.0223  -8.00    0.0
2024/07/08 10:05:23.000   28.292546182  -16.545474108  2329.6856   2   7   0.0157   0.0276   0.0517  -0.0143   0.0264  -0.0223  -7.00    0.0
2024/07/08 10:05:24.000   28.292546182  -16.545474109  2329.6854   2   7   0.0157   0.0276   0.0517  -0.0143   0.0264  -0.0223  -6.00    0.0
2024/07/08 10:05:25.000   28.292546183  -16.545474110  2329.6851   2   7   0.0157   0.0276   0.0517  -0.0143   0.0264  -0.0223  -5.00    0.0
2024/07/08 10:05:26.000   28.292546183  -16.545474111  2329.6847   2   7   0.0157   0.0276   0.0517  -0.0143   0.0264  -0.0223  -4.00    0.0
2024/07/08 10:05:27.000   28.292546183  -16.545474112  2329.6845   2   7   0.0157   0.0276   0.0517  -0.0143   0.0264  -0.0224  -3.00    0.0
2024/07/08 10:05:28.000   28.292546183  -16.545474113  2329.6843   2   7   0.0158   0.0276   0.0517  -0.0143   0.0264  -0.0224  -2.00    0.0
2024/07/08 10:05:29.000   28.292546183  -16.545474114  2329.6840   2   7   0.0158   0.0276   0.0518  -0.0143   0.0264  -0.0224  -1.00    0.0
2024/07/08 10:05:30.000   28.292546184  -16.545474116  2329.6837   2   7   0.0158   0.0277   0.0518  -0.0143   0.0265  -0.0224   0.00    0.0
2024/07/08 10:05:31.000   28.292546186  -16.545474120  2329.6832   2   7   0.0158   0.0277   0.0518  -0.0143   0.0265  -0.0224   1.00    0.0
2024/07/08 10:05:32.000   28.292546188  -16.545474125  2329.6827   2   7   0.0158   0.0277   0.0518  -0.0143   0.0265  -0.0224   2.00    0.0
2024/07/08 10:05:33.000   28.292546190  -16.545474130  2329.6822   2   7   0.0158   0.0277   0.0519  -0.0143   0.0265  -0.0224   3.00    0.0
2024/07/08 10:05:34.000   28.292546192  -16.545474133  2329.6817   2   7   0.0158   0.0277   0.0519  -0.0143   0.0265  -0.0224   4.00    0.0
2024/07/08 10:05:35.000   28.292546193  -16.545474135  2329.6814   2   7   0.0158   0.0277   0.0519  -0.0143   0.0265  -0.0224   5.00    0.0
2024/07/08 10:05:36.000   28.292546193  -16.545474137  2329.6813   2   7   0.0158   0.0277   0.0519  -0.0143   0.0265  -0.0225   6.00    1.6
2024/07/08 10:05:37.000   28.292546193  -16.545474138  2329.6811   2   7   0.0158   0.0277   0.0519  -0.0143   0.0265  -0.0225   7.00    1.5
2024/07/08 10:05:38.000   28.292546194  -16.545474140  2329.6809   2   7   0.0158   0.0277   0.0519  -0.0143   0.0265  -0.0225   8.00    1.3
2024/07/08 10:05:39.000   28.292546193  -16.545474141  2329.6809   2   7   0.0158   0.0277   0.0519  -0.0143   0.0265  -0.0225   9.00    1.4
2024/07/08 10:05:40.000   28.292546193  -16.545474142  2329.6809   2   7   0.0158   0.0277   0.0519  -0.0143   0.0265  -0.0225  10.00    1.2
2024/07/08 10:05:41.000   28.292546193  -16.545474143  2329.6808   2   7   0.0158   0.0277   0.0519  -0.0143   0.0265  -0.0225  11.00    1.2
2024/07/08 10:05:42.000   28.292546193  -16.545474143  2329.6809   2   7   0.0158   0.0277   0.0519  -0.0143   0.0265  -0.0225  12.00    1.3
2024/07/08 10:05:43.000   28.292546193  -16.545474144  2329.6808   2   7   0.0158   0.0277   0.0519  -0.0143   0.0265  -0.0225  13.00    1.0
2024/07/08 10:05:44.000   28.292546193  -16.545474145  2329.6808   2   7   0.0158   0.0277   0.0519  -0.0143   0.0265  -0.0225  14.00    1.4
2024/07/08 10:05:45.000   28.292546193  -16.545474146  2329.6808   2   7   0.0158   0.0277   0.0519  -0.0143   0.0265  -0.0225 -15.00    1.2
2024/07/08 10:05:46.000   28.292546193  -16.545474146  2329.6808   2   7   0.0159   0.0277   0.0519  -0.0143   0.0265  -0.0225 -14.00    1.3
2024/07/08 10:05:47.000   28.292546193  -16.545474147  2329.6809   2   7   0.0159   0.0277   0.0519  -0.0143   0.0265  -0.0225 -13.00    1.2
2024/07/08 10:05:48.000   28.292546193  -16.545474147  2329.6810   2   7   0.0159   0.0277   0.0519  -0.0143   0.0265  -0.0225 -12.00    1.2
2024/07/08 10:05:49.000   28.292546192  -16.545474148  2329.6810   2   7   0.0159   0.0277   0.0519  -0.0143   0.0265  -0.0225 -11.00    1.2
2024/07/08 10:05:50.000   28.292546192  -16.545474148  2329.6812   2   7   0.0159   0.0277   0.0519  -0.0143   0.0265  -0.0225 -10.00    1.1
2024/07/08 10:05:51.000   28.292546191  -16.545474149  2329.6814   2   7   0.0159   0.0277   0.0520  -0.0143   0.0265  -0.0225  -9.00    1.3
2024/07/08 10:05:52.000   28.292546191  -16.545474150  2329.6816   2   7   0.0159   0.0277   0.0520  -0.0143   0.0265  -0.0225  -8.00    1.2
2024/07/08 10:05:53.000   28.292546190  -16.545474150  2329.6819   2   7   0.0159   0.0277   0.0520  -0.0143   0.0265  -0.0225  -7.00    1.3
2024/07/08 10:05:54.000   28.292546190  -16.545474151  2329.6821   2   7   0.0159   0.0277   0.0520  -0.0143   0.0265  -0.0225  -6.00    1.2
2024/07/08 10:05:55.000   28.292546189  -16.545474153  2329.6824   2   7   0.0159   0.0277   0.0520  -0.0143   0.0265  -0.0225  -5.00    1.2
2024/07/08 10:05:56.000   28.292546189  -16.545474155  2329.6828   2   7   0.0159   0.0277   0.0520  -0.0143   0.0265  -0.0225  -4.00    1.0
2024/07/08 10:05:57.000   28.292546189  -16.545474158  2329.6835   2   7   0.0159   0.0277   0.0520  -0.0143   0.0265  -0.0225  -3.00    1.2
2024/07/08 10:05:58.000   28.292546189  -16.545474161  2329.6842   2   7   0.0159   0.0277   0.0520  -0.0143   0.0265  -0.0225  -2.00    1.1
2024/07/08 10:05:59.000   28.292546188  -16.545474166  2329.6849   2   7   0.0159   0.0277   0.0520  -0.0143   0.0265  -0.0225  -1.00    1.1
2024/07/08 10:06:00.000   28.292546188  -16.545474168  2329.6858   2   7   0.0159   0.0277   0.0520  -0.0143   0.0265  -0.0225   0.00    1.3
2024/07/08 10:06:01.000   28.292546187  -16.545474172  2329.6865   2   7   0.0159   0.0277   0.0521  -0.0143   0.0265  -0.0225   1.00    1.3
2024/07/08 10:06:02.000   28.292546187  -16.545474176  2329.6872   2   7   0.0159   0.0277   0.0521  -0.0143   0.0265  -0.0226   2.00    1.2
2024/07/08 10:06:03.000   28.292546187  -16.545474178  2329.6878   2   7   0.0159   0.0277   0.0521  -0.0143   0.0265  -0.0226   3.00    1.2
2024/07/08 10:06:04.000   28.292546187  -16.545474179  2329.6881   2   7   0.0159   0.0277   0.0521  -0.0143   0.0265  -0.0226   4.00    1.3
2024/07/08 10:06:05.000   28.292546187  -16.545474179  2329.6884   2   7   0.0160   0.0277   0.0521  -0.0143   0.0265  -0.0226   5.00    1.3
2024/07/08 10:06:06.000   28.292546187  -16.545474179  2329.6885   2   7   0.0160   0.0277   0.0522  -0.0143   0.0265  -0.0226   6.00    1.2
2024/07/08 10:06:07.000   28.292546188  -16.545474179  2329.6885   2   7   0.0160   0.0277   0.0522  -0.0143   0.0265  -0.0226   7.00    1.4
2024/07/08 10:06:08.000   28.292546189  -16.545474180  2329.6886   2   7   0.0160   0.0277   0.0522  -0.0143   0.0265  -0.0226   8.00    1.3
2024/07/08 10:06:09.000   28.292546190  -16.545474181  2329.6886   2   7   0.0160   0.0277   0.0522  -0.0143   0.0265  -0.0226   9.00    1.2
2024/07/08 10:06:10.000   28.292546190  -16.545474181  2329.6887   2   7   0.0160   0.0277   0.0522  -0.0143   0.0265  -0.0226  10.00    1.2
2024/07/08 10:06:11.000   28.292546191  -16.545474182  2329.6888   2   7   0.0160   0.0277   0.0522  -0.0143   0.0265  -0.0226  11.00    1.2
2024/07/08 10:06:12.000   28.292546191  -16.545474182  2329.6889   2   7   0.0160   0.0277   0.0522  -0.0143   0.0265  -0.0226  12.00    1.3
2024/07/08 10:06:13.000   28.292546192  -16.545474183  2329.6890   2   7   0.0160   0.0277   0.0522  -0.0143   0.0265  -0.0226  13.00    1.2
2024/07/08 10:06:14.000   28.292546192  -16.545474183  2329.6891   2   7   0.0160   0.0277   0.0522  -0.0143   0.0265  -0.0226  14.00    1.4
2024/07/08 10:06:15.000   28.292546193  -16.545474183  2329.6891   2   7   0.0160   0.0277   0.0522  -0.0143   0.0265  -0.0226 -15.00    1.3
2024/07/08 10:06:16.000   28.292546193  -16.545474184  2329.6891   2   7   0.0160   0.0277   0.0522  -0.0143   0.0265  -0.0226 -14.00    1.2
2024/07/08 10:06:17.000   28.292546194  -16.545474184  2329.6892   2   7   0.0160   0.0277   0.0522  -0.0143   0.0265  -0.0226 -13.00    1.2
2024/07/08 10:06:18.000   28.292546194  -16.545474184  2329.6893   2   7   0.0160   0.0277   0.0522  -0.0143   0.0265  -0.0226 -12.00    1.1
2024/07/08 10:06:19.000   28.292546194  -16.545474185  2329.6895   2   7   0.0160   0.0277   0.0522  -0.0143   0.0265  -0.0226 -11.00    1.3
2024/07/08 10:06:20.000   28.292546195  -16.545474186  2329.6897   2   7   0.0160   0.0277   0.0522  -0.0143   0.0265  -0.0226 -10.00    1.2
2024/07/08 10:06:21.000   28.292546195  -16.545474186  2329.6899   2   7   0.0160   0.0277   0.0522  -0.0143   0.0265  -0.0226  -9.00    1.4
2024/07/08 10:06:22.000   28.292546195  -16.545474187  2329.6902   2   7   0.0160   0.0277   0.0522  -0.0143   0.0265  -0.0226  -8.00    1.3
2024/07/08 10:06:23.000   28.292546195  -16.545474189  2329.6905   2   7   0.0160   0.0277   0.0522  -0.0143   0.0265  -0.0226  -7.00    1.2
2024/07/08 10:06:24.000   28.292546195  -16.545474189  2329.6909   2   7   0.0160   0.0277   0.0522  -0.0143   0.0265  -0.0226  -6.00    1.2
2024/07/08 10:06:25.000   28.292546195  -16.545474190  2329.6911   2   7   0.0160   0.0277   0.0522  -0.0143   0.0265  -0.0226  -5.00    1.1
2024/07/08 10:06:26.000   28.292546195  -16.545474191  2329.6913   2   7   0.0160   0.0277   0.0522  -0.0143   0.0265  -0.0226  -4.00    1.3
2024/07/08 10:06:27.000   28.292546194  -16.545474190  2329.6915   2   7   0.0160   0.0277   0.0522  -0.0143   0.0265  -0.0226  -3.00    1.2
2024/07/08 10:06:28.000   28.292546193  -16.545474190  2329.6919   2   7   0.0160   0.0277   0.0523  -0.0143   0.0265  -0.0226  -2.00    1.5
2024/07/08 10:06:29.000   28.292546193  -16.545474190  2329.6921   2   7   0.0160   0.0277   0.0523  -0.0143   0.0265  -0.0227  -1.00    1.3
2024/07/08 10:06:30.000   28.292546192  -16.545474191  2329.6923   2   7   0.0160   0.0277   0.0523  -0.0143   0.0265  -0.0227   0.00    1.2
2024/07/08 10:06:31.000   28.292546192  -16.545474193  2329.6924   2   7   0.0160   0.0277   0.0523  -0.0143   0.0265  -0.0227   1.00    1.2
2024/07/08 10:06:32.000   28.292546192  -16.545474194  2329.6925   2   7   0.0160   0.0278   0.0523  -0.0143   0.0265  -0.0227   2.00    1.2
2024/07/08 10:06:33.000   28.292546194  -16.545474195  2329.6922   2   7   0.0161   0.0278   0.0523  -0.0143   0.0265  -0.0227   3.00    1.3
2024/07/08 10:06:34.000   28.292546195  -16.545474196  2329.6922   2   7   0.0161   0.0278   0.0524  -0.0143   0.0265  -0.0227   4.00    1.2
2024/07/08 10:06:35.000   28.292546195  -16.545474196  2329.6920   2   7   0.0161   0.0278   0.0524  -0.0143   0.0265  -0.0227   5.00    1.4
2024/07/08 10:06:36.000   28.292546196  -16.545474198  2329.6917   2   7   0.0161   0.0278   0.0524  -0.0143   0.0265  -0.0227   6.00    1.3
2024/07/08 10:06:37.000   28.292546197  -16.545474198  2329.6917   2   7   0.0161   0.0278   0.0524  -0.0143   0.0265  -0.0227   7.00    1.2
2024/07/08 10:06:38.000   28.292546197  -16.545474199  2329.6918   2   7   0.0161   0.0278   0.0524  -0.0143   0.0265  -0.0227   8.00    1.2
2024/07/08 10:06:39.000   28.292546198  -16.545474200  2329.6919   2   7   0.0161   0.0278   0.0524  -0.0143   0.0265  -0.0227   9.00    1.1
2024/07/08 10:06:40.000   28.292546198  -16.545474201  2329.6920   2   7   0.0161   0.0278   0.0524  -0.0143   0.0265  -0.0227  10.00    1.3
2024/07/08 10:06:41.000   28.292546198  -16.545474201  2329.6921   2   7   0.0161   0.0278   0.0524  -0.0143   0.0265  -0.0227  11.00    1.2
2024/07/08 10:06:42.000   28.292546198  -16.545474201  2329.6921   2   7   0.0161   0.0278   0.0524  -0.0143   0.0265  -0.0227  12.00    1.5
2024/07/08 10:06:43.000   28.292546198  -16.545474202  2329.6921   2   7   0.0161   0.0278   0.0524  -0.0143   0.0265  -0.0227  13.00    1.3
2024/07/08 10:06:44.000   28.292546199  -16.545474202  2329.6922   2   7   0.0161   0.0278   0.0524  -0.0143   0.0265  -0.0228  14.00    1.2
2024/07/08 10:06:45.000   28.292546199  -16.545474203  2329.6922   2   7   0.0161   0.0278   0.0524  -0.0143   0.0265  -0.0228 -15.00    1.2
2024/07/08 10:06:46.000   28.292546199  -16.545474203  2329.6923   2   7   0.0161   0.0278   0.0524  -0.0143   0.0265  -0.0228 -14.00    1.1
2024/07/08 10:06:47.000   28.292546199  -16.545474204  2329.6923   2   7   0.0161   0.0278   0.0524  -0.0142   0.0265  -0.0228 -13.00    1.2
2024/07/08 10:06:48.000   28.292546199  -16.545474204  2329.6924   2   7   0.0161   0.0278   0.0524  -0.0142   0.0265  -0.0228 -12.00    1.2
2024/07/08 10:06:49.000   28.292546199  -16.545474205  2329.6924   2   7   0.0161   0.0278   0.0524  -0.0142   0.0265  -0.0228 -11.00    1.5
2024/07/08 10:06:50.000   28.292546199  -16.545474205  2329.6924   2   7   0.0161   0.0278   0.0524  -0.0142   0.0265  -0.0228 -10.00    1.3
2024/07/08 10:06:51.000   28.292546199  -16.545474206  2329.6926   2   7   0.0161   0.0278   0.0524  -0.0142   0.0265  -0.0228  -9.00    1.2
2024/07/08 10:06:52.000   28.292546200  -16.545474206  2329.6928   2   7   0.0161   0.0278   0.0524  -0.0142   0.0265  -0.0228  -8.00    1.2
2024/07/08 10:06:53.000   28.292546200  -16.545474206  2329.6930   2   7   0.0161   0.0278   0.0524  -0.0142   0.0265  -0.0228  -7.00    1.0
2024/07/08 10:06:54.000   28.292546200  -16.545474206  2329.6932   2   7   0.0161   0.0278   0.0524  -0.0142   0.0265  -0.0228  -6.00    1.2
2024/07/08 10:06:55.000   28.292546200  -16.545474206  2329.6934   2   7   0.0161   0.0278   0.0524  -0.0142   0.0265  -0.0228  -5.00    1.2
2024/07/08 10:06:56.000   28.292546200  -16.545474206  2329.6935   2   7   0.0161   0.0278   0.0525  -0.0142   0.0265  -0.0228  -4.00    1.4
2024/07/08 10:06:57.000   28.292546201  -16.545474206  2329.6934   2   7   0.0161   0.0278   0.0525  -0.0142   0.0265  -0.0228  -3.00    1.3
2024/07/08 10:06:58.000   28.292546203  -16.545474206  2329.6932   2   7   0.0161   0.0278   0.0525  -0.0142   0.0265  -0.0228  -2.00    1.2
2024/07/08 10:06:59.000   28.292546205  -16.545474206  2329.6928   2   7   0.0161   0.0278   0.0525  -0.0142   0.0265  -0.0228  -1.00    1.2
2024/07/08 10:07:00.000   28.292546208  -16.545474207  2329.6926   2   7   0.0161   0.0278   0.0525  -0.0142   0.0265  -0.0228   0.00    1.0
2024/07/08 10:07:01.000   28.292546209  -16.545474207  2329.6926   2   7   0.0161   0.0278   0.0525  -0.0142   0.0265  -0.0228   1.00    1.2
2024/07/08 10:07:02.000   28.292546210  -16.545474207  2329.6928   2   7   0.0162   0.0278   0.0525  -0.0142   0.0265  -0.0228   2.00    1.2
2024/07/08 10:07:03.000   28.292546211  -16.545474207  2329.6928   2   7   0.0162   0.0278   0.0526  -0.0142   0.0265  -0.0228   3.00    1.3
2024/07/08 10:07:04.000   28.292546211  -16.545474206  2329.6930   2   7   0.0162   0.0278   0.0526  -0.0142   0.0265  -0.0228   4.00    1.2
2024/07/08 10:07:05.000   28.292546211  -16.545474206  2329.6932   2   7   0.0162   0.0278   0.0526  -0.0142   0.0265  -0.0229   5.00    1.2
2024/07/08 10:07:06.000   28.292546211  -16.545474206  2329.6934   2   7   0.0162   0.0278   0.0526  -0.0142   0.0265  -0.0229   6.00    1.2
2024/07/08 10:07:07.000   28.292546211  -16.545474206  2329.6938   2   7   0.0162   0.0278   0.0526  -0.0142   0.0265  -0.0229   7.00    1.1
2024/07/08 10:07:08.000   28.292546211  -16.545474206  2329.6939   2   7   0.0162   0.0278   0.0526  -0.0142   0.0265  -0.0229   8.00    1.2
2024/07/08 10:07:09.000   28.292546211  -16.545474207  2329.6939   2   7   0.0162   0.0278   0.0526  -0.0142   0.0265  -0.0229   9.00    1.2
2024/07/08 10:07:10.000   28.292546211  -16.545474208  2329.6940   2   7   0.0162   0.0278   0.0526  -0.0142   0.0265  -0.0229  10.00    1.4
2024/07/08 10:07:11.000   28.292546211  -16.545474208  2329.6940   2   7   0.0162   0.0278   0.0526  -0.0142   0.0265  -0.0229  11.00    1.3
2024/07/08 10:07:12.000   28.292546211  -16.545474209  2329.6941   2   7   0.0162   0.0278   0.0526  -0.0142   0.0265  -0.0229  12.00    1.2
2024/07/08 10:07:13.000   28.292546211  -16.545474210  2329.6942   2   7   0.0162   0.0278   0.0526  -0.0142   0.0265  -0.0229  13.00    1.2
2024/07/08 10:07:14.000   28.292546211  -16.545474210  2329.6941   2   7   0.0162   0.0278   0.0526  -0.0142   0.0265  -0.0229  14.00    1.0
2024/07/08 10:07:15.000   28.292546211  -16.545474211  2329.6941   2   7   0.0162   0.0278   0.0526  -0.0142   0.0265  -0.0229 -15.00    1.1
2024/07/08 10:07:16.000   28.292546211  -16.545474211  2329.6941   2   7   0.0162   0.0278   0.0526  -0.0142   0.0265  -0.0229 -14.00    1.2
2024/07/08 10:07:17.000   28.292546212  -16.545474211  2329.6942   2   7   0.0162   0.0278   0.0526  -0.0142   0.0265  -0.0229 -13.00    1.4
2024/07/08 10:07:18.000   28.292546211  -16.545474212  2329.6942   2   7   0.0162   0.0278   0.0526  -0.0142   0.0265  -0.0229 -12.00    1.3
2024/07/08 10:07:19.000   28.292546212  -16.545474212  2329.6942   2   7   0.0162   0.0278   0.0526  -0.0142   0.0265  -0.0229 -11.00    1.2
2024/07/08 10:07:20.000   28.292546212  -16.545474212  2329.6942   2   7   0.0162   0.0278   0.0526  -0.0142   0.0265  -0.0229 -10.00    1.2
2024/07/08 10:07:21.000   28.292546212  -16.545474212  2329.6941   2   7   0.0162   0.0278   0.0526  -0.0142   0.0265  -0.0229  -9.00    1.0
2024/07/08 10:07:22.000   28.292546213  -16.545474213  2329.6940   2   7   0.0162   0.0278   0.0526  -0.0142   0.0265  -0.0229  -8.00    1.1
2024/07/08 10:07:23.000   28.292546213  -16.545474212  2329.6937   2   7   0.0162   0.0278   0.0526  -0.0142   0.0265  -0.0229  -7.00    1.2
2024/07/08 10:07:24.000   28.292546214  -16.545474212  2329.6934   2   7   0.0162   0.0278   0.0526  -0.0142   0.0265  -0.0229  -6.00    1.5
2024/07/08 10:07:25.000   28.292546216  -16.545474213  2329.6928   2   7   0.0162   0.0278   0.0527  -0.0142   0.0265  -0.0229  -5.00    1.3
2024/07/08 10:07:26.000   28.292546217  -16.545474213  2329.6923   2   7   0.0162   0.0278   0.0527  -0.0142   0.0265  -0.0229  -4.00    1.2
2024/07/08 10:07:27.000   28.292546218  -16.545474213  2329.6916   2   7   0.0162   0.0278   0.0527  -0.0142   0.0265  -0.0229  -3.00    1.2
2024/07/08 10:07:28.000   28.292546220  -16.545474213  2329.6907   2   7   0.0162   0.0278   0.0527  -0.0142   0.0265  -0.0229  -2.00    1.0
2024/07/08 10:07:29.000   28.292546220  -16.545474213  2329.6901   2   7   0.0162   0.0278   0.0527  -0.0142   0.0265  -0.0229  -1.00    1.1
2024/07/08 10:07:30.000   28.292546220  -16.545474213  2329.6897   2   7   0.0162   0.0278   0.0527  -0.0142   0.0265  -0.0229   0.00    1.2
2024/07/08 10:07:31.000   28.292546221  -16.545474212  2329.6893   2   7   0.0163   0.0278   0.0527  -0.0142   0.0265  -0.0229   1.00    1.2
2024/07/08 10:07:32.000   28.292546220  -16.545474212  2329.6892   2   7   0.0163   0.0278   0.0527  -0.0142   0.0265  -0.0229   2.00    1.3
2024/07/08 10:07:33.000   28.292546219  -16.545474211  2329.6893   2   7   0.0163   0.0278   0.0528  -0.0142   0.0265  -0.0230   3.00    1.2
2024/07/08 10:07:34.000   28.292546219  -16.545474210  2329.6892   2   7   0.0163   0.0278   0.0528  -0.0142   0.0265  -0.0230   4.00    1.3
2024/07/08 10:07:35.000   28.292546219  -16.545474210  2329.6890   2   7   0.0163   0.0278   0.0528  -0.0142   0.0265  -0.0230   5.00    1.1
2024/07/08 10:07:36.000   28.292546219  -16.545474210  2329.6890   2   7   0.0163   0.0278   0.0528  -0.0142   0.0265  -0.0230   6.00    1.2
2024/07/08 10:07:37.000   28.292546219  -16.545474210  2329.6889   2   7   0.0163   0.0278   0.0528  -0.0142   0.0265  -0.0230   7.00    1.3
2024/07/08 10:07:38.000   28.292546220  -16.545474210  2329.6888   2   7   0.0163   0.0278   0.0528  -0.0142   0.0265  -0.0230   8.00    1.4
2024/07/08 10:07:39.000   28.292546220  -16.545474210  2329.6887   2   7   0.0163   0.0278   0.0528  -0.0142   0.0265  -0.0230   9.00    1.4
2024/07/08 10:07:40.000   28.292546220  -16.545474211  2329.6886   2   7   0.0163   0.0278   0.0528  -0.0142   0.0265  -0.0230  10.00    1.2
2024/07/08 10:07:41.000   28.292546220  -16.545474211  2329.6885   2   7   0.0163   0.0278   0.0528  -0.0142   0.0265  -0.0230  11.00    1.4
2024/07/08 10:07:42.000   28.292546221  -16.545474211  2329.6884   2   7   0.0163   0.0278   0.0528  -0.0142   0.0265  -0.0230  12.00    1.1
2024/07/08 10:07:43.000   28.292546221  -16.545474211  2329.6885   2   7   0.0163   0.0278   0.0528  -0.0142   0.0265  -0.0230  13.00    1.2
2024/07/08 10:07:44.000   28.292546221  -16.545474212  2329.6884   2   7   0.0163   0.0278   0.0528  -0.0142   0.0265  -0.0230  14.00    1.3
2024/07/08 10:07:45.000   28.292546221  -16.545474213  2329.6884   2   7   0.0163   0.0278   0.0528  -0.0142   0.0265  -0.0230 -15.00    1.4
2024/07/08 10:07:46.000   28.292546221  -16.545474213  2329.6884   2   7   0.0163   0.0278   0.0528  -0.0142   0.0265  -0.0230 -14.00    1.4
2024/07/08 10:07:47.000   28.292546221  -16.545474213  2329.6885   2   7   0.0163   0.0278   0.0528  -0.0142   0.0265  -0.0230 -13.00    1.2
2024/07/08 10:07:48.000   28.292546221  -16.545474213  2329.6885   2   7   0.0163   0.0278   0.0528  -0.0142   0.0265  -0.0230 -12.00    1.4
2024/07/08 10:07:49.000   28.292546221  -16.545474214  2329.6886   2   7   0.0163   0.0278   0.0528  -0.0142   0.0265  -0.0230 -11.00    1.1
2024/07/08 10:07:50.000   28.292546220  -16.545474214  2329.6887   2   7   0.0163   0.0278   0.0528  -0.0142   0.0265  -0.0230 -10.00    1.2
2024/07/08 10:07:51.000   28.292546220  -16.545474215  2329.6888   2   7   0.0163   0.0278   0.0528  -0.0142   0.0265  -0.0230  -9.00    1.3
2024/07/08 10:07:52.000   28.292546220  -16.545474216  2329.6890   2   7   0.0163   0.0278   0.0528  -0.0142   0.0265  -0.0230  -8.00    1.4
2024/07/08 10:07:53.000   28.292546219  -16.545474217  2329.6892   2   7   0.0163   0.0278   0.0528  -0.0142   0.0265  -0.0230  -7.00    1.5
2024/07/08 10:07:54.000   28.292546219  -16.545474218  2329.6895   2   7   0.0163   0.0278   0.0528  -0.0142   0.0265  -0.0230  -6.00    1.3
2024/07/08 10:07:55.000   28.292546219  -16.545474218  2329.6897   2   7   0.0163   0.0278   0.0528  -0.0142   0.0265  -0.0230  -5.00    1.5
2024/07/08 10:07:56.000   28.292546219  -16.545474218  2329.6898   2   7   0.0163   0.0278   0.0528  -0.0142   0.0265  -0.0230  -4.00    1.1
2024/07/08 10:07:57.000   28.292546219  -16.545474219  2329.6900   2   7   0.0163   0.0278   0.0528  -0.0142   0.0265  -0.0230  -3.00    1.2
2024/07/08 10:07:58.000   28.292546220  -16.545474221  2329.6900   2   7   0.0163   0.0278   0.0529  -0.0142   0.0265  -0.0230  -2.00    1.3
2024/07/08 10:07:59.000   28.292546220  -16.545474222  2329.6899   2   7   0.0163   0.0278   0.0529  -0.0142   0.0264  -0.0230  -1.00    1.5
2024/07/08 10:08:00.000   28.292546222  -16.545474223  2329.6899   2   7   0.0163   0.0278   0.0529  -0.0142   0.0264  -0.0230   0.00    1.5
2024/07/08 10:08:01.000   28.292546222  -16.545474223  2329.6895   2   6   0.0164   0.0279   0.0529  -0.0142   0.0264  -0.0230   1.00    1.1
2024/07/08 10:08:02.000   28.292546223  -16.545474224  2329.6889   2   6   0.0164   0.0279   0.0529  -0.0142   0.0264  -0.0231   2.00    1.4
2024/07/08 10:08:03.000   28.292546225  -16.545474225  2329.6883   2   6   0.0164   0.0279   0.0529  -0.0142   0.0264  -0.0231   3.00    1.2
2024/07/08 10:08:04.000   28.292546226  -16.545474225  2329.6877   2   6   0.0164   0.0279   0.0529  -0.0142   0.0264  -0.0231   4.00    1.4
2024/07/08 10:08:05.000   28.292546227  -16.545474224  2329.6874   2   6   0.0164   0.0279   0.0529  -0.0142   0.0264  -0.0231   5.00    1.4
2024/07/08 10:08:06.000   28.292546228  -16.545474223  2329.6871   2   6   0.0164   0.0279   0.0530  -0.0142   0.0264  -0.0231   6.00    1.5
2024/07/08 10:08:07.000   28.292546229  -16.545474223  2329.6869   2   6   0.0164   0.0279   0.0530  -0.0142   0.0264  -0.0231   7.00    1.6
2024/07/08 10:08:08.000   28.292546230  -16.545474223  2329.6866   2   6   0.0164   0.0279   0.0530  -0.0142   0.0264  -0.0231   8.00    1.5
2024/07/08 10:08:09.000   28.292546230  -16.545474224  2329.6863   2   6   0.0164   0.0279   0.0530  -0.0142   0.0264  -0.0231   9.00    1.3
2024/07/08 10:08:10.000   28.292546231  -16.545474224  2329.6859   2   6   0.0164   0.0279   0.0530  -0.0142   0.0264  -0.0231  10.00    1.5
2024/07/08 10:08:11.000   28.292546232  -16.545474224  2329.6857   2   6   0.0164   0.0279   0.0530  -0.0142   0.0264  -0.0231  11.00    1.6
2024/07/08 10:08:12.000   28.292546233  -16.545474224  2329.6855   2   6   0.0164   0.0279   0.0530  -0.0142   0.0264  -0.0231  12.00    1.5
2024/07/08 10:08:13.000   28.292546233  -16.545474225  2329.6853   2   6   0.0164   0.0279   0.0530  -0.0142   0.0264  -0.0231  13.00    1.1
2024/07/08 10:08:14.000   28.292546234  -16.545474225  2329.6852   2   6   0.0164   0.0279   0.0530  -0.0142   0.0264  -0.0231  14.00    1.5
2024/07/08 10:08:15.000   28.292546234  -16.545474225  2329.6851   2   6   0.0164   0.0279   0.0530  -0.0142   0.0264  -0.0231 -15.00    1.2
2024/07/08 10:08:16.000   28.292546235  -16.545474226  2329.6850   2   6   0.0164   0.0279   0.0530  -0.0142   0.0264  -0.0231 -14.00    1.5
2024/07/08 10:08:17.000   28.292546235  -16.545474226  2329.6849   2   6   0.0164   0.0279   0.0530  -0.0142   0.0264  -0.0231 -13.00    1.4
2024/07/08 10:08:18.000   28.292546235  -16.545474226  2329.6848   2   6   0.0164   0.0279   0.0530  -0.0142   0.0264  -0.0231 -12.00    1.5
2024/07/08 10:08:19.000   28.292546236  -16.545474226  2329.6846   2   6   0.0164   0.0279   0.0530  -0.0142   0.0264  -0.0231 -11.00    1.6
2024/07/08 10:08:20.000   28.292546236  -16.545474226  2329.6844   2   6   0.0164   0.0279   0.0530  -0.0142   0.0264  -0.0231 -10.00    1.5
2024/07/08 10:08:21.000   28.292546237  -16.545474226  2329.6842   2   6   0.0164   0.0279   0.0530  -0.0142   0.0264  -0.0231  -9.00    1.3
2024/07/08 10:08:22.000   28.292546237  -16.545474226  2329.6841   2   6   0.0164   0.0279   0.0530  -0.0142   0.0264  -0.0231  -8.00    1.5
2024/07/08 10:08:23.000   28.292546237  -16.545474225  2329.6840   2   6   0.0164   0.0279   0.0530  -0.0142   0.0264  -0.0231  -7.00    1.6
2024/07/08 10:08:24.000   28.292546237  -16.545474226  2329.6838   2   6   0.0164   0.0279   0.0530  -0.0142   0.0264  -0.0231  -6.00    1.5
2024/07/08 10:08:25.000   28.292546238  -16.545474226  2329.6832   2   6   0.0164   0.0279   0.0530  -0.0142   0.0264  -0.0231  -5.00    1.1
2024/07/08 10:08:26.000   28.292546239  -16.545474227  2329.6826   2   6   0.0164   0.0279   0.0530  -0.0142   0.0264  -0.0231  -4.00    1.4
2024/07/08 10:08:27.000   28.292546239  -16.545474229  2329.6822   2   6   0.0164   0.0279   0.0530  -0.0142   0.0264  -0.0231  -3.00    1.2
2024/07/08 10:08:28.000   28.292546240  -16.545474232  2329.6820   2   6   0.0164   0.0279   0.0530  -0.0142   0.0264  -0.0231  -2.00    1.4
2024/07/08 10:08:29.000   28.292546241  -16.545474235  2329.6816   2   6   0.0164   0.0279   0.0530  -0.0142   0.0264  -0.0231  -1.00    1.3
2024/07/08 10:08:30.000   28.292546242  -16.545474237  2329.6812   2   6   0.0164   0.0279   0.0530  -0.0142   0.0264  -0.0231   0.00    1.4
2024/07/08 10:08:31.000   28.292546242  -16.545474237  2329.6809   2   6   0.0164   0.0279   0.0531  -0.0142   0.0264  -0.0231   1.00    1.6
2024/07/08 10:08:32.000   28.292546243  -16.545474239  2329.6805   2   6   0.0164   0.0279   0.0531  -0.0142   0.0264  -0.0232   2.00    1.4
2024/07/08 10:08:33.000   28.292546244  -16.545474240  2329.6800   2   6   0.0165   0.0279   0.0531  -0.0142   0.0264  -0.0232   3.00    1.3
2024/07/08 10:08:34.000   28.292546245  -16.545474241  2329.6794   2   6   0.0165   0.0279   0.0531  -0.0142   0.0264  -0.0232   4.00    1.4
2024/07/08 10:08:35.000   28.292546245  -16.545474240  2329.6791   2   6   0.0165   0.0279   0.0531  -0.0142   0.0264  -0.0232   5.00    1.5
2024/07/08 10:08:36.000   28.292546245  -16.545474239  2329.6789   2   6   0.0165   0.0279   0.0531  -0.0142   0.0264  -0.0232   6.00    1.4
2024/07/08 10:08:37.000   28.292546245  -16.545474240  2329.6785   2   6   0.0165   0.0279   0.0531  -0.0142   0.0264  -0.0232   7.00    1.1
2024/07/08 10:08:38.000   28.292546246  -16.545474240  2329.6783   2   6   0.0165   0.0279   0.0531  -0.0142   0.0264  -0.0232   8.00    1.4
2024/07/08 10:08:39.000   28.292546246  -16.545474240  2329.6783   2   6   0.0165   0.0279   0.0531  -0.0142   0.0264  -0.0232   9.00    1.2
2024/07/08 10:08:40.000   28.292546246  -16.545474240  2329.6784   2   6   0.0165   0.0279   0.0531  -0.0142   0.0264  -0.0232  10.00    1.4
2024/07/08 10:08:41.000   28.292546246  -16.545474239  2329.6784   2   6   0.0165   0.0279   0.0531  -0.0142   0.0264  -0.0232  11.00    1.3
2024/07/08 10:08:42.000   28.292546247  -16.545474239  2329.6785   2   6   0.0165   0.0279   0.0531  -0.0142   0.0264  -0.0232  12.00    1.4
2024/07/08 10:08:43.000   28.292546247  -16.545474239  2329.6784   2   6   0.0165   0.0279   0.0531  -0.0142   0.0264  -0.0232  13.00    1.6
2024/07/08 10:08:44.000   28.292546248  -16.545474239  2329.6783   2   6   0.0165   0.0279   0.0531  -0.0142   0.0264  -0.0232  14.00    1.4
2024/07/08 10:08:45.000   28.292546248  -16.545474240  2329.6782   2   6   0.0165   0.0279   0.0531  -0.0142   0.0264  -0.0232 -15.00    1.3
2024/07/08 10:08:46.000   28.292546249  -16.545474240  2329.6781   2   6   0.0165   0.0279   0.0532  -0.0141   0.0264  -0.0232 -14.00    1.4
2024/07/08 10:08:47.000   28.292546249  -16.545474240  2329.6780   2   6   0.0165   0.0279   0.0532  -0.0141   0.0264  -0.0232 -13.00    1.5
2024/07/08 10:08:48.000   28.292546250  -16.545474240  2329.6779   2   6   0.0165   0.0279   0.0532  -0.0141   0.0264  -0.0232 -12.00    1.4
2024/07/08 10:08:49.000   28.292546251  -16.545474240  2329.6777   2   6   0.0165   0.0279   0.0532  -0.0141   0.0264  -0.0232 -11.00    1.1
2024/07/08 10:08:50.000   28.292546252  -16.545474240  2329.6774   2   6   0.0165   0.0279   0.0532  -0.0141   0.0264  -0.0232 -10.00    1.4
2024/07/08 10:08:51.000   28.292546254  -16.545474240  2329.6773   2   6   0.0165   0.0279   0.0532  -0.0141   0.0264  -0.0232  -9.00    1.2
2024/07/08 10:08:52.000   28.292546255  -16.545474240  2329.6771   2   6   0.0165   0.0279   0.0532  -0.0141   0.0264  -0.0232  -8.00    1.4
2024/07/08 10:08:53.000   28.292546256  -16.545474241  2329.6769   2   6   0.0165   0.0279   0.0532  -0.0141   0.0264  -0.0232  -7.00    1.3
2024/07/08 10:08:54.000   28.292546258  -16.545474242  2329.6767   2   6   0.0165   0.0279   0.0532  -0.0141   0.0263  -0.0232  -6.00    1.4
2024/07/08 10:08:55.000   28.292546260  -16.545474244  2329.6766   2   6   0.0165   0.0279   0.0532  -0.0141   0.0263  -0.0232  -5.00    1.6
2024/07/08 10:08:56.000   28.292546261  -16.545474246  2329.6763   2   6   0.0165   0.0279   0.0532  -0.0141   0.0263  -0.0232  -4.00    1.4
2024/07/08 10:08:57.000   28.292546262  -16.545474248  2329.6760   2   6   0.0165   0.0279   0.0532  -0.0141   0.0263  -0.0232  -3.00    1.3
2024/07/08 10:08:58.000   28.292546262  -16.545474250  2329.6760   2   6   0.0165   0.0279   0.0532  -0.0141   0.0263  -0.0232  -2.00    1.4
2024/07/08 10:08:59.000   28.292546262  -16.545474251  2329.6762   2   6   0.0165   0.0279   0.0532  -0.0141   0.0263  -0.0232  -1.00    1.6
2024/07/08 10:09:00.000   28.292546263  -16.545474253  2329.6764   2   6   0.0165   0.0279   0.0532  -0.0141   0.0263  -0.0232   0.00    1.4
2024/07/08 10:09:01.000   28.292546263  -16.545474254  2329.6766   2   6   0.0165   0.0279   0.0532  -0.0141   0.0263  -0.0232   1.00    1.1
2024/07/08 10:09:02.000   28.292546263  -16.545474254  2329.6763   2   6   0.0165   0.0279   0.0532  -0.0141   0.0263  -0.0232   2.00    1.3
2024/07/08 10:09:03.000   28.292546264  -16.545474255  2329.6759   2   6   0.0165   0.0279   0.0532  -0.0141   0.0263  -0.0233   3.00    1.1
2024/07/08 10:09:04.000   28.292546267  -16.545474258  2329.6756   2   6   0.0165   0.0279   0.0533  -0.0141   0.0263  -0.0233   4.00    1.3
2024/07/08 10:09:05.000   28.292546269  -16.545474260  2329.6757   2   6   0.0165   0.0279   0.0533  -0.0141   0.0263  -0.0233   5.00    1.3
2024/07/08 10:09:06.000   28.292546270  -16.545474261  2329.6756   2   6   0.0165   0.0279   0.0533  -0.0141   0.0263  -0.0233   6.00    1.3
2024/07/08 10:09:07.000   28.292546271  -16.545474262  2329.6754   2   6   0.0166   0.0279   0.0533  -0.0141   0.0263  -0.0233   7.00    1.6
2024/07/08 10:09:08.000   28.292546273  -16.545474262  2329.6753   2   6   0.0166   0.0279   0.0533  -0.0141   0.0263  -0.0233   8.00    1.3
2024/07/08 10:09:09.000   28.292546274  -16.545474264  2329.6751   2   6   0.0166   0.0279   0.0533  -0.0141   0.0263  -0.0233   9.00    1.2
2024/07/08 10:09:10.000   28.292546275  -16.545474264  2329.6750   2   6   0.0166   0.0279   0.0533  -0.0141   0.0263  -0.0233  10.00    1.3
2024/07/08 10:09:11.000   28.292546276  -16.545474265  2329.6748   2   6   0.0166   0.0279   0.0533  -0.0141   0.0263  -0.0233  11.00    1.4
2024/07/08 10:09:12.000   28.292546277  -16.545474265  2329.6748   2   6   0.0166   0.0279   0.0533  -0.0141   0.0263  -0.0233  12.00    1.3
2024/07/08 10:09:13.000   28.292546277  -16.545474265  2329.6748   2   6   0.0166   0.0279   0.0533  -0.0141   0.0263  -0.0233  13.00    1.1
2024/07/08 10:09:14.000   28.292546278  -16.545474265  2329.6747   2   6   0.0166   0.0279   0.0533  -0.0141   0.0263  -0.0233  14.00    1.3
2024/07/08 10:09:15.000   28.292546279  -16.545474265  2329.6746   2   6   0.0166   0.0279   0.0533  -0.0141   0.0263  -0.0233 -15.00    1.2
2024/07/08 10:09:16.000   28.292546279  -16.545474265  2329.6745   2   6   0.0166   0.0279   0.0533  -0.0141   0.0263  -0.0233 -14.00    1.3
2024/07/08 10:09:17.000   28.292546280  -16.545474266  2329.6743   2   6   0.0166   0.0279   0.0533  -0.0141   0.0263  -0.0233 -13.00    1.3
2024/07/08 10:09:18.000   28.292546281  -16.545474267  2329.6742   2   6   0.0166   0.0279   0.0533  -0.0141   0.0263  -0.0233 -12.00    1.3
2024/07/08 10:09:19.000   28.292546281  -16.545474267  2329.6741   2   6   0.0166   0.0279   0.0533  -0.0141   0.0263  -0.0233 -11.00    1.6
2024/07/08 10:09:20.000   28.292546282  -16.545474268  2329.6739   2   6   0.0166   0.0279   0.0533  -0.0141   0.0263  -0.0233 -10.00    1.3
2024/07/08 10:09:21.000   28.292546283  -16.545474268  2329.6735   2   6   0.0166   0.0279   0.0533  -0.0141   0.0263  -0.0233  -9.00    1.2
2024/07/08 10:09:22.000   28.292546284  -16.545474269  2329.6733   2   6   0.0166   0.0279   0.0533  -0.0141   0.0263  -0.0233  -8.00    1.3
2024/07/08 10:09:23.000   28.292546286  -16.545474269  2329.6731   2   6   0.0166   0.0279   0.0533  -0.0141   0.0263  -0.0233  -7.00    1.4
2024/07/08 10:09:24.000   28.292546287  -16.545474270  2329.6729   2   6   0.0166   0.0279   0.0533  -0.0141   0.0263  -0.0233  -6.00    1.3
2024/07/08 10:09:25.000   28.292546289  -16.545474271  2329.6725   2   6   0.0166   0.0279   0.0533  -0.0141   0.0263  -0.0233  -5.00    1.1
2024/07/08 10:09:26.000   28.292546290  -16.545474273  2329.6723   2   6   0.0166   0.0279   0.0533  -0.0141   0.0263  -0.0233  -4.00    1.3
2024/07/08 10:09:27.000   28.292546292  -16.545474276  2329.6720   2   6   0.0166   0.0279   0.0533  -0.0141   0.0263  -0.0233  -3.00    1.2
2024/07/08 10:09:28.000   28.292546296  -16.545474278  2329.6715   2   6   0.0166   0.0279   0.0533  -0.0141   0.0263  -0.0233  -2.00    1.3
2024/07/08 10:09:29.000   28.292546300  -16.545474281  2329.6708   2   6   0.0166   0.0279   0.0533  -0.0141   0.0262  -0.0233  -1.00    1.3
2024/07/08 10:09:30.000   28.292546304  -16.545474284  2329.6703   2   6   0.0166   0.0279   0.0533  -0.0141   0.0262  -0.0233   0.00    1.3
2024/07/08 10:09:31.000   28.292546306  -16.545474286  2329.6702   2   6   0.0166   0.0279   0.0534  -0.0141   0.0262  -0.0233   1.00    1.6
2024/07/08 10:09:32.000   28.292546305  -16.545474290  2329.6707   2   6   0.0166   0.0279   0.0534  -0.0141   0.0262  -0.0233   2.00    1.2
2024/07/08 10:09:33.000   28.292546304  -16.545474293  2329.6712   2   6   0.0166   0.0279   0.0534  -0.0141   0.0262  -0.0233   3.00    1.2
2024/07/08 10:09:34.000   28.292546303  -16.545474297  2329.6718   2   6   0.0166   0.0279   0.0534  -0.0141   0.0262  -0.0233   4.00    1.3
2024/07/08 10:09:35.000   28.292546302  -16.545474300  2329.6724   2   6   0.0166   0.0279   0.0534  -0.0141   0.0262  -0.0233   5.00    1.4
2024/07/08 10:09:36.000   28.292546300  -16.545474303  2329.6731   2   6   0.0166   0.0279   0.0534  -0.0141   0.0262  -0.0233   6.00    1.3
2024/07/08 10:09:37.000   28.292546298  -16.545474305  2329.6739   2   6   0.0166   0.0279   0.0534  -0.0141   0.0262  -0.0233   7.00    1.1
2024/07/08 10:09:38.000   28.292546296  -16.545474306  2329.6744   2   6   0.0166   0.0279   0.0534  -0.0141   0.0262  -0.0233   8.00    1.3
2024/07/08 10:09:39.000   28.292546295  -16.545474308  2329.6748   2   6   0.0166   0.0279   0.0534  -0.0141   0.0262  -0.0233   9.00    1.2
2024/07/08 10:09:40.000   28.292546294  -16.545474309  2329.6750   2   6   0.0166   0.0279   0.0534  -0.0141   0.0262  -0.0233  10.00    1.3
2024/07/08 10:09:41.000   28.292546294  -16.545474311  2329.6750   2   6   0.0166   0.0279   0.0534  -0.0141   0.0262  -0.0233  11.00    1.3
2024/07/08 10:09:42.000   28.292546293  -16.545474311  2329.6751   2   6   0.0166   0.0279   0.0534  -0.0141   0.0262  -0.0233  12.00    1.3
2024/07/08 10:09:43.000   28.292546293  -16.545474312  2329.6751   2   6   0.0166   0.0279   0.0534  -0.0141   0.0262  -0.0233  13.00    1.6
2024/07/08 10:09:44.000   28.292546293  -16.545474312  2329.6751   2   6   0.0166   0.0279   0.0534  -0.0141   0.0262  -0.0233  14.00    1.3
2024/07/08 10:09:45.000   28.292546294  -16.545474312  2329.6751   2   6   0.0166   0.0279   0.0534  -0.0141   0.0262  -0.0233 -15.00    1.2
2024/07/08 10:09:46.000   28.292546294  -16.545474312  2329.6750   2   6   0.0166   0.0279   0.0534  -0.0141   0.0262  -0.0233 -14.00    1.3
2024/07/08 10:09:47.000   28.292546294  -16.545474312  2329.6749   2   6   0.0166   0.0279   0.0534  -0.0141   0.0262  -0.0233 -13.00    1.4
2024/07/08 10:09:48.000   28.292546294  -16.545474312  2329.6748   2   6   0.0166   0.0279   0.0534  -0.0141   0.0262  -0.0233 -12.00    1.3
2024/07/08 10:09:49.000   28.292546295  -16.545474311  2329.6747   2   6   0.0166   0.0279   0.0534  -0.0141   0.0262  -0.0233 -11.00    1.1
2024/07/08 10:09:50.000   28.292546295  -16.545474311  2329.6746   2   6   0.0166   0.0279   0.0534  -0.0141   0.0262  -0.0233 -10.00    1.3
2024/07/08 10:09:51.000   28.292546296  -16.545474311  2329.6744   2   6   0.0166   0.0279   0.0534  -0.0141   0.0262  -0.0233  -9.00    1.2
2024/07/08 10:09:52.000   28.292546297  -16.545474310  2329.6742   2   6   0.0166   0.0279   0.0534  -0.0141   0.0262  -0.0233  -8.00    1.4
2024/07/08 10:09:53.000   28.292546298  -16.545474308  2329.6740   2   6   0.0166   0.0279   0.0534  -0.0141   0.0262  -0.0233  -7.00    1.3
2024/07/08 10:09:54.000   28.292546299  -16.545474307  2329.6737   2   6   0.0166   0.0279   0.0534  -0.0141   0.0262  -0.0233  -6.00    1.4
2024/07/08 10:09:55.000   28.292546300  -16.545474306  2329.6733   2   6   0.0166   0.0279   0.0534  -0.0141   0.0262  -0.0233  -5.00    1.6
2024/07/08 10:09:56.000   28.292546302  -16.545474304  2329.6727   2   6   0.0166   0.0279   0.0535  -0.0141   0.0262  -0.0233  -4.00    1.4
2024/07/08 10:09:57.000   28.292546303  -16.545474303  2329.6720   2   6   0.0166   0.0279   0.0535  -0.0141   0.0262  -0.0233  -3.00    1.2
2024/07/08 10:09:58.000   28.292546305  -16.545474301  2329.6714   2   6   0.0166   0.0279   0.0535  -0.0141   0.0262  -0.0233  -2.00    1.4
2024/07/08 10:09:59.000   28.292546307  -16.545474299  2329.6709   2   6   0.0166   0.0279   0.0535  -0.0141   0.0261  -0.0233  -1.00    1.4
2024/07/08 10:10:00.000   28.292546309  -16.545474297  2329.6705   2   6   0.0166   0.0279   0.0535  -0.0141   0.0261  -0.0234   0.00    1.4
