% program   : RTKPOST-EX 2.5.0
% inp file  : C:\Users\SallyHenry\Desktop\Sally Internship\GNSS gravi\DATA\Survey Rover Obs\LM008_G3.24o
% inp file  : C:\Users\SallyHenry\Desktop\Sally Internship\GNSS gravi\DATA\BaseStations\IZAN\IZAN00ESP_R_20241900000_01D_30S_MO.rnx
% inp file  : C:\Users\SallyHenry\Desktop\Sally Internship\GNSS gravi\DATA\BaseStations\IZAN\IZAN00ESP_R_20241900000_01D_MN.rnx
% inp file  : C:\Users\SallyHenry\Desktop\Sally Internship\GNSS gravi\DATA\aux_files\Survey\IGS0OPSFIN_20241900000_01D_15M_ORB.SP3
% inp file  : C:\Users\SallyHenry\Desktop\Sally Internship\GNSS gravi\DATA\aux_files\Survey\IGS0OPSFIN_20241900000_01D_30S_CLK.CLK
% obs start : 2024/07/08 10:29:49.0 GPST (week2322 124189.0s)
% obs end   : 2024/07/08 10:55:51.0 GPST (week2322 125751.0s)
% pos mode  : Static
% freqs     : L1+L2/E5b
% solution  : Combined-No Phase Reset
% elev mask : 15.0 deg
% dynamics  : on
% tidecorr  : solid
% ionos opt : Estimate TEC
% tropo opt : Estimate ZTD+Grad
% ephemeris : Precise
% navi sys  : GPS GLONASS Galileo QZSS BDS
% amb res   : Fix and Hold
% amb glo   : Fix and Hold
% amb bds   : on
% val thres : 3.0
% antenna1  :                       ( 0.0000  0.0000  1.7710)
% antenna2  :                       ( 0.0000  0.0000  0.0000)
% ref pos   :  28.308069410  -16.499677180  2417.4044
%
% (lat/lon/height=WGS84/ellipsoidal,Q=1:fix,2:float,3:sbas,4:dgps,5:single,6:ppp,ns=# of satellites)
%  GPST                  latitude(deg) longitude(deg)  height(m)   Q  ns   sdn(m)   sde(m)   sdu(m)  sdne(m)  sdeu(m)  sdun(m) age(s)  ratio
2024/07/08 10:29:49.000   28.292573171  -16.544962390  2329.2348   2   6   0.0192   0.0255   0.0637  -0.0183   0.0337  -0.0328 -11.00    0.0
2024/07/08 10:29:50.000   28.292573171  -16.544962390  2329.2348   2   6   0.0192   0.0255   0.0637  -0.0183   0.0337  -0.0328 -10.00    0.0
2024/07/08 10:29:52.000   28.292573171  -16.544962389  2329.2348   2   6   0.0192   0.0255   0.0637  -0.0183   0.0337  -0.0328  -8.00    0.0
2024/07/08 10:29:53.000   28.292573172  -16.544962389  2329.2349   2   6   0.0192   0.0255   0.0637  -0.0183   0.0337  -0.0328  -7.00    0.0
2024/07/08 10:29:54.000   28.292573172  -16.544962389  2329.2349   2   6   0.0192   0.0255   0.0637  -0.0183   0.0337  -0.0328  -6.00    0.0
2024/07/08 10:29:55.000   28.292573172  -16.544962389  2329.2349   2   6   0.0192   0.0255   0.0637  -0.0183   0.0337  -0.0328  -5.00    0.0
2024/07/08 10:29:56.000   28.292573172  -16.544962388  2329.2349   2   6   0.0192   0.0255   0.0637  -0.0183   0.0336  -0.0328  -4.00    0.0
2024/07/08 10:29:57.000   28.292573173  -16.544962388  2329.2348   2   6   0.0192   0.0255   0.0637  -0.0183   0.0336  -0.0328  -3.00    0.0
2024/07/08 10:29:58.000   28.292573173  -16.544962389  2329.2348   2   6   0.0192   0.0255   0.0638  -0.0183   0.0336  -0.0328  -2.00    0.0
2024/07/08 10:29:59.000   28.292573174  -16.544962389  2329.2343   2   6   0.0192   0.0255   0.0638  -0.0183   0.0336  -0.0328  -1.00    0.0
2024/07/08 10:30:00.000   28.292573174  -16.544962389  2329.2342   2   6   0.0192   0.0255   0.0638  -0.0183   0.0336  -0.0328   0.00    0.0
2024/07/08 10:30:01.000   28.292573175  -16.544962387  2329.2345   2   6   0.0192   0.0255   0.0638  -0.0183   0.0336  -0.0328   1.00    0.0
2024/07/08 10:30:02.000   28.292573174  -16.544962386  2329.2348   2   6   0.0193   0.0255   0.0638  -0.0183   0.0336  -0.0328   2.00    0.0
2024/07/08 10:30:03.000   28.292573175  -16.544962385  2329.2344   2   6   0.0193   0.0255   0.0639  -0.0183   0.0336  -0.0329   3.00    0.0
2024/07/08 10:30:04.000   28.292573176  -16.544962384  2329.2340   2   6   0.0193   0.0255   0.0639  -0.0183   0.0336  -0.0329   4.00    0.0
2024/07/08 10:30:05.000   28.292573177  -16.544962383  2329.2337   2   6   0.0193   0.0255   0.0639  -0.0183   0.0336  -0.0329   5.00    0.0
2024/07/08 10:30:06.000   28.292573177  -16.544962382  2329.2334   2   6   0.0193   0.0255   0.0639  -0.0183   0.0336  -0.0329   6.00    0.0
2024/07/08 10:30:07.000   28.292573178  -16.544962382  2329.2331   2   6   0.0193   0.0255   0.0639  -0.0183   0.0336  -0.0329   7.00    0.0
2024/07/08 10:30:08.000   28.292573179  -16.544962381  2329.2330   2   6   0.0193   0.0255   0.0639  -0.0183   0.0336  -0.0329   8.00    0.0
2024/07/08 10:30:09.000   28.292573179  -16.544962381  2329.2329   2   6   0.0193   0.0255   0.0639  -0.0182   0.0336  -0.0329   9.00    0.0
2024/07/08 10:30:10.000   28.292573180  -16.544962381  2329.2326   2   6   0.0193   0.0255   0.0639  -0.0182   0.0336  -0.0329  10.00    0.0
2024/07/08 10:30:11.000   28.292573180  -16.544962381  2329.2324   2   6   0.0193   0.0255   0.0639  -0.0182   0.0336  -0.0329  11.00    0.0
2024/07/08 10:30:12.000   28.292573181  -16.544962380  2329.2322   2   6   0.0193   0.0255   0.0639  -0.0182   0.0335  -0.0329  12.00    0.0
2024/07/08 10:30:13.000   28.292573182  -16.544962381  2329.2320   2   6   0.0193   0.0255   0.0639  -0.0182   0.0335  -0.0329  13.00    0.0
2024/07/08 10:30:14.000   28.292573182  -16.544962381  2329.2318   2   6   0.0193   0.0255   0.0639  -0.0182   0.0335  -0.0329  14.00    0.0
2024/07/08 10:30:15.000   28.292573183  -16.544962381  2329.2316   2   6   0.0193   0.0255   0.0639  -0.0182   0.0335  -0.0329 -15.00    0.0
2024/07/08 10:30:16.000   28.292573183  -16.544962381  2329.2314   2   6   0.0193   0.0255   0.0639  -0.0182   0.0335  -0.0328 -14.00    0.0
2024/07/08 10:30:17.000   28.292573184  -16.544962381  2329.2312   2   6   0.0193   0.0255   0.0639  -0.0182   0.0335  -0.0328 -13.00    0.0
2024/07/08 10:30:18.000   28.292573184  -16.544962381  2329.2310   2   6   0.0193   0.0255   0.0639  -0.0182   0.0335  -0.0328 -12.00    0.0
2024/07/08 10:30:19.000   28.292573185  -16.544962382  2329.2306   2   6   0.0193   0.0255   0.0639  -0.0182   0.0335  -0.0328 -11.00    0.0
2024/07/08 10:30:20.000   28.292573186  -16.544962381  2329.2303   2   6   0.0192   0.0254   0.0639  -0.0182   0.0335  -0.0328 -10.00    0.0
2024/07/08 10:30:21.000   28.292573187  -16.544962381  2329.2299   2   6   0.0192   0.0254   0.0639  -0.0182   0.0335  -0.0328  -9.00    0.0
2024/07/08 10:30:22.000   28.292573188  -16.544962381  2329.2293   2   6   0.0192   0.0254   0.0639  -0.0182   0.0335  -0.0328  -8.00    0.0
2024/07/08 10:30:23.000   28.292573189  -16.544962381  2329.2288   2   6   0.0192   0.0254   0.0639  -0.0182   0.0335  -0.0328  -7.00    0.0
2024/07/08 10:30:24.000   28.292573190  -16.544962381  2329.2282   2   6   0.0192   0.0254   0.0639  -0.0182   0.0335  -0.0328  -6.00    0.0
2024/07/08 10:30:25.000   28.292573192  -16.544962381  2329.2276   2   6   0.0192   0.0254   0.0639  -0.0182   0.0335  -0.0328  -5.00    0.0
2024/07/08 10:30:26.000   28.292573193  -16.544962381  2329.2270   2   6   0.0192   0.0254   0.0639  -0.0182   0.0335  -0.0328  -4.00    0.0
2024/07/08 10:30:27.000   28.292573195  -16.544962381  2329.2263   2   6   0.0193   0.0254   0.0639  -0.0182   0.0335  -0.0328  -3.00    0.0
2024/07/08 10:30:28.000   28.292573197  -16.544962381  2329.2255   2   6   0.0193   0.0254   0.0639  -0.0182   0.0335  -0.0328  -2.00    0.0
2024/07/08 10:30:29.000   28.292573199  -16.544962380  2329.2247   2   6   0.0193   0.0254   0.0640  -0.0182   0.0334  -0.0329  -1.00    0.0
2024/07/08 10:30:30.000   28.292573202  -16.544962379  2329.2242   2   6   0.0193   0.0254   0.0640  -0.0182   0.0334  -0.0329   0.00    0.0
2024/07/08 10:30:31.000   28.292573204  -16.544962380  2329.2233   2   6   0.0193   0.0254   0.0640  -0.0182   0.0334  -0.0329   1.00    0.0
2024/07/08 10:30:32.000   28.292573205  -16.544962380  2329.2229   2   6   0.0193   0.0254   0.0640  -0.0182   0.0334  -0.0329   2.00    0.0
2024/07/08 10:30:33.000   28.292573205  -16.544962379  2329.2225   2   6   0.0193   0.0254   0.0640  -0.0182   0.0334  -0.0329   3.00    0.0
2024/07/08 10:30:34.000   28.292573208  -16.544962378  2329.2217   2   6   0.0193   0.0254   0.0641  -0.0182   0.0334  -0.0329   4.00    0.0
2024/07/08 10:30:35.000   28.292573209  -16.544962378  2329.2209   2   6   0.0193   0.0254   0.0641  -0.0182   0.0334  -0.0329   5.00    0.0
2024/07/08 10:30:36.000   28.292573210  -16.544962379  2329.2206   2   6   0.0193   0.0254   0.0641  -0.0182   0.0334  -0.0329   6.00    0.0
2024/07/08 10:30:37.000   28.292573211  -16.544962380  2329.2202   2   6   0.0193   0.0254   0.0641  -0.0182   0.0334  -0.0329   7.00    0.0
2024/07/08 10:30:38.000   28.292573212  -16.544962380  2329.2198   2   6   0.0193   0.0254   0.0641  -0.0181   0.0334  -0.0329   8.00    0.0
2024/07/08 10:30:39.000   28.292573213  -16.544962380  2329.2195   2   6   0.0193   0.0254   0.0641  -0.0181   0.0334  -0.0329   9.00    0.0
2024/07/08 10:30:40.000   28.292573213  -16.544962380  2329.2193   2   6   0.0193   0.0254   0.0641  -0.0181   0.0334  -0.0329  10.00    0.0
2024/07/08 10:30:41.000   28.292573214  -16.544962380  2329.2192   2   6   0.0193   0.0254   0.0641  -0.0181   0.0334  -0.0329  11.00    0.0
2024/07/08 10:30:42.000   28.292573214  -16.544962380  2329.2190   2   6   0.0193   0.0254   0.0641  -0.0181   0.0334  -0.0329  12.00    0.0
2024/07/08 10:30:43.000   28.292573215  -16.544962381  2329.2188   2   6   0.0193   0.0254   0.0641  -0.0181   0.0334  -0.0329  13.00    0.0
2024/07/08 10:30:44.000   28.292573216  -16.544962381  2329.2186   2   6   0.0193   0.0254   0.0641  -0.0181   0.0334  -0.0329  14.00    0.0
2024/07/08 10:30:45.000   28.292573216  -16.544962382  2329.2184   2   6   0.0193   0.0254   0.0641  -0.0181   0.0334  -0.0329 -15.00    0.0
2024/07/08 10:30:46.000   28.292573216  -16.544962382  2329.2183   2   6   0.0193   0.0254   0.0641  -0.0181   0.0333  -0.0329 -14.00    0.0
2024/07/08 10:30:47.000   28.292573217  -16.544962382  2329.2182   2   6   0.0193   0.0254   0.0641  -0.0181   0.0333  -0.0329 -13.00    0.0
2024/07/08 10:30:48.001   28.292573217  -16.544962382  2329.2180   2   6   0.0193   0.0254   0.0641  -0.0181   0.0333  -0.0329 -12.00    0.0
2024/07/08 10:30:49.000   28.292573218  -16.544962383  2329.2178   2   6   0.0193   0.0254   0.0641  -0.0181   0.0333  -0.0329 -11.00    0.0
2024/07/08 10:30:50.000   28.292573219  -16.544962383  2329.2175   2   6   0.0193   0.0254   0.0641  -0.0181   0.0333  -0.0329 -10.00    0.0
2024/07/08 10:30:51.000   28.292573220  -16.544962383  2329.2171   2   6   0.0193   0.0254   0.0641  -0.0181   0.0333  -0.0329  -9.00    0.0
2024/07/08 10:30:52.000   28.292573220  -16.544962383  2329.2169   2   6   0.0193   0.0254   0.0641  -0.0181   0.0333  -0.0329  -8.00    0.0
2024/07/08 10:30:53.000   28.292573221  -16.544962382  2329.2166   2   6   0.0193   0.0254   0.0641  -0.0181   0.0333  -0.0329  -7.00    0.0
2024/07/08 10:30:54.000   28.292573222  -16.544962382  2329.2163   2   6   0.0193   0.0254   0.0641  -0.0181   0.0333  -0.0329  -6.00    0.0
2024/07/08 10:30:55.000   28.292573222  -16.544962381  2329.2161   2   6   0.0193   0.0254   0.0641  -0.0181   0.0333  -0.0329  -5.00    0.0
2024/07/08 10:30:56.000   28.292573223  -16.544962381  2329.2157   2   6   0.0193   0.0254   0.0641  -0.0181   0.0333  -0.0329  -4.00    0.0
2024/07/08 10:30:57.000   28.292573224  -16.544962379  2329.2153   2   6   0.0193   0.0254   0.0641  -0.0181   0.0333  -0.0329  -3.00    0.0
2024/07/08 10:30:58.000   28.292573225  -16.544962379  2329.2151   2   6   0.0193   0.0254   0.0641  -0.0181   0.0333  -0.0329  -2.00    0.0
2024/07/08 10:30:59.000   28.292573225  -16.544962378  2329.2150   2   6   0.0193   0.0254   0.0641  -0.0181   0.0333  -0.0329  -1.00    0.0
2024/07/08 10:31:00.000   28.292573225  -16.544962376  2329.2151   2   6   0.0193   0.0254   0.0642  -0.0181   0.0333  -0.0329   0.00    0.0
2024/07/08 10:31:01.000   28.292573226  -16.544962374  2329.2149   2   6   0.0193   0.0254   0.0642  -0.0181   0.0333  -0.0329   1.00    0.0
2024/07/08 10:31:02.000   28.292573227  -16.544962374  2329.2146   2   6   0.0193   0.0254   0.0642  -0.0181   0.0332  -0.0329   2.00    0.0
2024/07/08 10:31:03.000   28.292573228  -16.544962373  2329.2141   2   6   0.0193   0.0254   0.0642  -0.0181   0.0332  -0.0329   3.00    0.0
2024/07/08 10:31:04.000   28.292573229  -16.544962373  2329.2140   2   6   0.0193   0.0254   0.0642  -0.0181   0.0332  -0.0329   4.00    0.0
2024/07/08 10:31:05.000   28.292573230  -16.544962372  2329.2138   2   6   0.0193   0.0254   0.0642  -0.0180   0.0332  -0.0329   5.00    0.0
2024/07/08 10:31:06.000   28.292573230  -16.544962372  2329.2134   2   6   0.0193   0.0254   0.0643  -0.0180   0.0332  -0.0329   6.00    0.0
2024/07/08 10:31:07.000   28.292573231  -16.544962372  2329.2132   2   6   0.0193   0.0254   0.0643  -0.0180   0.0332  -0.0329   7.00    0.0
2024/07/08 10:31:08.000   28.292573231  -16.544962372  2329.2130   2   6   0.0193   0.0254   0.0643  -0.0180   0.0332  -0.0329   8.00    0.0
2024/07/08 10:31:09.000   28.292573231  -16.544962373  2329.2126   2   6   0.0193   0.0254   0.0643  -0.0180   0.0332  -0.0329   9.00    0.0
2024/07/08 10:31:10.000   28.292573232  -16.544962373  2329.2122   2   6   0.0193   0.0254   0.0643  -0.0180   0.0332  -0.0329  10.00    0.0
2024/07/08 10:31:11.000   28.292573233  -16.544962373  2329.2119   2   6   0.0193   0.0254   0.0643  -0.0180   0.0332  -0.0329  11.00    0.0
2024/07/08 10:31:12.000   28.292573233  -16.544962373  2329.2117   2   6   0.0193   0.0254   0.0643  -0.0180   0.0332  -0.0329  12.00    0.0
2024/07/08 10:31:13.000   28.292573234  -16.544962374  2329.2115   2   6   0.0193   0.0254   0.0643  -0.0180   0.0332  -0.0329  13.00    0.0
2024/07/08 10:31:14.000   28.292573234  -16.544962374  2329.2112   2   6   0.0193   0.0254   0.0643  -0.0180   0.0332  -0.0329  14.00    0.0
2024/07/08 10:31:15.000   28.292573235  -16.544962374  2329.2110   2   6   0.0193   0.0254   0.0643  -0.0180   0.0332  -0.0329 -15.00    0.0
2024/07/08 10:31:16.000   28.292573235  -16.544962374  2329.2108   2   6   0.0193   0.0254   0.0643  -0.0180   0.0332  -0.0329 -14.00    0.0
2024/07/08 10:31:17.000   28.292573236  -16.544962374  2329.2106   2   6   0.0193   0.0254   0.0643  -0.0180   0.0332  -0.0329 -13.00    0.0
2024/07/08 10:31:18.000   28.292573236  -16.544962374  2329.2103   2   6   0.0193   0.0254   0.0643  -0.0180   0.0332  -0.0329 -12.00    0.0
2024/07/08 10:31:19.000   28.292573237  -16.544962374  2329.2100   2   6   0.0193   0.0254   0.0643  -0.0180   0.0331  -0.0329 -11.00    0.0
2024/07/08 10:31:20.000   28.292573237  -16.544962374  2329.2098   2   6   0.0193   0.0254   0.0643  -0.0180   0.0331  -0.0329 -10.00    0.0
2024/07/08 10:31:21.000   28.292573238  -16.544962374  2329.2096   2   6   0.0193   0.0253   0.0643  -0.0180   0.0331  -0.0329  -9.00    0.0
2024/07/08 10:31:22.000   28.292573238  -16.544962373  2329.2093   2   6   0.0193   0.0253   0.0643  -0.0180   0.0331  -0.0329  -8.00    0.0
2024/07/08 10:31:23.000   28.292573239  -16.544962373  2329.2091   2   6   0.0193   0.0253   0.0643  -0.0180   0.0331  -0.0329  -7.00    0.0
2024/07/08 10:31:24.000   28.292573240  -16.544962372  2329.2086   2   6   0.0193   0.0253   0.0643  -0.0180   0.0331  -0.0329  -6.00    0.0
2024/07/08 10:31:25.000   28.292573241  -16.544962372  2329.2080   2   6   0.0193   0.0253   0.0643  -0.0180   0.0331  -0.0329  -5.00    0.0
2024/07/08 10:31:26.000   28.292573243  -16.544962372  2329.2072   2   6   0.0193   0.0253   0.0643  -0.0180   0.0331  -0.0329  -4.00    0.0
2024/07/08 10:31:27.000   28.292573244  -16.544962371  2329.2066   2   6   0.0193   0.0253   0.0643  -0.0180   0.0331  -0.0329  -3.00    0.0
2024/07/08 10:31:28.000   28.292573245  -16.544962370  2329.2059   2   6   0.0193   0.0253   0.0643  -0.0180   0.0331  -0.0329  -2.00    0.0
2024/07/08 10:31:29.000   28.292573247  -16.544962369  2329.2053   2   6   0.0193   0.0253   0.0643  -0.0180   0.0331  -0.0329  -1.00    0.0
2024/07/08 10:31:30.000   28.292573248  -16.544962368  2329.2045   2   6   0.0193   0.0253   0.0643  -0.0180   0.0331  -0.0329   0.00    0.0
2024/07/08 10:31:31.000   28.292573250  -16.544962366  2329.2036   2   6   0.0193   0.0253   0.0644  -0.0180   0.0331  -0.0329   1.00    0.0
2024/07/08 10:31:32.000   28.292573252  -16.544962365  2329.2025   2   6   0.0193   0.0253   0.0644  -0.0180   0.0331  -0.0329   2.00    0.0
2024/07/08 10:31:33.000   28.292573254  -16.544962364  2329.2018   2   6   0.0193   0.0253   0.0644  -0.0179   0.0331  -0.0329   3.00    0.0
2024/07/08 10:31:34.000   28.292573256  -16.544962364  2329.2010   2   6   0.0193   0.0253   0.0644  -0.0179   0.0330  -0.0329   4.00    0.0
2024/07/08 10:31:35.000   28.292573257  -16.544962364  2329.2005   2   6   0.0193   0.0253   0.0644  -0.0179   0.0330  -0.0329   5.00    0.0
2024/07/08 10:31:36.000   28.292573257  -16.544962364  2329.2000   2   6   0.0193   0.0253   0.0644  -0.0179   0.0330  -0.0329   6.00    0.0
2024/07/08 10:31:37.000   28.292573258  -16.544962364  2329.1995   2   6   0.0193   0.0253   0.0644  -0.0179   0.0330  -0.0329   7.00    0.0
2024/07/08 10:31:38.000   28.292573259  -16.544962365  2329.1991   2   6   0.0193   0.0253   0.0644  -0.0179   0.0330  -0.0329   8.00    0.0
2024/07/08 10:31:39.000   28.292573260  -16.544962365  2329.1987   2   6   0.0193   0.0253   0.0644  -0.0179   0.0330  -0.0329   9.00    0.0
2024/07/08 10:31:40.000   28.292573262  -16.544962365  2329.1982   2   6   0.0193   0.0253   0.0644  -0.0179   0.0330  -0.0329  10.00    0.0
2024/07/08 10:31:41.000   28.292573263  -16.544962366  2329.1978   2   6   0.0193   0.0253   0.0644  -0.0179   0.0330  -0.0329  11.00    0.0
2024/07/08 10:31:42.000   28.292573264  -16.544962367  2329.1974   2   6   0.0193   0.0253   0.0644  -0.0179   0.0330  -0.0329  12.00    0.0
2024/07/08 10:31:43.000   28.292573264  -16.544962367  2329.1971   2   6   0.0193   0.0253   0.0644  -0.0179   0.0330  -0.0329  13.00    0.0
2024/07/08 10:31:44.000   28.292573265  -16.544962368  2329.1967   2   6   0.0193   0.0253   0.0644  -0.0179   0.0330  -0.0329  14.00    0.0
2024/07/08 10:31:45.000   28.292573266  -16.544962369  2329.1964   2   6   0.0193   0.0253   0.0644  -0.0179   0.0330  -0.0329 -15.00    0.0
2024/07/08 10:31:46.000   28.292573267  -16.544962370  2329.1962   2   6   0.0193   0.0253   0.0644  -0.0179   0.0330  -0.0329 -14.00    0.0
2024/07/08 10:31:47.000   28.292573268  -16.544962371  2329.1959   2   6   0.0193   0.0253   0.0644  -0.0179   0.0330  -0.0329 -13.00    0.0
2024/07/08 10:31:48.000   28.292573268  -16.544962371  2329.1957   2   6   0.0193   0.0253   0.0644  -0.0179   0.0330  -0.0329 -12.00    0.0
2024/07/08 10:31:49.000   28.292573269  -16.544962372  2329.1954   2   6   0.0193   0.0253   0.0644  -0.0179   0.0330  -0.0329 -11.00    0.0
2024/07/08 10:31:50.000   28.292573269  -16.544962373  2329.1953   2   6   0.0193   0.0253   0.0644  -0.0179   0.0330  -0.0329 -10.00    0.0
2024/07/08 10:31:51.000   28.292573269  -16.544962373  2329.1951   2   6   0.0193   0.0253   0.0644  -0.0179   0.0329  -0.0329  -9.00    0.0
2024/07/08 10:31:52.000   28.292573270  -16.544962374  2329.1949   2   6   0.0193   0.0253   0.0644  -0.0179   0.0329  -0.0329  -8.00    0.0
2024/07/08 10:31:53.000   28.292573270  -16.544962375  2329.1946   2   6   0.0193   0.0253   0.0644  -0.0179   0.0329  -0.0329  -7.00    0.0
2024/07/08 10:31:54.000   28.292573270  -16.544962375  2329.1947   2   6   0.0193   0.0253   0.0644  -0.0179   0.0329  -0.0329  -6.00    0.0
2024/07/08 10:31:55.000   28.292573269  -16.544962375  2329.1948   2   6   0.0193   0.0253   0.0644  -0.0179   0.0329  -0.0329  -5.00    0.0
2024/07/08 10:31:56.000   28.292573269  -16.544962375  2329.1950   2   6   0.0193   0.0253   0.0644  -0.0179   0.0329  -0.0329  -4.00    0.0
2024/07/08 10:31:57.000   28.292573268  -16.544962375  2329.1952   2   6   0.0193   0.0253   0.0644  -0.0179   0.0329  -0.0329  -3.00    0.0
2024/07/08 10:31:58.000   28.292573268  -16.544962374  2329.1952   2   6   0.0193   0.0253   0.0645  -0.0179   0.0329  -0.0329  -2.00    0.0
2024/07/08 10:31:59.000   28.292573269  -16.544962373  2329.1952   2   6   0.0193   0.0253   0.0645  -0.0179   0.0329  -0.0329  -1.00    0.0
2024/07/08 10:32:00.000   28.292573268  -16.544962372  2329.1953   2   6   0.0193   0.0253   0.0645  -0.0178   0.0329  -0.0329   0.00    0.0
2024/07/08 10:32:01.000   28.292573268  -16.544962370  2329.1956   2   6   0.0193   0.0253   0.0645  -0.0178   0.0329  -0.0329   1.00    0.0
2024/07/08 10:32:02.000   28.292573268  -16.544962369  2329.1957   2   6   0.0193   0.0253   0.0645  -0.0178   0.0329  -0.0329   2.00    0.0
2024/07/08 10:32:03.000   28.292573268  -16.544962368  2329.1956   2   6   0.0193   0.0253   0.0645  -0.0178   0.0329  -0.0329   3.00    0.0
2024/07/08 10:32:04.000   28.292573268  -16.544962366  2329.1957   2   6   0.0193   0.0253   0.0646  -0.0178   0.0329  -0.0329   4.00    0.0
2024/07/08 10:32:05.000   28.292573268  -16.544962365  2329.1958   2   6   0.0193   0.0253   0.0646  -0.0178   0.0328  -0.0329   5.00    0.0
2024/07/08 10:32:06.000   28.292573267  -16.544962363  2329.1959   2   6   0.0193   0.0253   0.0646  -0.0178   0.0328  -0.0329   6.00    0.0
2024/07/08 10:32:07.000   28.292573267  -16.544962363  2329.1960   2   6   0.0193   0.0253   0.0646  -0.0178   0.0328  -0.0329   7.00    0.0
2024/07/08 10:32:08.000   28.292573268  -16.544962362  2329.1959   2   6   0.0193   0.0253   0.0646  -0.0178   0.0328  -0.0329   8.00    0.0
2024/07/08 10:32:09.000   28.292573268  -16.544962363  2329.1958   2   6   0.0193   0.0253   0.0646  -0.0178   0.0328  -0.0329   9.00    0.0
2024/07/08 10:32:10.000   28.292573269  -16.544962362  2329.1957   2   6   0.0193   0.0253   0.0646  -0.0178   0.0328  -0.0329  10.00    0.0
2024/07/08 10:32:11.000   28.292573269  -16.544962362  2329.1956   2   6   0.0193   0.0253   0.0646  -0.0178   0.0328  -0.0329  11.00    0.0
2024/07/08 10:32:12.000   28.292573270  -16.544962362  2329.1954   2   6   0.0193   0.0253   0.0646  -0.0178   0.0328  -0.0329  12.00    0.0
2024/07/08 10:32:13.000   28.292573270  -16.544962362  2329.1953   2   6   0.0193   0.0253   0.0646  -0.0178   0.0328  -0.0329  13.00    0.0
2024/07/08 10:32:14.000   28.292573270  -16.544962362  2329.1952   2   6   0.0193   0.0253   0.0646  -0.0178   0.0328  -0.0329  14.00    0.0
2024/07/08 10:32:15.000   28.292573271  -16.544962362  2329.1950   2   6   0.0193   0.0253   0.0646  -0.0178   0.0328  -0.0329 -15.00    0.0
2024/07/08 10:32:16.000   28.292573271  -16.544962362  2329.1950   2   6   0.0193   0.0253   0.0646  -0.0178   0.0328  -0.0329 -14.00    0.0
2024/07/08 10:32:17.000   28.292573271  -16.544962362  2329.1949   2   6   0.0193   0.0253   0.0646  -0.0178   0.0328  -0.0329 -13.00    0.0
2024/07/08 10:32:18.000   28.292573272  -16.544962362  2329.1948   2   6   0.0193   0.0253   0.0646  -0.0178   0.0328  -0.0329 -12.00    0.0
2024/07/08 10:32:19.000   28.292573272  -16.544962361  2329.1947   2   6   0.0193   0.0253   0.0646  -0.0178   0.0328  -0.0329 -11.00    0.0
2024/07/08 10:32:20.000   28.292573272  -16.544962361  2329.1945   2   6   0.0193   0.0253   0.0646  -0.0178   0.0328  -0.0329 -10.00    0.0
2024/07/08 10:32:21.000   28.292573273  -16.544962361  2329.1943   2   6   0.0193   0.0252   0.0646  -0.0178   0.0328  -0.0329  -9.00    0.0
2024/07/08 10:32:22.000   28.292573274  -16.544962360  2329.1940   2   6   0.0193   0.0252   0.0646  -0.0178   0.0327  -0.0329  -8.00    0.0
2024/07/08 10:32:23.000   28.292573274  -16.544962360  2329.1937   2   6   0.0193   0.0252   0.0646  -0.0178   0.0327  -0.0329  -7.00    0.0
2024/07/08 10:32:24.000   28.292573275  -16.544962359  2329.1935   2   6   0.0193   0.0252   0.0646  -0.0178   0.0327  -0.0329  -6.00    0.0
2024/07/08 10:32:25.000   28.292573276  -16.544962358  2329.1932   2   6   0.0193   0.0252   0.0646  -0.0178   0.0327  -0.0329  -5.00    0.0
2024/07/08 10:32:26.000   28.292573277  -16.544962358  2329.1926   2   6   0.0193   0.0252   0.0646  -0.0177   0.0327  -0.0329  -4.00    0.0
2024/07/08 10:32:27.000   28.292573277  -16.544962356  2329.1921   2   6   0.0193   0.0252   0.0646  -0.0177   0.0327  -0.0329  -3.00    0.0
2024/07/08 10:32:28.000   28.292573278  -16.544962355  2329.1915   2   6   0.0193   0.0252   0.0646  -0.0177   0.0327  -0.0329  -2.00    1.4
2024/07/08 10:32:29.000   28.292573279  -16.544962354  2329.1907   2   6   0.0193   0.0252   0.0646  -0.0177   0.0327  -0.0329  -1.00    1.5
2024/07/08 10:32:30.000   28.292573281  -16.544962353  2329.1899   2   6   0.0193   0.0252   0.0646  -0.0177   0.0327  -0.0329   0.00    1.4
2024/07/08 10:32:31.000   28.292573281  -16.544962352  2329.1895   2   6   0.0193   0.0252   0.0647  -0.0177   0.0327  -0.0329   1.00    1.5
2024/07/08 10:32:32.000   28.292573282  -16.544962352  2329.1891   2   6   0.0193   0.0252   0.0647  -0.0177   0.0327  -0.0329   2.00    1.4
2024/07/08 10:32:33.000   28.292573282  -16.544962351  2329.1886   2   6   0.0193   0.0252   0.0647  -0.0177   0.0327  -0.0329   3.00    1.4
2024/07/08 10:32:34.000   28.292573282  -16.544962350  2329.1886   2   6   0.0193   0.0252   0.0647  -0.0177   0.0327  -0.0329   4.00    1.4
2024/07/08 10:32:35.000   28.292573282  -16.544962349  2329.1883   2   6   0.0193   0.0252   0.0647  -0.0177   0.0326  -0.0329   5.00    2.1
2024/07/08 10:32:36.000   28.292573281  -16.544962349  2329.1881   2   6   0.0193   0.0252   0.0647  -0.0177   0.0326  -0.0329   6.00    1.4
2024/07/08 10:32:37.000   28.292573281  -16.544962349  2329.1879   2   6   0.0193   0.0252   0.0647  -0.0177   0.0326  -0.0329   7.00    1.8
2024/07/08 10:32:38.000   28.292573281  -16.544962348  2329.1879   2   6   0.0193   0.0252   0.0647  -0.0177   0.0326  -0.0329   8.00    1.4
2024/07/08 10:32:39.000   28.292573280  -16.544962348  2329.1879   2   6   0.0193   0.0252   0.0647  -0.0177   0.0326  -0.0329   9.00    1.6
2024/07/08 10:32:40.000   28.292573280  -16.544962347  2329.1878   2   6   0.0193   0.0252   0.0647  -0.0177   0.0326  -0.0329  10.00    1.4
2024/07/08 10:32:41.000   28.292573279  -16.544962347  2329.1878   2   6   0.0193   0.0252   0.0647  -0.0177   0.0326  -0.0329  11.00    1.5
2024/07/08 10:32:42.000   28.292573279  -16.544962348  2329.1877   2   6   0.0193   0.0252   0.0647  -0.0177   0.0326  -0.0329  12.00    1.4
2024/07/08 10:32:43.000   28.292573279  -16.544962348  2329.1878   2   6   0.0193   0.0252   0.0647  -0.0177   0.0326  -0.0329  13.00    1.5
2024/07/08 10:32:44.000   28.292573279  -16.544962348  2329.1877   2   6   0.0193   0.0252   0.0647  -0.0177   0.0326  -0.0329  14.00    1.4
2024/07/08 10:32:45.000   28.292573278  -16.544962348  2329.1878   2   6   0.0193   0.0252   0.0647  -0.0177   0.0326  -0.0329 -15.00    1.4
2024/07/08 10:32:46.000   28.292573279  -16.544962349  2329.1876   2   6   0.0193   0.0252   0.0647  -0.0177   0.0326  -0.0329 -14.00    1.4
2024/07/08 10:32:47.000   28.292573280  -16.544962349  2329.1873   2   6   0.0193   0.0252   0.0647  -0.0177   0.0326  -0.0329 -13.00    2.1
2024/07/08 10:32:48.000   28.292573281  -16.544962350  2329.1870   2   6   0.0193   0.0252   0.0647  -0.0177   0.0326  -0.0329 -12.00    1.4
2024/07/08 10:32:49.000   28.292573282  -16.544962350  2329.1868   2   6   0.0193   0.0252   0.0647  -0.0177   0.0326  -0.0329 -11.00    1.7
2024/07/08 10:32:50.000   28.292573283  -16.544962351  2329.1866   2   6   0.0193   0.0252   0.0647  -0.0177   0.0326  -0.0329 -10.00    1.4
2024/07/08 10:32:51.000   28.292573284  -16.544962352  2329.1862   2   6   0.0193   0.0252   0.0647  -0.0177   0.0326  -0.0329  -9.00    1.5
2024/07/08 10:32:52.000   28.292573286  -16.544962353  2329.1858   2   6   0.0193   0.0252   0.0647  -0.0176   0.0325  -0.0329  -8.00    1.4
2024/07/08 10:32:53.000   28.292573287  -16.544962353  2329.1856   2   6   0.0193   0.0252   0.0647  -0.0176   0.0325  -0.0329  -7.00    1.5
2024/07/08 10:32:54.000   28.292573288  -16.544962353  2329.1853   2   6   0.0193   0.0252   0.0647  -0.0176   0.0325  -0.0329  -6.00    1.4
2024/07/08 10:32:55.000   28.292573290  -16.544962354  2329.1848   2   6   0.0193   0.0252   0.0647  -0.0176   0.0325  -0.0329  -5.00    1.4
2024/07/08 10:32:56.000   28.292573291  -16.544962354  2329.1845   2   6   0.0193   0.0252   0.0647  -0.0176   0.0325  -0.0329  -4.00    1.4
2024/07/08 10:32:57.000   28.292573292  -16.544962354  2329.1840   2   6   0.0193   0.0252   0.0647  -0.0176   0.0325  -0.0329  -3.00    1.3
2024/07/08 10:32:58.000   28.292573294  -16.544962353  2329.1837   2   6   0.0193   0.0252   0.0647  -0.0176   0.0325  -0.0329  -2.00    1.4
2024/07/08 10:32:59.000   28.292573295  -16.544962353  2329.1833   2   6   0.0193   0.0252   0.0647  -0.0176   0.0325  -0.0329  -1.00    2.0
2024/07/08 10:33:00.000   28.292573295  -16.544962352  2329.1829   2   6   0.0193   0.0252   0.0648  -0.0176   0.0325  -0.0329   0.00    1.4
2024/07/08 10:33:01.000   28.292573295  -16.544962352  2329.1828   2   6   0.0193   0.0252   0.0648  -0.0176   0.0325  -0.0329   1.00    1.6
2024/07/08 10:33:02.000   28.292573296  -16.544962351  2329.1829   2   6   0.0193   0.0252   0.0648  -0.0176   0.0325  -0.0329   2.00    1.4
2024/07/08 10:33:03.000   28.292573297  -16.544962351  2329.1829   2   6   0.0193   0.0252   0.0648  -0.0176   0.0325  -0.0329   3.00    1.5
2024/07/08 10:33:04.000   28.292573297  -16.544962350  2329.1827   2   6   0.0193   0.0252   0.0648  -0.0176   0.0325  -0.0329   4.00    1.4
2024/07/08 10:33:05.000   28.292573297  -16.544962349  2329.1829   2   6   0.0193   0.0252   0.0648  -0.0176   0.0324  -0.0329   5.00    1.5
2024/07/08 10:33:06.000   28.292573298  -16.544962349  2329.1828   2   6   0.0193   0.0252   0.0648  -0.0176   0.0324  -0.0329   6.00    1.4
2024/07/08 10:33:07.000   28.292573298  -16.544962349  2329.1828   2   6   0.0193   0.0252   0.0648  -0.0176   0.0324  -0.0329   7.00    1.4
2024/07/08 10:33:08.000   28.292573298  -16.544962349  2329.1829   2   6   0.0193   0.0252   0.0648  -0.0176   0.0324  -0.0329   8.00    1.4
2024/07/08 10:33:09.000   28.292573298  -16.544962350  2329.1828   2   6   0.0193   0.0252   0.0648  -0.0176   0.0324  -0.0329   9.00    1.3
2024/07/08 10:33:10.000   28.292573298  -16.544962350  2329.1826   2   6   0.0193   0.0252   0.0648  -0.0176   0.0324  -0.0329  10.00    1.4
2024/07/08 10:33:11.000   28.292573299  -16.544962350  2329.1825   2   6   0.0193   0.0252   0.0648  -0.0176   0.0324  -0.0329  11.00    2.0
2024/07/08 10:33:12.000   28.292573299  -16.544962350  2329.1824   2   6   0.0193   0.0252   0.0648  -0.0176   0.0324  -0.0329  12.00    1.4
2024/07/08 10:33:13.000   28.292573299  -16.544962350  2329.1823   2   6   0.0193   0.0252   0.0648  -0.0176   0.0324  -0.0329  13.00    1.5
2024/07/08 10:33:14.000   28.292573299  -16.544962350  2329.1822   2   6   0.0193   0.0252   0.0648  -0.0176   0.0324  -0.0329  14.00    1.4
2024/07/08 10:33:15.000   28.292573300  -16.544962350  2329.1821   2   6   0.0193   0.0252   0.0648  -0.0176   0.0324  -0.0329 -15.00    1.5
2024/07/08 10:33:16.000   28.292573300  -16.544962351  2329.1820   2   6   0.0193   0.0252   0.0648  -0.0175   0.0324  -0.0329 -14.00    1.4
2024/07/08 10:33:17.000   28.292573301  -16.544962351  2329.1819   2   6   0.0193   0.0252   0.0648  -0.0175   0.0324  -0.0329 -13.00    1.4
2024/07/08 10:33:18.000   28.292573301  -16.544962351  2329.1818   2   6   0.0193   0.0252   0.0648  -0.0175   0.0324  -0.0329 -12.00    1.4
2024/07/08 10:33:19.000   28.292573301  -16.544962351  2329.1818   2   6   0.0193   0.0251   0.0648  -0.0175   0.0324  -0.0329 -11.00    1.4
2024/07/08 10:33:20.000   28.292573302  -16.544962351  2329.1817   2   6   0.0193   0.0251   0.0648  -0.0175   0.0324  -0.0329 -10.00    1.4
2024/07/08 10:33:21.000   28.292573302  -16.544962350  2329.1816   2   6   0.0193   0.0251   0.0648  -0.0175   0.0324  -0.0329  -9.00    1.3
2024/07/08 10:33:22.000   28.292573303  -16.544962350  2329.1813   2   6   0.0193   0.0251   0.0648  -0.0175   0.0323  -0.0329  -8.00    1.4
2024/07/08 10:33:23.000   28.292573304  -16.544962350  2329.1810   2   6   0.0193   0.0251   0.0648  -0.0175   0.0323  -0.0329  -7.00    1.9
2024/07/08 10:33:24.000   28.292573305  -16.544962349  2329.1807   2   6   0.0193   0.0251   0.0648  -0.0175   0.0323  -0.0329  -6.00    1.4
2024/07/08 10:33:25.000   28.292573306  -16.544962349  2329.1804   2   6   0.0193   0.0251   0.0648  -0.0175   0.0323  -0.0329  -5.00    1.4
2024/07/08 10:33:26.000   28.292573307  -16.544962348  2329.1802   2   6   0.0193   0.0251   0.0648  -0.0175   0.0323  -0.0329  -4.00    1.4
2024/07/08 10:33:27.000   28.292573308  -16.544962348  2329.1800   2   6   0.0193   0.0251   0.0648  -0.0175   0.0323  -0.0329  -3.00    1.5
2024/07/08 10:33:28.000   28.292573309  -16.544962347  2329.1797   2   6   0.0193   0.0251   0.0648  -0.0175   0.0323  -0.0329  -2.00    1.4
2024/07/08 10:33:29.000   28.292573310  -16.544962345  2329.1794   2   6   0.0193   0.0251   0.0649  -0.0175   0.0323  -0.0329  -1.00    1.4
2024/07/08 10:33:30.000   28.292573312  -16.544962344  2329.1790   2   6   0.0193   0.0251   0.0649  -0.0175   0.0323  -0.0329   0.00    1.4
2024/07/08 10:33:31.000   28.292573313  -16.544962342  2329.1789   2   6   0.0193   0.0251   0.0649  -0.0175   0.0323  -0.0329   1.00    1.4
2024/07/08 10:33:32.000   28.292573314  -16.544962341  2329.1788   2   6   0.0193   0.0251   0.0649  -0.0175   0.0323  -0.0329   2.00    1.4
2024/07/08 10:33:33.000   28.292573315  -16.544962339  2329.1784   2   6   0.0193   0.0251   0.0649  -0.0175   0.0323  -0.0329   3.00    1.3
2024/07/08 10:33:34.000   28.292573316  -16.544962338  2329.1782   2   6   0.0193   0.0251   0.0649  -0.0175   0.0323  -0.0329   4.00    1.4
2024/07/08 10:33:35.000   28.292573316  -16.544962336  2329.1783   2   6   0.0193   0.0251   0.0649  -0.0175   0.0322  -0.0329   5.00    2.0
2024/07/08 10:33:36.000   28.292573316  -16.544962336  2329.1785   2   6   0.0193   0.0251   0.0649  -0.0175   0.0322  -0.0329   6.00    1.4
2024/07/08 10:33:37.000   28.292573317  -16.544962335  2329.1786   2   6   0.0193   0.0251   0.0649  -0.0175   0.0322  -0.0329   7.00    1.4
2024/07/08 10:33:38.000   28.292573317  -16.544962335  2329.1785   2   6   0.0193   0.0251   0.0649  -0.0175   0.0322  -0.0329   8.00    1.4
2024/07/08 10:33:39.000   28.292573318  -16.544962335  2329.1783   2   6   0.0193   0.0251   0.0649  -0.0175   0.0322  -0.0329   9.00    1.4
2024/07/08 10:33:40.000   28.292573319  -16.544962335  2329.1782   2   6   0.0193   0.0251   0.0649  -0.0174   0.0322  -0.0329  10.00    1.4
2024/07/08 10:33:41.000   28.292573319  -16.544962335  2329.1781   2   6   0.0193   0.0251   0.0649  -0.0174   0.0322  -0.0329  11.00    1.4
2024/07/08 10:33:42.000   28.292573319  -16.544962335  2329.1781   2   6   0.0193   0.0251   0.0649  -0.0174   0.0322  -0.0329  12.00    1.4
2024/07/08 10:33:43.000   28.292573320  -16.544962335  2329.1782   2   6   0.0193   0.0251   0.0649  -0.0174   0.0322  -0.0329  13.00    1.3
2024/07/08 10:33:44.000   28.292573320  -16.544962336  2329.1781   2   6   0.0193   0.0251   0.0649  -0.0174   0.0322  -0.0329  14.00    1.4
2024/07/08 10:33:45.000   28.292573320  -16.544962335  2329.1781   2   6   0.0193   0.0251   0.0649  -0.0174   0.0322  -0.0329 -15.00    1.3
2024/07/08 10:33:46.000   28.292573320  -16.544962336  2329.1780   2   6   0.0193   0.0251   0.0649  -0.0174   0.0322  -0.0329 -14.00    1.4
2024/07/08 10:33:47.000   28.292573320  -16.544962336  2329.1781   2   6   0.0193   0.0251   0.0649  -0.0174   0.0322  -0.0329 -13.00    1.9
2024/07/08 10:33:48.000   28.292573320  -16.544962336  2329.1781   2   6   0.0193   0.0251   0.0649  -0.0174   0.0322  -0.0329 -12.00    1.4
2024/07/08 10:33:49.000   28.292573320  -16.544962336  2329.1782   2   6   0.0193   0.0251   0.0649  -0.0174   0.0322  -0.0329 -11.00    1.3
2024/07/08 10:33:50.000   28.292573320  -16.544962336  2329.1783   2   6   0.0193   0.0251   0.0649  -0.0174   0.0322  -0.0329 -10.00    1.4
2024/07/08 10:33:51.000   28.292573320  -16.544962337  2329.1784   2   6   0.0193   0.0251   0.0649  -0.0174   0.0322  -0.0329  -9.00    1.4
2024/07/08 10:33:52.000   28.292573320  -16.544962337  2329.1785   2   6   0.0193   0.0251   0.0649  -0.0174   0.0321  -0.0329  -8.00    1.4
2024/07/08 10:33:53.000   28.292573320  -16.544962337  2329.1785   2   6   0.0193   0.0251   0.0649  -0.0174   0.0321  -0.0329  -7.00    1.3
2024/07/08 10:33:54.000   28.292573320  -16.544962337  2329.1786   2   6   0.0193   0.0251   0.0649  -0.0174   0.0321  -0.0329  -6.00    1.3
2024/07/08 10:33:55.000   28.292573320  -16.544962338  2329.1787   2   6   0.0193   0.0251   0.0649  -0.0174   0.0321  -0.0329  -5.00    1.3
2024/07/08 10:33:56.000   28.292573320  -16.544962339  2329.1787   2   6   0.0193   0.0251   0.0649  -0.0174   0.0321  -0.0329  -4.00    1.4
2024/07/08 10:33:57.000   28.292573320  -16.544962339  2329.1787   2   6   0.0193   0.0251   0.0649  -0.0174   0.0321  -0.0329  -3.00    1.3
2024/07/08 10:33:58.000   28.292573320  -16.544962339  2329.1785   2   6   0.0193   0.0251   0.0649  -0.0174   0.0321  -0.0329  -2.00    1.4
2024/07/08 10:33:59.000   28.292573321  -16.544962338  2329.1781   2   6   0.0193   0.0251   0.0650  -0.0174   0.0321  -0.0329  -1.00    1.9
2024/07/08 10:34:00.000   28.292573323  -16.544962337  2329.1776   2   6   0.0193   0.0251   0.0650  -0.0174   0.0321  -0.0329   0.00    1.4
2024/07/08 10:34:01.000   28.292573323  -16.544962337  2329.1772   2   6   0.0193   0.0251   0.0650  -0.0174   0.0321  -0.0329   1.00    1.3
2024/07/08 10:34:02.000   28.292573324  -16.544962336  2329.1766   2   6   0.0193   0.0251   0.0650  -0.0174   0.0321  -0.0329   2.00    1.4
2024/07/08 10:34:03.000   28.292573325  -16.544962335  2329.1761   2   6   0.0193   0.0251   0.0650  -0.0174   0.0321  -0.0329   3.00    1.4
2024/07/08 10:34:04.000   28.292573327  -16.544962335  2329.1753   2   6   0.0193   0.0251   0.0650  -0.0174   0.0321  -0.0329   4.00    1.4
2024/07/08 10:34:05.000   28.292573328  -16.544962334  2329.1748   2   6   0.0193   0.0251   0.0650  -0.0173   0.0320  -0.0329   5.00    1.4
2024/07/08 10:34:06.000   28.292573329  -16.544962333  2329.1744   2   6   0.0193   0.0251   0.0650  -0.0173   0.0320  -0.0329   6.00    1.4
2024/07/08 10:34:07.000   28.292573330  -16.544962333  2329.1742   2   6   0.0193   0.0251   0.0650  -0.0173   0.0320  -0.0329   7.00    1.4
2024/07/08 10:34:08.000   28.292573331  -16.544962332  2329.1738   2   6   0.0193   0.0251   0.0650  -0.0173   0.0320  -0.0329   8.00    1.4
2024/07/08 10:34:09.000   28.292573332  -16.544962332  2329.1736   2   6   0.0193   0.0251   0.0650  -0.0173   0.0320  -0.0329   9.00    1.3
2024/07/08 10:34:10.000   28.292573332  -16.544962331  2329.1733   2   6   0.0193   0.0251   0.0650  -0.0173   0.0320  -0.0329  10.00    1.4
2024/07/08 10:34:11.000   28.292573333  -16.544962331  2329.1730   2   6   0.0193   0.0251   0.0650  -0.0173   0.0320  -0.0329  11.00    1.8
2024/07/08 10:34:12.000   28.292573334  -16.544962330  2329.1728   2   6   0.0193   0.0251   0.0650  -0.0173   0.0320  -0.0329  12.00    1.4
2024/07/08 10:34:13.000   28.292573334  -16.544962330  2329.1726   2   6   0.0193   0.0251   0.0650  -0.0173   0.0320  -0.0329  13.00    1.3
2024/07/08 10:34:14.000   28.292573335  -16.544962330  2329.1725   2   6   0.0193   0.0251   0.0650  -0.0173   0.0320  -0.0329  14.00    1.4
2024/07/08 10:34:15.000   28.292573335  -16.544962330  2329.1723   2   6   0.0193   0.0250   0.0650  -0.0173   0.0320  -0.0329 -15.00    1.4
2024/07/08 10:34:16.000   28.292573336  -16.544962329  2329.1723   2   6   0.0193   0.0250   0.0650  -0.0173   0.0320  -0.0329 -14.00    1.4
2024/07/08 10:34:17.000   28.292573336  -16.544962329  2329.1720   2   6   0.0193   0.0250   0.0650  -0.0173   0.0320  -0.0329 -13.00    1.4
2024/07/08 10:34:18.000   28.292573337  -16.544962329  2329.1718   2   6   0.0193   0.0250   0.0650  -0.0173   0.0320  -0.0329 -12.00    1.4
2024/07/08 10:34:19.000   28.292573338  -16.544962329  2329.1716   2   6   0.0193   0.0250   0.0650  -0.0173   0.0320  -0.0328 -11.00    1.4
2024/07/08 10:34:20.000   28.292573338  -16.544962329  2329.1714   2   6   0.0193   0.0250   0.0650  -0.0173   0.0320  -0.0328 -10.00    1.4
2024/07/08 10:34:21.000   28.292573339  -16.544962328  2329.1712   2   6   0.0193   0.0250   0.0650  -0.0173   0.0320  -0.0328  -9.00    1.3
2024/07/08 10:34:22.000   28.292573339  -16.544962328  2329.1711   2   6   0.0193   0.0250   0.0650  -0.0173   0.0319  -0.0328  -8.00    1.4
2024/07/08 10:34:23.000   28.292573340  -16.544962328  2329.1708   2   6   0.0193   0.0250   0.0650  -0.0173   0.0319  -0.0328  -7.00    1.8
2024/07/08 10:34:24.000   28.292573341  -16.544962327  2329.1708   2   6   0.0193   0.0250   0.0650  -0.0173   0.0319  -0.0328  -6.00    1.4
2024/07/08 10:34:25.000   28.292573342  -16.544962327  2329.1707   2   6   0.0193   0.0250   0.0650  -0.0173   0.0319  -0.0328  -5.00    1.2
2024/07/08 10:34:26.000   28.292573343  -16.544962327  2329.1706   2   6   0.0193   0.0250   0.0650  -0.0173   0.0319  -0.0328  -4.00    1.4
2024/07/08 10:34:27.000   28.292573344  -16.544962327  2329.1704   2   6   0.0193   0.0250   0.0650  -0.0173   0.0319  -0.0328  -3.00    1.4
2024/07/08 10:34:28.000   28.292573345  -16.544962327  2329.1702   2   6   0.0193   0.0250   0.0650  -0.0173   0.0319  -0.0328  -2.00    1.4
2024/07/08 10:34:29.000   28.292573346  -16.544962328  2329.1703   2   6   0.0193   0.0250   0.0650  -0.0173   0.0319  -0.0328  -1.00    1.4
2024/07/08 10:34:30.000   28.292573347  -16.544962328  2329.1704   2   6   0.0193   0.0250   0.0650  -0.0173   0.0319  -0.0328   0.00    1.4
2024/07/08 10:34:31.000   28.292573347  -16.544962329  2329.1709   2   6   0.0193   0.0250   0.0651  -0.0173   0.0319  -0.0328   1.00    1.4
2024/07/08 10:34:32.000   28.292573347  -16.544962329  2329.1712   2   6   0.0193   0.0250   0.0651  -0.0172   0.0319  -0.0328   2.00    1.4
2024/07/08 10:34:33.000   28.292573346  -16.544962330  2329.1716   2   6   0.0193   0.0250   0.0651  -0.0172   0.0319  -0.0328   3.00    1.3
2024/07/08 10:34:34.000   28.292573345  -16.544962332  2329.1722   2   6   0.0193   0.0250   0.0651  -0.0172   0.0319  -0.0328   4.00    1.4
2024/07/08 10:34:35.000   28.292573345  -16.544962333  2329.1727   2   6   0.0193   0.0250   0.0651  -0.0172   0.0318  -0.0328   5.00    1.8
2024/07/08 10:34:36.000   28.292573344  -16.544962333  2329.1732   2   6   0.0193   0.0250   0.0651  -0.0172   0.0318  -0.0328   6.00    1.4
2024/07/08 10:34:37.000   28.292573343  -16.544962333  2329.1738   2   6   0.0193   0.0250   0.0651  -0.0172   0.0318  -0.0328   7.00    1.2
2024/07/08 10:34:38.000   28.292573343  -16.544962333  2329.1742   2   6   0.0193   0.0250   0.0651  -0.0172   0.0318  -0.0328   8.00    1.4
2024/07/08 10:34:39.000   28.292573343  -16.544962334  2329.1746   2   6   0.0193   0.0250   0.0651  -0.0172   0.0318  -0.0328   9.00    1.4
2024/07/08 10:34:40.000   28.292573343  -16.544962333  2329.1749   2   6   0.0193   0.0250   0.0651  -0.0172   0.0318  -0.0328  10.00    1.4
2024/07/08 10:34:41.000   28.292573342  -16.544962333  2329.1752   2   6   0.0193   0.0250   0.0651  -0.0172   0.0318  -0.0328  11.00    1.4
2024/07/08 10:34:42.000   28.292573342  -16.544962333  2329.1754   2   6   0.0193   0.0250   0.0651  -0.0172   0.0318  -0.0328  12.00    1.4
2024/07/08 10:34:43.000   28.292573342  -16.544962333  2329.1755   2   6   0.0193   0.0250   0.0651  -0.0172   0.0318  -0.0328  13.00    1.3
2024/07/08 10:34:44.000   28.292573342  -16.544962333  2329.1756   2   6   0.0193   0.0250   0.0651  -0.0172   0.0318  -0.0328  14.00    1.4
2024/07/08 10:34:45.000   28.292573342  -16.544962333  2329.1758   2   6   0.0193   0.0250   0.0651  -0.0172   0.0318  -0.0328 -15.00    1.3
2024/07/08 10:34:46.000   28.292573342  -16.544962333  2329.1760   2   6   0.0193   0.0250   0.0651  -0.0172   0.0318  -0.0328 -14.00    1.4
2024/07/08 10:34:47.000   28.292573342  -16.544962333  2329.1761   2   6   0.0193   0.0250   0.0651  -0.0172   0.0318  -0.0328 -13.00    1.7
2024/07/08 10:34:48.000   28.292573341  -16.544962333  2329.1763   2   6   0.0193   0.0250   0.0651  -0.0172   0.0318  -0.0328 -12.00    1.4
2024/07/08 10:34:49.000   28.292573341  -16.544962334  2329.1765   2   6   0.0193   0.0250   0.0651  -0.0172   0.0318  -0.0328 -11.00    1.2
2024/07/08 10:34:50.000   28.292573341  -16.544962334  2329.1767   2   6   0.0193   0.0250   0.0651  -0.0172   0.0318  -0.0328 -10.00    1.4
2024/07/08 10:34:51.000   28.292573341  -16.544962334  2329.1766   2   6   0.0193   0.0250   0.0651  -0.0172   0.0318  -0.0328  -9.00    1.4
2024/07/08 10:34:52.000   28.292573341  -16.544962335  2329.1767   2   6   0.0193   0.0250   0.0651  -0.0172   0.0317  -0.0328  -8.00    1.4
2024/07/08 10:34:53.000   28.292573341  -16.544962335  2329.1768   2   6   0.0193   0.0250   0.0651  -0.0172   0.0317  -0.0328  -7.00    1.4
2024/07/08 10:34:54.000   28.292573341  -16.544962335  2329.1768   2   6   0.0193   0.0250   0.0651  -0.0172   0.0317  -0.0328  -6.00    1.4
2024/07/08 10:34:55.000   28.292573341  -16.544962336  2329.1765   2   6   0.0193   0.0250   0.0651  -0.0172   0.0317  -0.0328  -5.00    1.4
2024/07/08 10:34:56.000   28.292573341  -16.544962336  2329.1762   2   6   0.0193   0.0250   0.0651  -0.0172   0.0317  -0.0328  -4.00    1.4
2024/07/08 10:34:57.000   28.292573341  -16.544962338  2329.1758   2   6   0.0193   0.0250   0.0651  -0.0172   0.0317  -0.0328  -3.00    1.2
2024/07/08 10:34:58.000   28.292573341  -16.544962338  2329.1754   2   6   0.0193   0.0250   0.0651  -0.0172   0.0317  -0.0328  -2.00    1.4
2024/07/08 10:34:59.000   28.292573342  -16.544962340  2329.1748   2   6   0.0193   0.0250   0.0651  -0.0171   0.0317  -0.0328  -1.00    1.7
2024/07/08 10:35:00.000   28.292573344  -16.544962341  2329.1738   2   6   0.0193   0.0250   0.0651  -0.0171   0.0317  -0.0328   0.00    1.5
2024/07/08 10:35:01.000   28.292573345  -16.544962343  2329.1730   2   6   0.0193   0.0250   0.0651  -0.0171   0.0317  -0.0328   1.00    1.3
2024/07/08 10:35:02.000   28.292573346  -16.544962345  2329.1721   2   6   0.0193   0.0250   0.0651  -0.0171   0.0317  -0.0328   2.00    1.5
2024/07/08 10:35:03.000   28.292573348  -16.544962347  2329.1711   2   6   0.0193   0.0250   0.0651  -0.0171   0.0317  -0.0328   3.00    1.4
2024/07/08 10:35:04.000   28.292573350  -16.544962347  2329.1698   2   6   0.0193   0.0250   0.0651  -0.0171   0.0317  -0.0328   4.00    1.5
2024/07/08 10:35:05.000   28.292573353  -16.544962348  2329.1685   2   6   0.0193   0.0250   0.0651  -0.0171   0.0316  -0.0328   5.00    1.4
2024/07/08 10:35:06.000   28.292573355  -16.544962348  2329.1674   2   6   0.0193   0.0250   0.0651  -0.0171   0.0316  -0.0328   6.00    1.6
2024/07/08 10:35:07.000   28.292573357  -16.544962349  2329.1665   2   6   0.0193   0.0250   0.0651  -0.0171   0.0316  -0.0328   7.00    1.5
2024/07/08 10:35:08.000   28.292573358  -16.544962349  2329.1658   2   6   0.0193   0.0250   0.0651  -0.0171   0.0316  -0.0328   8.00    1.6
2024/07/08 10:35:09.000   28.292573360  -16.544962349  2329.1653   2   6   0.0193   0.0249   0.0651  -0.0171   0.0316  -0.0328   9.00    1.3
2024/07/08 10:35:10.000   28.292573361  -16.544962350  2329.1648   2   6   0.0193   0.0249   0.0651  -0.0171   0.0316  -0.0328  10.00    1.6
2024/07/08 10:35:11.000   28.292573363  -16.544962350  2329.1644   2   6   0.0193   0.0249   0.0651  -0.0171   0.0316  -0.0328  11.00    1.7
2024/07/08 10:35:12.000   28.292573364  -16.544962350  2329.1640   2   6   0.0193   0.0249   0.0651  -0.0171   0.0316  -0.0328  12.00    1.6
2024/07/08 10:35:13.000   28.292573365  -16.544962351  2329.1636   2   6   0.0193   0.0249   0.0651  -0.0171   0.0316  -0.0328  13.00    1.2
2024/07/08 10:35:14.000   28.292573366  -16.544962351  2329.1633   2   6   0.0193   0.0249   0.0651  -0.0171   0.0316  -0.0328  14.00    1.6
2024/07/08 10:35:15.000   28.292573367  -16.544962351  2329.1630   2   6   0.0193   0.0249   0.0651  -0.0171   0.0316  -0.0328 -15.00    1.3
2024/07/08 10:35:16.000   28.292573367  -16.544962351  2329.1628   2   6   0.0193   0.0249   0.0651  -0.0171   0.0316  -0.0328 -14.00    1.6
2024/07/08 10:35:17.000   28.292573368  -16.544962352  2329.1626   2   6   0.0193   0.0249   0.0651  -0.0171   0.0316  -0.0328 -13.00    1.4
2024/07/08 10:35:18.000   28.292573369  -16.544962352  2329.1624   2   6   0.0193   0.0249   0.0651  -0.0171   0.0316  -0.0328 -12.00    1.6
2024/07/08 10:35:19.000   28.292573369  -16.544962352  2329.1622   2   6   0.0193   0.0249   0.0651  -0.0171   0.0316  -0.0328 -11.00    1.5
2024/07/08 10:35:20.000   28.292573370  -16.544962351  2329.1621   2   6   0.0193   0.0249   0.0651  -0.0171   0.0316  -0.0328 -10.00    1.6
2024/07/08 10:35:21.000   28.292573371  -16.544962352  2329.1620   2   6   0.0193   0.0249   0.0651  -0.0171   0.0316  -0.0328  -9.00    1.4
2024/07/08 10:35:22.000   28.292573372  -16.544962352  2329.1618   2   6   0.0193   0.0249   0.0651  -0.0171   0.0316  -0.0328  -8.00    1.6
2024/07/08 10:35:23.000   28.292573373  -16.544962351  2329.1616   2   6   0.0193   0.0249   0.0651  -0.0171   0.0315  -0.0328  -7.00    1.7
2024/07/08 10:35:24.000   28.292573374  -16.544962351  2329.1616   2   6   0.0193   0.0249   0.0651  -0.0171   0.0315  -0.0328  -6.00    1.6
2024/07/08 10:35:25.000   28.292573375  -16.544962350  2329.1616   2   6   0.0193   0.0249   0.0651  -0.0170   0.0315  -0.0328  -5.00    1.2
2024/07/08 10:35:26.000   28.292573375  -16.544962350  2329.1617   2   6   0.0193   0.0249   0.0651  -0.0170   0.0315  -0.0328  -4.00    1.6
2024/07/08 10:35:27.000   28.292573376  -16.544962350  2329.1618   2   6   0.0193   0.0249   0.0651  -0.0170   0.0315  -0.0328  -3.00    1.4
2024/07/08 10:35:28.000   28.292573377  -16.544962348  2329.1619   2   6   0.0193   0.0249   0.0651  -0.0170   0.0315  -0.0327  -2.00    1.6
2024/07/08 10:35:29.000   28.292573377  -16.544962347  2329.1622   2   6   0.0193   0.0249   0.0651  -0.0170   0.0315  -0.0327  -1.00    1.4
2024/07/08 10:35:30.000   28.292573378  -16.544962345  2329.1628   2   6   0.0193   0.0249   0.0651  -0.0170   0.0315  -0.0327   0.00    1.6
2024/07/08 10:35:31.000   28.292573377  -16.544962343  2329.1637   2   6   0.0193   0.0249   0.0651  -0.0170   0.0315  -0.0328   1.00    1.5
2024/07/08 10:35:32.000   28.292573377  -16.544962342  2329.1644   2   6   0.0193   0.0249   0.0651  -0.0170   0.0315  -0.0328   2.00    1.6
2024/07/08 10:35:33.000   28.292573377  -16.544962340  2329.1648   2   6   0.0193   0.0249   0.0652  -0.0170   0.0315  -0.0328   3.00    1.4
2024/07/08 10:35:34.000   28.292573377  -16.544962339  2329.1651   2   6   0.0193   0.0249   0.0652  -0.0170   0.0315  -0.0328   4.00    1.6
2024/07/08 10:35:35.000   28.292573377  -16.544962338  2329.1655   2   6   0.0193   0.0249   0.0652  -0.0170   0.0315  -0.0328   5.00    1.8
2024/07/08 10:35:36.000   28.292573377  -16.544962336  2329.1657   2   6   0.0193   0.0249   0.0652  -0.0170   0.0315  -0.0327   6.00    1.6
2024/07/08 10:35:37.000   28.292573377  -16.544962335  2329.1659   2   6   0.0193   0.0249   0.0652  -0.0170   0.0314  -0.0327   7.00    1.2
2024/07/08 10:35:38.000   28.292573377  -16.544962335  2329.1660   2   6   0.0193   0.0249   0.0652  -0.0170   0.0314  -0.0327   8.00    1.6
2024/07/08 10:35:39.000   28.292573377  -16.544962334  2329.1662   2   6   0.0193   0.0249   0.0652  -0.0170   0.0314  -0.0327   9.00    1.4
2024/07/08 10:35:40.000   28.292573377  -16.544962334  2329.1663   2   6   0.0193   0.0249   0.0652  -0.0170   0.0314  -0.0327  10.00    1.6
2024/07/08 10:35:41.000   28.292573378  -16.544962334  2329.1663   2   6   0.0193   0.0249   0.0652  -0.0170   0.0314  -0.0327  11.00    1.4
2024/07/08 10:35:42.000   28.292573378  -16.544962333  2329.1664   2   6   0.0193   0.0249   0.0652  -0.0170   0.0314  -0.0327  12.00    1.6
2024/07/08 10:35:43.000   28.292573377  -16.544962332  2329.1665   2   6   0.0193   0.0249   0.0652  -0.0170   0.0314  -0.0327  13.00    1.5
2024/07/08 10:35:44.000   28.292573378  -16.544962332  2329.1665   2   6   0.0193   0.0249   0.0652  -0.0170   0.0314  -0.0327  14.00    1.6
2024/07/08 10:35:45.000   28.292573377  -16.544962332  2329.1666   2   6   0.0193   0.0249   0.0652  -0.0170   0.0314  -0.0327 -15.00    1.4
2024/07/08 10:35:46.000   28.292573377  -16.544962332  2329.1668   2   6   0.0193   0.0249   0.0651  -0.0170   0.0314  -0.0327 -14.00    1.6
2024/07/08 10:35:47.000   28.292573377  -16.544962331  2329.1668   2   6   0.0193   0.0249   0.0651  -0.0170   0.0314  -0.0327 -13.00    1.7
2024/07/08 10:35:48.000   28.292573377  -16.544962331  2329.1669   2   6   0.0193   0.0249   0.0651  -0.0170   0.0314  -0.0327 -12.00    1.6
2024/07/08 10:35:49.000   28.292573376  -16.544962331  2329.1669   2   6   0.0193   0.0249   0.0651  -0.0170   0.0314  -0.0327 -11.00    1.1
2024/07/08 10:35:50.000   28.292573376  -16.544962331  2329.1668   2   6   0.0193   0.0249   0.0651  -0.0170   0.0314  -0.0327 -10.00    1.6
2024/07/08 10:35:51.000   28.292573376  -16.544962331  2329.1667   2   6   0.0193   0.0249   0.0651  -0.0170   0.0314  -0.0327  -9.00    1.4
2024/07/08 10:35:52.000   28.292573376  -16.544962331  2329.1666   2   6   0.0193   0.0249   0.0651  -0.0169   0.0314  -0.0327  -8.00    1.6
2024/07/08 10:35:53.000   28.292573377  -16.544962331  2329.1663   2   6   0.0193   0.0249   0.0651  -0.0169   0.0314  -0.0327  -7.00    1.4
2024/07/08 10:35:54.000   28.292573377  -16.544962332  2329.1658   2   6   0.0192   0.0249   0.0651  -0.0169   0.0314  -0.0327  -6.00    1.6
2024/07/08 10:35:55.000   28.292573377  -16.544962333  2329.1654   2   6   0.0192   0.0249   0.0651  -0.0169   0.0314  -0.0327  -5.00    1.5
2024/07/08 10:35:56.000   28.292573377  -16.544962333  2329.1649   2   6   0.0192   0.0249   0.0651  -0.0169   0.0313  -0.0327  -4.00    1.7
2024/07/08 10:35:57.000   28.292573377  -16.544962335  2329.1643   2   6   0.0192   0.0249   0.0651  -0.0169   0.0313  -0.0327  -3.00    1.4
2024/07/08 10:35:58.000   28.292573378  -16.544962336  2329.1636   2   6   0.0192   0.0249   0.0651  -0.0169   0.0313  -0.0327  -2.00    1.7
2024/07/08 10:35:59.000   28.292573378  -16.544962338  2329.1628   2   6   0.0192   0.0248   0.0651  -0.0169   0.0313  -0.0327  -1.00    1.7
2024/07/08 10:36:00.000   28.292573378  -16.544962341  2329.1625   2   6   0.0192   0.0248   0.0651  -0.0169   0.0313  -0.0327   0.00    1.8
2024/07/08 10:36:01.000   28.292573376  -16.544962343  2329.1626   2   6   0.0192   0.0248   0.0651  -0.0169   0.0313  -0.0327   1.00    1.2
2024/07/08 10:36:02.000   28.292573375  -16.544962345  2329.1624   2   6   0.0192   0.0248   0.0652  -0.0169   0.0313  -0.0327   2.00    1.8
2024/07/08 10:36:03.000   28.292573375  -16.544962346  2329.1622   2   6   0.0193   0.0248   0.0652  -0.0169   0.0313  -0.0327   3.00    1.4
2024/07/08 10:36:04.000   28.292573375  -16.544962347  2329.1617   2   6   0.0193   0.0248   0.0652  -0.0169   0.0313  -0.0327   4.00    1.8
2024/07/08 10:36:05.000   28.292573376  -16.544962348  2329.1610   2   6   0.0193   0.0248   0.0652  -0.0169   0.0313  -0.0327   5.00    1.4
2024/07/08 10:36:06.000   28.292573377  -16.544962349  2329.1604   2   6   0.0193   0.0248   0.0652  -0.0169   0.0313  -0.0327   6.00    1.8
2024/07/08 10:36:07.000   28.292573377  -16.544962349  2329.1600   2   6   0.0193   0.0248   0.0652  -0.0169   0.0313  -0.0327   7.00    1.5
2024/07/08 10:36:08.000   28.292573378  -16.544962350  2329.1597   2   6   0.0192   0.0248   0.0652  -0.0169   0.0313  -0.0327   8.00    1.8
2024/07/08 10:36:09.000   28.292573378  -16.544962350  2329.1595   2   6   0.0192   0.0248   0.0652  -0.0169   0.0313  -0.0327   9.00    1.4
2024/07/08 10:36:10.000   28.292573378  -16.544962350  2329.1592   2   6   0.0192   0.0248   0.0652  -0.0169   0.0312  -0.0327  10.00    1.8
2024/07/08 10:36:11.000   28.292573379  -16.544962350  2329.1590   2   6   0.0192   0.0248   0.0652  -0.0169   0.0312  -0.0327  11.00    1.6
2024/07/08 10:36:12.000   28.292573379  -16.544962351  2329.1589   2   6   0.0192   0.0248   0.0652  -0.0169   0.0312  -0.0327  12.00    1.8
2024/07/08 10:36:13.000   28.292573380  -16.544962351  2329.1587   2   6   0.0192   0.0248   0.0652  -0.0169   0.0312  -0.0327  13.00    1.2
2024/07/08 10:36:14.000   28.292573380  -16.544962351  2329.1585   2   6   0.0192   0.0248   0.0652  -0.0169   0.0312  -0.0327  14.00    1.8
2024/07/08 10:36:15.000   28.292573380  -16.544962351  2329.1584   2   6   0.0192   0.0248   0.0652  -0.0169   0.0312  -0.0327 -15.00    1.4
2024/07/08 10:36:16.000   28.292573380  -16.544962351  2329.1584   2   6   0.0192   0.0248   0.0652  -0.0169   0.0312  -0.0327 -14.00    1.8
2024/07/08 10:36:17.000   28.292573381  -16.544962352  2329.1583   2   6   0.0192   0.0248   0.0651  -0.0169   0.0312  -0.0327 -13.00    1.4
2024/07/08 10:36:18.000   28.292573381  -16.544962352  2329.1581   2   6   0.0192   0.0248   0.0651  -0.0169   0.0312  -0.0327 -12.00    1.8
2024/07/08 10:36:19.000   28.292573381  -16.544962353  2329.1581   2   6   0.0192   0.0248   0.0651  -0.0168   0.0312  -0.0327 -11.00    1.5
2024/07/08 10:36:20.000   28.292573382  -16.544962353  2329.1580   2   6   0.0192   0.0248   0.0651  -0.0168   0.0312  -0.0327 -10.00    1.8
2024/07/08 10:36:21.000   28.292573382  -16.544962353  2329.1581   2   6   0.0192   0.0248   0.0651  -0.0168   0.0312  -0.0327  -9.00    1.4
2024/07/08 10:36:22.000   28.292573382  -16.544962353  2329.1581   2   6   0.0192   0.0248   0.0651  -0.0168   0.0312  -0.0326  -8.00    1.8
2024/07/08 10:36:23.000   28.292573382  -16.544962352  2329.1580   2   6   0.0192   0.0248   0.0651  -0.0168   0.0312  -0.0326  -7.00    1.6
2024/07/08 10:36:24.000   28.292573382  -16.544962353  2329.1578   2   6   0.0192   0.0248   0.0651  -0.0168   0.0312  -0.0326  -6.00    1.8
2024/07/08 10:36:25.000   28.292573383  -16.544962353  2329.1577   2   6   0.0192   0.0248   0.0651  -0.0168   0.0312  -0.0326  -5.00    1.2
2024/07/08 10:36:26.000   28.292573383  -16.544962353  2329.1577   2   6   0.0192   0.0248   0.0651  -0.0168   0.0312  -0.0326  -4.00    1.8
2024/07/08 10:36:27.000   28.292573382  -16.544962353  2329.1578   2   6   0.0192   0.0248   0.0651  -0.0168   0.0312  -0.0326  -3.00    1.4
2024/07/08 10:36:28.000   28.292573383  -16.544962353  2329.1578   2   6   0.0192   0.0248   0.0651  -0.0168   0.0312  -0.0326  -2.00    1.8
2024/07/08 10:36:29.000   28.292573382  -16.544962353  2329.1582   2   6   0.0192   0.0248   0.0651  -0.0168   0.0311  -0.0326  -1.00    1.4
2024/07/08 10:36:30.000   28.292573381  -16.544962354  2329.1592   2   6   0.0192   0.0248   0.0651  -0.0168   0.0311  -0.0326   0.00    1.8
2024/07/08 10:36:31.000   28.292573381  -16.544962354  2329.1598   2   6   0.0192   0.0248   0.0651  -0.0168   0.0311  -0.0326   1.00    1.5
2024/07/08 10:36:32.000   28.292573381  -16.544962354  2329.1602   2   6   0.0192   0.0248   0.0651  -0.0168   0.0311  -0.0326   2.00    1.8
2024/07/08 10:36:33.000   28.292573380  -16.544962354  2329.1606   2   6   0.0192   0.0248   0.0651  -0.0168   0.0311  -0.0326   3.00    1.4
2024/07/08 10:36:34.000   28.292573380  -16.544962353  2329.1606   2   6   0.0192   0.0248   0.0652  -0.0168   0.0311  -0.0326   4.00    1.8
2024/07/08 10:36:35.000   28.292573381  -16.544962354  2329.1605   2   6   0.0192   0.0248   0.0652  -0.0168   0.0311  -0.0326   5.00    1.7
2024/07/08 10:36:36.000   28.292573381  -16.544962353  2329.1607   2   6   0.0192   0.0248   0.0652  -0.0168   0.0311  -0.0326   6.00    1.8
2024/07/08 10:36:37.000   28.292573381  -16.544962353  2329.1606   2   6   0.0192   0.0248   0.0652  -0.0168   0.0311  -0.0326   7.00    1.2
2024/07/08 10:36:38.000   28.292573382  -16.544962353  2329.1605   2   6   0.0192   0.0248   0.0652  -0.0168   0.0311  -0.0326   8.00    1.8
2024/07/08 10:36:39.000   28.292573382  -16.544962353  2329.1605   2   6   0.0192   0.0248   0.0652  -0.0168   0.0311  -0.0326   9.00    1.5
2024/07/08 10:36:40.000   28.292573382  -16.544962353  2329.1604   2   6   0.0192   0.0248   0.0652  -0.0168   0.0311  -0.0326  10.00    1.8
