% program   : RTKPOST-EX 2.5.0
% inp file  : C:\Users\SallyHenry\Desktop\Sally Internship\GNSS gravi\DATA\Survey Rover Obs\LM017_G21.24o
% inp file  : C:\Users\SallyHenry\Desktop\Sally Internship\GNSS gravi\DATA\BaseStations\IZAN\IZAN00ESP_R_20241910000_01D_30S_MO.rnx
% inp file  : C:\Users\SallyHenry\Desktop\Sally Internship\GNSS gravi\DATA\BaseStations\IZAN\IZAN00ESP_R_20241910000_01D_MN.rnx
% inp file  : C:\Users\SallyHenry\Desktop\Sally Internship\GNSS gravi\DATA\aux_files\Survey\IGS0OPSFIN_20241910000_01D_15M_ORB.SP3
% inp file  : C:\Users\SallyHenry\Desktop\Sally Internship\GNSS gravi\DATA\aux_files\Survey\IGS0OPSFIN_20241910000_01D_30S_CLK.CLK
% obs start : 2024/07/09 13:25:31.0 GPST (week2322 221131.0s)
% obs end   : 2024/07/09 14:42:41.0 GPST (week2322 225761.0s)
% pos mode  : Static
% freqs     : L1+L2/E5b
% solution  : Combined-No Phase Reset
% elev mask : 15.0 deg
% dynamics  : on
% tidecorr  : solid
% ionos opt : Estimate TEC
% tropo opt : Estimate ZTD+Grad
% ephemeris : Precise
% navi sys  : GPS GLONASS Galileo QZSS BDS
% amb res   : Fix and Hold
% amb glo   : Fix and Hold
% amb bds   : on
% val thres : 3.0
% antenna1  :                       ( 0.0000  0.0000  1.7700)
% antenna2  :                       ( 0.0000  0.0000  0.0000)
% ref pos   :  28.308069410  -16.499677180  2417.4044
%
% (lat/lon/height=WGS84/ellipsoidal,Q=1:fix,2:float,3:sbas,4:dgps,5:single,6:ppp,ns=# of satellites)
%  GPST                  latitude(deg) longitude(deg)  height(m)   Q  ns   sdn(m)   sde(m)   sdu(m)  sdne(m)  sdeu(m)  sdun(m) age(s)  ratio
2024/07/09 13:25:31.000   28.293510353  -16.540477983  2333.2735   1  10   0.0011   0.0009   0.0063   0.0004   0.0015   0.0015   1.00   26.2
2024/07/09 13:25:32.000   28.293510353  -16.540477983  2333.2736   1  10   0.0011   0.0009   0.0063   0.0004   0.0015   0.0015   2.00   25.9
2024/07/09 13:25:33.000   28.293510353  -16.540477983  2333.2736   1  10   0.0011   0.0009   0.0063   0.0004   0.0015   0.0015   3.00   25.6
2024/07/09 13:25:34.000   28.293510353  -16.540477983  2333.2736   1  10   0.0011   0.0009   0.0063   0.0004   0.0015   0.0015   4.00   25.3
2024/07/09 13:25:35.000   28.293510353  -16.540477983  2333.2736   1  10   0.0011   0.0009   0.0063   0.0004   0.0015   0.0015   5.00   24.9
2024/07/09 13:25:36.000   28.293510353  -16.540477983  2333.2736   1  10   0.0011   0.0009   0.0063   0.0004   0.0015   0.0015   6.00   24.5
2024/07/09 13:25:37.000   28.293510353  -16.540477983  2333.2736   1  10   0.0011   0.0009   0.0063   0.0004   0.0015   0.0015   7.00   24.1
2024/07/09 13:25:38.000   28.293510353  -16.540477983  2333.2736   1  10   0.0011   0.0009   0.0063   0.0004   0.0015   0.0015   8.00   23.7
2024/07/09 13:25:39.000   28.293510353  -16.540477983  2333.2737   1  10   0.0011   0.0009   0.0063   0.0004   0.0015   0.0015   9.00   23.3
2024/07/09 13:25:40.000   28.293510353  -16.540477983  2333.2737   1  10   0.0011   0.0009   0.0063   0.0004   0.0015   0.0015  10.00   22.8
2024/07/09 13:25:41.000   28.293510353  -16.540477983  2333.2737   1  10   0.0011   0.0009   0.0063   0.0004   0.0015   0.0015  11.00   22.4
2024/07/09 13:25:42.000   28.293510354  -16.540477983  2333.2737   1  10   0.0011   0.0009   0.0063   0.0004   0.0015   0.0015  12.00   22.0
2024/07/09 13:25:43.000   28.293510354  -16.540477983  2333.2738   1  10   0.0011   0.0009   0.0063   0.0004   0.0015   0.0015  13.00   21.6
2024/07/09 13:25:44.000   28.293510354  -16.540477983  2333.2738   1  10   0.0011   0.0009   0.0063   0.0004   0.0015   0.0015  14.00   21.1
2024/07/09 13:25:45.000   28.293510354  -16.540477983  2333.2738   1  10   0.0011   0.0009   0.0063   0.0004   0.0015   0.0015  15.00   20.7
2024/07/09 13:25:46.000   28.293510354  -16.540477983  2333.2738   1  10   0.0011   0.0009   0.0063   0.0004   0.0015   0.0015 -14.00   20.3
2024/07/09 13:25:47.000   28.293510354  -16.540477983  2333.2739   1  10   0.0011   0.0009   0.0063   0.0004   0.0015   0.0015 -13.00   19.9
2024/07/09 13:25:48.000   28.293510354  -16.540477983  2333.2739   1  10   0.0011   0.0009   0.0063   0.0004   0.0015   0.0015 -12.00   19.5
2024/07/09 13:25:49.000   28.293510354  -16.540477983  2333.2739   1  10   0.0011   0.0009   0.0063   0.0004   0.0015   0.0015 -11.00   19.0
2024/07/09 13:25:50.000   28.293510354  -16.540477983  2333.2739   1  10   0.0011   0.0009   0.0063   0.0004   0.0015   0.0015 -10.00   18.6
2024/07/09 13:25:51.000   28.293510354  -16.540477983  2333.2739   1  10   0.0011   0.0009   0.0063   0.0004   0.0015   0.0015  -9.00   18.1
2024/07/09 13:25:52.000   28.293510354  -16.540477983  2333.2740   1  10   0.0011   0.0009   0.0063   0.0004   0.0015   0.0015  -8.00   17.6
2024/07/09 13:25:53.000   28.293510354  -16.540477983  2333.2740   1  10   0.0011   0.0009   0.0063   0.0004   0.0015   0.0015  -7.00   17.0
2024/07/09 13:25:54.000   28.293510354  -16.540477983  2333.2740   1  10   0.0011   0.0009   0.0063   0.0004   0.0015   0.0015  -6.00   16.1
2024/07/09 13:25:55.000   28.293510354  -16.540477983  2333.2740   1  10   0.0011   0.0009   0.0063   0.0004   0.0015   0.0015  -5.00   14.8
2024/07/09 13:25:56.000   28.293510354  -16.540477983  2333.2740   1  10   0.0011   0.0009   0.0063   0.0004   0.0015   0.0015  -4.00   13.2
2024/07/09 13:25:57.000   28.293510354  -16.540477983  2333.2740   1  10   0.0011   0.0009   0.0063   0.0004   0.0015   0.0015  -3.00   11.3
2024/07/09 13:25:58.000   28.293510354  -16.540477983  2333.2740   1  10   0.0011   0.0009   0.0063   0.0004   0.0015   0.0015  -2.00    8.3
2024/07/09 13:25:59.000   28.293510354  -16.540477983  2333.2740   1  10   0.0011   0.0009   0.0063   0.0004   0.0015   0.0015  -1.00    5.0
2024/07/09 13:26:00.000   28.293510355  -16.540477981  2333.2746   1  10   0.0011   0.0009   0.0063   0.0004   0.0015   0.0015   0.00   25.0
2024/07/09 13:26:01.000   28.293510355  -16.540477981  2333.2746   1  10   0.0011   0.0009   0.0064   0.0004   0.0015   0.0015   1.00   24.9
2024/07/09 13:26:02.000   28.293510355  -16.540477981  2333.2747   1  10   0.0011   0.0009   0.0064   0.0004   0.0015   0.0015   2.00   24.8
2024/07/09 13:26:03.000   28.293510355  -16.540477981  2333.2747   1  10   0.0011   0.0009   0.0064   0.0004   0.0015   0.0015   3.00   24.6
2024/07/09 13:26:04.000   28.293510355  -16.540477981  2333.2747   1  10   0.0011   0.0009   0.0064   0.0004   0.0015   0.0016   4.00   24.4
2024/07/09 13:26:05.000   28.293510356  -16.540477981  2333.2748   1  10   0.0011   0.0009   0.0064   0.0004   0.0015   0.0016   5.00   24.2
2024/07/09 13:26:06.000   28.293510356  -16.540477981  2333.2748   1  10   0.0011   0.0009   0.0064   0.0004   0.0015   0.0016   6.00   24.0
2024/07/09 13:26:07.000   28.293510356  -16.540477981  2333.2749   1  10   0.0011   0.0009   0.0064   0.0004   0.0015   0.0016   7.00   23.9
2024/07/09 13:26:08.000   28.293510356  -16.540477981  2333.2749   1  10   0.0011   0.0009   0.0064   0.0004   0.0015   0.0016   8.00   23.6
2024/07/09 13:26:09.000   28.293510356  -16.540477981  2333.2750   1  10   0.0011   0.0009   0.0064   0.0004   0.0015   0.0016   9.00   23.3
2024/07/09 13:26:10.000   28.293510356  -16.540477982  2333.2750   1  10   0.0011   0.0009   0.0064   0.0004   0.0015   0.0016  10.00   23.1
2024/07/09 13:26:11.000   28.293510356  -16.540477982  2333.2751   1  10   0.0011   0.0009   0.0064   0.0004   0.0015   0.0016  11.00   22.7
2024/07/09 13:26:12.000   28.293510356  -16.540477982  2333.2751   1  10   0.0011   0.0009   0.0064   0.0004   0.0015   0.0016  12.00   22.4
2024/07/09 13:26:13.000   28.293510356  -16.540477982  2333.2751   1  10   0.0011   0.0009   0.0064   0.0004   0.0015   0.0016  13.00   22.1
2024/07/09 13:26:14.000   28.293510356  -16.540477982  2333.2752   1  10   0.0011   0.0009   0.0064   0.0004   0.0015   0.0016  14.00   21.8
2024/07/09 13:26:15.000   28.293510356  -16.540477982  2333.2752   1  10   0.0011   0.0009   0.0064   0.0004   0.0015   0.0016  15.00   21.4
2024/07/09 13:26:16.000   28.293510356  -16.540477982  2333.2752   1  10   0.0011   0.0009   0.0064   0.0004   0.0015   0.0016 -14.00   21.0
2024/07/09 13:26:17.000   28.293510356  -16.540477982  2333.2753   1  10   0.0011   0.0009   0.0064   0.0004   0.0015   0.0016 -13.00   20.6
2024/07/09 13:26:18.000   28.293510356  -16.540477982  2333.2753   1  10   0.0011   0.0009   0.0064   0.0004   0.0015   0.0016 -12.00   20.3
2024/07/09 13:26:19.000   28.293510356  -16.540477982  2333.2753   1  10   0.0011   0.0009   0.0064   0.0004   0.0015   0.0016 -11.00   19.9
2024/07/09 13:26:20.000   28.293510356  -16.540477982  2333.2754   1  10   0.0011   0.0009   0.0064   0.0004   0.0015   0.0016 -10.00   19.5
2024/07/09 13:26:21.000   28.293510356  -16.540477982  2333.2754   1  10   0.0011   0.0009   0.0064   0.0004   0.0015   0.0016  -9.00   19.1
2024/07/09 13:26:22.000   28.293510357  -16.540477982  2333.2754   1  10   0.0011   0.0009   0.0064   0.0004   0.0015   0.0016  -8.00   18.6
2024/07/09 13:26:23.000   28.293510357  -16.540477982  2333.2755   1  10   0.0011   0.0009   0.0064   0.0004   0.0015   0.0016  -7.00   17.7
2024/07/09 13:26:24.000   28.293510357  -16.540477982  2333.2755   1  10   0.0011   0.0009   0.0064   0.0004   0.0015   0.0016  -6.00   16.7
2024/07/09 13:26:25.000   28.293510357  -16.540477982  2333.2756   1  10   0.0011   0.0009   0.0064   0.0004   0.0015   0.0016  -5.00   15.4
2024/07/09 13:26:26.000   28.293510357  -16.540477982  2333.2756   1  10   0.0011   0.0009   0.0064   0.0004   0.0015   0.0016  -4.00   13.9
2024/07/09 13:26:27.000   28.293510357  -16.540477982  2333.2757   1  10   0.0011   0.0009   0.0064   0.0004   0.0015   0.0016  -3.00   11.5
2024/07/09 13:26:28.000   28.293510357  -16.540477982  2333.2757   1  10   0.0011   0.0009   0.0064   0.0004   0.0015   0.0016  -2.00    8.6
2024/07/09 13:26:29.000   28.293510357  -16.540477982  2333.2757   1  10   0.0011   0.0009   0.0064   0.0005   0.0015   0.0016  -1.00    5.1
2024/07/09 13:26:30.000   28.293510358  -16.540477980  2333.2763   1  10   0.0011   0.0009   0.0064   0.0004   0.0015   0.0016   0.00   26.0
2024/07/09 13:26:31.000   28.293510358  -16.540477980  2333.2763   1  10   0.0011   0.0009   0.0064   0.0004   0.0015   0.0016   1.00   26.0
2024/07/09 13:26:32.000   28.293510358  -16.540477980  2333.2764   1  10   0.0011   0.0009   0.0064   0.0004   0.0015   0.0016   2.00   26.0
2024/07/09 13:26:33.000   28.293510358  -16.540477980  2333.2765   1  10   0.0011   0.0009   0.0064   0.0005   0.0015   0.0016   3.00   26.0
2024/07/09 13:26:34.000   28.293510358  -16.540477981  2333.2765   1  10   0.0011   0.0009   0.0064   0.0005   0.0015   0.0016   4.00   26.0
2024/07/09 13:26:35.000   28.293510358  -16.540477981  2333.2766   1  10   0.0011   0.0009   0.0064   0.0005   0.0015   0.0016   5.00   25.9
2024/07/09 13:26:36.000   28.293510359  -16.540477981  2333.2767   1  10   0.0011   0.0009   0.0064   0.0005   0.0015   0.0016   6.00   25.9
2024/07/09 13:26:37.000   28.293510359  -16.540477981  2333.2767   1  10   0.0011   0.0009   0.0064   0.0005   0.0015   0.0016   7.00   25.8
2024/07/09 13:26:38.000   28.293510359  -16.540477981  2333.2767   1  10   0.0011   0.0009   0.0064   0.0005   0.0015   0.0016   8.00   25.6
2024/07/09 13:26:39.000   28.293510359  -16.540477981  2333.2768   1  10   0.0011   0.0009   0.0064   0.0005   0.0015   0.0016   9.00   25.2
2024/07/09 13:26:40.000   28.293510359  -16.540477981  2333.2768   1  10   0.0011   0.0009   0.0064   0.0005   0.0015   0.0016  10.00   24.8
2024/07/09 13:26:41.000   28.293510359  -16.540477981  2333.2769   1  10   0.0011   0.0009   0.0064   0.0005   0.0015   0.0016  11.00   24.3
2024/07/09 13:26:42.000   28.293510359  -16.540477981  2333.2769   1  10   0.0011   0.0009   0.0064   0.0005   0.0015   0.0016  12.00   23.9
2024/07/09 13:26:43.000   28.293510359  -16.540477981  2333.2769   1  10   0.0011   0.0009   0.0064   0.0005   0.0015   0.0016  13.00   23.4
2024/07/09 13:26:44.000   28.293510359  -16.540477981  2333.2770   1  10   0.0011   0.0009   0.0064   0.0005   0.0015   0.0016  14.00   22.9
2024/07/09 13:26:45.000   28.293510359  -16.540477981  2333.2770   1  10   0.0011   0.0009   0.0064   0.0005   0.0015   0.0016  15.00   22.4
2024/07/09 13:26:46.000   28.293510359  -16.540477981  2333.2770   1  10   0.0011   0.0009   0.0064   0.0005   0.0015   0.0016 -14.00   22.0
2024/07/09 13:26:47.000   28.293510359  -16.540477981  2333.2771   1  10   0.0011   0.0009   0.0064   0.0005   0.0015   0.0016 -13.00   21.5
2024/07/09 13:26:48.000   28.293510359  -16.540477981  2333.2771   1  10   0.0011   0.0009   0.0064   0.0005   0.0015   0.0016 -12.00   21.0
2024/07/09 13:26:49.000   28.293510359  -16.540477981  2333.2771   1  10   0.0011   0.0009   0.0064   0.0005   0.0015   0.0016 -11.00   20.5
2024/07/09 13:26:50.000   28.293510359  -16.540477981  2333.2772   1  10   0.0011   0.0009   0.0064   0.0005   0.0015   0.0016 -10.00   19.9
2024/07/09 13:26:51.000   28.293510359  -16.540477981  2333.2772   1  10   0.0011   0.0009   0.0064   0.0005   0.0015   0.0016  -9.00   19.4
2024/07/09 13:26:52.000   28.293510359  -16.540477981  2333.2772   1  10   0.0011   0.0009   0.0064   0.0005   0.0015   0.0016  -8.00   18.8
2024/07/09 13:26:53.000   28.293510359  -16.540477981  2333.2773   1  10   0.0011   0.0009   0.0064   0.0005   0.0015   0.0016  -7.00   18.2
2024/07/09 13:26:54.000   28.293510360  -16.540477980  2333.2773   1  10   0.0011   0.0009   0.0064   0.0005   0.0015   0.0016  -6.00   17.6
2024/07/09 13:26:55.000   28.293510360  -16.540477980  2333.2774   1  10   0.0011   0.0009   0.0064   0.0005   0.0015   0.0016  -5.00   16.8
2024/07/09 13:26:56.000   28.293510360  -16.540477980  2333.2774   1  10   0.0011   0.0009   0.0064   0.0005   0.0015   0.0016  -4.00   15.0
2024/07/09 13:26:57.000   28.293510360  -16.540477981  2333.2775   1  10   0.0011   0.0009   0.0064   0.0005   0.0015   0.0016  -3.00   12.9
2024/07/09 13:26:58.000   28.293510360  -16.540477981  2333.2775   1  10   0.0011   0.0009   0.0064   0.0005   0.0015   0.0016  -2.00    9.6
2024/07/09 13:26:59.000   28.293510360  -16.540477981  2333.2775   1  10   0.0011   0.0009   0.0064   0.0005   0.0015   0.0016  -1.00    5.7
2024/07/09 13:27:00.000   28.293510361  -16.540477979  2333.2780   1  10   0.0011   0.0009   0.0064   0.0005   0.0015   0.0016   0.00   25.6
2024/07/09 13:27:01.000   28.293510361  -16.540477979  2333.2780   1  10   0.0011   0.0009   0.0064   0.0005   0.0015   0.0016   1.00   25.3
2024/07/09 13:27:02.000   28.293510361  -16.540477979  2333.2780   1  10   0.0011   0.0009   0.0064   0.0005   0.0015   0.0016   2.00   25.0
2024/07/09 13:27:03.000   28.293510361  -16.540477979  2333.2780   1  10   0.0011   0.0009   0.0064   0.0005   0.0015   0.0016   3.00   24.6
2024/07/09 13:27:04.000   28.293510361  -16.540477979  2333.2781   1  10   0.0011   0.0009   0.0064   0.0005   0.0015   0.0016   4.00   24.2
2024/07/09 13:27:05.000   28.293510361  -16.540477979  2333.2781   1  10   0.0011   0.0009   0.0064   0.0005   0.0015   0.0016   5.00   23.7
2024/07/09 13:27:06.000   28.293510361  -16.540477980  2333.2781   1  10   0.0011   0.0009   0.0064   0.0005   0.0015   0.0016   6.00   23.2
2024/07/09 13:27:07.000   28.293510361  -16.540477980  2333.2782   1  10   0.0011   0.0009   0.0064   0.0005   0.0015   0.0016   7.00   22.8
2024/07/09 13:27:08.000   28.293510361  -16.540477980  2333.2782   1  10   0.0011   0.0009   0.0064   0.0005   0.0015   0.0016   8.00   22.3
2024/07/09 13:27:09.000   28.293510361  -16.540477980  2333.2782   1  10   0.0011   0.0009   0.0064   0.0005   0.0015   0.0016   9.00   21.8
2024/07/09 13:27:10.000   28.293510361  -16.540477980  2333.2782   1  10   0.0011   0.0009   0.0064   0.0005   0.0015   0.0016  10.00   21.3
2024/07/09 13:27:11.000   28.293510361  -16.540477980  2333.2782   1  10   0.0011   0.0009   0.0064   0.0005   0.0015   0.0016  11.00   20.8
2024/07/09 13:27:12.000   28.293510361  -16.540477980  2333.2783   1  10   0.0011   0.0009   0.0064   0.0005   0.0015   0.0016  12.00   20.3
2024/07/09 13:27:13.000   28.293510361  -16.540477980  2333.2783   1  10   0.0011   0.0009   0.0064   0.0005   0.0015   0.0016  13.00   19.7
2024/07/09 13:27:14.000   28.293510361  -16.540477980  2333.2783   1  10   0.0011   0.0009   0.0064   0.0005   0.0015   0.0016  14.00   19.2
2024/07/09 13:27:15.000   28.293510361  -16.540477980  2333.2783   1  10   0.0011   0.0009   0.0064   0.0005   0.0015   0.0016  15.00   18.7
2024/07/09 13:27:16.000   28.293510361  -16.540477980  2333.2783   1  10   0.0011   0.0009   0.0064   0.0005   0.0015   0.0016 -14.00   18.2
2024/07/09 13:27:17.000   28.293510361  -16.540477980  2333.2784   1  10   0.0011   0.0009   0.0064   0.0005   0.0015   0.0016 -13.00   17.8
2024/07/09 13:27:18.000   28.293510361  -16.540477980  2333.2784   1  10   0.0011   0.0009   0.0064   0.0005   0.0015   0.0016 -12.00   17.3
2024/07/09 13:27:19.000   28.293510361  -16.540477980  2333.2785   1  10   0.0011   0.0009   0.0064   0.0005   0.0015   0.0016 -11.00   16.8
2024/07/09 13:27:20.000   28.293510362  -16.540477980  2333.2785   1  10   0.0011   0.0009   0.0064   0.0005   0.0015   0.0016 -10.00   16.3
2024/07/09 13:27:21.000   28.293510362  -16.540477980  2333.2785   1  10   0.0011   0.0009   0.0064   0.0005   0.0015   0.0016  -9.00   15.8
2024/07/09 13:27:22.000   28.293510362  -16.540477980  2333.2786   1  10   0.0011   0.0009   0.0064   0.0005   0.0015   0.0016  -8.00   15.3
2024/07/09 13:27:23.000   28.293510362  -16.540477980  2333.2786   1  10   0.0011   0.0009   0.0064   0.0005   0.0015   0.0016  -7.00   14.7
2024/07/09 13:27:24.000   28.293510362  -16.540477980  2333.2786   1  10   0.0011   0.0009   0.0064   0.0005   0.0015   0.0016  -6.00   14.1
2024/07/09 13:27:25.000   28.293510362  -16.540477980  2333.2787   1  10   0.0011   0.0009   0.0064   0.0005   0.0015   0.0016  -5.00   13.5
2024/07/09 13:27:26.000   28.293510362  -16.540477980  2333.2787   1  10   0.0011   0.0009   0.0064   0.0005   0.0015   0.0016  -4.00   12.7
2024/07/09 13:27:27.000   28.293510362  -16.540477980  2333.2787   1  10   0.0011   0.0009   0.0064   0.0005   0.0015   0.0016  -3.00   11.7
2024/07/09 13:27:28.000   28.293510362  -16.540477980  2333.2788   1  10   0.0011   0.0009   0.0064   0.0005   0.0015   0.0016  -2.00    9.3
2024/07/09 13:27:29.000   28.293510362  -16.540477980  2333.2788   1  10   0.0011   0.0009   0.0064   0.0005   0.0015   0.0016  -1.00    5.8
2024/07/09 13:27:30.000   28.293510363  -16.540477977  2333.2797   1  10   0.0011   0.0009   0.0064   0.0005   0.0015   0.0016   0.00   12.8
2024/07/09 13:27:31.000   28.293510363  -16.540477977  2333.2798   1  10   0.0011   0.0009   0.0064   0.0005   0.0015   0.0016   1.00   12.5
2024/07/09 13:27:32.000   28.293510363  -16.540477977  2333.2798   1  10   0.0011   0.0009   0.0065   0.0005   0.0015   0.0016   2.00   12.1
2024/07/09 13:27:33.000   28.293510363  -16.540477977  2333.2798   1  10   0.0011   0.0009   0.0065   0.0005   0.0015   0.0016   3.00   11.8
2024/07/09 13:27:34.000   28.293510363  -16.540477977  2333.2798   1  10   0.0011   0.0009   0.0065   0.0005   0.0015   0.0016   4.00   11.6
2024/07/09 13:27:35.000   28.293510363  -16.540477977  2333.2798   1  10   0.0011   0.0009   0.0065   0.0005   0.0015   0.0016   5.00   11.3
2024/07/09 13:27:36.000   28.293510363  -16.540477978  2333.2799   1  10   0.0011   0.0009   0.0065   0.0005   0.0015   0.0016   6.00   11.2
2024/07/09 13:27:37.000   28.293510363  -16.540477978  2333.2799   1  10   0.0011   0.0009   0.0065   0.0005   0.0015   0.0016   7.00   11.0
2024/07/09 13:27:38.000   28.293510363  -16.540477978  2333.2799   1  10   0.0011   0.0009   0.0065   0.0005   0.0015   0.0016   8.00   10.8
2024/07/09 13:27:39.000   28.293510363  -16.540477978  2333.2799   1  10   0.0011   0.0009   0.0065   0.0005   0.0015   0.0016   9.00   10.6
2024/07/09 13:27:40.000   28.293510363  -16.540477978  2333.2799   1  10   0.0011   0.0009   0.0065   0.0005   0.0015   0.0016  10.00   10.4
2024/07/09 13:27:41.000   28.293510363  -16.540477978  2333.2799   1  10   0.0011   0.0009   0.0065   0.0005   0.0015   0.0016  11.00   10.1
2024/07/09 13:27:42.000   28.293510363  -16.540477978  2333.2799   1  10   0.0011   0.0009   0.0065   0.0005   0.0015   0.0016  12.00    9.8
2024/07/09 13:27:43.000   28.293510363  -16.540477978  2333.2800   1  10   0.0011   0.0009   0.0065   0.0005   0.0015   0.0016  13.00    9.4
2024/07/09 13:27:44.000   28.293510363  -16.540477978  2333.2800   1  10   0.0011   0.0009   0.0065   0.0005   0.0015   0.0016  14.00    9.0
2024/07/09 13:27:45.000   28.293510363  -16.540477978  2333.2800   1  10   0.0011   0.0009   0.0065   0.0005   0.0015   0.0016  15.00    8.7
2024/07/09 13:27:46.000   28.293510363  -16.540477979  2333.2800   1  10   0.0011   0.0009   0.0065   0.0005   0.0015   0.0016 -14.00    8.3
2024/07/09 13:27:47.000   28.293510363  -16.540477979  2333.2801   1  10   0.0011   0.0009   0.0065   0.0005   0.0015   0.0016 -13.00    7.9
2024/07/09 13:27:48.000   28.293510363  -16.540477979  2333.2801   1  10   0.0011   0.0009   0.0065   0.0005   0.0015   0.0016 -12.00    7.5
2024/07/09 13:27:49.000   28.293510363  -16.540477979  2333.2801   1  10   0.0011   0.0009   0.0065   0.0005   0.0015   0.0016 -11.00    7.1
2024/07/09 13:27:50.000   28.293510363  -16.540477979  2333.2801   1  10   0.0011   0.0009   0.0065   0.0005   0.0015   0.0016 -10.00    6.7
2024/07/09 13:27:51.000   28.293510363  -16.540477979  2333.2802   1  10   0.0011   0.0009   0.0065   0.0005   0.0015   0.0016  -9.00    6.3
2024/07/09 13:27:52.000   28.293510363  -16.540477979  2333.2802   1  10   0.0011   0.0009   0.0065   0.0005   0.0015   0.0016  -8.00    5.9
2024/07/09 13:27:53.000   28.293510363  -16.540477979  2333.2802   1  10   0.0011   0.0009   0.0065   0.0005   0.0015   0.0016  -7.00    5.4
2024/07/09 13:27:54.000   28.293510363  -16.540477980  2333.2801   1  10   0.0011   0.0009   0.0065   0.0005   0.0015   0.0016  -6.00    5.2
2024/07/09 13:27:55.000   28.293510363  -16.540477980  2333.2802   1  10   0.0011   0.0009   0.0065   0.0005   0.0015   0.0016  -5.00    4.6
2024/07/09 13:27:56.000   28.293510363  -16.540477979  2333.2803   1  10   0.0011   0.0009   0.0065   0.0005   0.0015   0.0016  -4.00    4.1
2024/07/09 13:27:57.000   28.293510363  -16.540477979  2333.2804   1  10   0.0011   0.0009   0.0065   0.0005   0.0015   0.0016  -3.00    3.5
2024/07/09 13:27:58.000   28.293510363  -16.540477979  2333.2812   1  10   0.0011   0.0009   0.0065   0.0005   0.0015   0.0016  -2.00  838.5
2024/07/09 13:27:59.000   28.293510363  -16.540477979  2333.2813   1  10   0.0011   0.0009   0.0065   0.0005   0.0015   0.0016  -1.00  842.2
2024/07/09 13:28:00.000   28.293510363  -16.540477979  2333.2814   1  10   0.0011   0.0009   0.0065   0.0005   0.0015   0.0016   0.00  844.6
2024/07/09 13:28:01.000   28.293510363  -16.540477979  2333.2815   1  10   0.0011   0.0009   0.0065   0.0005   0.0015   0.0016   1.00  847.9
2024/07/09 13:28:02.000   28.293510363  -16.540477979  2333.2816   1  10   0.0011   0.0009   0.0065   0.0005   0.0015   0.0016   2.00  853.9
2024/07/09 13:28:03.000   28.293510363  -16.540477979  2333.2817   1  10   0.0011   0.0009   0.0065   0.0005   0.0015   0.0016   3.00  858.9
2024/07/09 13:28:04.000   28.293510364  -16.540477979  2333.2819   1  10   0.0011   0.0009   0.0065   0.0005   0.0015   0.0016   4.00  863.0
2024/07/09 13:28:05.000   28.293510364  -16.540477979  2333.2820   1  10   0.0011   0.0009   0.0065   0.0005   0.0015   0.0016   5.00  866.2
2024/07/09 13:28:06.000   28.293510364  -16.540477979  2333.2821   1  10   0.0011   0.0009   0.0065   0.0005   0.0015   0.0016   6.00  869.2
2024/07/09 13:28:07.000   28.293510364  -16.540477979  2333.2821   1  10   0.0011   0.0009   0.0065   0.0005   0.0015   0.0016   7.00  871.2
2024/07/09 13:28:08.000   28.293510364  -16.540477979  2333.2822   1  10   0.0011   0.0009   0.0065   0.0005   0.0015   0.0016   8.00  872.1
2024/07/09 13:28:09.000   28.293510364  -16.540477979  2333.2823   1  10   0.0011   0.0009   0.0065   0.0005   0.0015   0.0016   9.00  873.6
2024/07/09 13:28:10.000   28.293510364  -16.540477979  2333.2824   1  10   0.0011   0.0009   0.0065   0.0005   0.0015   0.0016  10.00  875.0
2024/07/09 13:28:11.000   28.293510364  -16.540477979  2333.2824   1  10   0.0011   0.0009   0.0065   0.0005   0.0015   0.0016  11.00  875.5
2024/07/09 13:28:12.000   28.293510364  -16.540477979  2333.2825   1  10   0.0011   0.0009   0.0065   0.0005   0.0015   0.0016  12.00  875.9
2024/07/09 13:28:13.000   28.293510364  -16.540477978  2333.2825   1  10   0.0011   0.0009   0.0065   0.0005   0.0015   0.0016  13.00  876.3
2024/07/09 13:28:14.000   28.293510364  -16.540477978  2333.2826   1  10   0.0011   0.0009   0.0065   0.0005   0.0015   0.0016  14.00  876.7
2024/07/09 13:28:15.000   28.293510364  -16.540477978  2333.2826   1  10   0.0011   0.0009   0.0065   0.0005   0.0015   0.0016  15.00  876.6
2024/07/09 13:28:16.000   28.293510364  -16.540477978  2333.2826   1  10   0.0011   0.0009   0.0065   0.0005   0.0015   0.0016 -14.00  876.6
2024/07/09 13:28:17.000   28.293510365  -16.540477978  2333.2827   1  10   0.0011   0.0009   0.0065   0.0005   0.0015   0.0016 -13.00  877.0
2024/07/09 13:28:18.000   28.293510365  -16.540477978  2333.2827   1  10   0.0011   0.0009   0.0065   0.0005   0.0015   0.0016 -12.00  877.6
2024/07/09 13:28:19.000   28.293510365  -16.540477978  2333.2828   1  10   0.0011   0.0009   0.0065   0.0005   0.0015   0.0016 -11.00  878.7
2024/07/09 13:28:20.000   28.293510365  -16.540477978  2333.2828   1  10   0.0011   0.0009   0.0065   0.0005   0.0015   0.0016 -10.00  880.0
2024/07/09 13:28:21.000   28.293510365  -16.540477978  2333.2829   1  10   0.0011   0.0009   0.0065   0.0005   0.0015   0.0016  -9.00  881.6
2024/07/09 13:28:22.000   28.293510365  -16.540477978  2333.2829   1  10   0.0011   0.0009   0.0065   0.0005   0.0015   0.0016  -8.00  883.7
2024/07/09 13:28:23.000   28.293510365  -16.540477978  2333.2830   1  10   0.0011   0.0009   0.0065   0.0005   0.0015   0.0016  -7.00  886.1
2024/07/09 13:28:24.000   28.293510365  -16.540477978  2333.2830   1  10   0.0011   0.0009   0.0065   0.0005   0.0015   0.0016  -6.00  888.2
2024/07/09 13:28:25.000   28.293510365  -16.540477978  2333.2831   1  10   0.0011   0.0009   0.0065   0.0005   0.0015   0.0016  -5.00  891.8
2024/07/09 13:28:26.000   28.293510365  -16.540477978  2333.2832   1  10   0.0011   0.0009   0.0065   0.0005   0.0015   0.0016  -4.00  894.8
2024/07/09 13:28:27.000   28.293510366  -16.540477978  2333.2833   1  10   0.0011   0.0009   0.0065   0.0005   0.0015   0.0016  -3.00  899.8
2024/07/09 13:28:28.000   28.293510366  -16.540477978  2333.2833   1  10   0.0011   0.0009   0.0065   0.0005   0.0015   0.0016  -2.00  905.2
2024/07/09 13:28:29.000   28.293510366  -16.540477978  2333.2834   1  10   0.0011   0.0009   0.0065   0.0005   0.0015   0.0016  -1.00  913.3
2024/07/09 13:28:30.000   28.293510366  -16.540477978  2333.2834   1  10   0.0011   0.0009   0.0065   0.0005   0.0015   0.0016   0.00  921.6
2024/07/09 13:28:31.000   28.293510366  -16.540477978  2333.2835   1  10   0.0011   0.0009   0.0065   0.0005   0.0015   0.0016   1.00  930.9
2024/07/09 13:28:32.000   28.293510366  -16.540477978  2333.2835   1  10   0.0011   0.0009   0.0065   0.0005   0.0015   0.0016   2.00  934.7
2024/07/09 13:28:33.000   28.293510366  -16.540477978  2333.2836   1  10   0.0011   0.0009   0.0065   0.0005   0.0015   0.0016   3.00  941.3
2024/07/09 13:28:34.000   28.293510367  -16.540477978  2333.2836   1  10   0.0011   0.0009   0.0065   0.0005   0.0015   0.0016   4.00  944.7
2024/07/09 13:28:35.000   28.293510367  -16.540477978  2333.2837   1  10   0.0011   0.0009   0.0065   0.0005   0.0015   0.0016   5.00  950.3
2024/07/09 13:28:36.000   28.293510367  -16.540477978  2333.2838   1  10   0.0011   0.0009   0.0065   0.0005   0.0015   0.0016   6.00  953.4
2024/07/09 13:28:37.000   28.293510367  -16.540477978  2333.2838   1  10   0.0011   0.0009   0.0065   0.0005   0.0015   0.0016   7.00  957.7
2024/07/09 13:28:38.000   28.293510367  -16.540477978  2333.2839   1  10   0.0011   0.0009   0.0065   0.0005   0.0015   0.0016   8.00  960.6
2024/07/09 13:28:39.000   28.293510367  -16.540477978  2333.2839   1  10   0.0011   0.0009   0.0065   0.0005   0.0015   0.0016   9.00  963.7
2024/07/09 13:28:40.000   28.293510367  -16.540477977  2333.2840   1  10   0.0011   0.0009   0.0065   0.0005   0.0015   0.0016  10.00  965.7
2024/07/09 13:28:41.000   28.293510367  -16.540477977  2333.2840   1  10   0.0011   0.0009   0.0065   0.0005   0.0015   0.0016  11.00  967.5
2024/07/09 13:28:42.000   28.293510367  -16.540477977  2333.2841   1  10   0.0011   0.0009   0.0065   0.0005   0.0015   0.0016  12.00  968.5
2024/07/09 13:28:43.000   28.293510368  -16.540477977  2333.2841   1  10   0.0011   0.0009   0.0065   0.0005   0.0015   0.0016  13.00  969.5
2024/07/09 13:28:44.000   28.293510368  -16.540477977  2333.2842   1  10   0.0011   0.0009   0.0065   0.0005   0.0015   0.0016  14.00  970.3
2024/07/09 13:28:45.000   28.293510368  -16.540477977  2333.2842   1  10   0.0011   0.0009   0.0065   0.0005   0.0015   0.0016  15.00  970.6
2024/07/09 13:28:46.000   28.293510368  -16.540477977  2333.2842   1  10   0.0011   0.0009   0.0065   0.0005   0.0015   0.0016 -14.00  970.9
2024/07/09 13:28:47.000   28.293510368  -16.540477977  2333.2843   1  10   0.0011   0.0009   0.0065   0.0005   0.0015   0.0016 -13.00  971.4
2024/07/09 13:28:48.000   28.293510368  -16.540477977  2333.2843   1  10   0.0011   0.0009   0.0065   0.0005   0.0015   0.0016 -12.00  972.1
2024/07/09 13:28:49.000   28.293510368  -16.540477977  2333.2844   1  10   0.0011   0.0009   0.0065   0.0005   0.0015   0.0016 -11.00  972.6
2024/07/09 13:28:50.000   28.293510368  -16.540477977  2333.2844   1  10   0.0011   0.0009   0.0065   0.0005   0.0015   0.0016 -10.00  973.4
2024/07/09 13:28:51.000   28.293510368  -16.540477977  2333.2845   1  10   0.0011   0.0009   0.0065   0.0005   0.0015   0.0016  -9.00  974.4
2024/07/09 13:28:52.000   28.293510368  -16.540477977  2333.2845   1  10   0.0011   0.0009   0.0065   0.0005   0.0015   0.0016  -8.00  976.0
2024/07/09 13:28:53.000   28.293510368  -16.540477977  2333.2846   1  10   0.0011   0.0009   0.0065   0.0005   0.0015   0.0016  -7.00  977.3
2024/07/09 13:28:54.000   28.293510368  -16.540477976  2333.2846   1  10   0.0011   0.0009   0.0065   0.0005   0.0015   0.0016  -6.00  979.8
2024/07/09 13:28:55.000   28.293510368  -16.540477976  2333.2847   1  10   0.0011   0.0009   0.0065   0.0005   0.0015   0.0016  -5.00  982.1
2024/07/09 13:28:56.000   28.293510368  -16.540477976  2333.2848   1  10   0.0011   0.0009   0.0065   0.0005   0.0015   0.0016  -4.00  983.9
2024/07/09 13:28:57.000   28.293510368  -16.540477976  2333.2848   1  10   0.0011   0.0009   0.0065   0.0005   0.0015   0.0016  -3.00  986.3
2024/07/09 13:28:58.000   28.293510369  -16.540477976  2333.2849   1  10   0.0011   0.0009   0.0065   0.0005   0.0015   0.0016  -2.00  989.1
2024/07/09 13:28:59.000   28.293510369  -16.540477976  2333.2850   1  10   0.0011   0.0009   0.0065   0.0005   0.0015   0.0016  -1.00  993.7
2024/07/09 13:29:00.000   28.293510369  -16.540477976  2333.2850   1  10   0.0011   0.0009   0.0065   0.0005   0.0015   0.0016   0.00  994.6
2024/07/09 13:29:01.000   28.293510369  -16.540477976  2333.2851   1  10   0.0011   0.0009   0.0066   0.0005   0.0016   0.0016   1.00  999.9
2024/07/09 13:29:02.000   28.293510369  -16.540477976  2333.2851   1  10   0.0011   0.0009   0.0066   0.0005   0.0016   0.0016   2.00  999.9
2024/07/09 13:29:03.000   28.293510369  -16.540477976  2333.2851   1  10   0.0011   0.0009   0.0066   0.0005   0.0016   0.0016   3.00  999.9
2024/07/09 13:29:04.000   28.293510369  -16.540477976  2333.2852   1  10   0.0011   0.0009   0.0066   0.0005   0.0016   0.0016   4.00  999.9
2024/07/09 13:29:05.000   28.293510369  -16.540477976  2333.2852   1  10   0.0011   0.0009   0.0066   0.0005   0.0016   0.0016   5.00  999.9
2024/07/09 13:29:06.000   28.293510369  -16.540477976  2333.2852   1  10   0.0011   0.0009   0.0066   0.0005   0.0016   0.0016   6.00  999.9
2024/07/09 13:29:07.000   28.293510369  -16.540477976  2333.2853   1  10   0.0011   0.0009   0.0066   0.0005   0.0016   0.0016   7.00  999.9
2024/07/09 13:29:08.000   28.293510369  -16.540477976  2333.2853   1  10   0.0011   0.0009   0.0066   0.0005   0.0016   0.0017   8.00  999.9
2024/07/09 13:29:09.000   28.293510369  -16.540477976  2333.2853   1  10   0.0011   0.0009   0.0066   0.0005   0.0016   0.0017   9.00  999.9
2024/07/09 13:29:10.000   28.293510369  -16.540477976  2333.2854   1  10   0.0011   0.0009   0.0066   0.0005   0.0016   0.0017  10.00  999.9
2024/07/09 13:29:11.000   28.293510370  -16.540477976  2333.2854   1  10   0.0011   0.0009   0.0066   0.0005   0.0016   0.0017  11.00  999.9
2024/07/09 13:29:12.000   28.293510370  -16.540477976  2333.2854   1  10   0.0011   0.0009   0.0066   0.0005   0.0016   0.0017  12.00  999.9
2024/07/09 13:29:13.000   28.293510370  -16.540477976  2333.2854   1  10   0.0011   0.0009   0.0066   0.0005   0.0016   0.0017  13.00  999.9
2024/07/09 13:29:14.000   28.293510370  -16.540477976  2333.2855   1  10   0.0011   0.0009   0.0066   0.0005   0.0016   0.0017  14.00  999.9
2024/07/09 13:29:15.000   28.293510370  -16.540477976  2333.2855   1  10   0.0011   0.0009   0.0066   0.0005   0.0016   0.0017  15.00  999.9
2024/07/09 13:29:16.000   28.293510370  -16.540477976  2333.2855   1  10   0.0011   0.0009   0.0066   0.0005   0.0016   0.0017 -14.00  999.9
2024/07/09 13:29:17.000   28.293510370  -16.540477976  2333.2855   1  10   0.0011   0.0009   0.0066   0.0005   0.0016   0.0016 -13.00  999.9
2024/07/09 13:29:18.000   28.293510370  -16.540477976  2333.2856   1  10   0.0011   0.0009   0.0066   0.0005   0.0016   0.0016 -12.00  999.9
2024/07/09 13:29:19.000   28.293510370  -16.540477976  2333.2856   1  10   0.0011   0.0009   0.0066   0.0005   0.0016   0.0016 -11.00  999.9
2024/07/09 13:29:20.000   28.293510370  -16.540477976  2333.2856   1  10   0.0011   0.0009   0.0066   0.0005   0.0016   0.0016 -10.00  999.9
2024/07/09 13:29:21.000   28.293510370  -16.540477976  2333.2857   1  10   0.0011   0.0009   0.0066   0.0005   0.0016   0.0016  -9.00  999.9
2024/07/09 13:29:22.000   28.293510370  -16.540477976  2333.2857   1  10   0.0011   0.0009   0.0066   0.0005   0.0016   0.0016  -8.00  999.9
2024/07/09 13:29:23.000   28.293510370  -16.540477976  2333.2858   1  10   0.0011   0.0009   0.0066   0.0005   0.0016   0.0017  -7.00  999.9
2024/07/09 13:29:24.000   28.293510370  -16.540477975  2333.2858   1  10   0.0011   0.0009   0.0066   0.0005   0.0016   0.0017  -6.00  999.9
2024/07/09 13:29:25.000   28.293510370  -16.540477975  2333.2858   1  10   0.0011   0.0009   0.0066   0.0005   0.0016   0.0017  -5.00  999.9
2024/07/09 13:29:26.000   28.293510370  -16.540477975  2333.2859   1  10   0.0011   0.0009   0.0066   0.0005   0.0016   0.0017  -4.00  999.9
2024/07/09 13:29:27.000   28.293510370  -16.540477975  2333.2859   1  10   0.0011   0.0009   0.0066   0.0005   0.0016   0.0017  -3.00  999.9
2024/07/09 13:29:28.000   28.293510370  -16.540477975  2333.2860   1  10   0.0011   0.0009   0.0066   0.0005   0.0016   0.0017  -2.00  999.9
2024/07/09 13:29:29.000   28.293510370  -16.540477975  2333.2860   1  10   0.0011   0.0009   0.0066   0.0005   0.0016   0.0017  -1.00  999.9
2024/07/09 13:29:30.000   28.293510371  -16.540477975  2333.2860   1  10   0.0011   0.0009   0.0066   0.0005   0.0016   0.0017   0.00  999.9
2024/07/09 13:29:31.000   28.293510371  -16.540477975  2333.2860   1  10   0.0011   0.0009   0.0066   0.0005   0.0016   0.0017   1.00  999.9
2024/07/09 13:29:32.000   28.293510371  -16.540477975  2333.2860   1  10   0.0011   0.0009   0.0066   0.0005   0.0016   0.0017   2.00  999.9
2024/07/09 13:29:33.000   28.293510371  -16.540477975  2333.2860   1  10   0.0011   0.0009   0.0066   0.0005   0.0016   0.0017   3.00  999.9
2024/07/09 13:29:34.000   28.293510371  -16.540477975  2333.2860   1  10   0.0011   0.0009   0.0066   0.0005   0.0016   0.0017   4.00  999.9
2024/07/09 13:29:35.000   28.293510371  -16.540477975  2333.2860   1  10   0.0011   0.0009   0.0066   0.0005   0.0016   0.0017   5.00  999.9
2024/07/09 13:29:36.000   28.293510371  -16.540477975  2333.2860   1  10   0.0011   0.0009   0.0066   0.0005   0.0016   0.0017   6.00  999.9
2024/07/09 13:29:37.000   28.293510371  -16.540477975  2333.2860   1  10   0.0011   0.0009   0.0066   0.0005   0.0016   0.0017   7.00  999.9
2024/07/09 13:29:38.000   28.293510371  -16.540477975  2333.2861   1  10   0.0011   0.0009   0.0066   0.0005   0.0016   0.0017   8.00  999.9
2024/07/09 13:29:39.000   28.293510371  -16.540477975  2333.2861   1  10   0.0011   0.0009   0.0066   0.0005   0.0016   0.0017   9.00  999.9
2024/07/09 13:29:40.000   28.293510371  -16.540477975  2333.2861   1  10   0.0011   0.0009   0.0066   0.0005   0.0016   0.0017  10.00  999.9
2024/07/09 13:29:41.000   28.293510371  -16.540477975  2333.2861   1  10   0.0011   0.0009   0.0066   0.0005   0.0016   0.0017  11.00  999.9
2024/07/09 13:29:42.000   28.293510371  -16.540477975  2333.2861   1  10   0.0011   0.0009   0.0066   0.0005   0.0016   0.0017  12.00  999.9
2024/07/09 13:29:43.000   28.293510371  -16.540477975  2333.2861   1  10   0.0011   0.0009   0.0066   0.0005   0.0016   0.0017  13.00  999.9
2024/07/09 13:29:44.000   28.293510371  -16.540477975  2333.2862   1  10   0.0011   0.0009   0.0066   0.0005   0.0016   0.0017  14.00  999.9
2024/07/09 13:29:45.000   28.293510371  -16.540477975  2333.2862   1  10   0.0011   0.0009   0.0066   0.0005   0.0016   0.0017  15.00  999.9
2024/07/09 13:29:46.000   28.293510371  -16.540477975  2333.2862   1  10   0.0011   0.0009   0.0066   0.0005   0.0016   0.0017 -14.00  999.9
2024/07/09 13:29:47.000   28.293510371  -16.540477975  2333.2862   1  10   0.0011   0.0009   0.0066   0.0005   0.0016   0.0017 -13.00  999.9
2024/07/09 13:29:48.000   28.293510371  -16.540477975  2333.2862   1  10   0.0011   0.0009   0.0066   0.0005   0.0016   0.0017 -12.00  999.9
2024/07/09 13:29:49.000   28.293510366  -16.540477978  2333.2789   1  10   0.0011   0.0009   0.0063   0.0005   0.0015   0.0017 -11.00    3.1
2024/07/09 13:29:50.000   28.293510366  -16.540477978  2333.2789   1  10   0.0011   0.0009   0.0063   0.0005   0.0015   0.0017 -10.00    3.1
2024/07/09 13:29:51.000   28.293510366  -16.540477978  2333.2789   1  10   0.0011   0.0009   0.0063   0.0005   0.0015   0.0017  -9.00    3.1
2024/07/09 13:29:52.000   28.293510366  -16.540477978  2333.2789   1  10   0.0011   0.0009   0.0063   0.0005   0.0015   0.0017  -8.00    3.2
2024/07/09 13:29:53.000   28.293510366  -16.540477978  2333.2789   1  10   0.0011   0.0009   0.0063   0.0005   0.0015   0.0017  -7.00    3.2
2024/07/09 13:29:54.000   28.293510366  -16.540477978  2333.2789   1  10   0.0011   0.0009   0.0063   0.0005   0.0015   0.0017  -6.00    3.2
2024/07/09 13:29:55.000   28.293510366  -16.540477978  2333.2789   1  10   0.0011   0.0009   0.0063   0.0005   0.0015   0.0017  -5.00    3.2
2024/07/09 13:29:56.000   28.293510366  -16.540477978  2333.2789   1  10   0.0011   0.0009   0.0063   0.0005   0.0015   0.0017  -4.00    3.3
2024/07/09 13:29:57.000   28.293510367  -16.540477978  2333.2789   1  10   0.0011   0.0009   0.0063   0.0005   0.0015   0.0017  -3.00    3.0
2024/07/09 13:29:58.000   28.293510367  -16.540477978  2333.2789   1  10   0.0011   0.0009   0.0063   0.0005   0.0015   0.0017  -2.00    3.1
2024/07/09 13:29:59.000   28.293510367  -16.540477978  2333.2788   1  10   0.0011   0.0009   0.0063   0.0005   0.0015   0.0017  -1.00    3.1
2024/07/09 13:30:00.000   28.293510367  -16.540477978  2333.2788   1  10   0.0011   0.0009   0.0063   0.0005   0.0015   0.0017   0.00    3.1
2024/07/09 13:30:01.000   28.293510371  -16.540477974  2333.2863   1  10   0.0011   0.0009   0.0066   0.0005   0.0016   0.0017   1.00  999.9
2024/07/09 13:30:02.000   28.293510371  -16.540477974  2333.2863   1  10   0.0011   0.0009   0.0066   0.0005   0.0016   0.0017   2.00  999.9
2024/07/09 13:30:03.000   28.293510371  -16.540477974  2333.2863   1  10   0.0011   0.0009   0.0066   0.0005   0.0016   0.0017   3.00  999.7
2024/07/09 13:30:04.000   28.293510371  -16.540477974  2333.2863   1  10   0.0011   0.0009   0.0066   0.0005   0.0016   0.0017   4.00  996.4
2024/07/09 13:30:05.000   28.293510371  -16.540477974  2333.2863   1  10   0.0011   0.0009   0.0066   0.0005   0.0016   0.0017   5.00  994.9
2024/07/09 13:30:06.000   28.293510371  -16.540477974  2333.2863   1  10   0.0011   0.0009   0.0066   0.0005   0.0016   0.0017   6.00  992.7
2024/07/09 13:30:07.000   28.293510371  -16.540477974  2333.2863   1  10   0.0011   0.0009   0.0066   0.0005   0.0016   0.0017   7.00  992.3
2024/07/09 13:30:08.000   28.293510371  -16.540477974  2333.2864   1  10   0.0011   0.0009   0.0066   0.0005   0.0016   0.0017   8.00  990.2
2024/07/09 13:30:09.000   28.293510371  -16.540477974  2333.2864   1  10   0.0011   0.0009   0.0066   0.0005   0.0016   0.0017   9.00  988.6
2024/07/09 13:30:10.000   28.293510371  -16.540477974  2333.2864   1  10   0.0011   0.0009   0.0066   0.0005   0.0016   0.0017  10.00  987.0
2024/07/09 13:30:11.000   28.293510371  -16.540477974  2333.2864   1  10   0.0011   0.0009   0.0066   0.0005   0.0016   0.0017  11.00  985.1
2024/07/09 13:30:12.000   28.293510371  -16.540477974  2333.2864   1  10   0.0011   0.0009   0.0066   0.0005   0.0016   0.0017  12.00  983.5
2024/07/09 13:30:13.000   28.293510371  -16.540477974  2333.2864   1  10   0.0011   0.0009   0.0066   0.0005   0.0016   0.0017  13.00  982.0
2024/07/09 13:30:14.000   28.293510371  -16.540477974  2333.2864   1  10   0.0011   0.0009   0.0066   0.0005   0.0016   0.0017  14.00  980.4
2024/07/09 13:30:15.000   28.293510371  -16.540477974  2333.2865   1  10   0.0011   0.0009   0.0066   0.0005   0.0016   0.0017  15.00  979.0
2024/07/09 13:30:16.000   28.293510371  -16.540477974  2333.2865   1  10   0.0011   0.0009   0.0066   0.0005   0.0016   0.0017 -14.00  977.7
2024/07/09 13:30:17.000   28.293510371  -16.540477974  2333.2865   1  10   0.0011   0.0009   0.0066   0.0005   0.0016   0.0017 -13.00  976.5
2024/07/09 13:30:18.000   28.293510371  -16.540477974  2333.2865   1  10   0.0011   0.0009   0.0066   0.0005   0.0016   0.0017 -12.00  975.4
2024/07/09 13:30:19.000   28.293510371  -16.540477974  2333.2865   1  10   0.0011   0.0009   0.0066   0.0005   0.0016   0.0017 -11.00  974.2
2024/07/09 13:30:20.000   28.293510371  -16.540477974  2333.2865   1  10   0.0011   0.0009   0.0066   0.0005   0.0016   0.0017 -10.00  973.1
2024/07/09 13:30:21.000   28.293510371  -16.540477974  2333.2865   1  10   0.0011   0.0009   0.0066   0.0005   0.0016   0.0017  -9.00  971.9
2024/07/09 13:30:22.000   28.293510371  -16.540477974  2333.2865   1  10   0.0011   0.0009   0.0066   0.0005   0.0016   0.0017  -8.00  971.1
2024/07/09 13:30:23.000   28.293510371  -16.540477974  2333.2865   1  10   0.0011   0.0009   0.0066   0.0005   0.0016   0.0017  -7.00  970.1
2024/07/09 13:30:24.000   28.293510371  -16.540477974  2333.2865   1  10   0.0011   0.0009   0.0066   0.0005   0.0016   0.0017  -6.00  969.4
2024/07/09 13:30:25.000   28.293510371  -16.540477974  2333.2865   1  10   0.0011   0.0009   0.0066   0.0005   0.0016   0.0017  -5.00  969.6
2024/07/09 13:30:26.000   28.293510371  -16.540477974  2333.2865   1  10   0.0011   0.0009   0.0066   0.0005   0.0016   0.0017  -4.00  969.2
2024/07/09 13:30:27.000   28.293510371  -16.540477974  2333.2865   1  10   0.0011   0.0009   0.0066   0.0005   0.0016   0.0017  -3.00  969.1
2024/07/09 13:30:28.000   28.293510371  -16.540477973  2333.2865   1  10   0.0011   0.0009   0.0066   0.0005   0.0016   0.0017  -2.00  969.8
2024/07/09 13:30:29.000   28.293510371  -16.540477973  2333.2865   1  10   0.0011   0.0009   0.0066   0.0005   0.0016   0.0017  -1.00  970.3
2024/07/09 13:30:30.000   28.293510371  -16.540477973  2333.2865   1  10   0.0011   0.0009   0.0066   0.0005   0.0016   0.0017   0.00  966.6
2024/07/09 13:30:31.000   28.293510371  -16.540477973  2333.2865   1  10   0.0011   0.0009   0.0066   0.0005   0.0016   0.0017   1.00  964.3
2024/07/09 13:30:32.000   28.293510371  -16.540477973  2333.2865   1  10   0.0011   0.0010   0.0066   0.0005   0.0016   0.0017   2.00  960.7
2024/07/09 13:30:33.000   28.293510370  -16.540477973  2333.2865   1  10   0.0011   0.0010   0.0066   0.0005   0.0016   0.0017   3.00  956.6
2024/07/09 13:30:34.000   28.293510370  -16.540477973  2333.2865   1  10   0.0011   0.0010   0.0066   0.0005   0.0016   0.0017   4.00  954.4
2024/07/09 13:30:35.000   28.293510370  -16.540477973  2333.2865   1  10   0.0011   0.0010   0.0066   0.0005   0.0016   0.0017   5.00  950.6
2024/07/09 13:30:36.000   28.293510370  -16.540477973  2333.2865   1  10   0.0011   0.0010   0.0066   0.0005   0.0016   0.0017   6.00  947.2
2024/07/09 13:30:37.000   28.293510370  -16.540477973  2333.2865   1  10   0.0011   0.0010   0.0066   0.0005   0.0016   0.0017   7.00  944.0
2024/07/09 13:30:38.000   28.293510370  -16.540477973  2333.2865   1  10   0.0011   0.0010   0.0066   0.0005   0.0016   0.0017   8.00  941.6
2024/07/09 13:30:39.000   28.293510370  -16.540477973  2333.2865   1  10   0.0011   0.0010   0.0066   0.0005   0.0016   0.0017   9.00  939.4
2024/07/09 13:30:40.000   28.293510370  -16.540477973  2333.2865   1  10   0.0011   0.0010   0.0066   0.0005   0.0016   0.0017  10.00  937.7
2024/07/09 13:30:41.000   28.293510370  -16.540477973  2333.2865   1  10   0.0011   0.0010   0.0066   0.0005   0.0016   0.0017  11.00  935.9
2024/07/09 13:30:42.000   28.293510370  -16.540477973  2333.2865   1  10   0.0011   0.0010   0.0066   0.0005   0.0016   0.0017  12.00  934.2
2024/07/09 13:30:43.000   28.293510370  -16.540477973  2333.2866   1  10   0.0011   0.0010   0.0066   0.0005   0.0016   0.0017  13.00  932.3
2024/07/09 13:30:44.000   28.293510371  -16.540477973  2333.2866   1  10   0.0011   0.0010   0.0066   0.0005   0.0016   0.0017  14.00  930.6
2024/07/09 13:30:45.000   28.293510371  -16.540477973  2333.2866   1  10   0.0011   0.0010   0.0066   0.0005   0.0016   0.0017  15.00  928.8
2024/07/09 13:30:46.000   28.293510371  -16.540477973  2333.2866   1  10   0.0011   0.0010   0.0066   0.0005   0.0016   0.0017 -14.00  927.2
2024/07/09 13:30:47.000   28.293510371  -16.540477973  2333.2866   1  10   0.0011   0.0010   0.0066   0.0005   0.0016   0.0017 -13.00  925.2
2024/07/09 13:30:48.000   28.293510371  -16.540477973  2333.2866   1  10   0.0011   0.0009   0.0066   0.0005   0.0016   0.0017 -12.00  923.3
2024/07/09 13:30:49.000   28.293510371  -16.540477973  2333.2866   1  10   0.0011   0.0009   0.0066   0.0005   0.0016   0.0017 -11.00  921.0
2024/07/09 13:30:50.000   28.293510371  -16.540477973  2333.2867   1  10   0.0011   0.0009   0.0066   0.0005   0.0016   0.0017 -10.00  918.9
2024/07/09 13:30:51.000   28.293510371  -16.540477973  2333.2867   1  10   0.0011   0.0009   0.0066   0.0005   0.0016   0.0017  -9.00  917.0
2024/07/09 13:30:52.000   28.293510371  -16.540477973  2333.2867   1  10   0.0011   0.0009   0.0066   0.0005   0.0016   0.0017  -8.00  915.2
2024/07/09 13:30:53.000   28.293510371  -16.540477973  2333.2867   1  10   0.0011   0.0009   0.0066   0.0005   0.0016   0.0017  -7.00  913.0
2024/07/09 13:30:54.000   28.293510371  -16.540477973  2333.2867   1  10   0.0011   0.0009   0.0066   0.0005   0.0016   0.0017  -6.00  911.1
2024/07/09 13:30:55.000   28.293510371  -16.540477973  2333.2867   1  10   0.0011   0.0009   0.0066   0.0005   0.0016   0.0017  -5.00  909.1
2024/07/09 13:30:56.000   28.293510371  -16.540477973  2333.2867   1  10   0.0011   0.0009   0.0066   0.0005   0.0016   0.0017  -4.00  906.4
2024/07/09 13:30:57.000   28.293510371  -16.540477973  2333.2867   1  10   0.0011   0.0009   0.0066   0.0005   0.0016   0.0017  -3.00  902.8
2024/07/09 13:30:58.000   28.293510370  -16.540477973  2333.2867   1  10   0.0011   0.0009   0.0066   0.0005   0.0016   0.0017  -2.00  899.4
2024/07/09 13:30:59.000   28.293510370  -16.540477973  2333.2866   1  10   0.0011   0.0010   0.0066   0.0005   0.0016   0.0017  -1.00  897.6
2024/07/09 13:31:00.000   28.293510370  -16.540477972  2333.2866   1  10   0.0011   0.0010   0.0066   0.0005   0.0016   0.0017   0.00  897.0
2024/07/09 13:31:01.000   28.293510370  -16.540477972  2333.2866   1  10   0.0011   0.0010   0.0066   0.0005   0.0016   0.0017   1.00  896.2
2024/07/09 13:31:02.000   28.293510370  -16.540477972  2333.2865   1  10   0.0011   0.0010   0.0066   0.0005   0.0016   0.0017   2.00  893.9
2024/07/09 13:31:03.000   28.293510370  -16.540477972  2333.2865   1  10   0.0011   0.0010   0.0066   0.0005   0.0016   0.0017   3.00  892.3
2024/07/09 13:31:04.000   28.293510370  -16.540477972  2333.2865   1  10   0.0011   0.0010   0.0066   0.0005   0.0016   0.0017   4.00  889.8
2024/07/09 13:31:05.000   28.293510370  -16.540477972  2333.2865   1  10   0.0011   0.0010   0.0066   0.0005   0.0016   0.0017   5.00  887.1
2024/07/09 13:31:06.000   28.293510370  -16.540477972  2333.2864   1  10   0.0011   0.0010   0.0066   0.0005   0.0016   0.0017   6.00  884.8
2024/07/09 13:31:07.000   28.293510370  -16.540477972  2333.2864   1  10   0.0011   0.0010   0.0066   0.0005   0.0016   0.0017   7.00  883.2
2024/07/09 13:31:08.000   28.293510370  -16.540477972  2333.2864   1  10   0.0011   0.0010   0.0066   0.0005   0.0016   0.0017   8.00  881.7
2024/07/09 13:31:09.000   28.293510370  -16.540477972  2333.2864   1  10   0.0011   0.0010   0.0066   0.0005   0.0016   0.0017   9.00  880.1
2024/07/09 13:31:10.000   28.293510370  -16.540477972  2333.2864   1  10   0.0011   0.0010   0.0066   0.0005   0.0016   0.0017  10.00  879.2
2024/07/09 13:31:11.000   28.293510370  -16.540477972  2333.2864   1  10   0.0011   0.0010   0.0066   0.0005   0.0016   0.0017  11.00  877.3
2024/07/09 13:31:12.000   28.293510370  -16.540477972  2333.2864   1  10   0.0011   0.0010   0.0066   0.0005   0.0016   0.0017  12.00  876.0
2024/07/09 13:31:13.000   28.293510370  -16.540477972  2333.2864   1  10   0.0011   0.0010   0.0066   0.0005   0.0016   0.0017  13.00  874.9
2024/07/09 13:31:14.000   28.293510370  -16.540477972  2333.2864   1  10   0.0011   0.0010   0.0066   0.0005   0.0016   0.0017  14.00  873.8
2024/07/09 13:31:15.000   28.293510370  -16.540477972  2333.2864   1  10   0.0011   0.0010   0.0066   0.0005   0.0016   0.0017  15.00  872.7
2024/07/09 13:31:16.000   28.293510370  -16.540477971  2333.2864   1  10   0.0011   0.0010   0.0066   0.0005   0.0016   0.0017 -14.00  871.6
2024/07/09 13:31:17.000   28.293510370  -16.540477971  2333.2864   1  10   0.0011   0.0010   0.0066   0.0005   0.0016   0.0017 -13.00  870.5
2024/07/09 13:31:18.000   28.293510370  -16.540477971  2333.2864   1  10   0.0011   0.0010   0.0066   0.0005   0.0016   0.0017 -12.00  869.8
2024/07/09 13:31:19.000   28.293510370  -16.540477971  2333.2864   1  10   0.0011   0.0010   0.0066   0.0005   0.0016   0.0017 -11.00  869.0
2024/07/09 13:31:20.000   28.293510370  -16.540477971  2333.2864   1  10   0.0011   0.0010   0.0066   0.0005   0.0016   0.0017 -10.00  868.2
2024/07/09 13:31:21.000   28.293510370  -16.540477971  2333.2864   1  10   0.0011   0.0010   0.0066   0.0005   0.0016   0.0017  -9.00  867.5
2024/07/09 13:31:22.000   28.293510370  -16.540477971  2333.2864   1  10   0.0011   0.0010   0.0066   0.0005   0.0016   0.0017  -8.00  866.9
2024/07/09 13:31:23.000   28.293510370  -16.540477971  2333.2864   1  10   0.0011   0.0010   0.0066   0.0005   0.0016   0.0017  -7.00  866.0
2024/07/09 13:31:24.000   28.293510370  -16.540477971  2333.2864   1  10   0.0011   0.0010   0.0066   0.0005   0.0016   0.0017  -6.00  864.3
2024/07/09 13:31:25.000   28.293510370  -16.540477971  2333.2864   1  10   0.0011   0.0010   0.0066   0.0005   0.0016   0.0017  -5.00  864.8
2024/07/09 13:31:26.000   28.293510370  -16.540477971  2333.2863   1  10   0.0011   0.0010   0.0066   0.0005   0.0016   0.0017  -4.00  865.2
2024/07/09 13:31:27.000   28.293510370  -16.540477971  2333.2863   1  10   0.0011   0.0010   0.0066   0.0005   0.0016   0.0017  -3.00  865.3
2024/07/09 13:31:28.000   28.293510369  -16.540477971  2333.2862   1  10   0.0011   0.0010   0.0066   0.0005   0.0016   0.0017  -2.00  868.4
2024/07/09 13:31:29.000   28.293510369  -16.540477971  2333.2861   1  10   0.0011   0.0010   0.0066   0.0005   0.0016   0.0017  -1.00  872.0
2024/07/09 13:31:30.000   28.293510369  -16.540477971  2333.2860   1  10   0.0011   0.0010   0.0066   0.0005   0.0016   0.0017   0.00  873.7
2024/07/09 13:31:31.000   28.293510369  -16.540477971  2333.2859   1  10   0.0011   0.0010   0.0066   0.0005   0.0016   0.0017   1.00  873.5
2024/07/09 13:31:32.000   28.293510369  -16.540477971  2333.2858   1  10   0.0011   0.0010   0.0066   0.0005   0.0016   0.0017   2.00  872.8
2024/07/09 13:31:33.000   28.293510369  -16.540477971  2333.2858   1  10   0.0011   0.0010   0.0066   0.0005   0.0016   0.0017   3.00  872.2
2024/07/09 13:31:34.000   28.293510369  -16.540477971  2333.2857   1  10   0.0011   0.0010   0.0066   0.0005   0.0016   0.0017   4.00  868.7
2024/07/09 13:31:35.000   28.293510369  -16.540477971  2333.2857   1  10   0.0011   0.0010   0.0066   0.0005   0.0016   0.0017   5.00  866.4
2024/07/09 13:31:36.000   28.293510369  -16.540477971  2333.2857   1  10   0.0011   0.0010   0.0067   0.0005   0.0016   0.0017   6.00  864.3
2024/07/09 13:31:37.000   28.293510369  -16.540477971  2333.2857   1  10   0.0011   0.0010   0.0067   0.0005   0.0016   0.0017   7.00  862.0
2024/07/09 13:31:38.000   28.293510369  -16.540477971  2333.2857   1  10   0.0011   0.0010   0.0067   0.0005   0.0016   0.0017   8.00  859.5
2024/07/09 13:31:39.000   28.293510369  -16.540477971  2333.2857   1  10   0.0011   0.0010   0.0067   0.0005   0.0016   0.0017   9.00  857.0
2024/07/09 13:31:40.000   28.293510369  -16.540477972  2333.2857   1  10   0.0011   0.0010   0.0067   0.0005   0.0016   0.0017  10.00  854.5
2024/07/09 13:31:41.000   28.293510369  -16.540477972  2333.2857   1  10   0.0011   0.0010   0.0066   0.0005   0.0016   0.0017  11.00  852.0
2024/07/09 13:31:42.000   28.293510369  -16.540477972  2333.2857   1  10   0.0011   0.0010   0.0066   0.0005   0.0016   0.0017  12.00  849.9
2024/07/09 13:31:43.000   28.293510369  -16.540477972  2333.2857   1  10   0.0011   0.0010   0.0066   0.0005   0.0016   0.0017  13.00  848.0
2024/07/09 13:31:44.000   28.293510369  -16.540477972  2333.2857   1  10   0.0011   0.0010   0.0066   0.0005   0.0016   0.0017  14.00  846.2
2024/07/09 13:31:45.000   28.293510369  -16.540477972  2333.2858   1  10   0.0011   0.0010   0.0066   0.0005   0.0016   0.0017  15.00  844.9
2024/07/09 13:31:46.000   28.293510369  -16.540477972  2333.2858   1  10   0.0011   0.0010   0.0066   0.0005   0.0016   0.0017 -14.00  843.5
2024/07/09 13:31:47.000   28.293510369  -16.540477972  2333.2858   1  10   0.0011   0.0010   0.0066   0.0005   0.0016   0.0017 -13.00  841.9
2024/07/09 13:31:48.000   28.293510369  -16.540477972  2333.2858   1  10   0.0011   0.0010   0.0066   0.0005   0.0016   0.0017 -12.00  840.3
2024/07/09 13:31:49.000   28.293510369  -16.540477972  2333.2858   1  10   0.0011   0.0010   0.0066   0.0005   0.0016   0.0017 -11.00  838.8
2024/07/09 13:31:50.000   28.293510369  -16.540477972  2333.2858   1  10   0.0011   0.0010   0.0066   0.0005   0.0016   0.0017 -10.00  837.1
2024/07/09 13:31:51.000   28.293510369  -16.540477972  2333.2859   1  10   0.0011   0.0010   0.0066   0.0005   0.0016   0.0017  -9.00  836.0
2024/07/09 13:31:52.000   28.293510369  -16.540477972  2333.2859   1  10   0.0011   0.0010   0.0066   0.0005   0.0016   0.0017  -8.00  835.1
2024/07/09 13:31:53.000   28.293510369  -16.540477972  2333.2859   1  10   0.0011   0.0010   0.0066   0.0005   0.0016   0.0017  -7.00  833.4
2024/07/09 13:31:54.000   28.293510369  -16.540477971  2333.2859   1  10   0.0011   0.0010   0.0066   0.0005   0.0016   0.0017  -6.00  832.3
2024/07/09 13:31:55.000   28.293510369  -16.540477971  2333.2859   1  10   0.0011   0.0010   0.0066   0.0005   0.0016   0.0017  -5.00  831.3
2024/07/09 13:31:56.000   28.293510369  -16.540477971  2333.2859   1  10   0.0011   0.0010   0.0066   0.0005   0.0016   0.0017  -4.00  829.6
2024/07/09 13:31:57.000   28.293510368  -16.540477971  2333.2859   1  10   0.0011   0.0010   0.0066   0.0005   0.0016   0.0017  -3.00  830.6
2024/07/09 13:31:58.000   28.293510368  -16.540477972  2333.2858   1  10   0.0011   0.0010   0.0066   0.0005   0.0016   0.0017  -2.00  829.9
2024/07/09 13:31:59.000   28.293510368  -16.540477972  2333.2858   1  10   0.0011   0.0010   0.0066   0.0005   0.0016   0.0017  -1.00  826.9
2024/07/09 13:32:00.000   28.293510368  -16.540477972  2333.2858   1  10   0.0011   0.0010   0.0067   0.0005   0.0016   0.0017   0.00  824.8
2024/07/09 13:32:01.000   28.293510368  -16.540477972  2333.2857   1  10   0.0011   0.0010   0.0067   0.0005   0.0016   0.0017   1.00  824.2
2024/07/09 13:32:02.000   28.293510368  -16.540477972  2333.2857   1  10   0.0011   0.0010   0.0067   0.0005   0.0016   0.0017   2.00  819.5
2024/07/09 13:32:03.000   28.293510367  -16.540477972  2333.2856   1  10   0.0011   0.0010   0.0067   0.0005   0.0016   0.0018   3.00  816.4
2024/07/09 13:32:04.000   28.293510367  -16.540477972  2333.2856   1  10   0.0011   0.0010   0.0067   0.0005   0.0016   0.0018   4.00  812.8
2024/07/09 13:32:05.000   28.293510367  -16.540477971  2333.2856   1  10   0.0011   0.0010   0.0067   0.0005   0.0016   0.0018   5.00  809.1
2024/07/09 13:32:06.000   28.293510367  -16.540477971  2333.2856   1  10   0.0011   0.0010   0.0067   0.0005   0.0016   0.0018   6.00  806.2
2024/07/09 13:32:07.000   28.293510367  -16.540477971  2333.2856   1  10   0.0011   0.0010   0.0067   0.0005   0.0016   0.0018   7.00  804.7
2024/07/09 13:32:08.000   28.293510367  -16.540477971  2333.2856   1  10   0.0011   0.0010   0.0067   0.0005   0.0016   0.0018   8.00  803.8
2024/07/09 13:32:09.000   28.293510367  -16.540477971  2333.2856   1  10   0.0011   0.0010   0.0067   0.0005   0.0016   0.0018   9.00  802.1
2024/07/09 13:32:10.000   28.293510367  -16.540477971  2333.2855   1  10   0.0011   0.0010   0.0067   0.0005   0.0016   0.0018  10.00  801.5
2024/07/09 13:32:11.000   28.293510367  -16.540477971  2333.2855   1  10   0.0011   0.0010   0.0067   0.0005   0.0016   0.0018  11.00  800.2
2024/07/09 13:32:12.000   28.293510367  -16.540477971  2333.2855   1  10   0.0011   0.0010   0.0067   0.0005   0.0016   0.0018  12.00  799.2
2024/07/09 13:32:13.000   28.293510367  -16.540477971  2333.2855   1  10   0.0011   0.0010   0.0067   0.0005   0.0016   0.0018  13.00  798.4
2024/07/09 13:32:14.000   28.293510367  -16.540477971  2333.2855   1  10   0.0011   0.0010   0.0067   0.0005   0.0016   0.0018  14.00  797.4
2024/07/09 13:32:15.000   28.293510367  -16.540477971  2333.2856   1  10   0.0011   0.0010   0.0067   0.0005   0.0016   0.0018  15.00  796.3
2024/07/09 13:32:16.000   28.293510367  -16.540477971  2333.2856   1  10   0.0011   0.0010   0.0067   0.0005   0.0016   0.0018 -14.00  795.1
2024/07/09 13:32:17.000   28.293510367  -16.540477971  2333.2856   1  10   0.0011   0.0010   0.0067   0.0005   0.0016   0.0018 -13.00  793.9
2024/07/09 13:32:18.000   28.293510367  -16.540477971  2333.2856   1  10   0.0011   0.0010   0.0067   0.0005   0.0016   0.0018 -12.00  793.0
2024/07/09 13:32:19.000   28.293510367  -16.540477971  2333.2856   1  10   0.0011   0.0010   0.0067   0.0005   0.0016   0.0018 -11.00  791.9
2024/07/09 13:32:20.000   28.293510367  -16.540477971  2333.2856   1  10   0.0011   0.0010   0.0067   0.0005   0.0016   0.0018 -10.00  791.4
2024/07/09 13:32:21.000   28.293510367  -16.540477971  2333.2856   1  10   0.0011   0.0010   0.0067   0.0005   0.0016   0.0018  -9.00  791.1
