% program   : RTKPOST-EX 2.5.0
% inp file  : C:\Users\SallyHenry\Desktop\Sally Internship\GNSS gravi\DATA\Survey Rover Obs\LM012_G11.24o
% inp file  : C:\Users\SallyHenry\Desktop\Sally Internship\GNSS gravi\DATA\BaseStations\IZAN\IZAN00ESP_R_20241900000_01D_30S_MO.rnx
% inp file  : C:\Users\SallyHenry\Desktop\Sally Internship\GNSS gravi\DATA\BaseStations\IZAN\IZAN00ESP_R_20241900000_01D_MN.rnx
% inp file  : C:\Users\SallyHenry\Desktop\Sally Internship\GNSS gravi\DATA\aux_files\Survey\IGS0OPSFIN_20241900000_01D_15M_ORB.SP3
% inp file  : C:\Users\SallyHenry\Desktop\Sally Internship\GNSS gravi\DATA\aux_files\Survey\IGS0OPSFIN_20241900000_01D_30S_CLK.CLK
% obs start : 2024/07/08 13:06:04.0 GPST (week2322 133564.0s)
% obs end   : 2024/07/08 14:19:35.0 GPST (week2322 137975.0s)
% pos mode  : Static
% freqs     : L1+L2/E5b
% solution  : Combined-No Phase Reset
% elev mask : 15.0 deg
% dynamics  : on
% tidecorr  : solid
% ionos opt : Estimate TEC
% tropo opt : Estimate ZTD+Grad
% ephemeris : Precise
% navi sys  : GPS GLONASS Galileo QZSS BDS
% amb res   : Fix and Hold
% amb glo   : Fix and Hold
% amb bds   : on
% val thres : 3.0
% antenna1  :                       ( 0.0000  0.0000  1.7620)
% antenna2  :                       ( 0.0000  0.0000  0.0000)
% ref pos   :  28.308069410  -16.499677180  2417.4044
%
% (lat/lon/height=WGS84/ellipsoidal,Q=1:fix,2:float,3:sbas,4:dgps,5:single,6:ppp,ns=# of satellites)
%  GPST                  latitude(deg) longitude(deg)  height(m)   Q  ns   sdn(m)   sde(m)   sdu(m)  sdne(m)  sdeu(m)  sdun(m) age(s)  ratio
2024/07/08 13:06:04.000   28.292999805  -16.542957626  2331.1884   1   9   0.0010   0.0009   0.0067   0.0005   0.0013   0.0009   4.00  787.5
2024/07/08 13:06:05.000   28.292999805  -16.542957626  2331.1884   1   9   0.0010   0.0009   0.0067   0.0005   0.0013   0.0009   5.00  787.1
2024/07/08 13:06:06.000   28.292999805  -16.542957626  2331.1884   1   9   0.0010   0.0009   0.0067   0.0005   0.0013   0.0009   6.00  787.6
2024/07/08 13:06:07.000   28.292999805  -16.542957626  2331.1884   1   9   0.0010   0.0009   0.0067   0.0005   0.0013   0.0009   7.00  787.5
2024/07/08 13:06:08.000   28.292999805  -16.542957626  2331.1884   1   9   0.0010   0.0009   0.0067   0.0005   0.0013   0.0009   8.00  787.1
2024/07/08 13:06:09.000   28.292999805  -16.542957626  2331.1884   1   9   0.0010   0.0009   0.0067   0.0005   0.0013   0.0009   9.00  786.1
2024/07/08 13:06:10.000   28.292999805  -16.542957626  2331.1884   1   9   0.0010   0.0009   0.0067   0.0005   0.0013   0.0009  10.00  785.4
2024/07/08 13:06:11.000   28.292999805  -16.542957626  2331.1885   1   9   0.0010   0.0009   0.0067   0.0005   0.0013   0.0009  11.00  784.5
2024/07/08 13:06:12.000   28.292999805  -16.542957626  2331.1885   1   9   0.0010   0.0009   0.0067   0.0005   0.0013   0.0009  12.00  783.5
2024/07/08 13:06:13.000   28.292999805  -16.542957626  2331.1885   1   9   0.0010   0.0009   0.0067   0.0005   0.0013   0.0009  13.00  782.7
2024/07/08 13:06:14.000   28.292999805  -16.542957626  2331.1885   1   9   0.0010   0.0009   0.0067   0.0005   0.0013   0.0009  14.00  782.1
2024/07/08 13:06:15.000   28.292999805  -16.542957626  2331.1885   1   9   0.0010   0.0009   0.0067   0.0005   0.0013   0.0009  15.00  781.3
2024/07/08 13:06:16.000   28.292999805  -16.542957626  2331.1885   1   9   0.0010   0.0009   0.0067   0.0005   0.0013   0.0009 -14.00  780.7
2024/07/08 13:06:17.000   28.292999805  -16.542957626  2331.1885   1   9   0.0010   0.0009   0.0067   0.0005   0.0013   0.0009 -13.00  780.1
2024/07/08 13:06:18.000   28.292999805  -16.542957626  2331.1886   1   9   0.0010   0.0009   0.0067   0.0005   0.0013   0.0009 -12.00  779.4
2024/07/08 13:06:19.000   28.292999805  -16.542957626  2331.1886   1   9   0.0010   0.0009   0.0067   0.0005   0.0013   0.0009 -11.00  778.6
2024/07/08 13:06:20.000   28.292999805  -16.542957626  2331.1886   1   9   0.0010   0.0009   0.0067   0.0005   0.0013   0.0009 -10.00  777.7
2024/07/08 13:06:21.000   28.292999805  -16.542957626  2331.1886   1   9   0.0010   0.0009   0.0067   0.0005   0.0013   0.0009  -9.00  776.6
2024/07/08 13:06:22.000   28.292999805  -16.542957626  2331.1886   1   9   0.0010   0.0009   0.0067   0.0005   0.0013   0.0009  -8.00  775.2
2024/07/08 13:06:23.000   28.292999805  -16.542957626  2331.1886   1   9   0.0010   0.0009   0.0067   0.0005   0.0013   0.0009  -7.00  773.6
2024/07/08 13:06:24.000   28.292999805  -16.542957626  2331.1887   1   9   0.0010   0.0009   0.0067   0.0005   0.0013   0.0009  -6.00  772.0
2024/07/08 13:06:25.000   28.292999805  -16.542957625  2331.1887   1   9   0.0010   0.0009   0.0067   0.0005   0.0013   0.0009  -5.00  770.5
2024/07/08 13:06:26.000   28.292999804  -16.542957625  2331.1887   1   9   0.0010   0.0009   0.0067   0.0005   0.0013   0.0009  -4.00  768.8
2024/07/08 13:06:27.000   28.292999804  -16.542957625  2331.1887   1   9   0.0010   0.0009   0.0067   0.0005   0.0013   0.0009  -3.00  766.4
2024/07/08 13:06:28.000   28.292999804  -16.542957625  2331.1887   1   9   0.0010   0.0009   0.0067   0.0005   0.0013   0.0009  -2.00  764.3
2024/07/08 13:06:29.000   28.292999804  -16.542957625  2331.1887   1   9   0.0010   0.0009   0.0067   0.0005   0.0013   0.0009  -1.00  761.0
2024/07/08 13:06:30.000   28.292999804  -16.542957626  2331.1887   1   9   0.0010   0.0009   0.0067   0.0005   0.0013   0.0009   0.00  759.9
2024/07/08 13:06:31.000   28.292999804  -16.542957626  2331.1887   1   9   0.0010   0.0009   0.0067   0.0005   0.0013   0.0009   1.00  758.4
2024/07/08 13:06:32.000   28.292999804  -16.542957626  2331.1887   1   9   0.0010   0.0009   0.0067   0.0005   0.0013   0.0009   2.00  756.6
2024/07/08 13:06:33.000   28.292999804  -16.542957626  2331.1887   1   9   0.0010   0.0009   0.0067   0.0005   0.0013   0.0009   3.00  755.0
2024/07/08 13:06:34.000   28.292999804  -16.542957626  2331.1888   1   9   0.0010   0.0009   0.0067   0.0005   0.0013   0.0009   4.00  753.7
2024/07/08 13:06:35.000   28.292999804  -16.542957626  2331.1888   1   9   0.0010   0.0009   0.0067   0.0005   0.0013   0.0009   5.00  752.4
2024/07/08 13:06:36.000   28.292999804  -16.542957626  2331.1888   1   9   0.0010   0.0009   0.0067   0.0005   0.0013   0.0009   6.00  751.3
2024/07/08 13:06:37.000   28.292999804  -16.542957626  2331.1888   1   9   0.0010   0.0009   0.0067   0.0005   0.0013   0.0009   7.00  750.3
2024/07/08 13:06:38.000   28.292999804  -16.542957626  2331.1888   1   9   0.0010   0.0009   0.0067   0.0005   0.0013   0.0009   8.00  749.5
2024/07/08 13:06:39.000   28.292999804  -16.542957626  2331.1888   1   9   0.0010   0.0009   0.0067   0.0005   0.0013   0.0009   9.00  748.8
2024/07/08 13:06:40.000   28.292999804  -16.542957626  2331.1888   1   9   0.0010   0.0009   0.0067   0.0005   0.0013   0.0009  10.00  747.9
2024/07/08 13:06:41.000   28.292999804  -16.542957626  2331.1889   1   9   0.0010   0.0009   0.0067   0.0005   0.0013   0.0009  11.00  747.3
2024/07/08 13:06:42.000   28.292999804  -16.542957626  2331.1889   1   9   0.0010   0.0009   0.0067   0.0005   0.0013   0.0009  12.00  746.6
2024/07/08 13:06:43.000   28.292999803  -16.542957626  2331.1889   1   9   0.0010   0.0009   0.0067   0.0005   0.0013   0.0009  13.00  745.8
2024/07/08 13:06:44.000   28.292999803  -16.542957626  2331.1889   1   9   0.0010   0.0009   0.0067   0.0005   0.0013   0.0009  14.00  745.2
2024/07/08 13:06:45.000   28.292999803  -16.542957626  2331.1889   1   9   0.0010   0.0009   0.0067   0.0005   0.0013   0.0009  15.00  744.5
2024/07/08 13:06:46.000   28.292999803  -16.542957626  2331.1890   1   9   0.0010   0.0009   0.0067   0.0005   0.0013   0.0009 -14.00  744.0
2024/07/08 13:06:47.000   28.292999803  -16.542957626  2331.1890   1   9   0.0010   0.0009   0.0067   0.0005   0.0013   0.0009 -13.00  743.6
2024/07/08 13:06:48.000   28.292999803  -16.542957625  2331.1890   1   9   0.0010   0.0009   0.0067   0.0005   0.0013   0.0009 -12.00  742.9
2024/07/08 13:06:49.000   28.292999803  -16.542957625  2331.1890   1   9   0.0010   0.0009   0.0067   0.0005   0.0013   0.0009 -11.00  742.1
2024/07/08 13:06:50.000   28.292999803  -16.542957625  2331.1890   1   9   0.0010   0.0009   0.0067   0.0005   0.0013   0.0009 -10.00  741.6
2024/07/08 13:06:51.000   28.292999803  -16.542957625  2331.1890   1   9   0.0010   0.0009   0.0067   0.0005   0.0013   0.0009  -9.00  741.0
2024/07/08 13:06:52.000   28.292999803  -16.542957625  2331.1891   1   9   0.0010   0.0009   0.0067   0.0005   0.0013   0.0009  -8.00  740.3
2024/07/08 13:06:53.000   28.292999803  -16.542957625  2331.1891   1   9   0.0010   0.0009   0.0067   0.0005   0.0013   0.0009  -7.00  739.7
2024/07/08 13:06:54.000   28.292999803  -16.542957625  2331.1891   1   9   0.0010   0.0009   0.0067   0.0005   0.0013   0.0009  -6.00  739.2
2024/07/08 13:06:55.000   28.292999803  -16.542957625  2331.1891   1   9   0.0010   0.0009   0.0067   0.0005   0.0013   0.0009  -5.00  738.4
2024/07/08 13:06:56.000   28.292999803  -16.542957625  2331.1891   1   9   0.0010   0.0009   0.0067   0.0005   0.0013   0.0009  -4.00  738.0
2024/07/08 13:06:57.000   28.292999803  -16.542957625  2331.1891   1   9   0.0010   0.0009   0.0067   0.0005   0.0013   0.0009  -3.00  737.5
2024/07/08 13:06:58.000   28.292999803  -16.542957625  2331.1891   1   9   0.0010   0.0009   0.0067   0.0005   0.0013   0.0009  -2.00  737.3
2024/07/08 13:06:59.000   28.292999803  -16.542957625  2331.1891   1   9   0.0010   0.0009   0.0067   0.0005   0.0013   0.0009  -1.00  737.3
2024/07/08 13:07:00.000   28.292999803  -16.542957626  2331.1891   1   9   0.0010   0.0009   0.0067   0.0005   0.0013   0.0009   0.00  737.2
2024/07/08 13:07:01.000   28.292999803  -16.542957626  2331.1891   1   9   0.0010   0.0009   0.0067   0.0005   0.0013   0.0009   1.00  737.4
2024/07/08 13:07:02.000   28.292999803  -16.542957626  2331.1891   1   9   0.0010   0.0009   0.0067   0.0005   0.0013   0.0009   2.00  738.0
2024/07/08 13:07:03.000   28.292999803  -16.542957626  2331.1891   1   9   0.0010   0.0009   0.0067   0.0005   0.0013   0.0009   3.00  738.1
2024/07/08 13:07:04.000   28.292999803  -16.542957626  2331.1891   1   9   0.0010   0.0009   0.0067   0.0005   0.0013   0.0009   4.00  738.0
2024/07/08 13:07:05.000   28.292999804  -16.542957626  2331.1891   1   9   0.0010   0.0009   0.0067   0.0005   0.0013   0.0009   5.00  738.8
2024/07/08 13:07:06.000   28.292999804  -16.542957626  2331.1891   1   9   0.0010   0.0009   0.0067   0.0005   0.0013   0.0009   6.00  739.5
2024/07/08 13:07:07.000   28.292999804  -16.542957626  2331.1891   1   9   0.0010   0.0009   0.0067   0.0005   0.0013   0.0009   7.00  739.7
2024/07/08 13:07:08.000   28.292999804  -16.542957626  2331.1891   1   9   0.0010   0.0009   0.0067   0.0005   0.0013   0.0009   8.00  740.1
2024/07/08 13:07:09.000   28.292999804  -16.542957626  2331.1891   1   9   0.0010   0.0009   0.0067   0.0005   0.0013   0.0009   9.00  740.7
2024/07/08 13:07:10.000   28.292999804  -16.542957626  2331.1891   1   9   0.0010   0.0009   0.0067   0.0005   0.0013   0.0009  10.00  741.1
2024/07/08 13:07:11.000   28.292999804  -16.542957626  2331.1891   1   9   0.0010   0.0009   0.0067   0.0005   0.0013   0.0009  11.00  741.4
2024/07/08 13:07:12.000   28.292999804  -16.542957626  2331.1891   1   9   0.0010   0.0009   0.0067   0.0005   0.0013   0.0009  12.00  741.7
2024/07/08 13:07:13.000   28.292999804  -16.542957626  2331.1892   1   9   0.0010   0.0009   0.0067   0.0005   0.0013   0.0009  13.00  741.7
2024/07/08 13:07:14.000   28.292999804  -16.542957626  2331.1892   1   9   0.0010   0.0009   0.0067   0.0005   0.0013   0.0009  14.00  741.6
2024/07/08 13:07:15.000   28.292999804  -16.542957626  2331.1892   1   9   0.0010   0.0009   0.0067   0.0005   0.0013   0.0009  15.00  741.6
2024/07/08 13:07:16.000   28.292999804  -16.542957626  2331.1892   1   9   0.0010   0.0009   0.0067   0.0005   0.0013   0.0009 -14.00  741.4
2024/07/08 13:07:17.000   28.292999804  -16.542957626  2331.1892   1   9   0.0010   0.0009   0.0067   0.0005   0.0013   0.0009 -13.00  741.1
2024/07/08 13:07:18.000   28.292999804  -16.542957626  2331.1892   1   9   0.0010   0.0009   0.0067   0.0005   0.0013   0.0009 -12.00  740.8
2024/07/08 13:07:19.000   28.292999804  -16.542957626  2331.1892   1   9   0.0010   0.0009   0.0067   0.0005   0.0013   0.0009 -11.00  740.4
2024/07/08 13:07:20.000   28.292999803  -16.542957626  2331.1892   1   9   0.0010   0.0009   0.0067   0.0005   0.0013   0.0009 -10.00  740.1
2024/07/08 13:07:21.000   28.292999803  -16.542957626  2331.1892   1   9   0.0010   0.0009   0.0067   0.0005   0.0013   0.0009  -9.00  739.8
2024/07/08 13:07:22.000   28.292999803  -16.542957626  2331.1893   1   9   0.0010   0.0009   0.0066   0.0005   0.0013   0.0009  -8.00  739.3
2024/07/08 13:07:23.000   28.292999803  -16.542957626  2331.1893   1   9   0.0010   0.0009   0.0066   0.0005   0.0013   0.0009  -7.00  738.8
2024/07/08 13:07:24.000   28.292999803  -16.542957626  2331.1893   1   9   0.0010   0.0009   0.0066   0.0005   0.0013   0.0009  -6.00  738.3
2024/07/08 13:07:25.000   28.292999803  -16.542957626  2331.1893   1   9   0.0010   0.0009   0.0066   0.0005   0.0013   0.0009  -5.00  737.5
2024/07/08 13:07:26.000   28.292999803  -16.542957626  2331.1893   1   9   0.0010   0.0009   0.0066   0.0005   0.0013   0.0009  -4.00  735.6
2024/07/08 13:07:27.000   28.292999803  -16.542957626  2331.1893   1   9   0.0010   0.0009   0.0066   0.0005   0.0013   0.0009  -3.00  733.6
2024/07/08 13:07:28.000   28.292999803  -16.542957626  2331.1893   1   9   0.0010   0.0009   0.0066   0.0005   0.0013   0.0009  -2.00  732.6
2024/07/08 13:07:29.000   28.292999803  -16.542957626  2331.1893   1   9   0.0010   0.0009   0.0066   0.0005   0.0013   0.0009  -1.00  730.9
2024/07/08 13:07:30.000   28.292999803  -16.542957626  2331.1892   1   9   0.0010   0.0009   0.0066   0.0005   0.0013   0.0009   0.00  728.8
2024/07/08 13:07:31.000   28.292999803  -16.542957627  2331.1892   1   9   0.0010   0.0009   0.0066   0.0005   0.0013   0.0009   1.00  727.4
2024/07/08 13:07:32.000   28.292999802  -16.542957627  2331.1891   1   9   0.0010   0.0009   0.0066   0.0005   0.0013   0.0009   2.00  725.8
2024/07/08 13:07:33.000   28.292999802  -16.542957627  2331.1891   1   9   0.0010   0.0009   0.0066   0.0005   0.0013   0.0009   3.00  723.6
2024/07/08 13:07:34.000   28.292999802  -16.542957627  2331.1890   1   9   0.0010   0.0009   0.0066   0.0005   0.0013   0.0009   4.00  722.5
2024/07/08 13:07:35.000   28.292999802  -16.542957627  2331.1890   1   9   0.0010   0.0009   0.0066   0.0005   0.0013   0.0009   5.00  721.4
2024/07/08 13:07:36.000   28.292999802  -16.542957627  2331.1890   1   9   0.0010   0.0009   0.0066   0.0005   0.0013   0.0009   6.00  720.8
2024/07/08 13:07:37.000   28.292999802  -16.542957627  2331.1890   1   9   0.0010   0.0009   0.0066   0.0005   0.0013   0.0009   7.00  720.6
2024/07/08 13:07:38.000   28.292999802  -16.542957627  2331.1890   1   9   0.0010   0.0009   0.0066   0.0005   0.0013   0.0009   8.00  720.4
2024/07/08 13:07:39.000   28.292999802  -16.542957627  2331.1890   1   9   0.0010   0.0009   0.0066   0.0005   0.0013   0.0009   9.00  720.1
2024/07/08 13:07:40.000   28.292999802  -16.542957627  2331.1890   1   9   0.0010   0.0009   0.0066   0.0005   0.0013   0.0009  10.00  720.1
2024/07/08 13:07:41.000   28.292999802  -16.542957627  2331.1889   1   9   0.0010   0.0009   0.0066   0.0005   0.0013   0.0009  11.00  720.1
2024/07/08 13:07:42.000   28.292999802  -16.542957627  2331.1889   1   9   0.0010   0.0009   0.0066   0.0005   0.0013   0.0009  12.00  720.1
2024/07/08 13:07:43.000   28.292999802  -16.542957627  2331.1889   1   9   0.0010   0.0009   0.0066   0.0005   0.0013   0.0009  13.00  719.9
2024/07/08 13:07:44.000   28.292999802  -16.542957627  2331.1889   1   9   0.0010   0.0009   0.0066   0.0005   0.0013   0.0009  14.00  719.8
2024/07/08 13:07:45.000   28.292999802  -16.542957627  2331.1890   1   9   0.0010   0.0009   0.0066   0.0005   0.0013   0.0009  15.00  719.7
2024/07/08 13:07:46.000   28.292999802  -16.542957627  2331.1890   1   9   0.0010   0.0009   0.0066   0.0005   0.0013   0.0009 -14.00  719.5
2024/07/08 13:07:47.000   28.292999802  -16.542957627  2331.1890   1   9   0.0010   0.0009   0.0066   0.0005   0.0013   0.0009 -13.00  719.3
2024/07/08 13:07:48.000   28.292999802  -16.542957627  2331.1890   1   9   0.0010   0.0009   0.0066   0.0005   0.0013   0.0009 -12.00  719.3
2024/07/08 13:07:49.000   28.292999802  -16.542957627  2331.1890   1   9   0.0010   0.0009   0.0066   0.0005   0.0013   0.0009 -11.00  719.0
2024/07/08 13:07:50.000   28.292999802  -16.542957627  2331.1890   1   9   0.0010   0.0009   0.0066   0.0005   0.0013   0.0009 -10.00  719.2
2024/07/08 13:07:51.000   28.292999802  -16.542957627  2331.1890   1   9   0.0010   0.0009   0.0066   0.0005   0.0013   0.0009  -9.00  719.4
2024/07/08 13:07:52.000   28.292999802  -16.542957627  2331.1890   1   9   0.0010   0.0009   0.0066   0.0005   0.0013   0.0009  -8.00  719.9
2024/07/08 13:07:53.000   28.292999802  -16.542957627  2331.1890   1   9   0.0010   0.0009   0.0066   0.0005   0.0013   0.0009  -7.00  720.2
2024/07/08 13:07:54.000   28.292999802  -16.542957627  2331.1890   1   9   0.0010   0.0009   0.0066   0.0005   0.0013   0.0009  -6.00  720.5
2024/07/08 13:07:55.000   28.292999802  -16.542957627  2331.1890   1   9   0.0010   0.0009   0.0066   0.0005   0.0013   0.0009  -5.00  720.8
2024/07/08 13:07:56.000   28.292999802  -16.542957627  2331.1890   1   9   0.0010   0.0009   0.0066   0.0005   0.0013   0.0009  -4.00  721.6
2024/07/08 13:07:57.000   28.292999802  -16.542957628  2331.1890   1   9   0.0010   0.0009   0.0066   0.0005   0.0013   0.0009  -3.00  722.1
2024/07/08 13:07:58.000   28.292999802  -16.542957628  2331.1890   1   9   0.0010   0.0009   0.0066   0.0005   0.0013   0.0009  -2.00  723.1
2024/07/08 13:07:59.000   28.292999802  -16.542957628  2331.1890   1   9   0.0010   0.0009   0.0066   0.0005   0.0013   0.0009  -1.00  724.4
2024/07/08 13:08:00.000   28.292999802  -16.542957628  2331.1890   1   9   0.0010   0.0009   0.0066   0.0005   0.0013   0.0009   0.00  723.7
2024/07/08 13:08:01.000   28.292999802  -16.542957628  2331.1890   1   9   0.0010   0.0009   0.0066   0.0005   0.0013   0.0009   1.00  723.5
2024/07/08 13:08:02.000   28.292999802  -16.542957628  2331.1890   1   9   0.0010   0.0009   0.0066   0.0005   0.0013   0.0009   2.00  723.2
2024/07/08 13:08:03.000   28.292999802  -16.542957628  2331.1891   1   9   0.0010   0.0009   0.0066   0.0005   0.0013   0.0009   3.00  723.3
2024/07/08 13:08:04.000   28.292999802  -16.542957628  2331.1891   1   9   0.0010   0.0009   0.0066   0.0005   0.0013   0.0009   4.00  722.6
2024/07/08 13:08:05.000   28.292999802  -16.542957628  2331.1891   1   9   0.0010   0.0009   0.0066   0.0005   0.0013   0.0009   5.00  721.4
2024/07/08 13:08:06.000   28.292999802  -16.542957628  2331.1892   1   9   0.0010   0.0009   0.0066   0.0005   0.0013   0.0009   6.00  720.5
2024/07/08 13:08:07.000   28.292999802  -16.542957628  2331.1892   1   9   0.0010   0.0009   0.0066   0.0005   0.0013   0.0009   7.00  720.2
2024/07/08 13:08:08.000   28.292999802  -16.542957628  2331.1892   1   9   0.0010   0.0009   0.0066   0.0005   0.0013   0.0009   8.00  719.8
2024/07/08 13:08:09.000   28.292999802  -16.542957628  2331.1892   1   9   0.0010   0.0009   0.0066   0.0005   0.0013   0.0009   9.00  719.6
2024/07/08 13:08:10.000   28.292999802  -16.542957628  2331.1892   1   9   0.0010   0.0009   0.0066   0.0005   0.0013   0.0009  10.00  719.3
2024/07/08 13:08:11.000   28.292999802  -16.542957628  2331.1892   1   9   0.0010   0.0009   0.0066   0.0005   0.0013   0.0009  11.00  719.1
2024/07/08 13:08:12.000   28.292999802  -16.542957628  2331.1892   1   9   0.0010   0.0009   0.0066   0.0005   0.0013   0.0009  12.00  719.1
2024/07/08 13:08:13.000   28.292999802  -16.542957628  2331.1893   1   9   0.0010   0.0009   0.0066   0.0005   0.0013   0.0009  13.00  719.1
2024/07/08 13:08:14.000   28.292999802  -16.542957628  2331.1893   1   9   0.0010   0.0009   0.0066   0.0005   0.0013   0.0009  14.00  719.0
2024/07/08 13:08:15.000   28.292999802  -16.542957628  2331.1893   1   9   0.0010   0.0009   0.0066   0.0005   0.0013   0.0009  15.00  718.9
2024/07/08 13:08:16.000   28.292999802  -16.542957628  2331.1893   1   9   0.0010   0.0009   0.0066   0.0005   0.0013   0.0009 -14.00  719.0
2024/07/08 13:08:17.000   28.292999802  -16.542957628  2331.1893   1   9   0.0010   0.0009   0.0066   0.0005   0.0013   0.0009 -13.00  719.0
2024/07/08 13:08:18.000   28.292999802  -16.542957628  2331.1893   1   9   0.0010   0.0009   0.0066   0.0005   0.0013   0.0009 -12.00  719.0
2024/07/08 13:08:19.000   28.292999802  -16.542957628  2331.1893   1   9   0.0010   0.0009   0.0066   0.0005   0.0013   0.0009 -11.00  719.0
2024/07/08 13:08:20.000   28.292999802  -16.542957628  2331.1893   1   9   0.0010   0.0009   0.0066   0.0005   0.0013   0.0009 -10.00  719.2
2024/07/08 13:08:21.000   28.292999802  -16.542957628  2331.1893   1   9   0.0010   0.0009   0.0066   0.0005   0.0013   0.0009  -9.00  719.7
2024/07/08 13:08:22.000   28.292999802  -16.542957628  2331.1893   1   9   0.0010   0.0009   0.0066   0.0005   0.0013   0.0009  -8.00  720.5
2024/07/08 13:08:23.000   28.292999802  -16.542957628  2331.1892   1   9   0.0010   0.0009   0.0066   0.0005   0.0013   0.0009  -7.00  721.2
2024/07/08 13:08:24.000   28.292999802  -16.542957628  2331.1892   1   9   0.0010   0.0009   0.0066   0.0005   0.0013   0.0009  -6.00  722.4
2024/07/08 13:08:25.000   28.292999802  -16.542957628  2331.1892   1   9   0.0010   0.0009   0.0066   0.0005   0.0013   0.0009  -5.00  723.4
2024/07/08 13:08:26.000   28.292999802  -16.542957628  2331.1891   1   9   0.0010   0.0009   0.0066   0.0005   0.0013   0.0009  -4.00  724.4
2024/07/08 13:08:27.000   28.292999802  -16.542957628  2331.1891   1   9   0.0010   0.0009   0.0066   0.0005   0.0013   0.0009  -3.00  726.0
2024/07/08 13:08:28.000   28.292999802  -16.542957629  2331.1890   1   9   0.0010   0.0009   0.0066   0.0005   0.0013   0.0009  -2.00  727.1
2024/07/08 13:08:29.000   28.292999802  -16.542957629  2331.1890   1   9   0.0010   0.0009   0.0066   0.0005   0.0013   0.0009  -1.00  727.7
2024/07/08 13:08:30.000   28.292999802  -16.542957629  2331.1890   1   9   0.0010   0.0009   0.0066   0.0005   0.0013   0.0009   0.00  728.5
2024/07/08 13:08:31.000   28.292999802  -16.542957629  2331.1889   1   9   0.0010   0.0009   0.0066   0.0005   0.0013   0.0009   1.00  727.2
2024/07/08 13:08:32.000   28.292999802  -16.542957629  2331.1889   1   9   0.0010   0.0009   0.0066   0.0005   0.0013   0.0009   2.00  728.5
2024/07/08 13:08:33.000   28.292999802  -16.542957629  2331.1889   1   9   0.0010   0.0009   0.0066   0.0005   0.0013   0.0009   3.00  729.2
2024/07/08 13:08:34.000   28.292999802  -16.542957630  2331.1889   1   9   0.0010   0.0009   0.0066   0.0005   0.0013   0.0009   4.00  730.0
2024/07/08 13:08:35.000   28.292999802  -16.542957630  2331.1889   1   9   0.0010   0.0009   0.0066   0.0005   0.0013   0.0009   5.00  729.8
2024/07/08 13:08:36.000   28.292999802  -16.542957630  2331.1889   1   9   0.0010   0.0009   0.0066   0.0005   0.0013   0.0009   6.00  729.5
2024/07/08 13:08:37.000   28.292999802  -16.542957630  2331.1889   1   9   0.0010   0.0009   0.0066   0.0005   0.0013   0.0009   7.00  729.0
2024/07/08 13:08:38.000   28.292999802  -16.542957630  2331.1889   1   9   0.0010   0.0009   0.0066   0.0005   0.0013   0.0009   8.00  728.5
2024/07/08 13:08:39.000   28.292999802  -16.542957630  2331.1890   1   9   0.0010   0.0009   0.0066   0.0005   0.0013   0.0009   9.00  728.1
2024/07/08 13:08:40.000   28.292999802  -16.542957630  2331.1890   1   9   0.0010   0.0009   0.0066   0.0005   0.0013   0.0009  10.00  727.4
2024/07/08 13:08:41.000   28.292999802  -16.542957630  2331.1890   1   9   0.0010   0.0009   0.0066   0.0005   0.0013   0.0009  11.00  726.7
2024/07/08 13:08:42.000   28.292999802  -16.542957630  2331.1890   1   9   0.0010   0.0009   0.0066   0.0005   0.0013   0.0009  12.00  725.9
2024/07/08 13:08:43.000   28.292999802  -16.542957630  2331.1890   1   9   0.0010   0.0009   0.0066   0.0005   0.0013   0.0009  13.00  725.4
2024/07/08 13:08:44.000   28.292999802  -16.542957630  2331.1891   1   9   0.0010   0.0009   0.0066   0.0005   0.0013   0.0009  14.00  724.7
2024/07/08 13:08:45.000   28.292999802  -16.542957630  2331.1891   1   9   0.0010   0.0009   0.0066   0.0005   0.0013   0.0009  15.00  724.2
2024/07/08 13:08:46.000   28.292999802  -16.542957630  2331.1891   1   9   0.0010   0.0009   0.0066   0.0005   0.0013   0.0009 -14.00  723.7
2024/07/08 13:08:47.000   28.292999802  -16.542957630  2331.1891   1   9   0.0010   0.0009   0.0066   0.0005   0.0013   0.0009 -13.00  723.2
2024/07/08 13:08:48.000   28.292999802  -16.542957630  2331.1891   1   9   0.0010   0.0009   0.0066   0.0005   0.0013   0.0009 -12.00  722.7
2024/07/08 13:08:49.000   28.292999802  -16.542957629  2331.1892   1   9   0.0010   0.0009   0.0066   0.0005   0.0013   0.0009 -11.00  722.3
2024/07/08 13:08:50.000   28.292999802  -16.542957629  2331.1892   1   9   0.0010   0.0009   0.0066   0.0005   0.0013   0.0009 -10.00  721.8
2024/07/08 13:08:51.000   28.292999802  -16.542957629  2331.1892   1   9   0.0010   0.0009   0.0066   0.0005   0.0013   0.0009  -9.00  721.4
2024/07/08 13:08:52.000   28.292999802  -16.542957629  2331.1892   1   9   0.0010   0.0009   0.0066   0.0005   0.0013   0.0009  -8.00  720.8
2024/07/08 13:08:53.000   28.292999802  -16.542957629  2331.1892   1   9   0.0010   0.0009   0.0066   0.0005   0.0013   0.0009  -7.00  720.5
2024/07/08 13:08:54.000   28.292999802  -16.542957629  2331.1892   1   9   0.0010   0.0009   0.0066   0.0005   0.0013   0.0009  -6.00  720.3
2024/07/08 13:08:55.000   28.292999802  -16.542957630  2331.1892   1   9   0.0010   0.0009   0.0066   0.0005   0.0013   0.0009  -5.00  720.4
2024/07/08 13:08:56.000   28.292999802  -16.542957630  2331.1892   1   9   0.0010   0.0009   0.0066   0.0005   0.0013   0.0009  -4.00  720.1
2024/07/08 13:08:57.000   28.292999802  -16.542957630  2331.1892   1   9   0.0010   0.0009   0.0066   0.0005   0.0013   0.0009  -3.00  720.4
2024/07/08 13:08:58.000   28.292999802  -16.542957630  2331.1892   1   9   0.0010   0.0009   0.0066   0.0005   0.0013   0.0009  -2.00  720.9
2024/07/08 13:08:59.000   28.292999802  -16.542957630  2331.1892   1   9   0.0010   0.0009   0.0066   0.0005   0.0013   0.0009  -1.00  719.8
2024/07/08 13:09:00.000   28.292999802  -16.542957630  2331.1892   1   9   0.0010   0.0009   0.0066   0.0005   0.0013   0.0009   0.00  719.5
2024/07/08 13:09:01.000   28.292999802  -16.542957630  2331.1892   1   9   0.0010   0.0009   0.0066   0.0005   0.0013   0.0009   1.00  717.8
2024/07/08 13:09:02.000   28.292999802  -16.542957630  2331.1892   1   9   0.0010   0.0009   0.0066   0.0005   0.0013   0.0009   2.00  718.5
2024/07/08 13:09:03.000   28.292999803  -16.542957630  2331.1892   1   9   0.0010   0.0009   0.0066   0.0005   0.0013   0.0009   3.00  717.6
2024/07/08 13:09:04.000   28.292999803  -16.542957630  2331.1892   1   9   0.0010   0.0009   0.0066   0.0005   0.0013   0.0009   4.00  718.0
2024/07/08 13:09:05.000   28.292999803  -16.542957630  2331.1892   1   9   0.0010   0.0009   0.0066   0.0005   0.0013   0.0009   5.00  718.1
2024/07/08 13:09:06.000   28.292999803  -16.542957630  2331.1892   1   9   0.0010   0.0009   0.0066   0.0005   0.0013   0.0009   6.00  718.4
2024/07/08 13:09:07.000   28.292999803  -16.542957630  2331.1892   1   9   0.0010   0.0009   0.0066   0.0005   0.0013   0.0009   7.00  718.1
2024/07/08 13:09:08.000   28.292999803  -16.542957630  2331.1892   1   9   0.0010   0.0009   0.0066   0.0005   0.0013   0.0009   8.00  718.3
2024/07/08 13:09:09.000   28.292999803  -16.542957630  2331.1892   1   9   0.0010   0.0009   0.0066   0.0005   0.0013   0.0009   9.00  717.9
2024/07/08 13:09:10.000   28.292999803  -16.542957630  2331.1893   1   9   0.0010   0.0009   0.0066   0.0005   0.0013   0.0009  10.00  717.9
2024/07/08 13:09:11.000   28.292999803  -16.542957630  2331.1893   1   9   0.0010   0.0009   0.0066   0.0005   0.0013   0.0009  11.00  717.7
2024/07/08 13:09:12.000   28.292999802  -16.542957631  2331.1893   1   9   0.0010   0.0009   0.0066   0.0005   0.0013   0.0009  12.00  717.1
2024/07/08 13:09:13.000   28.292999802  -16.542957631  2331.1893   1   9   0.0010   0.0009   0.0066   0.0005   0.0013   0.0009  13.00  716.9
2024/07/08 13:09:14.000   28.292999802  -16.542957631  2331.1893   1   9   0.0010   0.0009   0.0066   0.0005   0.0013   0.0009  14.00  716.6
2024/07/08 13:09:15.000   28.292999802  -16.542957631  2331.1893   1   9   0.0010   0.0009   0.0066   0.0005   0.0013   0.0009  15.00  716.3
2024/07/08 13:09:16.000   28.292999802  -16.542957631  2331.1893   1   9   0.0010   0.0009   0.0066   0.0005   0.0013   0.0009 -14.00  716.1
2024/07/08 13:09:17.000   28.292999802  -16.542957631  2331.1893   1   9   0.0010   0.0009   0.0066   0.0005   0.0013   0.0009 -13.00  715.7
2024/07/08 13:09:18.000   28.292999802  -16.542957631  2331.1894   1   9   0.0010   0.0009   0.0066   0.0005   0.0013   0.0009 -12.00  715.4
2024/07/08 13:09:19.000   28.292999802  -16.542957631  2331.1894   1   9   0.0010   0.0009   0.0066   0.0005   0.0013   0.0009 -11.00  715.2
2024/07/08 13:09:20.000   28.292999802  -16.542957631  2331.1894   1   9   0.0010   0.0009   0.0066   0.0005   0.0013   0.0009 -10.00  714.9
2024/07/08 13:09:21.000   28.292999802  -16.542957631  2331.1894   1   9   0.0010   0.0009   0.0066   0.0005   0.0013   0.0009  -9.00  714.5
2024/07/08 13:09:22.000   28.292999802  -16.542957631  2331.1894   1   9   0.0010   0.0009   0.0066   0.0005   0.0013   0.0009  -8.00  714.3
2024/07/08 13:09:23.000   28.292999802  -16.542957631  2331.1894   1   9   0.0010   0.0009   0.0066   0.0005   0.0013   0.0009  -7.00  713.7
2024/07/08 13:09:24.000   28.292999802  -16.542957631  2331.1894   1   9   0.0010   0.0009   0.0066   0.0005   0.0013   0.0009  -6.00  713.4
2024/07/08 13:09:25.000   28.292999802  -16.542957631  2331.1894   1   9   0.0010   0.0009   0.0066   0.0005   0.0013   0.0009  -5.00  712.9
2024/07/08 13:09:26.000   28.292999802  -16.542957631  2331.1895   1   9   0.0010   0.0009   0.0066   0.0005   0.0013   0.0009  -4.00  712.9
2024/07/08 13:09:27.000   28.292999802  -16.542957631  2331.1894   1   9   0.0010   0.0009   0.0066   0.0005   0.0013   0.0009  -3.00  711.6
2024/07/08 13:09:28.000   28.292999802  -16.542957631  2331.1895   1   9   0.0010   0.0009   0.0066   0.0005   0.0013   0.0009  -2.00  710.2
2024/07/08 13:09:29.000   28.292999802  -16.542957631  2331.1895   1   9   0.0010   0.0009   0.0066   0.0005   0.0013   0.0009  -1.00  709.1
2024/07/08 13:09:30.000   28.292999802  -16.542957631  2331.1895   1   9   0.0010   0.0009   0.0066   0.0005   0.0013   0.0009   0.00  708.3
2024/07/08 13:09:31.000   28.292999802  -16.542957631  2331.1895   1   9   0.0010   0.0009   0.0066   0.0005   0.0013   0.0009   1.00  707.0
2024/07/08 13:09:32.000   28.292999802  -16.542957631  2331.1895   1   9   0.0010   0.0009   0.0066   0.0005   0.0013   0.0009   2.00  705.3
2024/07/08 13:09:33.000   28.292999802  -16.542957631  2331.1895   1   9   0.0010   0.0009   0.0066   0.0005   0.0013   0.0009   3.00  703.1
2024/07/08 13:09:34.000   28.292999802  -16.542957631  2331.1896   1   9   0.0010   0.0009   0.0066   0.0005   0.0013   0.0009   4.00  701.3
2024/07/08 13:09:35.000   28.292999802  -16.542957631  2331.1896   1   9   0.0010   0.0009   0.0066   0.0005   0.0013   0.0009   5.00  701.0
2024/07/08 13:09:36.000   28.292999802  -16.542957631  2331.1896   1   9   0.0010   0.0009   0.0066   0.0005   0.0013   0.0009   6.00  700.5
2024/07/08 13:09:37.000   28.292999802  -16.542957631  2331.1896   1   9   0.0010   0.0009   0.0066   0.0005   0.0013   0.0009   7.00  700.0
2024/07/08 13:09:38.000   28.292999802  -16.542957631  2331.1896   1   9   0.0010   0.0009   0.0066   0.0005   0.0013   0.0009   8.00  699.2
2024/07/08 13:09:39.000   28.292999802  -16.542957631  2331.1896   1   9   0.0010   0.0009   0.0066   0.0005   0.0013   0.0009   9.00  698.6
2024/07/08 13:09:40.000   28.292999802  -16.542957631  2331.1897   1   9   0.0010   0.0009   0.0066   0.0005   0.0013   0.0009  10.00  698.3
2024/07/08 13:09:41.000   28.292999802  -16.542957631  2331.1897   1   9   0.0010   0.0009   0.0066   0.0005   0.0013   0.0009  11.00  697.9
2024/07/08 13:09:42.000   28.292999801  -16.542957631  2331.1897   1   9   0.0010   0.0009   0.0066   0.0005   0.0013   0.0009  12.00  697.3
2024/07/08 13:09:43.000   28.292999801  -16.542957631  2331.1897   1   9   0.0010   0.0009   0.0066   0.0005   0.0013   0.0009  13.00  696.9
2024/07/08 13:09:44.000   28.292999801  -16.542957631  2331.1897   1   9   0.0010   0.0009   0.0066   0.0005   0.0013   0.0009  14.00  696.5
2024/07/08 13:09:45.000   28.292999801  -16.542957631  2331.1897   1   9   0.0010   0.0009   0.0066   0.0005   0.0013   0.0009  15.00  696.1
2024/07/08 13:09:46.000   28.292999801  -16.542957631  2331.1897   1   9   0.0010   0.0009   0.0066   0.0005   0.0013   0.0009 -14.00  695.6
2024/07/08 13:09:47.000   28.292999801  -16.542957631  2331.1897   1   9   0.0010   0.0009   0.0066   0.0005   0.0013   0.0009 -13.00  695.2
2024/07/08 13:09:48.000   28.292999801  -16.542957631  2331.1898   1   9   0.0010   0.0009   0.0066   0.0005   0.0013   0.0009 -12.00  694.9
2024/07/08 13:09:49.000   28.292999801  -16.542957631  2331.1898   1   9   0.0010   0.0009   0.0066   0.0005   0.0013   0.0009 -11.00  694.6
2024/07/08 13:09:50.000   28.292999801  -16.542957631  2331.1898   1   9   0.0010   0.0009   0.0066   0.0005   0.0013   0.0009 -10.00  694.2
2024/07/08 13:09:51.000   28.292999801  -16.542957631  2331.1898   1   9   0.0010   0.0009   0.0066   0.0005   0.0013   0.0009  -9.00  693.7
2024/07/08 13:09:52.000   28.292999801  -16.542957631  2331.1898   1   9   0.0010   0.0009   0.0066   0.0005   0.0013   0.0009  -8.00  693.3
2024/07/08 13:09:53.000   28.292999801  -16.542957631  2331.1898   1   9   0.0010   0.0009   0.0066   0.0005   0.0013   0.0009  -7.00  693.1
2024/07/08 13:09:54.000   28.292999801  -16.542957631  2331.1898   1   9   0.0010   0.0009   0.0066   0.0005   0.0013   0.0009  -6.00  692.5
2024/07/08 13:09:55.000   28.292999801  -16.542957631  2331.1898   1   9   0.0010   0.0009   0.0066   0.0005   0.0013   0.0009  -5.00  692.0
2024/07/08 13:09:56.000   28.292999801  -16.542957631  2331.1898   1   9   0.0010   0.0009   0.0066   0.0005   0.0013   0.0009  -4.00  691.4
2024/07/08 13:09:57.000   28.292999801  -16.542957631  2331.1898   1   9   0.0010   0.0009   0.0066   0.0005   0.0013   0.0009  -3.00  690.6
2024/07/08 13:09:58.000   28.292999801  -16.542957632  2331.1898   1   9   0.0010   0.0009   0.0066   0.0005   0.0013   0.0009  -2.00  689.6
2024/07/08 13:09:59.000   28.292999801  -16.542957632  2331.1898   1   9   0.0010   0.0009   0.0066   0.0005   0.0013   0.0009  -1.00  689.5
2024/07/08 13:10:00.000   28.292999801  -16.542957632  2331.1898   1   9   0.0010   0.0009   0.0066   0.0005   0.0013   0.0009   0.00  688.8
2024/07/08 13:10:01.000   28.292999801  -16.542957632  2331.1899   1   9   0.0010   0.0009   0.0066   0.0005   0.0013   0.0009   1.00  687.9
2024/07/08 13:10:02.000   28.292999801  -16.542957632  2331.1899   1   9   0.0010   0.0009   0.0066   0.0005   0.0013   0.0009   2.00  685.9
2024/07/08 13:10:03.000   28.292999801  -16.542957632  2331.1900   1   9   0.0010   0.0009   0.0066   0.0005   0.0013   0.0009   3.00  684.6
2024/07/08 13:10:04.000   28.292999801  -16.542957632  2331.1900   1   9   0.0010   0.0009   0.0066   0.0005   0.0013   0.0009   4.00  683.4
2024/07/08 13:10:05.000   28.292999801  -16.542957632  2331.1900   1   9   0.0010   0.0009   0.0066   0.0005   0.0013   0.0009   5.00  681.7
2024/07/08 13:10:06.000   28.292999801  -16.542957632  2331.1901   1   9   0.0010   0.0009   0.0066   0.0005   0.0013   0.0009   6.00  681.6
2024/07/08 13:10:07.000   28.292999801  -16.542957631  2331.1901   1   9   0.0010   0.0009   0.0066   0.0005   0.0013   0.0009   7.00  680.8
2024/07/08 13:10:08.000   28.292999801  -16.542957631  2331.1901   1   9   0.0010   0.0009   0.0066   0.0005   0.0013   0.0009   8.00  680.2
2024/07/08 13:10:09.000   28.292999801  -16.542957631  2331.1902   1   9   0.0010   0.0009   0.0066   0.0005   0.0013   0.0009   9.00  679.7
2024/07/08 13:10:10.000   28.292999801  -16.542957631  2331.1902   1   9   0.0010   0.0009   0.0066   0.0005   0.0013   0.0009  10.00  679.1
2024/07/08 13:10:11.000   28.292999801  -16.542957631  2331.1902   1   9   0.0010   0.0009   0.0066   0.0005   0.0013   0.0009  11.00  678.9
2024/07/08 13:10:12.000   28.292999801  -16.542957631  2331.1902   1   9   0.0010   0.0009   0.0066   0.0005   0.0013   0.0009  12.00  678.4
2024/07/08 13:10:13.000   28.292999801  -16.542957631  2331.1903   1   9   0.0010   0.0009   0.0066   0.0005   0.0013   0.0009  13.00  678.0
2024/07/08 13:10:14.000   28.292999801  -16.542957631  2331.1903   1   9   0.0010   0.0009   0.0066   0.0005   0.0013   0.0009  14.00  677.6
2024/07/08 13:10:15.000   28.292999801  -16.542957631  2331.1903   1   9   0.0010   0.0009   0.0066   0.0005   0.0013   0.0009  15.00  677.2
2024/07/08 13:10:16.000   28.292999801  -16.542957631  2331.1903   1   9   0.0010   0.0009   0.0066   0.0005   0.0013   0.0009 -14.00  676.7
2024/07/08 13:10:17.000   28.292999801  -16.542957631  2331.1904   1   9   0.0010   0.0009   0.0066   0.0005   0.0013   0.0009 -13.00  676.4
2024/07/08 13:10:18.000   28.292999801  -16.542957631  2331.1904   1   9   0.0010   0.0009   0.0066   0.0005   0.0013   0.0009 -12.00  676.1
2024/07/08 13:10:19.000   28.292999801  -16.542957631  2331.1904   1   9   0.0010   0.0009   0.0066   0.0005   0.0013   0.0009 -11.00  675.5
2024/07/08 13:10:20.000   28.292999801  -16.542957631  2331.1904   1   9   0.0010   0.0009   0.0066   0.0005   0.0013   0.0009 -10.00  675.0
2024/07/08 13:10:21.000   28.292999801  -16.542957631  2331.1904   1   9   0.0010   0.0009   0.0066   0.0005   0.0013   0.0009  -9.00  674.6
2024/07/08 13:10:22.000   28.292999801  -16.542957631  2331.1904   1   9   0.0010   0.0009   0.0066   0.0005   0.0013   0.0009  -8.00  674.4
2024/07/08 13:10:23.000   28.292999801  -16.542957631  2331.1904   1   9   0.0010   0.0009   0.0066   0.0005   0.0013   0.0009  -7.00  673.9
2024/07/08 13:10:24.000   28.292999801  -16.542957631  2331.1905   1   9   0.0010   0.0009   0.0066   0.0005   0.0013   0.0009  -6.00  673.2
2024/07/08 13:10:25.000   28.292999801  -16.542957631  2331.1905   1   9   0.0010   0.0009   0.0066   0.0005   0.0013   0.0009  -5.00  672.7
2024/07/08 13:10:26.000   28.292999801  -16.542957631  2331.1905   1   9   0.0010   0.0009   0.0066   0.0005   0.0013   0.0009  -4.00  672.7
2024/07/08 13:10:27.000   28.292999801  -16.542957631  2331.1905   1   9   0.0010   0.0009   0.0066   0.0005   0.0013   0.0009  -3.00  672.6
2024/07/08 13:10:28.000   28.292999802  -16.542957631  2331.1906   1   9   0.0010   0.0009   0.0066   0.0005   0.0013   0.0009  -2.00  672.9
2024/07/08 13:10:29.000   28.292999802  -16.542957631  2331.1906   1   9   0.0010   0.0009   0.0066   0.0005   0.0013   0.0009  -1.00  673.5
2024/07/08 13:10:30.000   28.292999802  -16.542957631  2331.1906   1   9   0.0010   0.0009   0.0066   0.0005   0.0013   0.0009   0.00  673.5
2024/07/08 13:10:31.000   28.292999802  -16.542957631  2331.1907   1   9   0.0010   0.0009   0.0066   0.0005   0.0013   0.0009   1.00  673.1
2024/07/08 13:10:32.000   28.292999802  -16.542957631  2331.1908   1   9   0.0010   0.0009   0.0066   0.0005   0.0013   0.0009   2.00  672.5
2024/07/08 13:10:33.000   28.292999802  -16.542957631  2331.1908   1   9   0.0010   0.0009   0.0066   0.0005   0.0013   0.0009   3.00  672.3
2024/07/08 13:10:34.000   28.292999803  -16.542957631  2331.1909   1   9   0.0010   0.0009   0.0066   0.0005   0.0013   0.0009   4.00  671.9
2024/07/08 13:10:35.000   28.292999803  -16.542957631  2331.1909   1   9   0.0010   0.0009   0.0066   0.0005   0.0013   0.0009   5.00  671.7
2024/07/08 13:10:36.000   28.292999803  -16.542957631  2331.1910   1   9   0.0010   0.0009   0.0066   0.0005   0.0013   0.0009   6.00  671.0
2024/07/08 13:10:37.000   28.292999803  -16.542957631  2331.1910   1   9   0.0010   0.0009   0.0066   0.0005   0.0013   0.0009   7.00  670.2
2024/07/08 13:10:38.000   28.292999803  -16.542957631  2331.1911   1   9   0.0010   0.0009   0.0066   0.0005   0.0013   0.0009   8.00  669.8
2024/07/08 13:10:39.000   28.292999807  -16.542957622  2331.1922   1   9   0.0009   0.0008   0.0065   0.0005   0.0013   0.0008   9.00    3.2
2024/07/08 13:10:40.000   28.292999807  -16.542957622  2331.1922   1   9   0.0009   0.0008   0.0065   0.0005   0.0013   0.0008  10.00    3.2
2024/07/08 13:10:41.000   28.292999807  -16.542957622  2331.1923   1   9   0.0009   0.0008   0.0065   0.0005   0.0013   0.0008  11.00    3.2
2024/07/08 13:10:42.000   28.292999807  -16.542957622  2331.1923   1   9   0.0009   0.0008   0.0065   0.0005   0.0013   0.0008  12.00    3.2
2024/07/08 13:10:43.000   28.292999807  -16.542957622  2331.1923   1   9   0.0009   0.0008   0.0065   0.0005   0.0013   0.0008  13.00    3.2
2024/07/08 13:10:44.000   28.292999807  -16.542957622  2331.1923   1   9   0.0009   0.0008   0.0065   0.0005   0.0013   0.0008  14.00    3.2
2024/07/08 13:10:45.000   28.292999807  -16.542957622  2331.1923   1   9   0.0009   0.0008   0.0065   0.0005   0.0013   0.0008 -15.00    3.3
2024/07/08 13:10:46.000   28.292999807  -16.542957622  2331.1924   1   9   0.0009   0.0008   0.0065   0.0005   0.0013   0.0008 -14.00    3.3
2024/07/08 13:10:47.000   28.292999807  -16.542957622  2331.1924   1   9   0.0009   0.0008   0.0065   0.0005   0.0013   0.0008 -13.00    3.3
2024/07/08 13:10:48.000   28.292999807  -16.542957622  2331.1924   1   9   0.0009   0.0008   0.0065   0.0005   0.0013   0.0008 -12.00    3.3
2024/07/08 13:10:49.000   28.292999807  -16.542957622  2331.1924   1   9   0.0009   0.0008   0.0065   0.0005   0.0013   0.0008 -11.00    3.3
2024/07/08 13:10:50.000   28.292999807  -16.542957622  2331.1924   1   9   0.0009   0.0008   0.0065   0.0005   0.0013   0.0008 -10.00    3.3
2024/07/08 13:10:51.000   28.292999807  -16.542957622  2331.1924   1   9   0.0009   0.0008   0.0065   0.0005   0.0013   0.0008  -9.00    3.3
2024/07/08 13:10:52.000   28.292999807  -16.542957622  2331.1924   1   9   0.0009   0.0008   0.0065   0.0005   0.0013   0.0008  -8.00    3.4
2024/07/08 13:10:53.000   28.292999806  -16.542957622  2331.1924   1   9   0.0009   0.0008   0.0065   0.0005   0.0013   0.0008  -7.00    3.4
2024/07/08 13:10:54.000   28.292999806  -16.542957622  2331.1924   1   9   0.0009   0.0008   0.0065   0.0005   0.0013   0.0008  -6.00    3.4
2024/07/08 13:10:55.000   28.292999806  -16.542957622  2331.1924   1   9   0.0009   0.0008   0.0065   0.0005   0.0013   0.0008  -5.00    3.5
2024/07/08 13:10:56.000   28.292999806  -16.542957622  2331.1925   1   9   0.0009   0.0008   0.0064   0.0005   0.0013   0.0008  -4.00    3.6
2024/07/08 13:10:57.000   28.292999806  -16.542957622  2331.1925   1   9   0.0009   0.0008   0.0064   0.0005   0.0013   0.0008  -3.00    3.6
2024/07/08 13:10:58.000   28.292999806  -16.542957622  2331.1925   1   9   0.0009   0.0008   0.0064   0.0005   0.0013   0.0008  -2.00    3.7
2024/07/08 13:10:59.000   28.292999798  -16.542957622  2331.1935   1   9   0.0009   0.0008   0.0064   0.0005   0.0013   0.0008  -1.00    4.5
2024/07/08 13:11:00.000   28.292999799  -16.542957621  2331.1939   1   9   0.0009   0.0008   0.0064   0.0004   0.0012   0.0008   0.00    6.0
2024/07/08 13:11:01.000   28.292999799  -16.542957621  2331.1941   1   9   0.0009   0.0008   0.0064   0.0004   0.0012   0.0008   1.00    6.5
2024/07/08 13:11:02.000   28.292999799  -16.542957621  2331.1942   1   9   0.0009   0.0008   0.0064   0.0004   0.0012   0.0008   2.00    8.2
2024/07/08 13:11:03.000   28.292999799  -16.542957621  2331.1942   1   9   0.0009   0.0008   0.0064   0.0004   0.0012   0.0008   3.00    9.8
2024/07/08 13:11:04.000   28.292999799  -16.542957621  2331.1942   1   9   0.0009   0.0008   0.0064   0.0004   0.0012   0.0008   4.00   11.5
2024/07/08 13:11:05.000   28.292999799  -16.542957621  2331.1943   1   9   0.0009   0.0008   0.0064   0.0004   0.0012   0.0008   5.00   12.4
2024/07/08 13:11:06.000   28.292999799  -16.542957621  2331.1943   1   9   0.0009   0.0008   0.0064   0.0004   0.0012   0.0008   6.00   13.1
2024/07/08 13:11:07.000   28.292999799  -16.542957621  2331.1943   1   9   0.0009   0.0008   0.0064   0.0004   0.0012   0.0008   7.00   13.9
2024/07/08 13:11:08.000   28.292999799  -16.542957621  2331.1944   1   9   0.0009   0.0008   0.0064   0.0004   0.0012   0.0008   8.00   14.6
2024/07/08 13:11:09.000   28.292999799  -16.542957620  2331.1943   1   9   0.0009   0.0008   0.0064   0.0004   0.0012   0.0008   9.00    3.7
2024/07/08 13:11:10.000   28.292999799  -16.542957620  2331.1943   1   9   0.0009   0.0008   0.0064   0.0004   0.0012   0.0008  10.00    4.3
2024/07/08 13:11:11.000   28.292999799  -16.542957620  2331.1943   1   9   0.0009   0.0008   0.0064   0.0004   0.0012   0.0008  11.00    4.9
2024/07/08 13:11:12.000   28.292999799  -16.542957620  2331.1943   1   9   0.0009   0.0008   0.0064   0.0004   0.0012   0.0008  12.00    5.6
2024/07/08 13:11:13.000   28.292999799  -16.542957620  2331.1943   1   9   0.0009   0.0008   0.0064   0.0004   0.0012   0.0008  13.00    6.2
2024/07/08 13:11:14.000   28.292999799  -16.542957620  2331.1944   1   9   0.0009   0.0008   0.0064   0.0004   0.0012   0.0008  14.00    6.8
2024/07/08 13:11:15.000   28.292999799  -16.542957620  2331.1944   1   9   0.0009   0.0008   0.0064   0.0004   0.0012   0.0008 -15.00    7.4
2024/07/08 13:11:16.000   28.292999799  -16.542957620  2331.1944   1   9   0.0009   0.0008   0.0064   0.0004   0.0012   0.0008 -14.00    8.0
2024/07/08 13:11:17.000   28.292999799  -16.542957620  2331.1944   1   9   0.0009   0.0008   0.0064   0.0004   0.0012   0.0008 -13.00    8.6
2024/07/08 13:11:18.000   28.292999799  -16.542957620  2331.1944   1   9   0.0009   0.0007   0.0064   0.0004   0.0012   0.0008 -12.00    9.2
2024/07/08 13:11:19.000   28.292999799  -16.542957620  2331.1944   1   9   0.0009   0.0007   0.0064   0.0004   0.0012   0.0008 -11.00    9.9
2024/07/08 13:11:20.000   28.292999799  -16.542957620  2331.1944   1   9   0.0009   0.0007   0.0064   0.0004   0.0012   0.0008 -10.00   10.5
2024/07/08 13:11:21.000   28.292999799  -16.542957620  2331.1945   1   9   0.0009   0.0007   0.0064   0.0004   0.0012   0.0008  -9.00   11.2
2024/07/08 13:11:22.000   28.292999799  -16.542957620  2331.1945   1   9   0.0009   0.0007   0.0064   0.0004   0.0012   0.0008  -8.00   11.8
2024/07/08 13:11:23.000   28.292999799  -16.542957620  2331.1945   1   9   0.0009   0.0007   0.0064   0.0004   0.0012   0.0008  -7.00   12.5
2024/07/08 13:11:24.000   28.292999799  -16.542957620  2331.1945   1   9   0.0009   0.0007   0.0064   0.0004   0.0012   0.0008  -6.00   13.2
2024/07/08 13:11:25.000   28.292999799  -16.542957620  2331.1945   1   9   0.0009   0.0007   0.0064   0.0004   0.0012   0.0008  -5.00   13.9
2024/07/08 13:11:26.000   28.292999799  -16.542957620  2331.1945   1   9   0.0009   0.0007   0.0064   0.0004   0.0012   0.0008  -4.00   14.6
2024/07/08 13:11:27.000   28.292999799  -16.542957620  2331.1945   1   9   0.0009   0.0007   0.0064   0.0004   0.0012   0.0008  -3.00   15.4
2024/07/08 13:11:28.000   28.292999799  -16.542957620  2331.1946   1   9   0.0009   0.0007   0.0064   0.0004   0.0012   0.0008  -2.00   16.1
2024/07/08 13:11:29.000   28.292999799  -16.542957620  2331.1946   1   9   0.0009   0.0007   0.0064   0.0004   0.0012   0.0008  -1.00   16.9
2024/07/08 13:11:30.000   28.292999799  -16.542957620  2331.1946   1   9   0.0009   0.0007   0.0064   0.0004   0.0012   0.0008   0.00   17.6
2024/07/08 13:11:31.000   28.292999799  -16.542957620  2331.1948   1   9   0.0009   0.0007   0.0064   0.0004   0.0012   0.0008   1.00    6.6
2024/07/08 13:11:32.000   28.292999799  -16.542957619  2331.1948   1   9   0.0009   0.0007   0.0064   0.0004   0.0012   0.0008   2.00   11.2
2024/07/08 13:11:33.000   28.292999799  -16.542957619  2331.1948   1   9   0.0009   0.0007   0.0064   0.0004   0.0012   0.0008   3.00   12.8
2024/07/08 13:11:34.000   28.292999799  -16.542957619  2331.1948   1   9   0.0009   0.0007   0.0064   0.0004   0.0012   0.0008   4.00   14.0
2024/07/08 13:11:35.000   28.292999799  -16.542957619  2331.1948   1   9   0.0009   0.0007   0.0064   0.0004   0.0012   0.0008   5.00   15.1
2024/07/08 13:11:36.000   28.292999799  -16.542957619  2331.1948   1   9   0.0009   0.0007   0.0064   0.0004   0.0012   0.0008   6.00   16.0
2024/07/08 13:11:37.000   28.292999799  -16.542957619  2331.1948   1   9   0.0009   0.0007   0.0064   0.0004   0.0012   0.0008   7.00   16.9
2024/07/08 13:11:38.000   28.292999799  -16.542957619  2331.1948   1   9   0.0009   0.0007   0.0064   0.0004   0.0012   0.0008   8.00   17.7
2024/07/08 13:11:39.000   28.292999799  -16.542957619  2331.1949   1   9   0.0009   0.0007   0.0064   0.0004   0.0012   0.0008   9.00   18.5
2024/07/08 13:11:40.000   28.292999799  -16.542957619  2331.1949   1   9   0.0009   0.0007   0.0064   0.0004   0.0012   0.0008  10.00   19.2
2024/07/08 13:11:41.000   28.292999799  -16.542957619  2331.1949   1   9   0.0009   0.0007   0.0064   0.0004   0.0012   0.0008  11.00   20.0
2024/07/08 13:11:42.000   28.292999799  -16.542957619  2331.1949   1   9   0.0009   0.0007   0.0064   0.0004   0.0012   0.0008  12.00   20.7
2024/07/08 13:11:43.000   28.292999799  -16.542957619  2331.1949   1   9   0.0009   0.0007   0.0064   0.0004   0.0012   0.0008  13.00   21.4
2024/07/08 13:11:44.000   28.292999799  -16.542957619  2331.1949   1   9   0.0009   0.0007   0.0064   0.0004   0.0012   0.0008  14.00   22.2
2024/07/08 13:11:45.000   28.292999799  -16.542957619  2331.1950   1   9   0.0009   0.0007   0.0064   0.0004   0.0012   0.0008 -15.00   22.9
2024/07/08 13:11:46.000   28.292999799  -16.542957619  2331.1950   1   9   0.0009   0.0007   0.0064   0.0004   0.0012   0.0008 -14.00   23.6
2024/07/08 13:11:47.000   28.292999799  -16.542957619  2331.1950   1   9   0.0009   0.0007   0.0064   0.0004   0.0011   0.0008 -13.00   24.3
2024/07/08 13:11:48.000   28.292999799  -16.542957619  2331.1950   1   9   0.0009   0.0007   0.0064   0.0004   0.0011   0.0008 -12.00   25.1
2024/07/08 13:11:49.000   28.292999799  -16.542957619  2331.1950   1   9   0.0009   0.0007   0.0064   0.0004   0.0011   0.0008 -11.00   25.8
2024/07/08 13:11:50.000   28.292999799  -16.542957619  2331.1951   1   9   0.0009   0.0007   0.0064   0.0004   0.0011   0.0008 -10.00   26.6
2024/07/08 13:11:51.000   28.292999799  -16.542957619  2331.1951   1   9   0.0009   0.0007   0.0064   0.0004   0.0011   0.0008  -9.00   27.4
2024/07/08 13:11:52.000   28.292999799  -16.542957619  2331.1951   1   9   0.0009   0.0007   0.0064   0.0004   0.0011   0.0008  -8.00   28.2
2024/07/08 13:11:53.000   28.292999799  -16.542957619  2331.1951   1   9   0.0009   0.0007   0.0064   0.0004   0.0011   0.0008  -7.00   29.0
2024/07/08 13:11:54.000   28.292999799  -16.542957619  2331.1952   1   9   0.0009   0.0007   0.0064   0.0004   0.0011   0.0008  -6.00   29.9
2024/07/08 13:11:55.000   28.292999799  -16.542957619  2331.1952   1   9   0.0009   0.0007   0.0064   0.0004   0.0011   0.0008  -5.00   30.8
2024/07/08 13:11:56.000   28.292999799  -16.542957619  2331.1952   1   9   0.0009   0.0007   0.0064   0.0004   0.0011   0.0008  -4.00   31.9
2024/07/08 13:11:57.000   28.292999799  -16.542957619  2331.1953   1   9   0.0009   0.0007   0.0064   0.0004   0.0011   0.0008  -3.00   32.8
2024/07/08 13:11:58.000   28.292999799  -16.542957619  2331.1953   1   9   0.0009   0.0007   0.0064   0.0004   0.0011   0.0008  -2.00   33.9
2024/07/08 13:11:59.000   28.292999799  -16.542957619  2331.1953   1   9   0.0009   0.0007   0.0064   0.0004   0.0011   0.0008  -1.00   35.0
2024/07/08 13:12:00.000   28.292999799  -16.542957619  2331.1953   1   9   0.0009   0.0007   0.0064   0.0004   0.0011   0.0008   0.00   36.2
2024/07/08 13:12:01.000   28.292999799  -16.542957619  2331.1956   1   9   0.0009   0.0007   0.0064   0.0004   0.0011   0.0008   1.00    7.4
2024/07/08 13:12:02.000   28.292999799  -16.542957618  2331.1956   1   9   0.0009   0.0007   0.0064   0.0004   0.0011   0.0008   2.00   13.1
2024/07/08 13:12:03.000   28.292999799  -16.542957618  2331.1956   1   9   0.0009   0.0007   0.0064   0.0004   0.0011   0.0008   3.00   18.0
2024/07/08 13:12:04.000   28.292999799  -16.542957618  2331.1957   1   9   0.0009   0.0007   0.0064   0.0004   0.0011   0.0008   4.00   21.3
2024/07/08 13:12:05.000   28.292999799  -16.542957618  2331.1957   1   9   0.0009   0.0007   0.0064   0.0004   0.0011   0.0008   5.00   22.8
2024/07/08 13:12:06.000   28.292999799  -16.542957618  2331.1957   1   9   0.0009   0.0007   0.0064   0.0004   0.0011   0.0008   6.00   24.0
2024/07/08 13:12:07.000   28.292999799  -16.542957618  2331.1958   1   9   0.0009   0.0007   0.0064   0.0004   0.0011   0.0008   7.00   25.2
2024/07/08 13:12:08.000   28.292999799  -16.542957618  2331.1958   1   9   0.0009   0.0007   0.0064   0.0004   0.0011   0.0008   8.00   26.2
2024/07/08 13:12:09.000   28.292999799  -16.542957618  2331.1958   1   9   0.0009   0.0007   0.0064   0.0004   0.0011   0.0008   9.00   27.1
2024/07/08 13:12:10.000   28.292999799  -16.542957618  2331.1959   1   9   0.0009   0.0007   0.0064   0.0004   0.0011   0.0008  10.00   28.0
2024/07/08 13:12:11.000   28.292999799  -16.542957618  2331.1959   1   9   0.0009   0.0007   0.0064   0.0004   0.0011   0.0008  11.00   28.9
2024/07/08 13:12:12.000   28.292999799  -16.542957618  2331.1959   1   9   0.0009   0.0007   0.0064   0.0004   0.0011   0.0008  12.00   29.7
2024/07/08 13:12:13.000   28.292999799  -16.542957618  2331.1959   1   9   0.0009   0.0007   0.0064   0.0004   0.0011   0.0008  13.00   30.5
2024/07/08 13:12:14.000   28.292999799  -16.542957618  2331.1960   1   9   0.0009   0.0007   0.0064   0.0004   0.0011   0.0008  14.00   31.2
2024/07/08 13:12:15.000   28.292999799  -16.542957618  2331.1960   1   9   0.0009   0.0007   0.0064   0.0004   0.0011   0.0008 -15.00   32.0
2024/07/08 13:12:16.000   28.292999799  -16.542957618  2331.1960   1   9   0.0009   0.0007   0.0064   0.0004   0.0011   0.0008 -14.00   32.8
2024/07/08 13:12:17.000   28.292999799  -16.542957618  2331.1960   1   9   0.0009   0.0007   0.0064   0.0004   0.0011   0.0008 -13.00   33.6
2024/07/08 13:12:18.000   28.292999799  -16.542957618  2331.1960   1   9   0.0009   0.0007   0.0064   0.0004   0.0011   0.0008 -12.00   34.4
2024/07/08 13:12:19.000   28.292999799  -16.542957618  2331.1961   1   9   0.0009   0.0007   0.0064   0.0004   0.0011   0.0008 -11.00   35.1
2024/07/08 13:12:20.000   28.292999799  -16.542957618  2331.1961   1   9   0.0009   0.0007   0.0064   0.0004   0.0011   0.0008 -10.00   35.9
2024/07/08 13:12:21.000   28.292999799  -16.542957618  2331.1961   1   9   0.0009   0.0007   0.0064   0.0004   0.0011   0.0008  -9.00   36.7
2024/07/08 13:12:22.000   28.292999799  -16.542957618  2331.1961   1   9   0.0009   0.0007   0.0064   0.0004   0.0011   0.0008  -8.00   37.6
2024/07/08 13:12:23.000   28.292999799  -16.542957618  2331.1961   1   9   0.0009   0.0007   0.0064   0.0004   0.0011   0.0008  -7.00   38.4
2024/07/08 13:12:24.000   28.292999799  -16.542957618  2331.1961   1   9   0.0009   0.0007   0.0064   0.0004   0.0011   0.0008  -6.00   39.3
2024/07/08 13:12:25.000   28.292999799  -16.542957618  2331.1962   1   9   0.0009   0.0007   0.0064   0.0004   0.0011   0.0008  -5.00   40.2
2024/07/08 13:12:26.000   28.292999799  -16.542957618  2331.1962   1   9   0.0009   0.0007   0.0064   0.0004   0.0011   0.0008  -4.00   41.1
2024/07/08 13:12:27.000   28.292999799  -16.542957618  2331.1962   1   9   0.0009   0.0007   0.0064   0.0004   0.0011   0.0008  -3.00   42.0
2024/07/08 13:12:28.000   28.292999799  -16.542957618  2331.1962   1   9   0.0009   0.0007   0.0064   0.0004   0.0011   0.0008  -2.00   42.8
2024/07/08 13:12:29.000   28.292999799  -16.542957618  2331.1963   1   9   0.0009   0.0007   0.0064   0.0004   0.0011   0.0008  -1.00   43.8
2024/07/08 13:12:30.000   28.292999799  -16.542957618  2331.1963   1   9   0.0009   0.0007   0.0064   0.0004   0.0011   0.0008   0.00   44.7
2024/07/08 13:12:31.000   28.292999799  -16.542957618  2331.1963   1   9   0.0009   0.0007   0.0064   0.0004   0.0011   0.0008   1.00   45.8
2024/07/08 13:12:32.000   28.292999799  -16.542957618  2331.1964   1   9   0.0009   0.0007   0.0064   0.0004   0.0011   0.0008   2.00   46.7
2024/07/08 13:12:33.000   28.292999799  -16.542957618  2331.1964   1   9   0.0009   0.0007   0.0064   0.0004   0.0011   0.0008   3.00   47.5
2024/07/08 13:12:34.000   28.292999799  -16.542957618  2331.1965   1   9   0.0009   0.0007   0.0064   0.0004   0.0011   0.0008   4.00   48.4
2024/07/08 13:12:35.000   28.292999799  -16.542957618  2331.1965   1   9   0.0009   0.0007   0.0064   0.0004   0.0011   0.0008   5.00   49.1
2024/07/08 13:12:36.000   28.292999799  -16.542957618  2331.1966   1   9   0.0009   0.0007   0.0064   0.0004   0.0011   0.0008   6.00   49.9
2024/07/08 13:12:37.000   28.292999799  -16.542957618  2331.1966   1   9   0.0009   0.0007   0.0064   0.0004   0.0011   0.0008   7.00   50.8
2024/07/08 13:12:38.000   28.292999799  -16.542957618  2331.1967   1   9   0.0009   0.0007   0.0064   0.0004   0.0011   0.0008   8.00   51.6
2024/07/08 13:12:39.000   28.292999799  -16.542957618  2331.1967   1   9   0.0009   0.0007   0.0064   0.0004   0.0011   0.0008   9.00   52.3
2024/07/08 13:12:40.000   28.292999799  -16.542957618  2331.1967   1   9   0.0009   0.0007   0.0064   0.0004   0.0011   0.0008  10.00   53.1
2024/07/08 13:12:41.000   28.292999799  -16.542957618  2331.1968   1   9   0.0009   0.0007   0.0064   0.0004   0.0011   0.0008  11.00   53.9
2024/07/08 13:12:42.000   28.292999799  -16.542957618  2331.1968   1   9   0.0009   0.0007   0.0064   0.0004   0.0011   0.0008  12.00   54.7
2024/07/08 13:12:43.000   28.292999799  -16.542957618  2331.1968   1   9   0.0009   0.0007   0.0063   0.0004   0.0011   0.0008  13.00   55.5
2024/07/08 13:12:44.000   28.292999799  -16.542957618  2331.1968   1   9   0.0009   0.0007   0.0063   0.0004   0.0011   0.0008  14.00   56.3
2024/07/08 13:12:45.000   28.292999799  -16.542957618  2331.1969   1   9   0.0009   0.0007   0.0063   0.0004   0.0011   0.0008 -15.00   57.1
2024/07/08 13:12:46.000   28.292999799  -16.542957618  2331.1969   1   9   0.0009   0.0007   0.0063   0.0004   0.0011   0.0008 -14.00   57.8
2024/07/08 13:12:47.000   28.292999799  -16.542957618  2331.1969   1   9   0.0009   0.0007   0.0063   0.0004   0.0011   0.0008 -13.00   58.6
2024/07/08 13:12:48.000   28.292999799  -16.542957618  2331.1969   1   9   0.0009   0.0007   0.0063   0.0004   0.0011   0.0008 -12.00   59.3
2024/07/08 13:12:49.000   28.292999799  -16.542957618  2331.1970   1   9   0.0009   0.0007   0.0063   0.0004   0.0011   0.0008 -11.00   60.0
2024/07/08 13:12:50.000   28.292999799  -16.542957618  2331.1970   1   9   0.0009   0.0007   0.0063   0.0004   0.0011   0.0008 -10.00   60.8
2024/07/08 13:12:51.000   28.292999799  -16.542957618  2331.1970   1   9   0.0009   0.0007   0.0063   0.0004   0.0011   0.0008  -9.00   61.5
2024/07/08 13:12:52.000   28.292999799  -16.542957618  2331.1970   1   9   0.0009   0.0007   0.0063   0.0004   0.0011   0.0008  -8.00   62.3
2024/07/08 13:12:53.000   28.292999799  -16.542957618  2331.1970   1   9   0.0009   0.0007   0.0063   0.0004   0.0011   0.0008  -7.00   63.2
2024/07/08 13:12:54.000   28.292999799  -16.542957618  2331.1971   1   9   0.0009   0.0007   0.0063   0.0004   0.0011   0.0008  -6.00   64.0
