% program   : RTKPOST-EX 2.5.0
% inp file  : C:\Users\SallyHenry\Desktop\Sally Internship\GNSS gravi\DATA\Survey Rover Obs\LM015_G17.24o
% inp file  : C:\Users\SallyHenry\Desktop\Sally Internship\GNSS gravi\DATA\BaseStations\IZAN\IZAN00ESP_R_20241910000_01D_30S_MO.rnx
% inp file  : C:\Users\SallyHenry\Desktop\Sally Internship\GNSS gravi\DATA\BaseStations\IZAN\IZAN00ESP_R_20241910000_01D_MN.rnx
% inp file  : C:\Users\SallyHenry\Desktop\Sally Internship\GNSS gravi\DATA\aux_files\Survey\IGS0OPSFIN_20241910000_01D_15M_ORB.SP3
% inp file  : C:\Users\SallyHenry\Desktop\Sally Internship\GNSS gravi\DATA\aux_files\Survey\IGS0OPSFIN_20241910000_01D_30S_CLK.CLK
% obs start : 2024/07/09 11:36:25.0 GPST (week2322 214585.0s)
% obs end   : 2024/07/09 12:29:17.0 GPST (week2322 217757.0s)
% pos mode  : Static
% freqs     : L1+L2/E5b
% solution  : Combined-No Phase Reset
% elev mask : 15.0 deg
% dynamics  : on
% tidecorr  : solid
% ionos opt : Estimate TEC
% tropo opt : Estimate ZTD+Grad
% ephemeris : Precise
% navi sys  : GPS GLONASS Galileo QZSS BDS
% amb res   : Fix and Hold
% amb glo   : Fix and Hold
% amb bds   : on
% val thres : 3.0
% antenna1  :                       ( 0.0000  0.0000  1.7700)
% antenna2  :                       ( 0.0000  0.0000  0.0000)
% ref pos   :  28.308069410  -16.499677180  2417.4044
%
% (lat/lon/height=WGS84/ellipsoidal,Q=1:fix,2:float,3:sbas,4:dgps,5:single,6:ppp,ns=# of satellites)
%  GPST                  latitude(deg) longitude(deg)  height(m)   Q  ns   sdn(m)   sde(m)   sdu(m)  sdne(m)  sdeu(m)  sdun(m) age(s)  ratio
2024/07/09 11:36:25.000   28.293270638  -16.541458028  2332.8886   1   8   0.0010   0.0009   0.0079   0.0005   0.0011   0.0008  -5.00  999.9
2024/07/09 11:36:26.000   28.293270638  -16.541458028  2332.8885   1   8   0.0010   0.0009   0.0079   0.0005   0.0011   0.0008  -4.00  999.9
2024/07/09 11:36:27.000   28.293270638  -16.541458028  2332.8885   1   8   0.0010   0.0009   0.0079   0.0005   0.0011   0.0008  -3.00  999.9
2024/07/09 11:36:28.000   28.293270638  -16.541458028  2332.8884   1   8   0.0010   0.0009   0.0079   0.0005   0.0011   0.0008  -2.00  999.9
2024/07/09 11:36:29.000   28.293270638  -16.541458028  2332.8884   1   8   0.0010   0.0009   0.0079   0.0005   0.0011   0.0008  -1.00  999.9
2024/07/09 11:36:30.000   28.293270638  -16.541458028  2332.8883   1   8   0.0010   0.0009   0.0079   0.0005   0.0011   0.0008   0.00  999.9
2024/07/09 11:36:31.000   28.293270639  -16.541458028  2332.8882   1   8   0.0010   0.0009   0.0079   0.0005   0.0011   0.0008   1.00  999.9
2024/07/09 11:36:32.000   28.293270639  -16.541458028  2332.8882   1   8   0.0010   0.0009   0.0079   0.0005   0.0011   0.0007   2.00  999.9
2024/07/09 11:36:33.000   28.293270639  -16.541458028  2332.8882   1   8   0.0010   0.0009   0.0079   0.0005   0.0011   0.0007   3.00  999.9
2024/07/09 11:36:34.000   28.293270639  -16.541458028  2332.8882   1   8   0.0010   0.0009   0.0079   0.0005   0.0011   0.0007   4.00  999.9
2024/07/09 11:36:35.000   28.293270639  -16.541458028  2332.8881   1   8   0.0010   0.0009   0.0079   0.0005   0.0011   0.0007   5.00  999.9
2024/07/09 11:36:36.000   28.293270639  -16.541458028  2332.8881   1   8   0.0010   0.0009   0.0079   0.0005   0.0011   0.0007   6.00  999.9
2024/07/09 11:36:37.000   28.293270639  -16.541458028  2332.8881   1   8   0.0010   0.0009   0.0079   0.0005   0.0011   0.0007   7.00  999.9
2024/07/09 11:36:38.000   28.293270639  -16.541458028  2332.8881   1   8   0.0010   0.0009   0.0079   0.0005   0.0011   0.0007   8.00  999.9
2024/07/09 11:36:39.000   28.293270639  -16.541458028  2332.8881   1   8   0.0010   0.0009   0.0079   0.0005   0.0011   0.0007   9.00  999.9
2024/07/09 11:36:40.000   28.293270639  -16.541458028  2332.8881   1   8   0.0010   0.0009   0.0079   0.0005   0.0011   0.0007  10.00  999.9
2024/07/09 11:36:41.000   28.293270640  -16.541458028  2332.8881   1   8   0.0010   0.0009   0.0079   0.0005   0.0011   0.0007  11.00  999.9
2024/07/09 11:36:42.000   28.293270640  -16.541458028  2332.8881   1   8   0.0010   0.0009   0.0079   0.0005   0.0011   0.0007  12.00  999.9
2024/07/09 11:36:43.000   28.293270640  -16.541458028  2332.8881   1   8   0.0010   0.0009   0.0079   0.0005   0.0011   0.0007  13.00  999.9
2024/07/09 11:36:44.000   28.293270640  -16.541458028  2332.8881   1   8   0.0010   0.0009   0.0079   0.0005   0.0011   0.0007  14.00  999.9
2024/07/09 11:36:45.000   28.293270640  -16.541458029  2332.8881   1   8   0.0010   0.0009   0.0079   0.0005   0.0011   0.0007  15.00  999.9
2024/07/09 11:36:46.000   28.293270640  -16.541458029  2332.8881   1   8   0.0010   0.0009   0.0079   0.0005   0.0011   0.0007 -14.00  999.9
2024/07/09 11:36:47.000   28.293270640  -16.541458029  2332.8881   1   8   0.0010   0.0009   0.0079   0.0005   0.0011   0.0007 -13.00  999.9
2024/07/09 11:36:48.000   28.293270640  -16.541458029  2332.8881   1   8   0.0010   0.0009   0.0079   0.0005   0.0011   0.0007 -12.00  999.9
2024/07/09 11:36:49.000   28.293270640  -16.541458029  2332.8881   1   8   0.0010   0.0009   0.0079   0.0005   0.0011   0.0007 -11.00  999.9
2024/07/09 11:36:50.000   28.293270640  -16.541458029  2332.8881   1   8   0.0010   0.0009   0.0079   0.0005   0.0011   0.0007 -10.00  999.9
2024/07/09 11:36:51.000   28.293270640  -16.541458029  2332.8881   1   8   0.0010   0.0009   0.0079   0.0005   0.0011   0.0007  -9.00  999.9
2024/07/09 11:36:52.000   28.293270640  -16.541458029  2332.8880   1   8   0.0010   0.0009   0.0079   0.0005   0.0011   0.0008  -8.00  999.9
2024/07/09 11:36:53.000   28.293270640  -16.541458029  2332.8880   1   8   0.0010   0.0009   0.0079   0.0005   0.0011   0.0008  -7.00  999.9
2024/07/09 11:36:54.000   28.293270640  -16.541458029  2332.8880   1   8   0.0010   0.0009   0.0079   0.0005   0.0011   0.0008  -6.00  999.9
2024/07/09 11:36:55.000   28.293270640  -16.541458029  2332.8880   1   8   0.0010   0.0009   0.0079   0.0005   0.0011   0.0008  -5.00  999.9
2024/07/09 11:36:56.000   28.293270640  -16.541458029  2332.8880   1   8   0.0010   0.0009   0.0079   0.0005   0.0011   0.0008  -4.00  999.9
2024/07/09 11:36:57.000   28.293270640  -16.541458029  2332.8880   1   8   0.0010   0.0009   0.0079   0.0005   0.0011   0.0008  -3.00  999.9
2024/07/09 11:36:58.000   28.293270640  -16.541458029  2332.8879   1   8   0.0010   0.0009   0.0079   0.0005   0.0011   0.0007  -2.00  999.9
2024/07/09 11:36:59.000   28.293270640  -16.541458029  2332.8878   1   8   0.0010   0.0009   0.0079   0.0005   0.0011   0.0007  -1.00  999.9
2024/07/09 11:37:00.000   28.293270640  -16.541458029  2332.8878   1   8   0.0010   0.0009   0.0079   0.0005   0.0011   0.0007   0.00  999.9
2024/07/09 11:37:01.000   28.293270640  -16.541458029  2332.8877   1   8   0.0010   0.0009   0.0079   0.0005   0.0011   0.0007   1.00  999.9
2024/07/09 11:37:02.000   28.293270640  -16.541458029  2332.8876   1   8   0.0010   0.0009   0.0079   0.0005   0.0011   0.0007   2.00  999.9
2024/07/09 11:37:03.000   28.293270641  -16.541458029  2332.8875   1   8   0.0010   0.0009   0.0080   0.0005   0.0011   0.0007   3.00  999.9
2024/07/09 11:37:04.000   28.293270641  -16.541458029  2332.8875   1   8   0.0010   0.0009   0.0080   0.0005   0.0011   0.0007   4.00  999.9
2024/07/09 11:37:05.000   28.293270641  -16.541458029  2332.8874   1   8   0.0010   0.0009   0.0080   0.0005   0.0011   0.0007   5.00  999.9
2024/07/09 11:37:06.000   28.293270641  -16.541458029  2332.8874   1   8   0.0010   0.0009   0.0080   0.0005   0.0011   0.0007   6.00  999.9
2024/07/09 11:37:07.000   28.293270641  -16.541458029  2332.8874   1   8   0.0010   0.0009   0.0080   0.0005   0.0011   0.0007   7.00  999.9
2024/07/09 11:37:08.000   28.293270641  -16.541458029  2332.8874   1   8   0.0010   0.0009   0.0080   0.0005   0.0011   0.0007   8.00  999.9
2024/07/09 11:37:09.000   28.293270641  -16.541458029  2332.8874   1   8   0.0010   0.0009   0.0080   0.0005   0.0011   0.0007   9.00  995.6
2024/07/09 11:37:10.000   28.293270641  -16.541458029  2332.8874   1   8   0.0010   0.0009   0.0080   0.0005   0.0011   0.0007  10.00  991.7
2024/07/09 11:37:11.000   28.293270641  -16.541458029  2332.8874   1   8   0.0010   0.0009   0.0080   0.0005   0.0011   0.0007  11.00  987.7
2024/07/09 11:37:12.000   28.293270641  -16.541458029  2332.8874   1   8   0.0010   0.0009   0.0080   0.0005   0.0011   0.0007  12.00  983.2
2024/07/09 11:37:13.000   28.293270641  -16.541458029  2332.8874   1   8   0.0010   0.0009   0.0080   0.0005   0.0011   0.0007  13.00  979.2
2024/07/09 11:37:14.000   28.293270641  -16.541458029  2332.8874   1   8   0.0010   0.0009   0.0080   0.0005   0.0011   0.0007  14.00  975.4
2024/07/09 11:37:15.000   28.293270641  -16.541458029  2332.8874   1   8   0.0010   0.0009   0.0080   0.0005   0.0011   0.0007  15.00  971.3
2024/07/09 11:37:16.000   28.293270641  -16.541458029  2332.8874   1   8   0.0010   0.0009   0.0080   0.0005   0.0011   0.0007 -14.00  967.8
2024/07/09 11:37:17.000   28.293270641  -16.541458029  2332.8875   1   8   0.0010   0.0009   0.0080   0.0005   0.0011   0.0007 -13.00  964.2
2024/07/09 11:37:18.000   28.293270641  -16.541458029  2332.8875   1   8   0.0010   0.0009   0.0080   0.0005   0.0011   0.0007 -12.00  960.1
2024/07/09 11:37:19.000   28.293270641  -16.541458029  2332.8875   1   8   0.0010   0.0009   0.0079   0.0005   0.0011   0.0007 -11.00  955.9
2024/07/09 11:37:20.000   28.293270641  -16.541458029  2332.8875   1   8   0.0010   0.0009   0.0079   0.0005   0.0011   0.0007 -10.00  951.2
2024/07/09 11:37:21.000   28.293270641  -16.541458029  2332.8875   1   8   0.0010   0.0009   0.0079   0.0005   0.0011   0.0007  -9.00  946.5
2024/07/09 11:37:22.000   28.293270641  -16.541458029  2332.8875   1   8   0.0010   0.0009   0.0079   0.0005   0.0011   0.0007  -8.00  940.9
2024/07/09 11:37:23.000   28.293270641  -16.541458030  2332.8874   1   8   0.0010   0.0009   0.0079   0.0005   0.0011   0.0007  -7.00  934.6
2024/07/09 11:37:24.000   28.293270641  -16.541458030  2332.8874   1   8   0.0010   0.0009   0.0079   0.0005   0.0011   0.0007  -6.00  927.7
2024/07/09 11:37:25.000   28.293270641  -16.541458030  2332.8874   1   8   0.0010   0.0009   0.0079   0.0005   0.0011   0.0007  -5.00  921.9
2024/07/09 11:37:26.000   28.293270641  -16.541458030  2332.8874   1   8   0.0010   0.0009   0.0079   0.0005   0.0011   0.0007  -4.00  915.5
2024/07/09 11:37:27.000   28.293270641  -16.541458030  2332.8873   1   8   0.0010   0.0009   0.0080   0.0005   0.0011   0.0007  -3.00  908.6
2024/07/09 11:37:28.000   28.293270641  -16.541458030  2332.8872   1   8   0.0010   0.0009   0.0080   0.0005   0.0011   0.0007  -2.00  901.3
2024/07/09 11:37:29.000   28.293270641  -16.541458030  2332.8871   1   8   0.0010   0.0009   0.0080   0.0005   0.0011   0.0007  -1.00  893.6
2024/07/09 11:37:30.000   28.293270641  -16.541458030  2332.8870   1   8   0.0010   0.0009   0.0080   0.0005   0.0011   0.0007   0.00  886.6
2024/07/09 11:37:31.000   28.293270641  -16.541458030  2332.8869   1   8   0.0010   0.0009   0.0080   0.0005   0.0011   0.0007   1.00  882.5
2024/07/09 11:37:32.000   28.293270641  -16.541458030  2332.8867   1   8   0.0010   0.0009   0.0080   0.0005   0.0011   0.0007   2.00  881.4
2024/07/09 11:37:33.000   28.293270642  -16.541458030  2332.8867   1   8   0.0010   0.0009   0.0080   0.0005   0.0011   0.0007   3.00  882.1
2024/07/09 11:37:34.000   28.293270642  -16.541458030  2332.8866   1   8   0.0010   0.0009   0.0080   0.0005   0.0011   0.0007   4.00  882.4
2024/07/09 11:37:35.000   28.293270642  -16.541458030  2332.8865   1   8   0.0010   0.0009   0.0080   0.0005   0.0011   0.0007   5.00  883.3
2024/07/09 11:37:36.000   28.293270642  -16.541458030  2332.8865   1   8   0.0010   0.0009   0.0080   0.0005   0.0011   0.0007   6.00  883.2
2024/07/09 11:37:37.000   28.293270642  -16.541458030  2332.8864   1   8   0.0010   0.0009   0.0080   0.0005   0.0011   0.0007   7.00  882.8
2024/07/09 11:37:38.000   28.293270642  -16.541458030  2332.8863   1   8   0.0010   0.0009   0.0080   0.0005   0.0011   0.0007   8.00  882.6
2024/07/09 11:37:39.000   28.293270642  -16.541458030  2332.8863   1   8   0.0010   0.0009   0.0080   0.0005   0.0011   0.0007   9.00  881.7
2024/07/09 11:37:40.000   28.293270642  -16.541458030  2332.8862   1   8   0.0010   0.0009   0.0080   0.0005   0.0011   0.0007  10.00  881.5
2024/07/09 11:37:41.000   28.293270642  -16.541458030  2332.8862   1   8   0.0010   0.0009   0.0080   0.0005   0.0011   0.0007  11.00  881.2
2024/07/09 11:37:42.000   28.293270642  -16.541458030  2332.8862   1   8   0.0010   0.0009   0.0080   0.0005   0.0011   0.0007  12.00  880.1
2024/07/09 11:37:43.000   28.293270642  -16.541458030  2332.8862   1   8   0.0010   0.0009   0.0080   0.0005   0.0011   0.0007  13.00  879.7
2024/07/09 11:37:44.000   28.293270642  -16.541458030  2332.8862   1   8   0.0010   0.0009   0.0080   0.0005   0.0011   0.0007  14.00  878.5
2024/07/09 11:37:45.000   28.293270643  -16.541458030  2332.8861   1   8   0.0010   0.0009   0.0080   0.0005   0.0011   0.0007  15.00  876.9
2024/07/09 11:37:46.000   28.293270643  -16.541458030  2332.8861   1   8   0.0010   0.0009   0.0080   0.0005   0.0011   0.0007 -14.00  875.5
2024/07/09 11:37:47.000   28.293270643  -16.541458030  2332.8861   1   8   0.0010   0.0009   0.0080   0.0005   0.0011   0.0007 -13.00  874.3
2024/07/09 11:37:48.000   28.293270643  -16.541458030  2332.8861   1   8   0.0010   0.0009   0.0080   0.0005   0.0011   0.0007 -12.00  873.0
2024/07/09 11:37:49.000   28.293270643  -16.541458030  2332.8861   1   8   0.0010   0.0009   0.0080   0.0005   0.0011   0.0007 -11.00  872.1
2024/07/09 11:37:50.000   28.293270643  -16.541458030  2332.8860   1   8   0.0010   0.0009   0.0080   0.0005   0.0011   0.0007 -10.00  871.4
2024/07/09 11:37:51.000   28.293270643  -16.541458030  2332.8860   1   8   0.0010   0.0009   0.0080   0.0005   0.0011   0.0007  -9.00  870.2
2024/07/09 11:37:52.000   28.293270643  -16.541458030  2332.8860   1   8   0.0010   0.0009   0.0080   0.0005   0.0011   0.0007  -8.00  869.7
2024/07/09 11:37:53.000   28.293270643  -16.541458030  2332.8859   1   8   0.0010   0.0009   0.0080   0.0005   0.0011   0.0007  -7.00  869.1
2024/07/09 11:37:54.000   28.293270643  -16.541458030  2332.8859   1   8   0.0010   0.0009   0.0080   0.0005   0.0011   0.0007  -6.00  868.7
2024/07/09 11:37:55.000   28.293270643  -16.541458030  2332.8858   1   8   0.0010   0.0009   0.0080   0.0005   0.0011   0.0007  -5.00  869.0
2024/07/09 11:37:56.000   28.293270643  -16.541458030  2332.8857   1   8   0.0010   0.0009   0.0080   0.0005   0.0011   0.0007  -4.00  868.9
2024/07/09 11:37:57.000   28.293270643  -16.541458030  2332.8857   1   8   0.0010   0.0009   0.0080   0.0005   0.0011   0.0007  -3.00  868.3
2024/07/09 11:37:58.000   28.293270643  -16.541458030  2332.8855   1   8   0.0010   0.0009   0.0080   0.0005   0.0011   0.0007  -2.00  869.1
2024/07/09 11:37:59.000   28.293270643  -16.541458030  2332.8854   1   8   0.0010   0.0009   0.0080   0.0005   0.0011   0.0007  -1.00  869.6
2024/07/09 11:38:00.000   28.293270639  -16.541458028  2332.8892   1   8   0.0010   0.0009   0.0076   0.0005   0.0011   0.0008   0.00    4.4
2024/07/09 11:38:01.000   28.293270639  -16.541458028  2332.8892   1   8   0.0010   0.0009   0.0076   0.0005   0.0011   0.0008   1.00    4.3
2024/07/09 11:38:02.000   28.293270639  -16.541458028  2332.8892   1   8   0.0009   0.0009   0.0076   0.0005   0.0011   0.0008   2.00    4.1
2024/07/09 11:38:03.000   28.293270639  -16.541458028  2332.8892   1   8   0.0009   0.0009   0.0076   0.0005   0.0011   0.0008   3.00    4.1
2024/07/09 11:38:04.000   28.293270639  -16.541458028  2332.8892   1   8   0.0009   0.0009   0.0076   0.0005   0.0011   0.0008   4.00    4.0
2024/07/09 11:38:05.000   28.293270639  -16.541458028  2332.8892   1   8   0.0009   0.0009   0.0076   0.0005   0.0011   0.0008   5.00    3.9
2024/07/09 11:38:06.000   28.293270639  -16.541458029  2332.8892   1   8   0.0009   0.0009   0.0076   0.0005   0.0011   0.0008   6.00    3.8
2024/07/09 11:38:07.000   28.293270639  -16.541458028  2332.8892   1   8   0.0009   0.0009   0.0076   0.0005   0.0011   0.0008   7.00    3.8
2024/07/09 11:38:08.000   28.293270639  -16.541458029  2332.8892   1   8   0.0009   0.0009   0.0076   0.0005   0.0011   0.0008   8.00    3.7
2024/07/09 11:38:09.000   28.293270639  -16.541458029  2332.8891   1   8   0.0009   0.0009   0.0076   0.0005   0.0011   0.0008   9.00    3.7
2024/07/09 11:38:10.000   28.293270639  -16.541458029  2332.8891   1   8   0.0009   0.0009   0.0076   0.0005   0.0011   0.0008  10.00    3.6
2024/07/09 11:38:11.000   28.293270639  -16.541458029  2332.8891   1   8   0.0009   0.0009   0.0076   0.0005   0.0011   0.0008  11.00    3.6
2024/07/09 11:38:12.000   28.293270639  -16.541458029  2332.8891   1   8   0.0009   0.0009   0.0076   0.0005   0.0011   0.0008  12.00    3.6
2024/07/09 11:38:13.000   28.293270639  -16.541458029  2332.8891   1   8   0.0009   0.0009   0.0075   0.0005   0.0011   0.0008  13.00    3.6
2024/07/09 11:38:14.000   28.293270639  -16.541458029  2332.8891   1   8   0.0009   0.0009   0.0075   0.0005   0.0011   0.0008  14.00    3.6
2024/07/09 11:38:15.000   28.293270639  -16.541458029  2332.8891   1   8   0.0009   0.0009   0.0075   0.0005   0.0011   0.0008 -15.00    3.6
2024/07/09 11:38:16.000   28.293270639  -16.541458029  2332.8891   1   8   0.0009   0.0009   0.0075   0.0005   0.0011   0.0008 -14.00    3.5
2024/07/09 11:38:17.000   28.293270639  -16.541458029  2332.8891   1   8   0.0009   0.0009   0.0075   0.0005   0.0011   0.0008 -13.00    3.5
2024/07/09 11:38:18.000   28.293270639  -16.541458029  2332.8891   1   8   0.0009   0.0009   0.0075   0.0005   0.0011   0.0008 -12.00    3.5
2024/07/09 11:38:19.000   28.293270639  -16.541458029  2332.8891   1   8   0.0009   0.0009   0.0075   0.0005   0.0011   0.0008 -11.00    3.5
2024/07/09 11:38:20.000   28.293270639  -16.541458029  2332.8891   1   8   0.0009   0.0009   0.0075   0.0005   0.0011   0.0008 -10.00   10.7
2024/07/09 11:38:21.000   28.293270639  -16.541458029  2332.8891   1   8   0.0009   0.0009   0.0075   0.0005   0.0011   0.0008  -9.00   16.3
2024/07/09 11:38:22.000   28.293270639  -16.541458029  2332.8891   1   8   0.0009   0.0009   0.0075   0.0005   0.0011   0.0008  -8.00   18.7
2024/07/09 11:38:23.000   28.293270639  -16.541458029  2332.8891   1   8   0.0009   0.0009   0.0075   0.0005   0.0011   0.0008  -7.00   21.2
2024/07/09 11:38:24.000   28.293270639  -16.541458029  2332.8891   1   8   0.0009   0.0009   0.0075   0.0005   0.0011   0.0008  -6.00   23.9
2024/07/09 11:38:25.000   28.293270639  -16.541458029  2332.8891   1   8   0.0009   0.0009   0.0075   0.0005   0.0011   0.0008  -5.00   26.6
2024/07/09 11:38:26.000   28.293270639  -16.541458029  2332.8891   1   8   0.0009   0.0009   0.0075   0.0005   0.0011   0.0008  -4.00   29.4
2024/07/09 11:38:27.000   28.293270639  -16.541458029  2332.8891   1   8   0.0009   0.0009   0.0075   0.0005   0.0011   0.0008  -3.00   32.3
2024/07/09 11:38:28.000   28.293270639  -16.541458029  2332.8891   1   8   0.0009   0.0009   0.0075   0.0005   0.0011   0.0008  -2.00   35.2
2024/07/09 11:38:29.000   28.293270639  -16.541458029  2332.8891   1   8   0.0009   0.0009   0.0075   0.0005   0.0011   0.0008  -1.00   38.2
2024/07/09 11:38:30.000   28.293270639  -16.541458029  2332.8892   1   8   0.0009   0.0009   0.0075   0.0005   0.0011   0.0008   0.00   41.5
2024/07/09 11:38:31.000   28.293270639  -16.541458029  2332.8892   1   8   0.0009   0.0009   0.0075   0.0005   0.0011   0.0008   1.00   44.6
2024/07/09 11:38:32.000   28.293270639  -16.541458029  2332.8892   1   8   0.0009   0.0009   0.0075   0.0005   0.0011   0.0008   2.00   48.2
2024/07/09 11:38:33.000   28.293270639  -16.541458029  2332.8892   1   8   0.0009   0.0009   0.0075   0.0005   0.0011   0.0008   3.00   51.3
2024/07/09 11:38:34.000   28.293270639  -16.541458029  2332.8891   1   8   0.0009   0.0009   0.0075   0.0005   0.0011   0.0008   4.00   54.4
2024/07/09 11:38:35.000   28.293270639  -16.541458029  2332.8892   1   8   0.0009   0.0009   0.0075   0.0005   0.0011   0.0008   5.00   57.6
2024/07/09 11:38:36.000   28.293270639  -16.541458029  2332.8892   1   8   0.0009   0.0009   0.0075   0.0005   0.0011   0.0008   6.00   61.0
2024/07/09 11:38:37.000   28.293270639  -16.541458029  2332.8892   1   8   0.0009   0.0009   0.0075   0.0005   0.0011   0.0008   7.00   64.1
2024/07/09 11:38:38.000   28.293270639  -16.541458029  2332.8892   1   8   0.0009   0.0009   0.0075   0.0005   0.0011   0.0008   8.00   67.3
2024/07/09 11:38:39.000   28.293270639  -16.541458029  2332.8892   1   8   0.0009   0.0009   0.0075   0.0005   0.0011   0.0008   9.00   70.6
2024/07/09 11:38:40.000   28.293270639  -16.541458029  2332.8892   1   8   0.0009   0.0009   0.0075   0.0005   0.0011   0.0008  10.00   73.8
2024/07/09 11:38:41.000   28.293270639  -16.541458029  2332.8892   1   8   0.0009   0.0009   0.0075   0.0005   0.0011   0.0008  11.00   77.1
2024/07/09 11:38:42.000   28.293270639  -16.541458029  2332.8892   1   8   0.0009   0.0009   0.0075   0.0005   0.0011   0.0008  12.00   80.5
2024/07/09 11:38:43.000   28.293270639  -16.541458029  2332.8892   1   8   0.0009   0.0009   0.0075   0.0005   0.0011   0.0008  13.00   83.7
2024/07/09 11:38:44.000   28.293270639  -16.541458029  2332.8892   1   8   0.0009   0.0009   0.0075   0.0005   0.0011   0.0008  14.00   87.1
2024/07/09 11:38:45.000   28.293270639  -16.541458029  2332.8892   1   8   0.0009   0.0009   0.0075   0.0005   0.0011   0.0008 -15.00   90.4
2024/07/09 11:38:46.000   28.293270639  -16.541458029  2332.8892   1   8   0.0009   0.0009   0.0075   0.0005   0.0011   0.0008 -14.00   93.8
2024/07/09 11:38:47.000   28.293270639  -16.541458029  2332.8892   1   8   0.0009   0.0009   0.0075   0.0005   0.0011   0.0008 -13.00   97.1
2024/07/09 11:38:48.000   28.293270639  -16.541458029  2332.8892   1   8   0.0009   0.0009   0.0075   0.0005   0.0011   0.0008 -12.00  100.5
2024/07/09 11:38:49.000   28.293270639  -16.541458029  2332.8892   1   8   0.0009   0.0009   0.0075   0.0005   0.0011   0.0008 -11.00  104.2
2024/07/09 11:38:50.000   28.293270639  -16.541458029  2332.8892   1   8   0.0009   0.0008   0.0075   0.0005   0.0011   0.0008 -10.00  107.6
2024/07/09 11:38:51.000   28.293270639  -16.541458029  2332.8892   1   8   0.0009   0.0008   0.0075   0.0005   0.0011   0.0008  -9.00  111.4
2024/07/09 11:38:52.000   28.293270639  -16.541458029  2332.8892   1   8   0.0009   0.0008   0.0075   0.0005   0.0011   0.0008  -8.00  115.2
2024/07/09 11:38:53.000   28.293270639  -16.541458029  2332.8892   1   8   0.0009   0.0008   0.0075   0.0005   0.0011   0.0008  -7.00  119.0
2024/07/09 11:38:54.000   28.293270639  -16.541458029  2332.8892   1   8   0.0009   0.0008   0.0074   0.0005   0.0011   0.0008  -6.00  123.2
2024/07/09 11:38:55.000   28.293270639  -16.541458029  2332.8892   1   8   0.0009   0.0008   0.0074   0.0005   0.0011   0.0008  -5.00  128.0
2024/07/09 11:38:56.000   28.293270639  -16.541458029  2332.8892   1   8   0.0009   0.0008   0.0074   0.0005   0.0011   0.0008  -4.00  132.9
2024/07/09 11:38:57.000   28.293270639  -16.541458029  2332.8892   1   8   0.0009   0.0008   0.0074   0.0005   0.0011   0.0008  -3.00  137.7
2024/07/09 11:38:58.000   28.293270639  -16.541458029  2332.8892   1   8   0.0009   0.0008   0.0074   0.0005   0.0011   0.0008  -2.00  142.0
2024/07/09 11:38:59.000   28.293270639  -16.541458029  2332.8893   1   8   0.0009   0.0008   0.0074   0.0005   0.0011   0.0008  -1.00  145.7
2024/07/09 11:39:00.000   28.293270639  -16.541458029  2332.8893   1   8   0.0009   0.0008   0.0074   0.0005   0.0011   0.0008   0.00  151.4
2024/07/09 11:39:01.000   28.293270639  -16.541458029  2332.8892   1   8   0.0009   0.0008   0.0074   0.0005   0.0011   0.0008   1.00  156.4
2024/07/09 11:39:02.000   28.293270639  -16.541458029  2332.8892   1   8   0.0009   0.0008   0.0074   0.0005   0.0011   0.0008   2.00  161.0
2024/07/09 11:39:03.000   28.293270639  -16.541458029  2332.8891   1   8   0.0009   0.0008   0.0074   0.0005   0.0011   0.0008   3.00  165.1
2024/07/09 11:39:04.000   28.293270639  -16.541458029  2332.8891   1   8   0.0009   0.0008   0.0074   0.0005   0.0011   0.0008   4.00  168.8
2024/07/09 11:39:05.000   28.293270639  -16.541458029  2332.8891   1   8   0.0009   0.0008   0.0074   0.0005   0.0011   0.0008   5.00  173.0
2024/07/09 11:39:06.000   28.293270639  -16.541458029  2332.8891   1   8   0.0009   0.0008   0.0074   0.0005   0.0011   0.0008   6.00  176.9
2024/07/09 11:39:07.000   28.293270639  -16.541458029  2332.8890   1   8   0.0009   0.0008   0.0074   0.0005   0.0011   0.0008   7.00  179.7
2024/07/09 11:39:08.000   28.293270639  -16.541458029  2332.8890   1   8   0.0009   0.0008   0.0074   0.0005   0.0011   0.0008   8.00  183.1
2024/07/09 11:39:09.000   28.293270639  -16.541458029  2332.8889   1   8   0.0009   0.0008   0.0074   0.0005   0.0011   0.0008   9.00  186.1
2024/07/09 11:39:10.000   28.293270639  -16.541458029  2332.8889   1   8   0.0009   0.0008   0.0074   0.0005   0.0011   0.0008  10.00  189.4
2024/07/09 11:39:11.000   28.293270639  -16.541458029  2332.8889   1   8   0.0009   0.0008   0.0074   0.0005   0.0011   0.0008  11.00  192.5
2024/07/09 11:39:12.000   28.293270639  -16.541458029  2332.8889   1   8   0.0009   0.0008   0.0074   0.0005   0.0011   0.0008  12.00  195.5
2024/07/09 11:39:13.000   28.293270639  -16.541458029  2332.8888   1   8   0.0009   0.0008   0.0074   0.0005   0.0011   0.0008  13.00  198.6
2024/07/09 11:39:14.000   28.293270639  -16.541458029  2332.8888   1   8   0.0009   0.0008   0.0074   0.0005   0.0011   0.0008  14.00  201.5
2024/07/09 11:39:15.000   28.293270639  -16.541458029  2332.8888   1   8   0.0009   0.0008   0.0074   0.0005   0.0011   0.0008 -15.00  204.7
2024/07/09 11:39:16.000   28.293270639  -16.541458029  2332.8888   1   8   0.0009   0.0008   0.0074   0.0005   0.0011   0.0008 -14.00  207.4
2024/07/09 11:39:17.000   28.293270639  -16.541458029  2332.8888   1   8   0.0009   0.0008   0.0074   0.0005   0.0011   0.0008 -13.00  210.3
2024/07/09 11:39:18.000   28.293270639  -16.541458029  2332.8888   1   8   0.0009   0.0008   0.0074   0.0005   0.0011   0.0008 -12.00  213.0
2024/07/09 11:39:19.000   28.293270639  -16.541458029  2332.8888   1   8   0.0009   0.0008   0.0074   0.0005   0.0011   0.0008 -11.00  215.3
2024/07/09 11:39:20.000   28.293270639  -16.541458029  2332.8888   1   8   0.0009   0.0008   0.0074   0.0005   0.0011   0.0008 -10.00  217.3
2024/07/09 11:39:21.000   28.293270639  -16.541458029  2332.8887   1   8   0.0009   0.0008   0.0074   0.0005   0.0011   0.0008  -9.00  218.7
2024/07/09 11:39:22.000   28.293270640  -16.541458029  2332.8887   1   8   0.0009   0.0008   0.0074   0.0005   0.0011   0.0008  -8.00  220.2
2024/07/09 11:39:23.000   28.293270639  -16.541458029  2332.8887   1   8   0.0009   0.0008   0.0074   0.0005   0.0011   0.0008  -7.00  221.3
2024/07/09 11:39:24.000   28.293270639  -16.541458029  2332.8887   1   8   0.0009   0.0008   0.0074   0.0005   0.0011   0.0008  -6.00  221.6
2024/07/09 11:39:25.000   28.293270639  -16.541458029  2332.8887   1   8   0.0009   0.0008   0.0074   0.0005   0.0011   0.0008  -5.00  222.3
2024/07/09 11:39:26.000   28.293270639  -16.541458029  2332.8887   1   8   0.0009   0.0008   0.0074   0.0005   0.0011   0.0008  -4.00  222.9
2024/07/09 11:39:27.000   28.293270639  -16.541458029  2332.8887   1   8   0.0009   0.0008   0.0074   0.0005   0.0011   0.0008  -3.00  223.2
2024/07/09 11:39:28.000   28.293270639  -16.541458029  2332.8887   1   8   0.0009   0.0008   0.0074   0.0005   0.0011   0.0008  -2.00  223.6
2024/07/09 11:39:29.000   28.293270639  -16.541458029  2332.8887   1   8   0.0009   0.0008   0.0074   0.0005   0.0011   0.0008  -1.00  224.5
2024/07/09 11:39:30.000   28.293270639  -16.541458029  2332.8887   1   8   0.0009   0.0008   0.0074   0.0005   0.0011   0.0008   0.00  225.4
2024/07/09 11:39:31.000   28.293270639  -16.541458029  2332.8888   1   8   0.0009   0.0008   0.0074   0.0005   0.0011   0.0008   1.00  224.0
2024/07/09 11:39:32.000   28.293270639  -16.541458029  2332.8888   1   8   0.0009   0.0008   0.0074   0.0005   0.0011   0.0008   2.00  223.0
2024/07/09 11:39:33.000   28.293270639  -16.541458029  2332.8888   1   8   0.0009   0.0008   0.0074   0.0005   0.0011   0.0008   3.00  222.7
2024/07/09 11:39:34.000   28.293270639  -16.541458029  2332.8888   1   8   0.0009   0.0008   0.0074   0.0005   0.0011   0.0008   4.00  222.4
2024/07/09 11:39:35.000   28.293270640  -16.541458029  2332.8889   1   8   0.0009   0.0008   0.0074   0.0005   0.0011   0.0008   5.00  223.4
2024/07/09 11:39:36.000   28.293270640  -16.541458029  2332.8889   1   8   0.0009   0.0008   0.0074   0.0005   0.0011   0.0008   6.00  224.7
2024/07/09 11:39:37.000   28.293270640  -16.541458029  2332.8889   1   8   0.0009   0.0008   0.0074   0.0005   0.0011   0.0008   7.00  226.7
2024/07/09 11:39:38.000   28.293270640  -16.541458029  2332.8889   1   8   0.0009   0.0008   0.0074   0.0005   0.0011   0.0008   8.00  228.2
2024/07/09 11:39:39.000   28.293270640  -16.541458029  2332.8889   1   8   0.0009   0.0008   0.0074   0.0005   0.0011   0.0008   9.00  230.0
2024/07/09 11:39:40.000   28.293270640  -16.541458029  2332.8889   1   8   0.0009   0.0008   0.0074   0.0005   0.0011   0.0008  10.00  231.8
2024/07/09 11:39:41.000   28.293270640  -16.541458029  2332.8889   1   8   0.0009   0.0008   0.0074   0.0005   0.0011   0.0008  11.00  234.2
2024/07/09 11:39:42.000   28.293270640  -16.541458029  2332.8889   1   8   0.0009   0.0008   0.0074   0.0005   0.0011   0.0008  12.00  236.8
2024/07/09 11:39:43.000   28.293270640  -16.541458029  2332.8889   1   8   0.0009   0.0008   0.0073   0.0005   0.0011   0.0008  13.00  239.0
2024/07/09 11:39:44.000   28.293270640  -16.541458029  2332.8889   1   8   0.0009   0.0008   0.0073   0.0005   0.0011   0.0008  14.00  241.2
2024/07/09 11:39:45.000   28.293270640  -16.541458029  2332.8889   1   8   0.0009   0.0008   0.0073   0.0005   0.0011   0.0008 -15.00  243.5
2024/07/09 11:39:46.000   28.293270640  -16.541458029  2332.8889   1   8   0.0009   0.0008   0.0073   0.0005   0.0011   0.0008 -14.00  245.4
2024/07/09 11:39:47.000   28.293270640  -16.541458029  2332.8889   1   8   0.0009   0.0008   0.0073   0.0005   0.0011   0.0008 -13.00  247.4
2024/07/09 11:39:48.000   28.293270640  -16.541458029  2332.8889   1   8   0.0009   0.0008   0.0073   0.0005   0.0011   0.0008 -12.00  249.3
2024/07/09 11:39:49.000   28.293270640  -16.541458029  2332.8889   1   8   0.0009   0.0008   0.0073   0.0005   0.0011   0.0008 -11.00  251.4
2024/07/09 11:39:50.000   28.293270640  -16.541458029  2332.8889   1   8   0.0009   0.0008   0.0073   0.0005   0.0011   0.0008 -10.00  253.4
2024/07/09 11:39:51.000   28.293270640  -16.541458029  2332.8889   1   8   0.0009   0.0008   0.0073   0.0005   0.0011   0.0008  -9.00  255.6
2024/07/09 11:39:52.000   28.293270640  -16.541458029  2332.8889   1   8   0.0009   0.0008   0.0073   0.0005   0.0011   0.0008  -8.00  257.5
2024/07/09 11:39:53.000   28.293270640  -16.541458029  2332.8889   1   8   0.0009   0.0008   0.0073   0.0005   0.0011   0.0008  -7.00  259.2
2024/07/09 11:39:54.000   28.293270640  -16.541458029  2332.8889   1   8   0.0009   0.0008   0.0073   0.0005   0.0011   0.0008  -6.00  260.8
2024/07/09 11:39:55.000   28.293270640  -16.541458029  2332.8889   1   8   0.0009   0.0008   0.0073   0.0005   0.0011   0.0008  -5.00  262.3
2024/07/09 11:39:56.000   28.293270640  -16.541458029  2332.8889   1   8   0.0009   0.0008   0.0073   0.0005   0.0011   0.0008  -4.00  264.6
2024/07/09 11:39:57.000   28.293270640  -16.541458029  2332.8889   1   8   0.0009   0.0008   0.0073   0.0005   0.0011   0.0008  -3.00  264.1
2024/07/09 11:39:58.000   28.293270640  -16.541458029  2332.8889   1   8   0.0009   0.0008   0.0073   0.0005   0.0011   0.0008  -2.00  263.2
2024/07/09 11:39:59.000   28.293270640  -16.541458029  2332.8889   1   8   0.0009   0.0008   0.0073   0.0005   0.0011   0.0008  -1.00  265.5
2024/07/09 11:40:00.000   28.293270640  -16.541458029  2332.8890   1   8   0.0009   0.0008   0.0073   0.0005   0.0011   0.0008   0.00  265.5
2024/07/09 11:40:01.000   28.293270640  -16.541458029  2332.8890   1   8   0.0009   0.0008   0.0073   0.0005   0.0011   0.0008   1.00  265.0
2024/07/09 11:40:02.000   28.293270640  -16.541458029  2332.8890   1   8   0.0009   0.0008   0.0073   0.0005   0.0011   0.0008   2.00  267.0
2024/07/09 11:40:03.000   28.293270640  -16.541458029  2332.8890   1   8   0.0009   0.0008   0.0073   0.0005   0.0011   0.0008   3.00  267.2
2024/07/09 11:40:04.000   28.293270640  -16.541458029  2332.8890   1   8   0.0009   0.0008   0.0073   0.0005   0.0011   0.0008   4.00  268.1
2024/07/09 11:40:05.000   28.293270640  -16.541458029  2332.8890   1   8   0.0009   0.0008   0.0073   0.0005   0.0011   0.0008   5.00  270.1
2024/07/09 11:40:06.000   28.293270640  -16.541458029  2332.8890   1   8   0.0009   0.0008   0.0073   0.0005   0.0011   0.0008   6.00  272.2
2024/07/09 11:40:07.000   28.293270640  -16.541458029  2332.8890   1   8   0.0009   0.0008   0.0073   0.0005   0.0011   0.0008   7.00  273.4
2024/07/09 11:40:08.000   28.293270640  -16.541458029  2332.8890   1   8   0.0009   0.0008   0.0073   0.0005   0.0011   0.0008   8.00  275.4
2024/07/09 11:40:09.000   28.293270640  -16.541458029  2332.8890   1   8   0.0009   0.0008   0.0073   0.0005   0.0011   0.0008   9.00  277.7
2024/07/09 11:40:10.000   28.293270640  -16.541458029  2332.8890   1   8   0.0009   0.0008   0.0073   0.0005   0.0011   0.0008  10.00  280.3
2024/07/09 11:40:11.000   28.293270640  -16.541458029  2332.8890   1   8   0.0009   0.0008   0.0073   0.0005   0.0011   0.0008  11.00  282.4
2024/07/09 11:40:12.000   28.293270640  -16.541458029  2332.8890   1   8   0.0009   0.0008   0.0073   0.0005   0.0011   0.0008  12.00  284.5
2024/07/09 11:40:13.000   28.293270640  -16.541458029  2332.8890   1   8   0.0009   0.0008   0.0073   0.0005   0.0011   0.0008  13.00  286.9
2024/07/09 11:40:14.000   28.293270640  -16.541458029  2332.8890   1   8   0.0009   0.0008   0.0073   0.0005   0.0011   0.0008  14.00  289.0
2024/07/09 11:40:15.000   28.293270640  -16.541458029  2332.8890   1   8   0.0009   0.0008   0.0073   0.0005   0.0011   0.0008 -15.00  291.1
2024/07/09 11:40:16.000   28.293270640  -16.541458029  2332.8890   1   8   0.0009   0.0008   0.0073   0.0005   0.0011   0.0008 -14.00  293.1
2024/07/09 11:40:17.000   28.293270640  -16.541458029  2332.8890   1   8   0.0009   0.0008   0.0073   0.0005   0.0011   0.0008 -13.00  295.2
2024/07/09 11:40:18.000   28.293270640  -16.541458029  2332.8890   1   8   0.0009   0.0008   0.0073   0.0005   0.0011   0.0008 -12.00  297.3
2024/07/09 11:40:19.000   28.293270640  -16.541458029  2332.8890   1   8   0.0009   0.0008   0.0073   0.0005   0.0011   0.0008 -11.00  299.2
2024/07/09 11:40:20.000   28.293270640  -16.541458029  2332.8890   1   8   0.0009   0.0008   0.0073   0.0005   0.0011   0.0008 -10.00  300.4
2024/07/09 11:40:21.000   28.293270640  -16.541458029  2332.8890   1   8   0.0009   0.0008   0.0073   0.0005   0.0011   0.0008  -9.00  300.9
2024/07/09 11:40:22.000   28.293270640  -16.541458029  2332.8890   1   8   0.0009   0.0008   0.0073   0.0005   0.0011   0.0008  -8.00  302.1
2024/07/09 11:40:23.000   28.293270640  -16.541458029  2332.8890   1   8   0.0009   0.0008   0.0073   0.0005   0.0011   0.0008  -7.00  302.6
2024/07/09 11:40:24.000   28.293270640  -16.541458029  2332.8890   1   8   0.0009   0.0008   0.0073   0.0005   0.0011   0.0008  -6.00  302.5
2024/07/09 11:40:25.000   28.293270640  -16.541458029  2332.8889   1   8   0.0009   0.0008   0.0073   0.0005   0.0011   0.0008  -5.00  302.4
2024/07/09 11:40:26.000   28.293270640  -16.541458029  2332.8889   1   8   0.0009   0.0008   0.0073   0.0005   0.0011   0.0008  -4.00  301.6
2024/07/09 11:40:27.000   28.293270640  -16.541458029  2332.8890   1   8   0.0009   0.0008   0.0073   0.0005   0.0011   0.0008  -3.00  300.7
2024/07/09 11:40:28.000   28.293270640  -16.541458029  2332.8889   1   8   0.0009   0.0008   0.0073   0.0005   0.0011   0.0008  -2.00  298.5
2024/07/09 11:40:29.000   28.293270640  -16.541458029  2332.8890   1   8   0.0009   0.0008   0.0073   0.0005   0.0011   0.0008  -1.00  294.5
2024/07/09 11:40:30.000   28.293270640  -16.541458029  2332.8889   1   8   0.0009   0.0008   0.0073   0.0005   0.0011   0.0008   0.00  292.0
2024/07/09 11:40:31.000   28.293270640  -16.541458029  2332.8889   1   8   0.0009   0.0008   0.0073   0.0005   0.0011   0.0008   1.00  288.2
2024/07/09 11:40:32.000   28.293270640  -16.541458029  2332.8889   1   8   0.0009   0.0008   0.0073   0.0005   0.0011   0.0008   2.00  284.2
2024/07/09 11:40:33.000   28.293270640  -16.541458029  2332.8889   1   8   0.0009   0.0008   0.0073   0.0005   0.0011   0.0008   3.00  281.2
2024/07/09 11:40:34.000   28.293270640  -16.541458029  2332.8889   1   8   0.0009   0.0008   0.0073   0.0005   0.0011   0.0008   4.00  279.4
2024/07/09 11:40:35.000   28.293270640  -16.541458029  2332.8890   1   8   0.0009   0.0008   0.0073   0.0005   0.0011   0.0008   5.00  276.4
2024/07/09 11:40:36.000   28.293270640  -16.541458029  2332.8890   1   8   0.0009   0.0008   0.0073   0.0005   0.0011   0.0008   6.00  274.0
2024/07/09 11:40:37.000   28.293270640  -16.541458029  2332.8890   1   8   0.0009   0.0008   0.0073   0.0005   0.0011   0.0008   7.00  273.1
2024/07/09 11:40:38.000   28.293270640  -16.541458029  2332.8890   1   8   0.0009   0.0008   0.0073   0.0005   0.0011   0.0008   8.00  272.6
2024/07/09 11:40:39.000   28.293270640  -16.541458029  2332.8890   1   8   0.0009   0.0008   0.0072   0.0005   0.0011   0.0008   9.00  272.3
2024/07/09 11:40:40.000   28.293270640  -16.541458028  2332.8890   1   8   0.0009   0.0008   0.0072   0.0005   0.0011   0.0008  10.00  272.8
2024/07/09 11:40:41.000   28.293270640  -16.541458028  2332.8890   1   8   0.0009   0.0008   0.0072   0.0005   0.0011   0.0008  11.00  273.5
2024/07/09 11:40:42.000   28.293270640  -16.541458028  2332.8890   1   8   0.0009   0.0008   0.0072   0.0005   0.0011   0.0008  12.00  274.1
2024/07/09 11:40:43.000   28.293270640  -16.541458028  2332.8890   1   8   0.0009   0.0008   0.0072   0.0005   0.0011   0.0008  13.00  275.4
2024/07/09 11:40:44.000   28.293270640  -16.541458028  2332.8890   1   8   0.0009   0.0008   0.0072   0.0005   0.0011   0.0008  14.00  276.5
2024/07/09 11:40:45.000   28.293270640  -16.541458028  2332.8890   1   8   0.0009   0.0008   0.0072   0.0005   0.0011   0.0008 -15.00  277.9
2024/07/09 11:40:46.000   28.293270641  -16.541458028  2332.8890   1   8   0.0009   0.0008   0.0072   0.0005   0.0011   0.0008 -14.00  279.3
2024/07/09 11:40:47.000   28.293270641  -16.541458028  2332.8890   1   8   0.0009   0.0008   0.0072   0.0005   0.0011   0.0008 -13.00  280.8
2024/07/09 11:40:48.000   28.293270641  -16.541458028  2332.8890   1   8   0.0009   0.0008   0.0072   0.0005   0.0011   0.0008 -12.00  282.5
2024/07/09 11:40:49.000   28.293270641  -16.541458028  2332.8890   1   8   0.0009   0.0008   0.0072   0.0005   0.0011   0.0008 -11.00  283.8
2024/07/09 11:40:50.000   28.293270641  -16.541458028  2332.8890   1   8   0.0009   0.0008   0.0072   0.0005   0.0011   0.0008 -10.00  284.9
2024/07/09 11:40:51.000   28.293270641  -16.541458028  2332.8890   1   8   0.0009   0.0008   0.0072   0.0005   0.0011   0.0008  -9.00  285.4
2024/07/09 11:40:52.000   28.293270641  -16.541458028  2332.8890   1   8   0.0009   0.0008   0.0072   0.0005   0.0011   0.0008  -8.00  286.2
2024/07/09 11:40:53.000   28.293270641  -16.541458028  2332.8891   1   8   0.0009   0.0008   0.0072   0.0005   0.0011   0.0008  -7.00  286.6
2024/07/09 11:40:54.000   28.293270641  -16.541458028  2332.8891   1   8   0.0009   0.0008   0.0072   0.0005   0.0011   0.0008  -6.00  286.6
2024/07/09 11:40:55.000   28.293270641  -16.541458028  2332.8890   1   8   0.0009   0.0008   0.0072   0.0005   0.0011   0.0008  -5.00  286.3
2024/07/09 11:40:56.000   28.293270641  -16.541458028  2332.8891   1   8   0.0009   0.0008   0.0072   0.0005   0.0011   0.0008  -4.00  284.6
2024/07/09 11:40:57.000   28.293270641  -16.541458028  2332.8891   1   8   0.0009   0.0008   0.0072   0.0005   0.0011   0.0008  -3.00  283.5
2024/07/09 11:40:58.000   28.293270641  -16.541458028  2332.8891   1   8   0.0009   0.0008   0.0072   0.0005   0.0011   0.0008  -2.00  282.1
2024/07/09 11:40:59.000   28.293270641  -16.541458028  2332.8891   1   8   0.0009   0.0008   0.0072   0.0005   0.0011   0.0008  -1.00  278.4
2024/07/09 11:41:00.000   28.293270641  -16.541458028  2332.8890   1   8   0.0009   0.0008   0.0072   0.0005   0.0011   0.0008   0.00  276.6
2024/07/09 11:41:01.000   28.293270641  -16.541458028  2332.8891   1   8   0.0009   0.0008   0.0072   0.0005   0.0011   0.0008   1.00  274.7
2024/07/09 11:41:02.000   28.293270641  -16.541458028  2332.8891   1   8   0.0009   0.0008   0.0072   0.0005   0.0011   0.0008   2.00  272.8
2024/07/09 11:41:03.000   28.293270641  -16.541458028  2332.8891   1   8   0.0009   0.0008   0.0072   0.0005   0.0011   0.0008   3.00  272.8
2024/07/09 11:41:04.000   28.293270641  -16.541458028  2332.8891   1   8   0.0009   0.0008   0.0072   0.0005   0.0011   0.0008   4.00  271.9
2024/07/09 11:41:05.000   28.293270641  -16.541458028  2332.8891   1   8   0.0009   0.0008   0.0072   0.0005   0.0011   0.0008   5.00  270.1
2024/07/09 11:41:06.000   28.293270641  -16.541458028  2332.8891   1   8   0.0009   0.0008   0.0072   0.0005   0.0011   0.0008   6.00  269.3
2024/07/09 11:41:07.000   28.293270641  -16.541458028  2332.8891   1   8   0.0009   0.0008   0.0072   0.0005   0.0011   0.0008   7.00  268.6
2024/07/09 11:41:08.000   28.293270641  -16.541458028  2332.8891   1   8   0.0009   0.0008   0.0072   0.0005   0.0011   0.0008   8.00  268.1
2024/07/09 11:41:09.000   28.293270641  -16.541458028  2332.8891   1   8   0.0009   0.0008   0.0072   0.0005   0.0011   0.0008   9.00  268.0
2024/07/09 11:41:10.000   28.293270641  -16.541458028  2332.8891   1   8   0.0009   0.0008   0.0072   0.0005   0.0011   0.0008  10.00  268.4
2024/07/09 11:41:11.000   28.293270641  -16.541458028  2332.8891   1   8   0.0009   0.0008   0.0072   0.0005   0.0011   0.0008  11.00  268.6
2024/07/09 11:41:12.000   28.293270641  -16.541458028  2332.8891   1   8   0.0009   0.0008   0.0072   0.0005   0.0011   0.0008  12.00  269.5
2024/07/09 11:41:13.000   28.293270641  -16.541458028  2332.8891   1   8   0.0009   0.0008   0.0072   0.0005   0.0011   0.0008  13.00  270.0
2024/07/09 11:41:14.000   28.293270641  -16.541458028  2332.8891   1   8   0.0009   0.0008   0.0072   0.0005   0.0011   0.0008  14.00  270.4
2024/07/09 11:41:15.000   28.293270641  -16.541458028  2332.8891   1   8   0.0009   0.0008   0.0072   0.0005   0.0011   0.0008 -15.00  271.3
2024/07/09 11:41:16.000   28.293270641  -16.541458028  2332.8891   1   8   0.0009   0.0008   0.0072   0.0005   0.0011   0.0008 -14.00  271.8
2024/07/09 11:41:17.000   28.293270641  -16.541458028  2332.8891   1   8   0.0009   0.0008   0.0072   0.0005   0.0011   0.0008 -13.00  272.9
2024/07/09 11:41:18.000   28.293270641  -16.541458028  2332.8891   1   8   0.0009   0.0008   0.0072   0.0005   0.0011   0.0008 -12.00  273.4
2024/07/09 11:41:19.000   28.293270641  -16.541458028  2332.8891   1   8   0.0009   0.0008   0.0072   0.0005   0.0011   0.0008 -11.00  273.2
2024/07/09 11:41:20.000   28.293270641  -16.541458028  2332.8891   1   8   0.0009   0.0008   0.0072   0.0005   0.0011   0.0008 -10.00  273.0
2024/07/09 11:41:21.000   28.293270641  -16.541458028  2332.8891   1   8   0.0009   0.0008   0.0072   0.0005   0.0011   0.0008  -9.00  273.0
2024/07/09 11:41:22.000   28.293270641  -16.541458028  2332.8891   1   8   0.0009   0.0008   0.0072   0.0005   0.0011   0.0008  -8.00  272.2
2024/07/09 11:41:23.000   28.293270641  -16.541458028  2332.8891   1   8   0.0009   0.0008   0.0072   0.0005   0.0011   0.0008  -7.00  271.8
2024/07/09 11:41:24.000   28.293270641  -16.541458028  2332.8891   1   8   0.0009   0.0008   0.0072   0.0005   0.0011   0.0008  -6.00  270.6
2024/07/09 11:41:25.000   28.293270641  -16.541458028  2332.8891   1   8   0.0009   0.0008   0.0072   0.0005   0.0011   0.0008  -5.00  268.2
2024/07/09 11:41:26.000   28.293270641  -16.541458028  2332.8891   1   8   0.0009   0.0008   0.0072   0.0005   0.0011   0.0008  -4.00  265.6
2024/07/09 11:41:27.000   28.293270641  -16.541458028  2332.8892   1   8   0.0009   0.0008   0.0072   0.0005   0.0011   0.0008  -3.00  262.3
2024/07/09 11:41:28.000   28.293270641  -16.541458028  2332.8892   1   8   0.0009   0.0008   0.0072   0.0005   0.0011   0.0008  -2.00  258.2
2024/07/09 11:41:29.000   28.293270641  -16.541458028  2332.8892   1   8   0.0009   0.0008   0.0072   0.0005   0.0011   0.0008  -1.00  254.0
2024/07/09 11:41:30.000   28.293270641  -16.541458028  2332.8892   1   8   0.0009   0.0008   0.0072   0.0005   0.0011   0.0008   0.00  251.0
2024/07/09 11:41:31.000   28.293270641  -16.541458028  2332.8892   1   8   0.0009   0.0008   0.0072   0.0005   0.0011   0.0008   1.00  248.0
2024/07/09 11:41:32.000   28.293270641  -16.541458028  2332.8892   1   8   0.0009   0.0008   0.0072   0.0005   0.0011   0.0008   2.00  244.9
2024/07/09 11:41:33.000   28.293270641  -16.541458028  2332.8892   1   8   0.0009   0.0008   0.0072   0.0005   0.0011   0.0008   3.00  241.4
2024/07/09 11:41:34.000   28.293270641  -16.541458028  2332.8893   1   8   0.0009   0.0008   0.0072   0.0005   0.0011   0.0008   4.00  238.2
2024/07/09 11:41:35.000   28.293270641  -16.541458028  2332.8893   1   8   0.0009   0.0008   0.0072   0.0005   0.0011   0.0008   5.00  236.0
2024/07/09 11:41:36.000   28.293270641  -16.541458028  2332.8893   1   8   0.0009   0.0008   0.0072   0.0005   0.0011   0.0008   6.00  233.9
2024/07/09 11:41:37.000   28.293270641  -16.541458028  2332.8893   1   8   0.0009   0.0008   0.0072   0.0005   0.0011   0.0008   7.00  232.1
2024/07/09 11:41:38.000   28.293270641  -16.541458028  2332.8893   1   8   0.0009   0.0008   0.0072   0.0005   0.0011   0.0008   8.00  230.7
2024/07/09 11:41:39.000   28.293270642  -16.541458028  2332.8893   1   8   0.0009   0.0008   0.0072   0.0005   0.0011   0.0008   9.00  229.5
2024/07/09 11:41:40.000   28.293270642  -16.541458028  2332.8893   1   8   0.0009   0.0008   0.0072   0.0005   0.0011   0.0008  10.00  228.9
2024/07/09 11:41:41.000   28.293270642  -16.541458028  2332.8893   1   8   0.0009   0.0008   0.0072   0.0005   0.0011   0.0008  11.00  228.5
2024/07/09 11:41:42.000   28.293270642  -16.541458028  2332.8893   1   8   0.0009   0.0008   0.0072   0.0005   0.0011   0.0008  12.00  228.2
2024/07/09 11:41:43.000   28.293270642  -16.541458028  2332.8893   1   8   0.0009   0.0008   0.0072   0.0005   0.0011   0.0008  13.00  228.0
2024/07/09 11:41:44.000   28.293270642  -16.541458028  2332.8893   1   8   0.0009   0.0008   0.0072   0.0005   0.0011   0.0008  14.00  228.0
2024/07/09 11:41:45.000   28.293270642  -16.541458028  2332.8893   1   8   0.0009   0.0008   0.0072   0.0005   0.0011   0.0008 -15.00  228.1
2024/07/09 11:41:46.000   28.293270642  -16.541458028  2332.8893   1   8   0.0009   0.0008   0.0072   0.0005   0.0011   0.0008 -14.00  228.1
2024/07/09 11:41:47.000   28.293270642  -16.541458028  2332.8893   1   8   0.0009   0.0008   0.0072   0.0005   0.0011   0.0008 -13.00  228.3
2024/07/09 11:41:48.000   28.293270642  -16.541458028  2332.8893   1   8   0.0009   0.0008   0.0072   0.0005   0.0011   0.0008 -12.00  228.0
2024/07/09 11:41:49.000   28.293270642  -16.541458028  2332.8893   1   8   0.0009   0.0008   0.0072   0.0005   0.0011   0.0008 -11.00  227.6
2024/07/09 11:41:50.000   28.293270642  -16.541458028  2332.8893   1   8   0.0009   0.0008   0.0072   0.0005   0.0011   0.0008 -10.00  227.2
2024/07/09 11:41:51.000   28.293270642  -16.541458028  2332.8893   1   8   0.0009   0.0008   0.0072   0.0005   0.0011   0.0008  -9.00  226.4
2024/07/09 11:41:52.000   28.293270642  -16.541458028  2332.8893   1   8   0.0009   0.0008   0.0072   0.0005   0.0011   0.0008  -8.00  225.6
2024/07/09 11:41:53.000   28.293270642  -16.541458028  2332.8893   1   8   0.0009   0.0008   0.0071   0.0005   0.0011   0.0008  -7.00  223.8
2024/07/09 11:41:54.000   28.293270642  -16.541458028  2332.8893   1   8   0.0009   0.0008   0.0071   0.0005   0.0011   0.0008  -6.00  222.0
2024/07/09 11:41:55.000   28.293270642  -16.541458028  2332.8893   1   8   0.0009   0.0008   0.0071   0.0005   0.0011   0.0008  -5.00  218.5
2024/07/09 11:41:56.000   28.293270642  -16.541458028  2332.8893   1   8   0.0009   0.0008   0.0071   0.0005   0.0011   0.0008  -4.00  215.7
2024/07/09 11:41:57.000   28.293270642  -16.541458028  2332.8893   1   8   0.0009   0.0008   0.0071   0.0005   0.0011   0.0008  -3.00  212.6
2024/07/09 11:41:58.000   28.293270642  -16.541458028  2332.8893   1   8   0.0009   0.0008   0.0071   0.0005   0.0011   0.0008  -2.00  209.9
2024/07/09 11:41:59.000   28.293270642  -16.541458028  2332.8893   1   8   0.0009   0.0008   0.0071   0.0005   0.0011   0.0008  -1.00  206.9
2024/07/09 11:42:00.000   28.293270642  -16.541458028  2332.8893   1   8   0.0009   0.0008   0.0071   0.0005   0.0011   0.0008   0.00  204.3
2024/07/09 11:42:01.000   28.293270642  -16.541458028  2332.8893   1   8   0.0009   0.0008   0.0071   0.0005   0.0011   0.0008   1.00  201.5
2024/07/09 11:42:02.000   28.293270642  -16.541458028  2332.8894   1   8   0.0009   0.0008   0.0071   0.0005   0.0011   0.0008   2.00  198.4
2024/07/09 11:42:03.000   28.293270642  -16.541458028  2332.8894   1   8   0.0009   0.0008   0.0071   0.0005   0.0011   0.0008   3.00  195.3
2024/07/09 11:42:04.000   28.293270642  -16.541458028  2332.8895   1   8   0.0009   0.0008   0.0071   0.0005   0.0011   0.0008   4.00  192.6
2024/07/09 11:42:05.000   28.293270642  -16.541458028  2332.8895   1   8   0.0009   0.0008   0.0071   0.0005   0.0011   0.0008   5.00  190.5
2024/07/09 11:42:06.000   28.293270642  -16.541458028  2332.8895   1   8   0.0009   0.0008   0.0071   0.0005   0.0011   0.0008   6.00  188.6
2024/07/09 11:42:07.000   28.293270642  -16.541458028  2332.8895   1   8   0.0009   0.0008   0.0071   0.0005   0.0011   0.0008   7.00  187.0
2024/07/09 11:42:08.000   28.293270642  -16.541458028  2332.8895   1   8   0.0009   0.0008   0.0071   0.0005   0.0011   0.0008   8.00  186.0
2024/07/09 11:42:09.000   28.293270642  -16.541458028  2332.8895   1   8   0.0009   0.0008   0.0071   0.0005   0.0011   0.0008   9.00  185.0
2024/07/09 11:42:10.000   28.293270642  -16.541458028  2332.8896   1   8   0.0009   0.0008   0.0071   0.0005   0.0011   0.0008  10.00  184.3
2024/07/09 11:42:11.000   28.293270642  -16.541458028  2332.8896   1   8   0.0009   0.0008   0.0071   0.0005   0.0011   0.0008  11.00  183.8
2024/07/09 11:42:12.000   28.293270642  -16.541458028  2332.8896   1   8   0.0009   0.0008   0.0071   0.0005   0.0011   0.0008  12.00  183.6
2024/07/09 11:42:13.000   28.293270642  -16.541458028  2332.8896   1   8   0.0009   0.0008   0.0071   0.0005   0.0011   0.0008  13.00  183.4
2024/07/09 11:42:14.000   28.293270642  -16.541458028  2332.8896   1   8   0.0009   0.0008   0.0071   0.0005   0.0011   0.0008  14.00  183.4
2024/07/09 11:42:15.000   28.293270642  -16.541458028  2332.8896   1   8   0.0009   0.0008   0.0071   0.0005   0.0011   0.0008 -15.00  183.5
2024/07/09 11:42:16.000   28.293270642  -16.541458028  2332.8896   1   8   0.0009   0.0008   0.0071   0.0005   0.0011   0.0008 -14.00  183.5
2024/07/09 11:42:17.000   28.293270642  -16.541458028  2332.8896   1   8   0.0009   0.0008   0.0071   0.0005   0.0011   0.0008 -13.00  183.3
2024/07/09 11:42:18.000   28.293270642  -16.541458028  2332.8896   1   8   0.0009   0.0008   0.0071   0.0005   0.0011   0.0008 -12.00  183.2
2024/07/09 11:42:19.000   28.293270642  -16.541458028  2332.8897   1   8   0.0009   0.0008   0.0071   0.0005   0.0011   0.0008 -11.00  182.8
2024/07/09 11:42:20.000   28.293270642  -16.541458028  2332.8897   1   8   0.0009   0.0008   0.0071   0.0005   0.0011   0.0008 -10.00  182.5
2024/07/09 11:42:21.000   28.293270642  -16.541458028  2332.8897   1   8   0.0009   0.0008   0.0071   0.0005   0.0011   0.0008  -9.00  182.3
2024/07/09 11:42:22.000   28.293270642  -16.541458028  2332.8897   1   8   0.0009   0.0008   0.0071   0.0005   0.0011   0.0008  -8.00  182.0
2024/07/09 11:42:23.000   28.293270642  -16.541458028  2332.8897   1   8   0.0009   0.0008   0.0071   0.0005   0.0011   0.0008  -7.00  181.6
2024/07/09 11:42:24.000   28.293270642  -16.541458028  2332.8897   1   8   0.0009   0.0008   0.0071   0.0005   0.0011   0.0008  -6.00  181.2
2024/07/09 11:42:25.000   28.293270642  -16.541458028  2332.8898   1   8   0.0009   0.0008   0.0071   0.0005   0.0011   0.0008  -5.00  181.3
2024/07/09 11:42:26.000   28.293270642  -16.541458028  2332.8898   1   8   0.0009   0.0008   0.0071   0.0005   0.0011   0.0008  -4.00  181.0
2024/07/09 11:42:27.000   28.293270642  -16.541458028  2332.8898   1   8   0.0009   0.0008   0.0071   0.0005   0.0011   0.0008  -3.00  180.7
2024/07/09 11:42:28.000   28.293270642  -16.541458028  2332.8898   1   8   0.0009   0.0008   0.0071   0.0005   0.0011   0.0008  -2.00  181.2
2024/07/09 11:42:29.000   28.293270642  -16.541458027  2332.8899   1   8   0.0009   0.0008   0.0071   0.0005   0.0011   0.0008  -1.00  181.0
2024/07/09 11:42:30.000   28.293270642  -16.541458028  2332.8898   1   8   0.0009   0.0008   0.0071   0.0005   0.0011   0.0008   0.00  180.4
2024/07/09 11:42:31.000   28.293270642  -16.541458027  2332.8898   1   8   0.0009   0.0008   0.0071   0.0005   0.0011   0.0008   1.00  180.1
2024/07/09 11:42:32.000   28.293270643  -16.541458027  2332.8898   1   8   0.0009   0.0008   0.0071   0.0005   0.0011   0.0008   2.00  179.9
2024/07/09 11:42:33.000   28.293270642  -16.541458028  2332.8898   1   8   0.0009   0.0008   0.0071   0.0005   0.0011   0.0008   3.00  180.4
2024/07/09 11:42:34.000   28.293270643  -16.541458027  2332.8897   1   8   0.0009   0.0008   0.0071   0.0005   0.0011   0.0008   4.00  180.3
2024/07/09 11:42:35.000   28.293270643  -16.541458027  2332.8897   1   8   0.0009   0.0008   0.0071   0.0005   0.0011   0.0008   5.00  180.6
2024/07/09 11:42:36.000   28.293270643  -16.541458027  2332.8897   1   8   0.0009   0.0008   0.0071   0.0005   0.0011   0.0008   6.00  180.5
2024/07/09 11:42:37.000   28.293270643  -16.541458027  2332.8898   1   8   0.0009   0.0008   0.0071   0.0005   0.0011   0.0008   7.00  180.6
2024/07/09 11:42:38.000   28.293270643  -16.541458027  2332.8897   1   8   0.0009   0.0008   0.0071   0.0005   0.0011   0.0008   8.00  180.8
2024/07/09 11:42:39.000   28.293270643  -16.541458027  2332.8897   1   8   0.0009   0.0008   0.0071   0.0005   0.0011   0.0008   9.00  180.9
2024/07/09 11:42:40.000   28.293270643  -16.541458027  2332.8897   1   8   0.0009   0.0008   0.0071   0.0005   0.0011   0.0008  10.00  180.9
2024/07/09 11:42:41.000   28.293270643  -16.541458027  2332.8897   1   8   0.0009   0.0008   0.0071   0.0005   0.0011   0.0008  11.00  181.0
2024/07/09 11:42:42.000   28.293270643  -16.541458027  2332.8897   1   8   0.0009   0.0008   0.0071   0.0005   0.0011   0.0008  12.00  181.2
2024/07/09 11:42:43.000   28.293270643  -16.541458027  2332.8897   1   8   0.0009   0.0008   0.0071   0.0005   0.0011   0.0008  13.00  181.2
2024/07/09 11:42:44.000   28.293270643  -16.541458027  2332.8897   1   8   0.0009   0.0008   0.0071   0.0005   0.0011   0.0008  14.00  181.3
2024/07/09 11:42:45.000   28.293270643  -16.541458027  2332.8897   1   8   0.0009   0.0008   0.0071   0.0005   0.0011   0.0008 -15.00  181.5
2024/07/09 11:42:46.000   28.293270643  -16.541458027  2332.8897   1   8   0.0009   0.0008   0.0071   0.0005   0.0011   0.0008 -14.00  181.4
2024/07/09 11:42:47.000   28.293270643  -16.541458027  2332.8898   1   8   0.0009   0.0008   0.0071   0.0005   0.0011   0.0008 -13.00  181.1
2024/07/09 11:42:48.000   28.293270643  -16.541458027  2332.8898   1   8   0.0009   0.0008   0.0071   0.0005   0.0011   0.0008 -12.00  180.8
2024/07/09 11:42:49.000   28.293270643  -16.541458027  2332.8898   1   8   0.0009   0.0008   0.0071   0.0005   0.0011   0.0008 -11.00  180.4
2024/07/09 11:42:50.000   28.293270643  -16.541458027  2332.8898   1   8   0.0009   0.0008   0.0071   0.0005   0.0011   0.0008 -10.00  179.8
2024/07/09 11:42:51.000   28.293270643  -16.541458027  2332.8898   1   8   0.0009   0.0008   0.0071   0.0005   0.0011   0.0008  -9.00  179.1
2024/07/09 11:42:52.000   28.293270643  -16.541458027  2332.8898   1   8   0.0009   0.0008   0.0071   0.0005   0.0011   0.0008  -8.00  178.4
2024/07/09 11:42:53.000   28.293270643  -16.541458027  2332.8898   1   8   0.0009   0.0008   0.0071   0.0005   0.0011   0.0008  -7.00  177.5
2024/07/09 11:42:54.000   28.293270643  -16.541458027  2332.8898   1   8   0.0009   0.0008   0.0071   0.0005   0.0011   0.0008  -6.00  176.3
2024/07/09 11:42:55.000   28.293270643  -16.541458027  2332.8898   1   8   0.0009   0.0008   0.0071   0.0005   0.0011   0.0008  -5.00  175.0
2024/07/09 11:42:56.000   28.293270643  -16.541458027  2332.8898   1   8   0.0009   0.0008   0.0071   0.0005   0.0011   0.0008  -4.00  174.2
2024/07/09 11:42:57.000   28.293270643  -16.541458027  2332.8897   1   8   0.0009   0.0008   0.0071   0.0005   0.0011   0.0008  -3.00  172.6
2024/07/09 11:42:58.000   28.293270643  -16.541458027  2332.8898   1   8   0.0009   0.0008   0.0071   0.0005   0.0011   0.0008  -2.00  171.9
2024/07/09 11:42:59.000   28.293270643  -16.541458027  2332.8898   1   8   0.0009   0.0008   0.0071   0.0005   0.0011   0.0008  -1.00  170.9
2024/07/09 11:43:00.000   28.293270643  -16.541458027  2332.8897   1   8   0.0009   0.0008   0.0071   0.0005   0.0011   0.0008   0.00  170.4
2024/07/09 11:43:01.000   28.293270643  -16.541458027  2332.8897   1   8   0.0009   0.0008   0.0071   0.0005   0.0011   0.0008   1.00  169.8
2024/07/09 11:43:02.000   28.293270643  -16.541458027  2332.8897   1   8   0.0009   0.0008   0.0071   0.0005   0.0011   0.0008   2.00  168.9
2024/07/09 11:43:03.000   28.293270643  -16.541458027  2332.8898   1   8   0.0009   0.0008   0.0071   0.0005   0.0011   0.0008   3.00  168.3
2024/07/09 11:43:04.000   28.293270643  -16.541458027  2332.8898   1   8   0.0009   0.0008   0.0071   0.0005   0.0011   0.0008   4.00  168.2
2024/07/09 11:43:05.000   28.293270643  -16.541458027  2332.8898   1   8   0.0009   0.0008   0.0071   0.0005   0.0011   0.0008   5.00  168.0
2024/07/09 11:43:06.000   28.293270643  -16.541458027  2332.8898   1   8   0.0009   0.0008   0.0071   0.0005   0.0011   0.0008   6.00  167.8
2024/07/09 11:43:07.000   28.293270643  -16.541458027  2332.8898   1   8   0.0009   0.0008   0.0071   0.0005   0.0011   0.0008   7.00  168.0
2024/07/09 11:43:08.000   28.293270643  -16.541458027  2332.8899   1   8   0.0009   0.0008   0.0071   0.0005   0.0011   0.0008   8.00  168.1
2024/07/09 11:43:09.000   28.293270643  -16.541458027  2332.8899   1   8   0.0009   0.0008   0.0071   0.0005   0.0011   0.0008   9.00  168.3
2024/07/09 11:43:10.000   28.293270643  -16.541458027  2332.8899   1   8   0.0009   0.0008   0.0071   0.0005   0.0011   0.0008  10.00  168.4
2024/07/09 11:43:11.000   28.293270643  -16.541458027  2332.8899   1   8   0.0009   0.0008   0.0071   0.0005   0.0011   0.0008  11.00  168.8
2024/07/09 11:43:12.000   28.293270643  -16.541458027  2332.8899   1   8   0.0009   0.0008   0.0071   0.0005   0.0011   0.0008  12.00  169.0
2024/07/09 11:43:13.000   28.293270643  -16.541458027  2332.8899   1   8   0.0009   0.0008   0.0071   0.0005   0.0011   0.0008  13.00  169.1
2024/07/09 11:43:14.000   28.293270643  -16.541458027  2332.8899   1   8   0.0009   0.0008   0.0071   0.0005   0.0011   0.0008  14.00  169.4
2024/07/09 11:43:15.000   28.293270643  -16.541458027  2332.8900   1   8   0.0009   0.0008   0.0071   0.0005   0.0011   0.0008 -15.00  169.7
