% program   : RTKPOST-EX 2.5.0
% inp file  : C:\Users\SallyHenry\Desktop\Sally Internship\GNSS gravi\DATA\Survey Rover Obs\LM014_G15.24o
% inp file  : C:\Users\SallyHenry\Desktop\Sally Internship\GNSS gravi\DATA\BaseStations\IZAN\IZAN00ESP_R_20241910000_01D_30S_MO.rnx
% inp file  : C:\Users\SallyHenry\Desktop\Sally Internship\GNSS gravi\DATA\BaseStations\IZAN\IZAN00ESP_R_20241910000_01D_MN.rnx
% inp file  : C:\Users\SallyHenry\Desktop\Sally Internship\GNSS gravi\DATA\aux_files\Survey\IGS0OPSFIN_20241910000_01D_15M_ORB.SP3
% inp file  : C:\Users\SallyHenry\Desktop\Sally Internship\GNSS gravi\DATA\aux_files\Survey\IGS0OPSFIN_20241910000_01D_30S_CLK.CLK
% obs start : 2024/07/09 10:43:53.0 GPST (week2322 211433.0s)
% obs end   : 2024/07/09 11:33:52.0 GPST (week2322 214432.0s)
% pos mode  : Static
% freqs     : L1+L2/E5b
% solution  : Combined-No Phase Reset
% elev mask : 15.0 deg
% dynamics  : on
% tidecorr  : solid
% ionos opt : Estimate TEC
% tropo opt : Estimate ZTD+Grad
% ephemeris : Precise
% navi sys  : GPS GLONASS Galileo QZSS BDS
% amb res   : Fix and Hold
% amb glo   : Fix and Hold
% amb bds   : on
% val thres : 3.0
% antenna1  :                       ( 0.0000  0.0000  1.7600)
% antenna2  :                       ( 0.0000  0.0000  0.0000)
% ref pos   :  28.308069410  -16.499677180  2417.4044
%
% (lat/lon/height=WGS84/ellipsoidal,Q=1:fix,2:float,3:sbas,4:dgps,5:single,6:ppp,ns=# of satellites)
%  GPST                  latitude(deg) longitude(deg)  height(m)   Q  ns   sdn(m)   sde(m)   sdu(m)  sdne(m)  sdeu(m)  sdun(m) age(s)  ratio
2024/07/09 10:43:53.000   28.293160331  -16.541947993  2332.2031   1   6   0.0011   0.0012   0.0099   0.0006  -0.0013   0.0009  -7.00  999.9
2024/07/09 10:43:54.000   28.293160331  -16.541947993  2332.2031   1   6   0.0011   0.0012   0.0099   0.0006  -0.0013   0.0009  -6.00  999.9
2024/07/09 10:43:55.000   28.293160331  -16.541947993  2332.2031   1   6   0.0011   0.0012   0.0099   0.0006  -0.0013   0.0009  -5.00  999.9
2024/07/09 10:43:56.000   28.293160331  -16.541947993  2332.2031   1   6   0.0011   0.0012   0.0099   0.0006  -0.0013   0.0009  -4.00  999.9
2024/07/09 10:43:57.000   28.293160331  -16.541947993  2332.2031   1   6   0.0011   0.0012   0.0099   0.0006  -0.0013   0.0009  -3.00  999.9
2024/07/09 10:43:58.000   28.293160331  -16.541947994  2332.2031   1   6   0.0011   0.0012   0.0099   0.0006  -0.0013   0.0009  -2.00  999.9
2024/07/09 10:43:59.000   28.293160331  -16.541947994  2332.2031   1   6   0.0011   0.0012   0.0099   0.0006  -0.0013   0.0009  -1.00  999.9
2024/07/09 10:44:00.000   28.293160331  -16.541947994  2332.2031   1   6   0.0011   0.0012   0.0099   0.0006  -0.0013   0.0009   0.00  999.9
2024/07/09 10:44:01.000   28.293160331  -16.541947995  2332.2031   1   6   0.0011   0.0012   0.0099   0.0006  -0.0013   0.0009   1.00  999.9
2024/07/09 10:44:02.000   28.293160331  -16.541947995  2332.2031   1   6   0.0011   0.0012   0.0099   0.0006  -0.0013   0.0009   2.00  999.9
2024/07/09 10:44:03.000   28.293160331  -16.541947995  2332.2031   1   6   0.0011   0.0012   0.0099   0.0006  -0.0013   0.0009   3.00  999.9
2024/07/09 10:44:04.000   28.293160331  -16.541947995  2332.2031   1   6   0.0011   0.0012   0.0099   0.0006  -0.0013   0.0009   4.00  999.9
2024/07/09 10:44:05.000   28.293160331  -16.541947996  2332.2031   1   6   0.0011   0.0012   0.0099   0.0006  -0.0013   0.0009   5.00  999.9
2024/07/09 10:44:06.000   28.293160331  -16.541947996  2332.2031   1   6   0.0011   0.0012   0.0099   0.0006  -0.0013   0.0009   6.00  999.9
2024/07/09 10:44:07.000   28.293160331  -16.541947996  2332.2031   1   6   0.0011   0.0012   0.0099   0.0006  -0.0013   0.0009   7.00  999.9
2024/07/09 10:44:08.000   28.293160331  -16.541947996  2332.2031   1   6   0.0011   0.0012   0.0099   0.0006  -0.0013   0.0009   8.00  999.9
2024/07/09 10:44:09.000   28.293160331  -16.541947996  2332.2031   1   6   0.0011   0.0012   0.0099   0.0006  -0.0013   0.0009   9.00  999.9
2024/07/09 10:44:10.000   28.293160331  -16.541947996  2332.2031   1   6   0.0011   0.0012   0.0099   0.0006  -0.0013   0.0009  10.00  999.9
2024/07/09 10:44:11.000   28.293160331  -16.541947996  2332.2031   1   6   0.0011   0.0012   0.0099   0.0006  -0.0013   0.0009  11.00  999.9
2024/07/09 10:44:12.000   28.293160331  -16.541947996  2332.2031   1   6   0.0011   0.0012   0.0099   0.0006  -0.0013   0.0009  12.00  999.9
2024/07/09 10:44:13.000   28.293160331  -16.541947996  2332.2031   1   6   0.0011   0.0012   0.0099   0.0006  -0.0013   0.0009  13.00  999.9
2024/07/09 10:44:14.000   28.293160331  -16.541947996  2332.2031   1   6   0.0011   0.0012   0.0099   0.0006  -0.0013   0.0009  14.00  999.9
2024/07/09 10:44:15.000   28.293160331  -16.541947996  2332.2031   1   6   0.0011   0.0012   0.0099   0.0006  -0.0013   0.0009  15.00  999.9
2024/07/09 10:44:16.000   28.293160331  -16.541947996  2332.2030   1   6   0.0011   0.0012   0.0099   0.0006  -0.0013   0.0009 -14.00  999.9
2024/07/09 10:44:17.000   28.293160331  -16.541947996  2332.2030   1   6   0.0011   0.0012   0.0099   0.0006  -0.0013   0.0009 -13.00  999.9
2024/07/09 10:44:18.000   28.293160331  -16.541947996  2332.2030   1   6   0.0011   0.0012   0.0099   0.0006  -0.0013   0.0009 -12.00  999.9
2024/07/09 10:44:19.000   28.293160331  -16.541947996  2332.2030   1   6   0.0011   0.0012   0.0099   0.0006  -0.0013   0.0009 -11.00  999.9
2024/07/09 10:44:20.000   28.293160331  -16.541947996  2332.2030   1   6   0.0011   0.0012   0.0099   0.0006  -0.0013   0.0009 -10.00  999.9
2024/07/09 10:44:21.000   28.293160331  -16.541947996  2332.2030   1   6   0.0011   0.0012   0.0099   0.0006  -0.0013   0.0009  -9.00  999.9
2024/07/09 10:44:22.000   28.293160331  -16.541947996  2332.2030   1   6   0.0011   0.0012   0.0099   0.0006  -0.0013   0.0009  -8.00  999.9
2024/07/09 10:44:23.000   28.293160331  -16.541947996  2332.2030   1   6   0.0011   0.0012   0.0099   0.0006  -0.0013   0.0009  -7.00  999.9
2024/07/09 10:44:24.000   28.293160331  -16.541947996  2332.2030   1   6   0.0011   0.0012   0.0099   0.0006  -0.0013   0.0009  -6.00  999.9
2024/07/09 10:44:25.000   28.293160331  -16.541947997  2332.2030   1   6   0.0011   0.0012   0.0098   0.0006  -0.0013   0.0009  -5.00  999.9
2024/07/09 10:44:26.000   28.293160331  -16.541947997  2332.2030   1   6   0.0011   0.0012   0.0098   0.0006  -0.0013   0.0010  -4.00  999.9
2024/07/09 10:44:27.000   28.293160331  -16.541947997  2332.2030   1   6   0.0011   0.0012   0.0098   0.0006  -0.0013   0.0010  -3.00  999.9
2024/07/09 10:44:28.000   28.293160331  -16.541947997  2332.2030   1   6   0.0011   0.0012   0.0098   0.0006  -0.0013   0.0010  -2.00  999.9
2024/07/09 10:44:29.000   28.293160331  -16.541947997  2332.2030   1   6   0.0011   0.0012   0.0098   0.0006  -0.0013   0.0010  -1.00  999.9
2024/07/09 10:44:30.000   28.293160331  -16.541947997  2332.2030   1   6   0.0011   0.0012   0.0098   0.0006  -0.0013   0.0010   0.00  999.9
2024/07/09 10:44:31.000   28.293160331  -16.541947997  2332.2030   1   6   0.0011   0.0012   0.0098   0.0006  -0.0013   0.0010   1.00  999.9
2024/07/09 10:44:32.000   28.293160331  -16.541947998  2332.2029   1   6   0.0011   0.0012   0.0098   0.0006  -0.0013   0.0010   2.00  999.9
2024/07/09 10:44:33.000   28.293160331  -16.541947998  2332.2029   1   6   0.0011   0.0012   0.0098   0.0006  -0.0013   0.0010   3.00  999.9
2024/07/09 10:44:34.000   28.293160331  -16.541947998  2332.2029   1   6   0.0011   0.0012   0.0098   0.0006  -0.0013   0.0010   4.00  999.9
2024/07/09 10:44:35.000   28.293160332  -16.541947998  2332.2029   1   6   0.0011   0.0012   0.0098   0.0006  -0.0013   0.0010   5.00  990.3
2024/07/09 10:44:36.000   28.293160332  -16.541947998  2332.2029   1   6   0.0011   0.0012   0.0098   0.0006  -0.0013   0.0010   6.00  977.8
2024/07/09 10:44:37.000   28.293160332  -16.541947998  2332.2029   1   6   0.0011   0.0012   0.0098   0.0006  -0.0013   0.0010   7.00  966.8
2024/07/09 10:44:38.000   28.293160332  -16.541947998  2332.2029   1   6   0.0011   0.0012   0.0098   0.0006  -0.0013   0.0010   8.00  957.8
2024/07/09 10:44:39.000   28.293160332  -16.541947999  2332.2029   1   6   0.0011   0.0012   0.0098   0.0006  -0.0013   0.0010   9.00  948.4
2024/07/09 10:44:40.000   28.293160332  -16.541947999  2332.2029   1   6   0.0011   0.0012   0.0098   0.0006  -0.0013   0.0010  10.00  940.8
2024/07/09 10:44:41.000   28.293160332  -16.541947999  2332.2029   1   6   0.0011   0.0012   0.0098   0.0006  -0.0013   0.0010  11.00  933.7
2024/07/09 10:44:42.000   28.293160332  -16.541947999  2332.2029   1   6   0.0011   0.0012   0.0098   0.0006  -0.0013   0.0010  12.00  928.7
2024/07/09 10:44:43.000   28.293160332  -16.541947999  2332.2029   1   6   0.0011   0.0012   0.0098   0.0006  -0.0013   0.0010  13.00  924.0
2024/07/09 10:44:44.000   28.293160332  -16.541947999  2332.2029   1   6   0.0011   0.0012   0.0098   0.0006  -0.0013   0.0010  14.00  918.8
2024/07/09 10:44:45.000   28.293160332  -16.541947999  2332.2029   1   6   0.0011   0.0012   0.0098   0.0006  -0.0013   0.0010  15.00  914.0
2024/07/09 10:44:46.000   28.293160332  -16.541947999  2332.2029   1   6   0.0011   0.0012   0.0098   0.0006  -0.0013   0.0010 -14.00  910.0
2024/07/09 10:44:47.000   28.293160333  -16.541947999  2332.2029   1   6   0.0011   0.0012   0.0098   0.0006  -0.0013   0.0010 -13.00  905.6
2024/07/09 10:44:48.000   28.293160333  -16.541947999  2332.2029   1   6   0.0011   0.0012   0.0098   0.0006  -0.0013   0.0010 -12.00  900.5
2024/07/09 10:44:49.000   28.293160333  -16.541947999  2332.2029   1   6   0.0011   0.0012   0.0098   0.0006  -0.0013   0.0010 -11.00  895.1
2024/07/09 10:44:50.000   28.293160333  -16.541947999  2332.2029   1   6   0.0011   0.0012   0.0098   0.0006  -0.0013   0.0010 -10.00  890.4
2024/07/09 10:44:51.000   28.293160333  -16.541947999  2332.2029   1   6   0.0011   0.0012   0.0098   0.0006  -0.0013   0.0010  -9.00  885.8
2024/07/09 10:44:52.000   28.293160333  -16.541947999  2332.2029   1   6   0.0011   0.0012   0.0098   0.0006  -0.0013   0.0010  -8.00  881.5
2024/07/09 10:44:53.000   28.293160333  -16.541947999  2332.2029   1   6   0.0011   0.0012   0.0098   0.0006  -0.0013   0.0010  -7.00  878.9
2024/07/09 10:44:54.000   28.293160333  -16.541947999  2332.2029   1   6   0.0011   0.0012   0.0098   0.0006  -0.0013   0.0010  -6.00  874.6
2024/07/09 10:44:55.000   28.293160333  -16.541947999  2332.2029   1   6   0.0011   0.0012   0.0098   0.0006  -0.0013   0.0010  -5.00  872.7
2024/07/09 10:44:56.000   28.293160333  -16.541947999  2332.2029   1   6   0.0011   0.0012   0.0098   0.0006  -0.0013   0.0010  -4.00  868.6
2024/07/09 10:44:57.000   28.293160333  -16.541947999  2332.2029   1   6   0.0011   0.0012   0.0098   0.0006  -0.0013   0.0010  -3.00  864.1
2024/07/09 10:44:58.000   28.293160333  -16.541947999  2332.2029   1   6   0.0011   0.0012   0.0098   0.0006  -0.0013   0.0010  -2.00  858.8
2024/07/09 10:44:59.000   28.293160334  -16.541947999  2332.2029   1   6   0.0011   0.0012   0.0098   0.0006  -0.0013   0.0010  -1.00  852.1
2024/07/09 10:45:00.000   28.293160334  -16.541947999  2332.2029   1   6   0.0011   0.0012   0.0098   0.0006  -0.0013   0.0010   0.00  838.8
2024/07/09 10:45:01.000   28.293160334  -16.541947999  2332.2029   1   6   0.0011   0.0012   0.0098   0.0006  -0.0013   0.0010   1.00  828.5
2024/07/09 10:45:02.000   28.293160334  -16.541947999  2332.2029   1   6   0.0011   0.0012   0.0098   0.0006  -0.0013   0.0010   2.00  817.9
2024/07/09 10:45:03.000   28.293160334  -16.541947999  2332.2029   1   6   0.0011   0.0012   0.0098   0.0006  -0.0013   0.0010   3.00  810.3
2024/07/09 10:45:04.000   28.293160334  -16.541947999  2332.2029   1   6   0.0011   0.0012   0.0098   0.0006  -0.0013   0.0010   4.00  799.3
2024/07/09 10:45:05.000   28.293160334  -16.541947999  2332.2029   1   6   0.0011   0.0012   0.0098   0.0006  -0.0013   0.0010   5.00  787.3
2024/07/09 10:45:06.000   28.293160334  -16.541948000  2332.2029   1   6   0.0011   0.0012   0.0098   0.0006  -0.0013   0.0010   6.00  780.1
2024/07/09 10:45:07.000   28.293160334  -16.541948000  2332.2029   1   6   0.0011   0.0012   0.0098   0.0006  -0.0013   0.0010   7.00  772.7
2024/07/09 10:45:08.000   28.293160334  -16.541948000  2332.2029   1   6   0.0011   0.0012   0.0098   0.0006  -0.0013   0.0010   8.00  764.8
2024/07/09 10:45:09.000   28.293160334  -16.541948000  2332.2029   1   6   0.0011   0.0012   0.0098   0.0006  -0.0013   0.0010   9.00  757.2
2024/07/09 10:45:10.000   28.293160334  -16.541948000  2332.2028   1   6   0.0011   0.0012   0.0098   0.0006  -0.0013   0.0010  10.00  751.2
2024/07/09 10:45:11.000   28.293160334  -16.541948000  2332.2028   1   6   0.0011   0.0012   0.0098   0.0006  -0.0013   0.0010  11.00  745.5
2024/07/09 10:45:12.000   28.293160334  -16.541948000  2332.2028   1   6   0.0011   0.0012   0.0098   0.0006  -0.0013   0.0010  12.00  740.5
2024/07/09 10:45:13.000   28.293160334  -16.541948000  2332.2028   1   6   0.0011   0.0012   0.0098   0.0006  -0.0013   0.0010  13.00  735.3
2024/07/09 10:45:14.000   28.293160334  -16.541948000  2332.2028   1   6   0.0011   0.0012   0.0098   0.0006  -0.0013   0.0010  14.00  730.8
2024/07/09 10:45:15.000   28.293160334  -16.541948000  2332.2028   1   6   0.0011   0.0012   0.0098   0.0006  -0.0013   0.0010  15.00  726.4
2024/07/09 10:45:16.000   28.293160334  -16.541948000  2332.2028   1   6   0.0011   0.0012   0.0098   0.0006  -0.0013   0.0010 -14.00  721.9
2024/07/09 10:45:17.000   28.293160334  -16.541948000  2332.2028   1   6   0.0011   0.0012   0.0098   0.0006  -0.0013   0.0010 -13.00  717.1
2024/07/09 10:45:18.000   28.293160334  -16.541948000  2332.2028   1   6   0.0011   0.0012   0.0098   0.0006  -0.0013   0.0010 -12.00  712.9
2024/07/09 10:45:19.000   28.293160334  -16.541948000  2332.2027   1   6   0.0011   0.0012   0.0098   0.0006  -0.0013   0.0010 -11.00  709.0
2024/07/09 10:45:20.000   28.293160334  -16.541948000  2332.2027   1   6   0.0011   0.0012   0.0098   0.0006  -0.0013   0.0010 -10.00  704.3
2024/07/09 10:45:21.000   28.293160334  -16.541948000  2332.2027   1   6   0.0011   0.0012   0.0098   0.0006  -0.0013   0.0010  -9.00  699.0
2024/07/09 10:45:22.000   28.293160334  -16.541948000  2332.2027   1   6   0.0011   0.0012   0.0098   0.0006  -0.0013   0.0010  -8.00  693.5
2024/07/09 10:45:23.000   28.293160334  -16.541948000  2332.2027   1   6   0.0011   0.0012   0.0098   0.0006  -0.0013   0.0010  -7.00  688.4
2024/07/09 10:45:24.000   28.293160334  -16.541948000  2332.2027   1   6   0.0011   0.0012   0.0098   0.0006  -0.0013   0.0010  -6.00  684.7
2024/07/09 10:45:25.000   28.293160334  -16.541948000  2332.2027   1   6   0.0011   0.0012   0.0098   0.0006  -0.0013   0.0010  -5.00  678.8
2024/07/09 10:45:26.000   28.293160334  -16.541948000  2332.2027   1   6   0.0011   0.0012   0.0098   0.0006  -0.0013   0.0010  -4.00  672.4
2024/07/09 10:45:27.000   28.293160334  -16.541948000  2332.2026   1   6   0.0011   0.0012   0.0098   0.0006  -0.0013   0.0010  -3.00  665.5
2024/07/09 10:45:28.000   28.293160334  -16.541948000  2332.2026   1   6   0.0011   0.0012   0.0098   0.0006  -0.0013   0.0010  -2.00  657.7
2024/07/09 10:45:29.000   28.293160334  -16.541948000  2332.2026   1   6   0.0011   0.0012   0.0098   0.0006  -0.0013   0.0010  -1.00  650.0
2024/07/09 10:45:30.000   28.293160334  -16.541948001  2332.2026   1   6   0.0011   0.0012   0.0098   0.0006  -0.0013   0.0010   0.00  644.0
2024/07/09 10:45:31.000   28.293160334  -16.541948001  2332.2026   1   6   0.0011   0.0012   0.0098   0.0006  -0.0013   0.0010   1.00  640.8
2024/07/09 10:45:32.000   28.293160334  -16.541948001  2332.2026   1   6   0.0011   0.0012   0.0098   0.0006  -0.0013   0.0010   2.00  633.4
2024/07/09 10:45:33.000   28.293160334  -16.541948001  2332.2026   1   6   0.0011   0.0012   0.0098   0.0006  -0.0013   0.0011   3.00  623.8
2024/07/09 10:45:34.000   28.293160334  -16.541948001  2332.2026   1   6   0.0011   0.0012   0.0098   0.0006  -0.0013   0.0011   4.00  619.4
2024/07/09 10:45:35.000   28.293160334  -16.541948001  2332.2026   1   6   0.0011   0.0012   0.0098   0.0006  -0.0012   0.0011   5.00  613.9
2024/07/09 10:45:36.000   28.293160334  -16.541948001  2332.2026   1   6   0.0011   0.0012   0.0098   0.0006  -0.0012   0.0011   6.00  608.9
2024/07/09 10:45:37.000   28.293160334  -16.541948001  2332.2026   1   6   0.0011   0.0012   0.0098   0.0006  -0.0012   0.0011   7.00  603.2
2024/07/09 10:45:38.000   28.293160334  -16.541948002  2332.2026   1   6   0.0011   0.0012   0.0098   0.0006  -0.0012   0.0011   8.00  596.6
2024/07/09 10:45:39.000   28.293160335  -16.541948002  2332.2026   1   6   0.0011   0.0012   0.0098   0.0006  -0.0012   0.0011   9.00  590.6
2024/07/09 10:45:40.000   28.293160335  -16.541948002  2332.2026   1   6   0.0011   0.0012   0.0098   0.0006  -0.0012   0.0011  10.00  585.0
2024/07/09 10:45:41.000   28.293160335  -16.541948002  2332.2026   1   6   0.0011   0.0012   0.0098   0.0006  -0.0012   0.0011  11.00  580.2
2024/07/09 10:45:42.000   28.293160335  -16.541948002  2332.2025   1   6   0.0011   0.0012   0.0098   0.0006  -0.0012   0.0011  12.00  576.1
2024/07/09 10:45:43.000   28.293160335  -16.541948002  2332.2025   1   6   0.0011   0.0012   0.0098   0.0006  -0.0012   0.0011  13.00  572.5
2024/07/09 10:45:44.000   28.293160335  -16.541948002  2332.2025   1   6   0.0011   0.0012   0.0098   0.0006  -0.0012   0.0011  14.00  569.0
2024/07/09 10:45:45.000   28.293160335  -16.541948002  2332.2025   1   6   0.0011   0.0012   0.0098   0.0006  -0.0012   0.0011  15.00  565.6
2024/07/09 10:45:46.000   28.293160335  -16.541948002  2332.2025   1   6   0.0011   0.0012   0.0098   0.0006  -0.0012   0.0011 -14.00  562.4
2024/07/09 10:45:47.000   28.293160335  -16.541948002  2332.2025   1   6   0.0011   0.0012   0.0098   0.0006  -0.0012   0.0011 -13.00  559.3
2024/07/09 10:45:48.000   28.293160335  -16.541948002  2332.2025   1   6   0.0011   0.0012   0.0098   0.0006  -0.0012   0.0011 -12.00  556.4
2024/07/09 10:45:49.000   28.293160335  -16.541948002  2332.2025   1   6   0.0011   0.0012   0.0098   0.0006  -0.0012   0.0011 -11.00  553.8
2024/07/09 10:45:50.000   28.293160335  -16.541948002  2332.2025   1   6   0.0011   0.0012   0.0098   0.0006  -0.0012   0.0011 -10.00  550.7
2024/07/09 10:45:51.000   28.293160335  -16.541948002  2332.2025   1   6   0.0011   0.0012   0.0098   0.0006  -0.0012   0.0011  -9.00  548.3
2024/07/09 10:45:52.000   28.293160335  -16.541948002  2332.2025   1   6   0.0011   0.0012   0.0098   0.0006  -0.0012   0.0011  -8.00  545.3
2024/07/09 10:45:53.000   28.293160335  -16.541948002  2332.2025   1   6   0.0011   0.0012   0.0098   0.0006  -0.0012   0.0011  -7.00  541.9
2024/07/09 10:45:54.000   28.293160335  -16.541948002  2332.2026   1   6   0.0011   0.0012   0.0098   0.0006  -0.0012   0.0011  -6.00  539.4
2024/07/09 10:45:55.000   28.293160335  -16.541948002  2332.2026   1   6   0.0011   0.0012   0.0098   0.0006  -0.0012   0.0011  -5.00  536.7
2024/07/09 10:45:56.000   28.293160335  -16.541948002  2332.2026   1   6   0.0011   0.0012   0.0098   0.0006  -0.0012   0.0011  -4.00  533.1
2024/07/09 10:45:57.000   28.293160335  -16.541948002  2332.2026   1   6   0.0011   0.0012   0.0098   0.0006  -0.0012   0.0011  -3.00  530.6
2024/07/09 10:45:58.000   28.293160335  -16.541948002  2332.2027   1   6   0.0011   0.0012   0.0098   0.0006  -0.0012   0.0011  -2.00  526.3
2024/07/09 10:45:59.000   28.293160335  -16.541948002  2332.2027   1   6   0.0011   0.0012   0.0098   0.0006  -0.0012   0.0011  -1.00  521.7
2024/07/09 10:46:00.000   28.293160335  -16.541948002  2332.2027   1   6   0.0011   0.0012   0.0098   0.0006  -0.0012   0.0011   0.00  515.1
2024/07/09 10:46:01.000   28.293160335  -16.541948003  2332.2027   1   6   0.0011   0.0012   0.0098   0.0006  -0.0012   0.0011   1.00  508.9
2024/07/09 10:46:02.000   28.293160335  -16.541948003  2332.2027   1   6   0.0011   0.0012   0.0098   0.0006  -0.0012   0.0011   2.00  504.0
2024/07/09 10:46:03.000   28.293160335  -16.541948003  2332.2027   1   6   0.0011   0.0012   0.0098   0.0006  -0.0012   0.0011   3.00  501.0
2024/07/09 10:46:04.000   28.293160335  -16.541948003  2332.2027   1   6   0.0011   0.0012   0.0098   0.0006  -0.0012   0.0011   4.00  492.5
2024/07/09 10:46:05.000   28.293160331  -16.541947994  2332.2023   1   6   0.0011   0.0011   0.0098   0.0006  -0.0012   0.0010   5.00    5.7
2024/07/09 10:46:06.000   28.293160331  -16.541947994  2332.2023   1   6   0.0011   0.0011   0.0098   0.0006  -0.0012   0.0010   6.00    5.9
2024/07/09 10:46:07.000   28.293160331  -16.541947994  2332.2023   1   6   0.0011   0.0011   0.0098   0.0006  -0.0012   0.0010   7.00    5.9
2024/07/09 10:46:08.000   28.293160331  -16.541947994  2332.2023   1   6   0.0011   0.0011   0.0098   0.0006  -0.0012   0.0010   8.00    6.0
2024/07/09 10:46:09.000   28.293160331  -16.541947994  2332.2023   1   6   0.0011   0.0011   0.0098   0.0006  -0.0012   0.0010   9.00    6.0
2024/07/09 10:46:10.000   28.293160331  -16.541947994  2332.2023   1   6   0.0011   0.0011   0.0098   0.0006  -0.0012   0.0010  10.00    6.1
2024/07/09 10:46:11.000   28.293160331  -16.541947994  2332.2023   1   6   0.0011   0.0011   0.0098   0.0006  -0.0012   0.0010  11.00    6.1
2024/07/09 10:46:12.000   28.293160331  -16.541947994  2332.2022   1   6   0.0011   0.0011   0.0098   0.0006  -0.0012   0.0010  12.00    6.2
2024/07/09 10:46:13.000   28.293160331  -16.541947994  2332.2022   1   6   0.0011   0.0011   0.0098   0.0006  -0.0012   0.0010  13.00    6.2
2024/07/09 10:46:14.000   28.293160331  -16.541947994  2332.2022   1   6   0.0011   0.0011   0.0098   0.0006  -0.0012   0.0010  14.00    6.2
2024/07/09 10:46:15.000   28.293160331  -16.541947994  2332.2022   1   6   0.0011   0.0011   0.0098   0.0006  -0.0012   0.0010 -15.00    6.2
2024/07/09 10:46:16.000   28.293160331  -16.541947994  2332.2022   1   6   0.0011   0.0011   0.0098   0.0006  -0.0012   0.0010 -14.00    6.1
2024/07/09 10:46:17.000   28.293160331  -16.541947994  2332.2021   1   6   0.0011   0.0011   0.0098   0.0006  -0.0012   0.0010 -13.00    6.1
2024/07/09 10:46:18.000   28.293160331  -16.541947994  2332.2021   1   6   0.0011   0.0011   0.0098   0.0006  -0.0012   0.0010 -12.00    6.2
2024/07/09 10:46:19.000   28.293160331  -16.541947994  2332.2021   1   6   0.0011   0.0011   0.0098   0.0006  -0.0012   0.0010 -11.00    6.2
2024/07/09 10:46:20.000   28.293160331  -16.541947994  2332.2021   1   6   0.0011   0.0011   0.0098   0.0006  -0.0012   0.0010 -10.00    6.2
2024/07/09 10:46:21.000   28.293160331  -16.541947994  2332.2020   1   6   0.0011   0.0011   0.0097   0.0006  -0.0012   0.0010  -9.00    6.1
2024/07/09 10:46:22.000   28.293160331  -16.541947994  2332.2020   1   6   0.0011   0.0011   0.0097   0.0006  -0.0012   0.0010  -8.00    6.1
2024/07/09 10:46:23.000   28.293160331  -16.541947994  2332.2020   1   6   0.0011   0.0011   0.0097   0.0006  -0.0012   0.0010  -7.00    6.1
2024/07/09 10:46:24.000   28.293160331  -16.541947994  2332.2020   1   6   0.0011   0.0011   0.0097   0.0006  -0.0012   0.0010  -6.00    6.1
2024/07/09 10:46:25.000   28.293160331  -16.541947994  2332.2020   1   6   0.0011   0.0011   0.0097   0.0006  -0.0012   0.0010  -5.00   20.9
2024/07/09 10:46:26.000   28.293160331  -16.541947994  2332.2020   1   6   0.0011   0.0011   0.0097   0.0006  -0.0012   0.0010  -4.00   34.6
2024/07/09 10:46:27.000   28.293160331  -16.541947994  2332.2019   1   6   0.0011   0.0011   0.0097   0.0006  -0.0012   0.0010  -3.00   49.5
2024/07/09 10:46:28.000   28.293160331  -16.541947994  2332.2019   1   6   0.0011   0.0011   0.0097   0.0006  -0.0012   0.0010  -2.00   60.5
2024/07/09 10:46:29.000   28.293160331  -16.541947994  2332.2019   1   6   0.0011   0.0011   0.0097   0.0006  -0.0012   0.0010  -1.00   68.7
2024/07/09 10:46:30.000   28.293160331  -16.541947994  2332.2019   1   6   0.0011   0.0011   0.0097   0.0006  -0.0012   0.0010   0.00   80.3
2024/07/09 10:46:31.000   28.293160331  -16.541947994  2332.2020   1   6   0.0011   0.0011   0.0097   0.0006  -0.0012   0.0010   1.00   88.6
2024/07/09 10:46:32.000   28.293160331  -16.541947994  2332.2020   1   6   0.0011   0.0011   0.0097   0.0006  -0.0012   0.0010   2.00   95.5
2024/07/09 10:46:33.000   28.293160331  -16.541947994  2332.2019   1   6   0.0010   0.0011   0.0097   0.0006  -0.0012   0.0010   3.00  103.4
2024/07/09 10:46:34.000   28.293160331  -16.541947994  2332.2019   1   6   0.0010   0.0011   0.0097   0.0006  -0.0012   0.0010   4.00  114.5
2024/07/09 10:46:35.000   28.293160331  -16.541947994  2332.2019   1   6   0.0010   0.0011   0.0097   0.0006  -0.0012   0.0010   5.00  122.2
2024/07/09 10:46:36.000   28.293160331  -16.541947994  2332.2019   1   6   0.0010   0.0011   0.0097   0.0006  -0.0012   0.0010   6.00  130.9
2024/07/09 10:46:37.000   28.293160331  -16.541947994  2332.2019   1   6   0.0010   0.0011   0.0097   0.0006  -0.0012   0.0010   7.00  140.7
2024/07/09 10:46:38.000   28.293160331  -16.541947994  2332.2019   1   6   0.0010   0.0011   0.0097   0.0006  -0.0012   0.0010   8.00  152.2
2024/07/09 10:46:39.000   28.293160331  -16.541947994  2332.2019   1   6   0.0010   0.0011   0.0097   0.0006  -0.0012   0.0010   9.00  161.8
2024/07/09 10:46:40.000   28.293160331  -16.541947994  2332.2018   1   6   0.0010   0.0011   0.0097   0.0006  -0.0012   0.0010  10.00  170.7
2024/07/09 10:46:41.000   28.293160331  -16.541947994  2332.2018   1   6   0.0010   0.0011   0.0097   0.0006  -0.0012   0.0010  11.00  180.7
2024/07/09 10:46:42.000   28.293160331  -16.541947994  2332.2018   1   6   0.0010   0.0011   0.0097   0.0005  -0.0012   0.0010  12.00  190.1
2024/07/09 10:46:43.000   28.293160331  -16.541947994  2332.2018   1   6   0.0010   0.0011   0.0097   0.0005  -0.0012   0.0010  13.00  198.7
2024/07/09 10:46:44.000   28.293160331  -16.541947994  2332.2018   1   6   0.0010   0.0011   0.0097   0.0005  -0.0012   0.0010  14.00  208.1
2024/07/09 10:46:45.000   28.293160331  -16.541947994  2332.2018   1   6   0.0010   0.0011   0.0097   0.0005  -0.0012   0.0011 -15.00  216.2
2024/07/09 10:46:46.000   28.293160331  -16.541947994  2332.2018   1   6   0.0010   0.0011   0.0097   0.0005  -0.0012   0.0011 -14.00  224.6
2024/07/09 10:46:47.000   28.293160331  -16.541947994  2332.2018   1   6   0.0010   0.0011   0.0097   0.0005  -0.0012   0.0011 -13.00  233.7
2024/07/09 10:46:48.000   28.293160331  -16.541947994  2332.2017   1   6   0.0010   0.0011   0.0097   0.0005  -0.0012   0.0011 -12.00  244.1
2024/07/09 10:46:49.000   28.293160331  -16.541947994  2332.2017   1   6   0.0010   0.0011   0.0097   0.0005  -0.0012   0.0011 -11.00  252.9
2024/07/09 10:46:50.000   28.293160331  -16.541947994  2332.2017   1   6   0.0010   0.0011   0.0097   0.0005  -0.0012   0.0011 -10.00  261.8
2024/07/09 10:46:51.000   28.293160331  -16.541947994  2332.2017   1   6   0.0010   0.0011   0.0097   0.0005  -0.0012   0.0011  -9.00  271.7
2024/07/09 10:46:52.000   28.293160331  -16.541947994  2332.2017   1   6   0.0010   0.0011   0.0097   0.0005  -0.0012   0.0011  -8.00  287.4
2024/07/09 10:46:53.000   28.293160331  -16.541947994  2332.2017   1   6   0.0010   0.0011   0.0097   0.0005  -0.0012   0.0011  -7.00  302.2
2024/07/09 10:46:54.000   28.293160331  -16.541947994  2332.2017   1   6   0.0010   0.0011   0.0097   0.0005  -0.0012   0.0011  -6.00  317.0
2024/07/09 10:46:55.000   28.293160331  -16.541947994  2332.2017   1   6   0.0010   0.0011   0.0097   0.0005  -0.0012   0.0011  -5.00  328.7
2024/07/09 10:46:56.000   28.293160331  -16.541947994  2332.2017   1   6   0.0010   0.0011   0.0097   0.0005  -0.0012   0.0011  -4.00  337.5
2024/07/09 10:46:57.000   28.293160331  -16.541947994  2332.2017   1   6   0.0010   0.0011   0.0097   0.0005  -0.0012   0.0011  -3.00  343.4
2024/07/09 10:46:58.000   28.293160331  -16.541947995  2332.2017   1   6   0.0010   0.0011   0.0097   0.0005  -0.0012   0.0011  -2.00  353.6
2024/07/09 10:46:59.000   28.293160331  -16.541947995  2332.2017   1   6   0.0010   0.0011   0.0097   0.0005  -0.0012   0.0011  -1.00  358.6
2024/07/09 10:47:00.000   28.293160331  -16.541947995  2332.2017   1   6   0.0010   0.0011   0.0097   0.0005  -0.0012   0.0011   0.00  357.3
2024/07/09 10:47:01.000   28.293160331  -16.541947994  2332.2017   1   6   0.0010   0.0011   0.0097   0.0005  -0.0012   0.0011   1.00  358.3
2024/07/09 10:47:02.000   28.293160331  -16.541947994  2332.2017   1   6   0.0010   0.0011   0.0097   0.0005  -0.0012   0.0011   2.00  366.8
2024/07/09 10:47:03.000   28.293160331  -16.541947994  2332.2017   1   6   0.0010   0.0011   0.0097   0.0005  -0.0012   0.0011   3.00  365.9
2024/07/09 10:47:04.000   28.293160331  -16.541947995  2332.2017   1   6   0.0010   0.0011   0.0097   0.0005  -0.0012   0.0011   4.00  374.9
2024/07/09 10:47:05.000   28.293160331  -16.541947995  2332.2017   1   6   0.0010   0.0011   0.0097   0.0005  -0.0012   0.0011   5.00  383.8
2024/07/09 10:47:06.000   28.293160331  -16.541947995  2332.2017   1   6   0.0010   0.0011   0.0097   0.0005  -0.0012   0.0011   6.00  387.0
2024/07/09 10:47:07.000   28.293160331  -16.541947995  2332.2017   1   6   0.0010   0.0011   0.0097   0.0005  -0.0012   0.0011   7.00  394.2
2024/07/09 10:47:08.000   28.293160331  -16.541947995  2332.2017   1   6   0.0010   0.0011   0.0097   0.0005  -0.0012   0.0011   8.00  400.5
2024/07/09 10:47:09.000   28.293160331  -16.541947995  2332.2016   1   6   0.0010   0.0011   0.0097   0.0005  -0.0012   0.0011   9.00  406.3
2024/07/09 10:47:10.000   28.293160331  -16.541947995  2332.2016   1   6   0.0010   0.0011   0.0097   0.0005  -0.0012   0.0011  10.00  409.5
2024/07/09 10:47:11.000   28.293160331  -16.541947995  2332.2016   1   6   0.0010   0.0011   0.0097   0.0005  -0.0012   0.0011  11.00  412.8
2024/07/09 10:47:12.000   28.293160331  -16.541947995  2332.2016   1   6   0.0010   0.0011   0.0097   0.0005  -0.0012   0.0011  12.00  422.2
2024/07/09 10:47:13.000   28.293160331  -16.541947995  2332.2016   1   6   0.0010   0.0011   0.0097   0.0005  -0.0012   0.0011  13.00  428.0
2024/07/09 10:47:14.000   28.293160331  -16.541947995  2332.2016   1   6   0.0010   0.0011   0.0097   0.0005  -0.0012   0.0011  14.00  434.7
2024/07/09 10:47:15.000   28.293160331  -16.541947995  2332.2015   1   6   0.0010   0.0011   0.0097   0.0005  -0.0012   0.0011 -15.00  439.2
2024/07/09 10:47:16.000   28.293160331  -16.541947995  2332.2015   1   6   0.0010   0.0011   0.0097   0.0005  -0.0012   0.0011 -14.00  443.9
2024/07/09 10:47:17.000   28.293160331  -16.541947995  2332.2015   1   6   0.0010   0.0011   0.0097   0.0005  -0.0012   0.0011 -13.00  449.6
2024/07/09 10:47:18.000   28.293160331  -16.541947995  2332.2015   1   6   0.0010   0.0011   0.0097   0.0005  -0.0012   0.0011 -12.00  451.6
2024/07/09 10:47:19.000   28.293160331  -16.541947995  2332.2015   1   6   0.0010   0.0011   0.0097   0.0005  -0.0012   0.0011 -11.00  454.2
2024/07/09 10:47:20.000   28.293160331  -16.541947995  2332.2015   1   6   0.0010   0.0011   0.0097   0.0005  -0.0012   0.0011 -10.00  454.1
2024/07/09 10:47:21.000   28.293160331  -16.541947995  2332.2014   1   6   0.0010   0.0011   0.0097   0.0005  -0.0012   0.0011  -9.00  455.9
2024/07/09 10:47:22.000   28.293160331  -16.541947995  2332.2014   1   6   0.0010   0.0011   0.0097   0.0005  -0.0012   0.0011  -8.00  451.5
2024/07/09 10:47:23.000   28.293160331  -16.541947995  2332.2014   1   6   0.0010   0.0011   0.0097   0.0005  -0.0012   0.0011  -7.00  453.8
2024/07/09 10:47:24.000   28.293160331  -16.541947995  2332.2014   1   6   0.0010   0.0011   0.0097   0.0005  -0.0012   0.0011  -6.00  447.0
2024/07/09 10:47:25.000   28.293160331  -16.541947995  2332.2014   1   6   0.0010   0.0011   0.0097   0.0005  -0.0012   0.0011  -5.00  445.5
2024/07/09 10:47:26.000   28.293160331  -16.541947995  2332.2013   1   6   0.0010   0.0011   0.0097   0.0005  -0.0012   0.0011  -4.00  430.2
2024/07/09 10:47:27.000   28.293160331  -16.541947995  2332.2013   1   6   0.0010   0.0011   0.0097   0.0005  -0.0012   0.0011  -3.00  423.9
2024/07/09 10:47:28.000   28.293160331  -16.541947995  2332.2013   1   6   0.0010   0.0011   0.0097   0.0005  -0.0012   0.0011  -2.00  417.6
2024/07/09 10:47:29.000   28.293160331  -16.541947995  2332.2013   1   6   0.0010   0.0011   0.0097   0.0005  -0.0012   0.0011  -1.00  412.6
2024/07/09 10:47:30.000   28.293160331  -16.541947995  2332.2013   1   6   0.0010   0.0011   0.0097   0.0005  -0.0012   0.0011   0.00  397.7
2024/07/09 10:47:31.000   28.293160331  -16.541947995  2332.2013   1   6   0.0010   0.0011   0.0097   0.0005  -0.0012   0.0011   1.00  380.4
2024/07/09 10:47:32.000   28.293160331  -16.541947995  2332.2013   1   6   0.0010   0.0011   0.0097   0.0005  -0.0012   0.0011   2.00  375.0
2024/07/09 10:47:33.000   28.293160331  -16.541947994  2332.2013   1   6   0.0010   0.0011   0.0097   0.0005  -0.0012   0.0011   3.00  358.9
2024/07/09 10:47:34.000   28.293160331  -16.541947994  2332.2012   1   6   0.0010   0.0011   0.0097   0.0005  -0.0012   0.0011   4.00  356.3
2024/07/09 10:47:35.000   28.293160331  -16.541947994  2332.2012   1   6   0.0010   0.0011   0.0097   0.0005  -0.0012   0.0011   5.00  356.5
2024/07/09 10:47:36.000   28.293160331  -16.541947994  2332.2012   1   6   0.0010   0.0011   0.0097   0.0005  -0.0012   0.0011   6.00  357.6
2024/07/09 10:47:37.000   28.293160331  -16.541947994  2332.2012   1   6   0.0010   0.0011   0.0097   0.0005  -0.0012   0.0011   7.00  360.3
2024/07/09 10:47:38.000   28.293160331  -16.541947994  2332.2012   1   6   0.0010   0.0011   0.0097   0.0005  -0.0012   0.0011   8.00  365.9
2024/07/09 10:47:39.000   28.293160331  -16.541947994  2332.2012   1   6   0.0010   0.0011   0.0097   0.0005  -0.0012   0.0011   9.00  369.9
2024/07/09 10:47:40.000   28.293160331  -16.541947994  2332.2012   1   6   0.0010   0.0011   0.0097   0.0005  -0.0012   0.0011  10.00  373.8
2024/07/09 10:47:41.000   28.293160331  -16.541947994  2332.2011   1   6   0.0010   0.0011   0.0097   0.0005  -0.0012   0.0011  11.00  377.4
2024/07/09 10:47:42.000   28.293160331  -16.541947994  2332.2011   1   6   0.0010   0.0011   0.0097   0.0005  -0.0012   0.0011  12.00  381.6
2024/07/09 10:47:43.000   28.293160331  -16.541947994  2332.2011   1   6   0.0010   0.0011   0.0097   0.0005  -0.0012   0.0011  13.00  383.7
2024/07/09 10:47:44.000   28.293160331  -16.541947994  2332.2011   1   6   0.0010   0.0011   0.0097   0.0005  -0.0012   0.0011  14.00  386.5
2024/07/09 10:47:45.000   28.293160331  -16.541947994  2332.2011   1   6   0.0010   0.0011   0.0097   0.0005  -0.0012   0.0011 -15.00  390.4
2024/07/09 10:47:46.000   28.293160331  -16.541947994  2332.2011   1   6   0.0010   0.0011   0.0097   0.0005  -0.0012   0.0011 -14.00  391.6
2024/07/09 10:47:47.000   28.293160331  -16.541947994  2332.2010   1   6   0.0010   0.0011   0.0097   0.0005  -0.0012   0.0011 -13.00  392.9
2024/07/09 10:47:48.000   28.293160331  -16.541947994  2332.2010   1   6   0.0010   0.0011   0.0097   0.0005  -0.0012   0.0011 -12.00  394.8
2024/07/09 10:47:49.000   28.293160331  -16.541947994  2332.2010   1   6   0.0010   0.0011   0.0097   0.0005  -0.0012   0.0011 -11.00  393.3
2024/07/09 10:47:50.000   28.293160331  -16.541947994  2332.2010   1   6   0.0010   0.0011   0.0097   0.0005  -0.0012   0.0011 -10.00  394.3
2024/07/09 10:47:51.000   28.293160331  -16.541947994  2332.2010   1   6   0.0010   0.0011   0.0097   0.0005  -0.0012   0.0011  -9.00  389.1
2024/07/09 10:47:52.000   28.293160331  -16.541947994  2332.2009   1   6   0.0010   0.0011   0.0097   0.0005  -0.0012   0.0011  -8.00  388.8
2024/07/09 10:47:53.000   28.293160331  -16.541947994  2332.2009   1   6   0.0010   0.0011   0.0097   0.0005  -0.0012   0.0011  -7.00  389.0
2024/07/09 10:47:54.000   28.293160331  -16.541947994  2332.2009   1   6   0.0010   0.0011   0.0097   0.0005  -0.0012   0.0011  -6.00  383.9
2024/07/09 10:47:55.000   28.293160331  -16.541947994  2332.2009   1   6   0.0010   0.0011   0.0097   0.0005  -0.0012   0.0011  -5.00  377.4
2024/07/09 10:47:56.000   28.293160331  -16.541947994  2332.2009   1   6   0.0010   0.0011   0.0097   0.0005  -0.0012   0.0011  -4.00  377.9
2024/07/09 10:47:57.000   28.293160331  -16.541947994  2332.2009   1   6   0.0010   0.0011   0.0097   0.0005  -0.0012   0.0011  -3.00  371.0
2024/07/09 10:47:58.000   28.293160331  -16.541947994  2332.2008   1   6   0.0010   0.0011   0.0097   0.0005  -0.0012   0.0011  -2.00  367.6
2024/07/09 10:47:59.000   28.293160331  -16.541947994  2332.2008   1   6   0.0010   0.0011   0.0097   0.0005  -0.0012   0.0011  -1.00  368.1
2024/07/09 10:48:00.000   28.293160331  -16.541947994  2332.2008   1   6   0.0010   0.0011   0.0097   0.0005  -0.0012   0.0011   0.00  363.4
2024/07/09 10:48:01.000   28.293160331  -16.541947994  2332.2008   1   6   0.0010   0.0011   0.0097   0.0005  -0.0012   0.0011   1.00  361.0
2024/07/09 10:48:02.000   28.293160331  -16.541947994  2332.2009   1   6   0.0010   0.0011   0.0096   0.0005  -0.0012   0.0011   2.00  363.7
2024/07/09 10:48:03.000   28.293160331  -16.541947994  2332.2009   1   6   0.0010   0.0011   0.0096   0.0005  -0.0012   0.0011   3.00  370.7
2024/07/09 10:48:04.000   28.293160331  -16.541947994  2332.2009   1   6   0.0010   0.0011   0.0096   0.0005  -0.0012   0.0011   4.00  375.7
2024/07/09 10:48:05.000   28.293160331  -16.541947994  2332.2009   1   6   0.0010   0.0011   0.0096   0.0005  -0.0012   0.0011   5.00  375.8
2024/07/09 10:48:06.000   28.293160331  -16.541947994  2332.2009   1   6   0.0010   0.0011   0.0096   0.0005  -0.0012   0.0011   6.00  375.3
2024/07/09 10:48:07.000   28.293160331  -16.541947994  2332.2009   1   6   0.0010   0.0011   0.0096   0.0005  -0.0012   0.0011   7.00  379.9
2024/07/09 10:48:08.000   28.293160331  -16.541947994  2332.2009   1   6   0.0010   0.0011   0.0096   0.0005  -0.0012   0.0011   8.00  384.1
2024/07/09 10:48:09.000   28.293160331  -16.541947994  2332.2009   1   6   0.0010   0.0011   0.0096   0.0005  -0.0012   0.0011   9.00  387.1
2024/07/09 10:48:10.000   28.293160331  -16.541947994  2332.2009   1   6   0.0010   0.0011   0.0096   0.0005  -0.0012   0.0011  10.00  389.4
2024/07/09 10:48:11.000   28.293160331  -16.541947994  2332.2009   1   6   0.0010   0.0011   0.0096   0.0005  -0.0012   0.0011  11.00  391.9
2024/07/09 10:48:12.000   28.293160331  -16.541947994  2332.2009   1   6   0.0010   0.0011   0.0096   0.0005  -0.0012   0.0011  12.00  394.3
2024/07/09 10:48:13.000   28.293160331  -16.541947994  2332.2008   1   6   0.0010   0.0011   0.0096   0.0005  -0.0012   0.0011  13.00  396.7
2024/07/09 10:48:14.000   28.293160331  -16.541947994  2332.2008   1   6   0.0010   0.0011   0.0096   0.0005  -0.0012   0.0011  14.00  400.7
2024/07/09 10:48:15.000   28.293160331  -16.541947994  2332.2008   1   6   0.0010   0.0011   0.0096   0.0005  -0.0012   0.0011 -15.00  406.0
2024/07/09 10:48:16.000   28.293160331  -16.541947994  2332.2008   1   6   0.0010   0.0011   0.0096   0.0005  -0.0012   0.0011 -14.00  409.7
2024/07/09 10:48:17.000   28.293160331  -16.541947994  2332.2008   1   6   0.0010   0.0011   0.0096   0.0005  -0.0012   0.0011 -13.00  413.1
2024/07/09 10:48:18.000   28.293160331  -16.541947994  2332.2008   1   6   0.0010   0.0011   0.0096   0.0005  -0.0012   0.0011 -12.00  415.4
2024/07/09 10:48:19.000   28.293160331  -16.541947994  2332.2008   1   6   0.0010   0.0011   0.0096   0.0005  -0.0012   0.0011 -11.00  418.4
2024/07/09 10:48:20.000   28.293160331  -16.541947994  2332.2008   1   6   0.0010   0.0011   0.0096   0.0005  -0.0012   0.0011 -10.00  420.5
2024/07/09 10:48:21.000   28.293160331  -16.541947994  2332.2008   1   6   0.0010   0.0011   0.0096   0.0005  -0.0012   0.0011  -9.00  418.4
2024/07/09 10:48:22.000   28.293160331  -16.541947994  2332.2007   1   6   0.0010   0.0011   0.0096   0.0005  -0.0012   0.0011  -8.00  415.0
2024/07/09 10:48:23.000   28.293160331  -16.541947994  2332.2007   1   6   0.0010   0.0011   0.0096   0.0005  -0.0012   0.0011  -7.00  410.2
2024/07/09 10:48:24.000   28.293160331  -16.541947994  2332.2007   1   6   0.0010   0.0011   0.0096   0.0005  -0.0012   0.0011  -6.00  403.5
2024/07/09 10:48:25.000   28.293160331  -16.541947994  2332.2007   1   6   0.0010   0.0011   0.0096   0.0005  -0.0012   0.0011  -5.00  396.3
2024/07/09 10:48:26.000   28.293160331  -16.541947994  2332.2007   1   6   0.0010   0.0011   0.0096   0.0005  -0.0012   0.0011  -4.00  385.5
2024/07/09 10:48:27.000   28.293160331  -16.541947994  2332.2007   1   6   0.0010   0.0011   0.0096   0.0005  -0.0012   0.0011  -3.00  370.2
2024/07/09 10:48:28.000   28.293160331  -16.541947994  2332.2007   1   6   0.0010   0.0011   0.0096   0.0005  -0.0012   0.0011  -2.00  354.5
2024/07/09 10:48:29.000   28.293160331  -16.541947994  2332.2007   1   6   0.0010   0.0011   0.0096   0.0005  -0.0012   0.0011  -1.00  339.4
2024/07/09 10:48:30.000   28.293160331  -16.541947994  2332.2006   1   6   0.0010   0.0011   0.0096   0.0005  -0.0012   0.0011   0.00  331.5
2024/07/09 10:48:31.000   28.293160331  -16.541947994  2332.2006   1   6   0.0010   0.0011   0.0096   0.0005  -0.0012   0.0011   1.00  320.8
2024/07/09 10:48:32.000   28.293160331  -16.541947994  2332.2006   1   6   0.0010   0.0011   0.0096   0.0005  -0.0012   0.0011   2.00  312.7
2024/07/09 10:48:33.000   28.293160331  -16.541947993  2332.2006   1   6   0.0010   0.0011   0.0096   0.0005  -0.0012   0.0011   3.00  306.1
2024/07/09 10:48:34.000   28.293160331  -16.541947993  2332.2006   1   6   0.0010   0.0011   0.0096   0.0005  -0.0012   0.0011   4.00  302.2
2024/07/09 10:48:35.000   28.293160331  -16.541947993  2332.2006   1   6   0.0010   0.0011   0.0096   0.0005  -0.0012   0.0011   5.00  300.2
2024/07/09 10:48:36.000   28.293160331  -16.541947993  2332.2006   1   6   0.0010   0.0011   0.0096   0.0005  -0.0012   0.0011   6.00  296.0
2024/07/09 10:48:37.000   28.293160330  -16.541947993  2332.2005   1   6   0.0010   0.0011   0.0096   0.0005  -0.0012   0.0011   7.00  296.9
2024/07/09 10:48:38.000   28.293160330  -16.541947993  2332.2005   1   6   0.0010   0.0011   0.0096   0.0005  -0.0012   0.0011   8.00  295.8
2024/07/09 10:48:39.000   28.293160330  -16.541947993  2332.2005   1   6   0.0010   0.0011   0.0096   0.0005  -0.0012   0.0011   9.00  295.5
2024/07/09 10:48:40.000   28.293160330  -16.541947993  2332.2005   1   6   0.0010   0.0011   0.0096   0.0005  -0.0012   0.0011  10.00  296.7
2024/07/09 10:48:41.000   28.293160330  -16.541947993  2332.2004   1   6   0.0010   0.0011   0.0096   0.0005  -0.0012   0.0011  11.00  297.9
2024/07/09 10:48:42.000   28.293160330  -16.541947993  2332.2004   1   6   0.0010   0.0011   0.0096   0.0005  -0.0012   0.0011  12.00  300.2
2024/07/09 10:48:43.000   28.293160330  -16.541947993  2332.2004   1   6   0.0010   0.0011   0.0096   0.0005  -0.0012   0.0011  13.00  302.1
2024/07/09 10:48:44.000   28.293160330  -16.541947993  2332.2004   1   6   0.0010   0.0011   0.0096   0.0005  -0.0012   0.0011  14.00  303.7
2024/07/09 10:48:45.000   28.293160330  -16.541947993  2332.2004   1   6   0.0010   0.0011   0.0096   0.0005  -0.0012   0.0011 -15.00  305.6
2024/07/09 10:48:46.000   28.293160330  -16.541947993  2332.2004   1   6   0.0010   0.0011   0.0096   0.0005  -0.0012   0.0011 -14.00  307.8
2024/07/09 10:48:47.000   28.293160330  -16.541947993  2332.2003   1   6   0.0010   0.0011   0.0096   0.0005  -0.0012   0.0011 -13.00  309.9
2024/07/09 10:48:48.000   28.293160330  -16.541947993  2332.2003   1   6   0.0010   0.0011   0.0096   0.0005  -0.0012   0.0011 -12.00  311.5
2024/07/09 10:48:49.000   28.293160330  -16.541947993  2332.2003   1   6   0.0010   0.0011   0.0096   0.0005  -0.0012   0.0011 -11.00  312.2
2024/07/09 10:48:50.000   28.293160330  -16.541947993  2332.2003   1   6   0.0010   0.0011   0.0096   0.0005  -0.0012   0.0011 -10.00  313.7
2024/07/09 10:48:51.000   28.293160330  -16.541947993  2332.2003   1   6   0.0010   0.0011   0.0096   0.0005  -0.0012   0.0011  -9.00  314.0
2024/07/09 10:48:52.000   28.293160330  -16.541947993  2332.2002   1   6   0.0010   0.0011   0.0096   0.0005  -0.0012   0.0012  -8.00  315.2
2024/07/09 10:48:53.000   28.293160330  -16.541947993  2332.2002   1   6   0.0010   0.0011   0.0096   0.0005  -0.0012   0.0012  -7.00  316.0
2024/07/09 10:48:54.000   28.293160330  -16.541947993  2332.2002   1   6   0.0010   0.0011   0.0096   0.0005  -0.0012   0.0012  -6.00  315.3
2024/07/09 10:48:55.000   28.293160330  -16.541947993  2332.2002   1   6   0.0010   0.0011   0.0096   0.0005  -0.0012   0.0012  -5.00  313.0
2024/07/09 10:48:56.000   28.293160330  -16.541947993  2332.2001   1   6   0.0010   0.0011   0.0096   0.0005  -0.0012   0.0012  -4.00  310.7
2024/07/09 10:48:57.000   28.293160330  -16.541947993  2332.2001   1   6   0.0010   0.0011   0.0096   0.0005  -0.0012   0.0012  -3.00  306.0
2024/07/09 10:48:58.000   28.293160330  -16.541947992  2332.2001   1   6   0.0010   0.0011   0.0096   0.0005  -0.0012   0.0012  -2.00  301.5
2024/07/09 10:48:59.000   28.293160330  -16.541947992  2332.2001   1   6   0.0010   0.0011   0.0096   0.0005  -0.0012   0.0012  -1.00  298.7
2024/07/09 10:49:00.000   28.293160330  -16.541947992  2332.2001   1   6   0.0010   0.0011   0.0096   0.0005  -0.0012   0.0012   0.00  296.1
2024/07/09 10:49:01.000   28.293160330  -16.541947992  2332.2000   1   6   0.0010   0.0011   0.0096   0.0005  -0.0012   0.0012   1.00  290.2
2024/07/09 10:49:02.000   28.293160330  -16.541947992  2332.2000   1   6   0.0010   0.0011   0.0096   0.0005  -0.0012   0.0012   2.00  284.6
2024/07/09 10:49:03.000   28.293160330  -16.541947992  2332.2000   1   6   0.0010   0.0011   0.0096   0.0005  -0.0012   0.0012   3.00  280.2
2024/07/09 10:49:04.000   28.293160330  -16.541947992  2332.2000   1   6   0.0010   0.0011   0.0096   0.0005  -0.0012   0.0012   4.00  276.4
2024/07/09 10:49:05.000   28.293160330  -16.541947992  2332.1999   1   6   0.0010   0.0011   0.0096   0.0005  -0.0012   0.0012   5.00  275.0
2024/07/09 10:49:06.000   28.293160330  -16.541947992  2332.1999   1   6   0.0010   0.0011   0.0096   0.0005  -0.0012   0.0012   6.00  272.8
2024/07/09 10:49:07.000   28.293160330  -16.541947992  2332.1999   1   6   0.0010   0.0011   0.0096   0.0005  -0.0012   0.0012   7.00  272.3
2024/07/09 10:49:08.000   28.293160329  -16.541947992  2332.1999   1   6   0.0010   0.0011   0.0096   0.0005  -0.0012   0.0012   8.00  272.3
2024/07/09 10:49:09.000   28.293160329  -16.541947992  2332.1998   1   6   0.0010   0.0011   0.0096   0.0005  -0.0012   0.0012   9.00  273.3
2024/07/09 10:49:10.000   28.293160329  -16.541947992  2332.1998   1   6   0.0010   0.0011   0.0096   0.0005  -0.0012   0.0012  10.00  273.9
2024/07/09 10:49:11.000   28.293160329  -16.541947991  2332.1998   1   6   0.0010   0.0011   0.0096   0.0005  -0.0012   0.0012  11.00  274.7
2024/07/09 10:49:12.000   28.293160329  -16.541947991  2332.1998   1   6   0.0010   0.0011   0.0096   0.0005  -0.0012   0.0012  12.00  275.8
2024/07/09 10:49:13.000   28.293160329  -16.541947991  2332.1998   1   6   0.0010   0.0011   0.0096   0.0005  -0.0012   0.0012  13.00  277.1
2024/07/09 10:49:14.000   28.293160329  -16.541947991  2332.1998   1   6   0.0010   0.0011   0.0096   0.0005  -0.0012   0.0012  14.00  278.5
2024/07/09 10:49:15.000   28.293160329  -16.541947991  2332.1997   1   6   0.0010   0.0011   0.0096   0.0005  -0.0012   0.0012 -15.00  280.1
2024/07/09 10:49:16.000   28.293160329  -16.541947991  2332.1997   1   6   0.0010   0.0011   0.0096   0.0005  -0.0012   0.0012 -14.00  281.3
2024/07/09 10:49:17.000   28.293160329  -16.541947991  2332.1997   1   6   0.0010   0.0011   0.0096   0.0005  -0.0012   0.0012 -13.00  281.7
2024/07/09 10:49:18.000   28.293160329  -16.541947991  2332.1997   1   6   0.0010   0.0011   0.0096   0.0005  -0.0012   0.0012 -12.00  282.4
2024/07/09 10:49:19.000   28.293160329  -16.541947991  2332.1997   1   6   0.0010   0.0011   0.0096   0.0005  -0.0012   0.0012 -11.00  283.5
2024/07/09 10:49:20.000   28.293160329  -16.541947991  2332.1997   1   6   0.0010   0.0011   0.0096   0.0005  -0.0012   0.0012 -10.00  283.3
2024/07/09 10:49:21.000   28.293160329  -16.541947991  2332.1996   1   6   0.0010   0.0011   0.0096   0.0005  -0.0012   0.0012  -9.00  282.4
2024/07/09 10:49:22.000   28.293160329  -16.541947991  2332.1996   1   6   0.0010   0.0011   0.0096   0.0005  -0.0012   0.0012  -8.00  282.0
2024/07/09 10:49:23.000   28.293160329  -16.541947991  2332.1996   1   6   0.0010   0.0011   0.0096   0.0005  -0.0012   0.0012  -7.00  281.3
2024/07/09 10:49:24.000   28.293160329  -16.541947991  2332.1996   1   6   0.0010   0.0011   0.0096   0.0005  -0.0012   0.0012  -6.00  280.5
2024/07/09 10:49:25.000   28.293160329  -16.541947991  2332.1996   1   6   0.0010   0.0011   0.0096   0.0005  -0.0012   0.0012  -5.00  277.5
2024/07/09 10:49:26.000   28.293160329  -16.541947991  2332.1996   1   6   0.0010   0.0011   0.0096   0.0005  -0.0012   0.0012  -4.00  277.9
2024/07/09 10:49:27.000   28.293160329  -16.541947991  2332.1996   1   6   0.0010   0.0011   0.0096   0.0005  -0.0012   0.0012  -3.00  277.3
2024/07/09 10:49:28.000   28.293160329  -16.541947991  2332.1996   1   6   0.0010   0.0011   0.0095   0.0005  -0.0012   0.0012  -2.00  274.7
2024/07/09 10:49:29.000   28.293160329  -16.541947991  2332.1996   1   6   0.0010   0.0011   0.0095   0.0005  -0.0012   0.0012  -1.00  272.4
2024/07/09 10:49:30.000   28.293160329  -16.541947990  2332.1996   1   6   0.0010   0.0011   0.0095   0.0005  -0.0012   0.0012   0.00  268.4
2024/07/09 10:49:31.000   28.293160329  -16.541947990  2332.1996   1   6   0.0010   0.0011   0.0095   0.0005  -0.0012   0.0012   1.00  265.0
2024/07/09 10:49:32.000   28.293160329  -16.541947990  2332.1996   1   6   0.0010   0.0011   0.0095   0.0005  -0.0012   0.0012   2.00  260.6
2024/07/09 10:49:33.000   28.293160329  -16.541947990  2332.1996   1   6   0.0010   0.0011   0.0095   0.0005  -0.0012   0.0012   3.00  258.0
2024/07/09 10:49:34.000   28.293160329  -16.541947990  2332.1996   1   6   0.0010   0.0011   0.0095   0.0005  -0.0012   0.0012   4.00  258.1
2024/07/09 10:49:35.000   28.293160329  -16.541947990  2332.1996   1   6   0.0010   0.0011   0.0095   0.0005  -0.0012   0.0012   5.00  258.1
2024/07/09 10:49:36.000   28.293160328  -16.541947990  2332.1996   1   6   0.0010   0.0011   0.0095   0.0005  -0.0012   0.0012   6.00  257.5
2024/07/09 10:49:37.000   28.293160328  -16.541947990  2332.1996   1   6   0.0010   0.0011   0.0095   0.0005  -0.0012   0.0012   7.00  257.8
2024/07/09 10:49:38.000   28.293160328  -16.541947990  2332.1996   1   6   0.0010   0.0011   0.0095   0.0005  -0.0012   0.0012   8.00  258.4
2024/07/09 10:49:39.000   28.293160328  -16.541947990  2332.1996   1   6   0.0010   0.0011   0.0095   0.0005  -0.0012   0.0012   9.00  259.6
2024/07/09 10:49:40.000   28.293160328  -16.541947990  2332.1995   1   6   0.0010   0.0011   0.0095   0.0005  -0.0012   0.0012  10.00  261.0
2024/07/09 10:49:41.000   28.293160328  -16.541947990  2332.1995   1   6   0.0010   0.0011   0.0095   0.0005  -0.0012   0.0012  11.00  262.4
2024/07/09 10:49:42.000   28.293160328  -16.541947990  2332.1995   1   6   0.0010   0.0011   0.0095   0.0005  -0.0012   0.0012  12.00  264.4
2024/07/09 10:49:43.000   28.293160328  -16.541947990  2332.1995   1   6   0.0010   0.0011   0.0095   0.0005  -0.0012   0.0012  13.00  266.4
2024/07/09 10:49:44.000   28.293160328  -16.541947990  2332.1995   1   6   0.0010   0.0011   0.0095   0.0005  -0.0012   0.0012  14.00  268.2
2024/07/09 10:49:45.000   28.293160328  -16.541947990  2332.1995   1   6   0.0010   0.0011   0.0095   0.0005  -0.0012   0.0012 -15.00  270.2
2024/07/09 10:49:46.000   28.293160328  -16.541947990  2332.1995   1   6   0.0010   0.0011   0.0095   0.0005  -0.0012   0.0012 -14.00  271.8
2024/07/09 10:49:47.000   28.293160328  -16.541947990  2332.1995   1   6   0.0010   0.0011   0.0095   0.0005  -0.0012   0.0012 -13.00  273.7
2024/07/09 10:49:48.000   28.293160328  -16.541947990  2332.1994   1   6   0.0010   0.0011   0.0095   0.0005  -0.0012   0.0012 -12.00  275.4
2024/07/09 10:49:49.000   28.293160328  -16.541947990  2332.1994   1   6   0.0010   0.0011   0.0095   0.0005  -0.0012   0.0012 -11.00  276.4
2024/07/09 10:49:50.000   28.293160328  -16.541947989  2332.1994   1   6   0.0010   0.0011   0.0095   0.0005  -0.0012   0.0012 -10.00  278.7
2024/07/09 10:49:51.000   28.293160328  -16.541947989  2332.1994   1   6   0.0010   0.0011   0.0095   0.0005  -0.0012   0.0012  -9.00  280.8
2024/07/09 10:49:52.000   28.293160328  -16.541947989  2332.1994   1   6   0.0010   0.0011   0.0095   0.0005  -0.0012   0.0012  -8.00  282.6
2024/07/09 10:49:53.000   28.293160328  -16.541947989  2332.1994   1   6   0.0010   0.0011   0.0095   0.0005  -0.0012   0.0012  -7.00  284.4
2024/07/09 10:49:54.000   28.293160328  -16.541947989  2332.1994   1   6   0.0010   0.0011   0.0095   0.0005  -0.0012   0.0012  -6.00  285.0
2024/07/09 10:49:55.000   28.293160328  -16.541947989  2332.1994   1   6   0.0010   0.0011   0.0095   0.0005  -0.0012   0.0012  -5.00  284.8
2024/07/09 10:49:56.000   28.293160328  -16.541947989  2332.1993   1   6   0.0010   0.0011   0.0095   0.0005  -0.0012   0.0012  -4.00  283.5
2024/07/09 10:49:57.000   28.293160328  -16.541947989  2332.1993   1   6   0.0010   0.0011   0.0095   0.0005  -0.0012   0.0012  -3.00  281.3
2024/07/09 10:49:58.000   28.293160328  -16.541947989  2332.1993   1   6   0.0010   0.0011   0.0095   0.0005  -0.0012   0.0012  -2.00  280.5
2024/07/09 10:49:59.000   28.293160328  -16.541947989  2332.1993   1   6   0.0010   0.0011   0.0095   0.0005  -0.0012   0.0012  -1.00  280.1
2024/07/09 10:50:00.001   28.293160329  -16.541947993  2332.1994   1   6   0.0010   0.0011   0.0095   0.0005  -0.0012   0.0012   0.00  278.7
2024/07/09 10:50:01.000   28.293160329  -16.541947992  2332.1994   1   6   0.0010   0.0011   0.0095   0.0005  -0.0012   0.0012   1.00  278.2
2024/07/09 10:50:02.000   28.293160329  -16.541947992  2332.1994   1   6   0.0010   0.0011   0.0095   0.0005  -0.0012   0.0012   2.00  279.6
2024/07/09 10:50:03.000   28.293160329  -16.541947992  2332.1995   1   6   0.0010   0.0011   0.0095   0.0005  -0.0012   0.0012   3.00  277.2
2024/07/09 10:50:04.000   28.293160329  -16.541947992  2332.1995   1   6   0.0010   0.0011   0.0095   0.0005  -0.0012   0.0012   4.00  275.3
2024/07/09 10:50:05.000   28.293160329  -16.541947992  2332.1995   1   6   0.0010   0.0011   0.0095   0.0005  -0.0012   0.0012   5.00  274.0
2024/07/09 10:50:06.000   28.293160329  -16.541947992  2332.1995   1   6   0.0010   0.0011   0.0095   0.0005  -0.0012   0.0012   6.00  273.9
2024/07/09 10:50:07.000   28.293160329  -16.541947992  2332.1995   1   6   0.0010   0.0011   0.0095   0.0005  -0.0012   0.0012   7.00  274.0
2024/07/09 10:50:08.000   28.293160329  -16.541947992  2332.1995   1   6   0.0010   0.0011   0.0095   0.0005  -0.0012   0.0012   8.00  274.4
2024/07/09 10:50:09.000   28.293160328  -16.541947992  2332.1995   1   6   0.0010   0.0011   0.0095   0.0005  -0.0012   0.0012   9.00  275.1
2024/07/09 10:50:10.000   28.293160328  -16.541947992  2332.1995   1   6   0.0010   0.0011   0.0095   0.0005  -0.0012   0.0012  10.00  275.7
2024/07/09 10:50:11.000   28.293160328  -16.541947992  2332.1995   1   6   0.0010   0.0011   0.0095   0.0005  -0.0012   0.0012  11.00  276.6
2024/07/09 10:50:12.000   28.293160328  -16.541947992  2332.1995   1   6   0.0010   0.0011   0.0095   0.0005  -0.0012   0.0012  12.00  277.0
2024/07/09 10:50:13.000   28.293160328  -16.541947992  2332.1995   1   6   0.0010   0.0011   0.0095   0.0005  -0.0012   0.0012  13.00  277.4
2024/07/09 10:50:14.000   28.293160328  -16.541947992  2332.1995   1   6   0.0010   0.0011   0.0095   0.0005  -0.0012   0.0012  14.00  278.2
2024/07/09 10:50:15.000   28.293160328  -16.541947992  2332.1995   1   6   0.0010   0.0011   0.0095   0.0005  -0.0012   0.0012 -15.00  279.2
2024/07/09 10:50:16.000   28.293160328  -16.541947992  2332.1995   1   6   0.0010   0.0011   0.0095   0.0005  -0.0012   0.0012 -14.00  280.0
2024/07/09 10:50:17.000   28.293160328  -16.541947992  2332.1995   1   6   0.0010   0.0011   0.0095   0.0005  -0.0012   0.0012 -13.00  280.6
2024/07/09 10:50:18.000   28.293160328  -16.541947992  2332.1994   1   6   0.0010   0.0011   0.0095   0.0005  -0.0012   0.0012 -12.00  281.0
2024/07/09 10:50:19.000   28.293160328  -16.541947992  2332.1994   1   6   0.0010   0.0011   0.0095   0.0005  -0.0012   0.0012 -11.00  282.1
2024/07/09 10:50:20.000   28.293160328  -16.541947992  2332.1994   1   6   0.0010   0.0011   0.0095   0.0005  -0.0012   0.0012 -10.00  282.4
2024/07/09 10:50:21.000   28.293160328  -16.541947992  2332.1994   1   6   0.0010   0.0011   0.0095   0.0005  -0.0012   0.0012  -9.00  283.6
2024/07/09 10:50:22.000   28.293160328  -16.541947992  2332.1994   1   6   0.0010   0.0011   0.0095   0.0005  -0.0012   0.0012  -8.00  283.3
2024/07/09 10:50:23.000   28.293160328  -16.541947992  2332.1994   1   6   0.0010   0.0011   0.0095   0.0005  -0.0012   0.0012  -7.00  283.0
2024/07/09 10:50:24.000   28.293160328  -16.541947992  2332.1994   1   6   0.0010   0.0011   0.0095   0.0005  -0.0012   0.0012  -6.00  282.1
2024/07/09 10:50:25.000   28.293160328  -16.541947992  2332.1994   1   6   0.0010   0.0011   0.0095   0.0005  -0.0012   0.0012  -5.00  281.7
2024/07/09 10:50:26.000   28.293160328  -16.541947992  2332.1994   1   6   0.0010   0.0011   0.0095   0.0005  -0.0012   0.0012  -4.00  281.2
2024/07/09 10:50:27.000   28.293160328  -16.541947992  2332.1994   1   6   0.0010   0.0011   0.0095   0.0005  -0.0012   0.0012  -3.00  279.4
2024/07/09 10:50:28.000   28.293160328  -16.541947991  2332.1993   1   6   0.0010   0.0011   0.0095   0.0005  -0.0012   0.0012  -2.00  276.9
2024/07/09 10:50:29.000   28.293160328  -16.541947991  2332.1993   1   6   0.0010   0.0011   0.0095   0.0005  -0.0012   0.0012  -1.00  273.6
2024/07/09 10:50:30.000   28.293160328  -16.541947991  2332.1993   1   6   0.0010   0.0011   0.0095   0.0005  -0.0012   0.0012   0.00  272.6
2024/07/09 10:50:31.000   28.293160327  -16.541947988  2332.1994   1   6   0.0010   0.0011   0.0095   0.0004  -0.0011   0.0012   1.00   12.8
2024/07/09 10:50:32.000   28.293160327  -16.541947988  2332.1994   1   6   0.0010   0.0011   0.0095   0.0004  -0.0011   0.0012   2.00   22.5
2024/07/09 10:50:33.000   28.293160327  -16.541947988  2332.1993   1   6   0.0010   0.0011   0.0095   0.0004  -0.0011   0.0012   3.00   30.9
2024/07/09 10:50:34.000   28.293160327  -16.541947988  2332.1993   1   6   0.0010   0.0011   0.0095   0.0004  -0.0011   0.0012   4.00   37.5
2024/07/09 10:50:35.000   28.293160327  -16.541947988  2332.1993   1   6   0.0010   0.0011   0.0095   0.0004  -0.0011   0.0012   5.00   43.2
2024/07/09 10:50:36.000   28.293160327  -16.541947988  2332.1992   1   6   0.0010   0.0011   0.0095   0.0004  -0.0011   0.0012   6.00   48.1
2024/07/09 10:50:37.000   28.293160327  -16.541947988  2332.1992   1   6   0.0010   0.0011   0.0095   0.0004  -0.0011   0.0012   7.00   52.3
2024/07/09 10:50:38.000   28.293160327  -16.541947988  2332.1992   1   6   0.0010   0.0011   0.0095   0.0004  -0.0011   0.0012   8.00   55.6
2024/07/09 10:50:39.000   28.293160327  -16.541947988  2332.1991   1   6   0.0010   0.0011   0.0095   0.0004  -0.0011   0.0012   9.00   58.6
2024/07/09 10:50:40.000   28.293160327  -16.541947988  2332.1991   1   6   0.0010   0.0011   0.0095   0.0004  -0.0011   0.0012  10.00   61.5
2024/07/09 10:50:41.000   28.293160327  -16.541947988  2332.1991   1   6   0.0010   0.0011   0.0095   0.0004  -0.0011   0.0012  11.00   63.9
2024/07/09 10:50:42.000   28.293160326  -16.541947988  2332.1991   1   6   0.0010   0.0011   0.0095   0.0004  -0.0011   0.0012  12.00   66.2
2024/07/09 10:50:43.000   28.293160326  -16.541947988  2332.1990   1   6   0.0010   0.0011   0.0095   0.0004  -0.0011   0.0012  13.00   68.4
