% program   : RTKPOST-EX 2.5.0
% inp file  : C:\Users\SallyHenry\Desktop\Sally Internship\GNSS gravi\DATA\Survey Rover Obs\LM011_G9.24o
% inp file  : C:\Users\SallyHenry\Desktop\Sally Internship\GNSS gravi\DATA\BaseStations\IZAN\IZAN00ESP_R_20241900000_01D_30S_MO.rnx
% inp file  : C:\Users\SallyHenry\Desktop\Sally Internship\GNSS gravi\DATA\BaseStations\IZAN\IZAN00ESP_R_20241900000_01D_MN.rnx
% inp file  : C:\Users\SallyHenry\Desktop\Sally Internship\GNSS gravi\DATA\aux_files\Survey\IGS0OPSFIN_20241900000_01D_15M_ORB.SP3
% inp file  : C:\Users\SallyHenry\Desktop\Sally Internship\GNSS gravi\DATA\aux_files\Survey\IGS0OPSFIN_20241900000_01D_30S_CLK.CLK
% obs start : 2024/07/08 12:14:42.0 GPST (week2322 130482.0s)
% obs end   : 2024/07/08 13:01:26.0 GPST (week2322 133286.0s)
% pos mode  : Static
% freqs     : L1+L2/E5b
% solution  : Combined-No Phase Reset
% elev mask : 15.0 deg
% dynamics  : on
% tidecorr  : solid
% ionos opt : Estimate TEC
% tropo opt : Estimate ZTD+Grad
% ephemeris : Precise
% navi sys  : GPS GLONASS Galileo QZSS BDS
% amb res   : Fix and Hold
% amb glo   : Fix and Hold
% amb bds   : on
% val thres : 3.0
% antenna1  :                       ( 0.0000  0.0000  1.7650)
% antenna2  :                       ( 0.0000  0.0000  0.0000)
% ref pos   :  28.308069410  -16.499677180  2417.4044
%
% (lat/lon/height=WGS84/ellipsoidal,Q=1:fix,2:float,3:sbas,4:dgps,5:single,6:ppp,ns=# of satellites)
%  GPST                  latitude(deg) longitude(deg)  height(m)   Q  ns   sdn(m)   sde(m)   sdu(m)  sdne(m)  sdeu(m)  sdun(m) age(s)  ratio
2024/07/08 12:14:42.000   28.292825304  -16.543456211  2330.1063   1   8   0.0013   0.0010   0.0089   0.0005   0.0014  -0.0004  12.00   15.5
2024/07/08 12:14:43.000   28.292825304  -16.543456211  2330.1063   1   8   0.0013   0.0010   0.0089   0.0005   0.0014  -0.0004  13.00   15.5
2024/07/08 12:14:44.000   28.292825304  -16.543456211  2330.1063   1   8   0.0013   0.0010   0.0089   0.0005   0.0014  -0.0004  14.00   15.4
2024/07/08 12:14:45.000   28.292825304  -16.543456211  2330.1062   1   8   0.0013   0.0010   0.0089   0.0005   0.0014  -0.0004  15.00   15.4
2024/07/08 12:14:46.000   28.292825304  -16.543456211  2330.1062   1   8   0.0013   0.0010   0.0089   0.0005   0.0014  -0.0004 -14.00   15.4
2024/07/08 12:14:47.000   28.292825303  -16.543456211  2330.1062   1   8   0.0013   0.0010   0.0089   0.0005   0.0014  -0.0004 -13.00   15.4
2024/07/08 12:14:48.000   28.292825303  -16.543456211  2330.1061   1   8   0.0013   0.0010   0.0089   0.0005   0.0014  -0.0004 -12.00   15.4
2024/07/08 12:14:49.000   28.292825303  -16.543456212  2330.1061   1   8   0.0013   0.0010   0.0089   0.0005   0.0014  -0.0004 -11.00   15.4
2024/07/08 12:14:50.000   28.292825303  -16.543456212  2330.1061   1   8   0.0013   0.0010   0.0089   0.0005   0.0014  -0.0004 -10.00   15.4
2024/07/08 12:14:51.000   28.292825303  -16.543456212  2330.1061   1   8   0.0013   0.0010   0.0089   0.0005   0.0014  -0.0004  -9.00   15.4
2024/07/08 12:14:52.000   28.292825303  -16.543456212  2330.1060   1   8   0.0013   0.0010   0.0089   0.0005   0.0014  -0.0004  -8.00   15.4
2024/07/08 12:14:53.000   28.292825303  -16.543456212  2330.1060   1   8   0.0013   0.0010   0.0089   0.0005   0.0014  -0.0004  -7.00   15.4
2024/07/08 12:14:54.000   28.292825303  -16.543456212  2330.1060   1   8   0.0013   0.0010   0.0089   0.0005   0.0014  -0.0004  -6.00   15.4
2024/07/08 12:14:55.000   28.292825303  -16.543456212  2330.1059   1   8   0.0013   0.0010   0.0089   0.0005   0.0014  -0.0004  -5.00   15.4
2024/07/08 12:14:56.000   28.292825303  -16.543456212  2330.1059   1   8   0.0013   0.0010   0.0089   0.0005   0.0014  -0.0004  -4.00   15.4
2024/07/08 12:14:57.000   28.292825304  -16.543456212  2330.1059   1   8   0.0013   0.0010   0.0089   0.0005   0.0014  -0.0004  -3.00   15.4
2024/07/08 12:14:58.000   28.292825304  -16.543456212  2330.1060   1   8   0.0013   0.0010   0.0089   0.0005   0.0014  -0.0004  -2.00   15.5
2024/07/08 12:14:59.000   28.292825304  -16.543456211  2330.1060   1   8   0.0013   0.0010   0.0089   0.0005   0.0014  -0.0004  -1.00   15.5
2024/07/08 12:15:00.000   28.292825304  -16.543456211  2330.1061   1   8   0.0013   0.0010   0.0089   0.0005   0.0014  -0.0004   0.00   15.5
2024/07/08 12:15:01.000   28.292825304  -16.543456211  2330.1062   1   8   0.0013   0.0010   0.0089   0.0005   0.0014  -0.0004   1.00   15.6
2024/07/08 12:15:02.000   28.292825305  -16.543456211  2330.1062   1   8   0.0013   0.0010   0.0089   0.0005   0.0014  -0.0004   2.00   15.6
2024/07/08 12:15:03.000   28.292825305  -16.543456210  2330.1063   1   8   0.0013   0.0010   0.0089   0.0005   0.0014  -0.0004   3.00   15.6
2024/07/08 12:15:04.000   28.292825305  -16.543456210  2330.1063   1   8   0.0013   0.0010   0.0089   0.0005   0.0014  -0.0004   4.00   15.6
2024/07/08 12:15:05.000   28.292825305  -16.543456210  2330.1064   1   8   0.0013   0.0010   0.0089   0.0005   0.0014  -0.0004   5.00   15.6
2024/07/08 12:15:06.000   28.292825306  -16.543456210  2330.1064   1   8   0.0013   0.0010   0.0089   0.0005   0.0014  -0.0004   6.00   15.6
2024/07/08 12:15:07.000   28.292825306  -16.543456210  2330.1064   1   8   0.0013   0.0010   0.0089   0.0005   0.0014  -0.0004   7.00   15.7
2024/07/08 12:15:08.000   28.292825306  -16.543456210  2330.1064   1   8   0.0013   0.0010   0.0089   0.0005   0.0014  -0.0004   8.00   15.6
2024/07/08 12:15:09.000   28.292825306  -16.543456210  2330.1064   1   8   0.0013   0.0010   0.0089   0.0005   0.0014  -0.0004   9.00   15.6
2024/07/08 12:15:10.000   28.292825305  -16.543456210  2330.1064   1   8   0.0013   0.0010   0.0089   0.0005   0.0014  -0.0004  10.00   15.6
2024/07/08 12:15:11.000   28.292825305  -16.543456210  2330.1064   1   8   0.0013   0.0010   0.0089   0.0005   0.0014  -0.0004  11.00   15.6
2024/07/08 12:15:12.000   28.292825305  -16.543456210  2330.1064   1   8   0.0013   0.0010   0.0089   0.0005   0.0014  -0.0004  12.00   15.6
2024/07/08 12:15:13.000   28.292825305  -16.543456211  2330.1064   1   8   0.0013   0.0010   0.0089   0.0005   0.0014  -0.0004  13.00   15.6
2024/07/08 12:15:14.000   28.292825305  -16.543456211  2330.1063   1   8   0.0013   0.0010   0.0089   0.0005   0.0014  -0.0004  14.00   15.6
2024/07/08 12:15:15.000   28.292825305  -16.543456211  2330.1063   1   8   0.0013   0.0010   0.0089   0.0005   0.0014  -0.0004  15.00   15.6
2024/07/08 12:15:16.000   28.292825305  -16.543456211  2330.1063   1   8   0.0013   0.0010   0.0089   0.0005   0.0014  -0.0004 -14.00   15.6
2024/07/08 12:15:17.000   28.292825305  -16.543456211  2330.1063   1   8   0.0013   0.0010   0.0089   0.0005   0.0014  -0.0004 -13.00   15.6
2024/07/08 12:15:18.000   28.292825305  -16.543456211  2330.1062   1   8   0.0013   0.0010   0.0089   0.0005   0.0014  -0.0004 -12.00   15.5
2024/07/08 12:15:19.000   28.292825305  -16.543456212  2330.1062   1   8   0.0013   0.0010   0.0089   0.0005   0.0014  -0.0004 -11.00   15.5
2024/07/08 12:15:20.000   28.292825305  -16.543456212  2330.1062   1   8   0.0013   0.0010   0.0089   0.0005   0.0014  -0.0004 -10.00   15.5
2024/07/08 12:15:21.000   28.292825305  -16.543456212  2330.1062   1   8   0.0013   0.0010   0.0089   0.0005   0.0014  -0.0004  -9.00   15.5
2024/07/08 12:15:22.000   28.292825305  -16.543456212  2330.1061   1   8   0.0013   0.0010   0.0089   0.0005   0.0014  -0.0004  -8.00   15.5
2024/07/08 12:15:23.000   28.292825305  -16.543456212  2330.1061   1   8   0.0013   0.0010   0.0089   0.0005   0.0014  -0.0004  -7.00   15.5
2024/07/08 12:15:24.000   28.292825305  -16.543456212  2330.1061   1   8   0.0013   0.0010   0.0089   0.0005   0.0014  -0.0004  -6.00   15.5
2024/07/08 12:15:25.000   28.292825305  -16.543456212  2330.1061   1   8   0.0013   0.0010   0.0089   0.0005   0.0014  -0.0004  -5.00   15.5
2024/07/08 12:15:26.000   28.292825305  -16.543456212  2330.1060   1   8   0.0013   0.0010   0.0089   0.0005   0.0014  -0.0004  -4.00   15.5
2024/07/08 12:15:27.000   28.292825305  -16.543456212  2330.1060   1   8   0.0013   0.0010   0.0089   0.0005   0.0014  -0.0004  -3.00   15.5
2024/07/08 12:15:28.000   28.292825305  -16.543456212  2330.1060   1   8   0.0013   0.0010   0.0089   0.0005   0.0014  -0.0004  -2.00   15.5
2024/07/08 12:15:29.000   28.292825306  -16.543456212  2330.1060   1   8   0.0013   0.0010   0.0089   0.0005   0.0014  -0.0004  -1.00   15.5
2024/07/08 12:15:30.000   28.292825306  -16.543456211  2330.1061   1   8   0.0013   0.0010   0.0089   0.0005   0.0014  -0.0004   0.00   15.5
2024/07/08 12:15:31.000   28.292825306  -16.543456211  2330.1061   1   8   0.0013   0.0010   0.0089   0.0005   0.0014  -0.0004   1.00   15.6
2024/07/08 12:15:32.000   28.292825306  -16.543456211  2330.1062   1   8   0.0013   0.0010   0.0089   0.0005   0.0014  -0.0004   2.00   15.6
2024/07/08 12:15:33.000   28.292825306  -16.543456211  2330.1063   1   8   0.0013   0.0010   0.0089   0.0005   0.0014  -0.0004   3.00   15.6
2024/07/08 12:15:34.000   28.292825306  -16.543456211  2330.1063   1   8   0.0013   0.0010   0.0089   0.0005   0.0014  -0.0004   4.00   15.6
2024/07/08 12:15:35.000   28.292825306  -16.543456210  2330.1064   1   8   0.0013   0.0010   0.0089   0.0005   0.0014  -0.0005   5.00   15.6
2024/07/08 12:15:36.000   28.292825306  -16.543456210  2330.1064   1   8   0.0013   0.0010   0.0089   0.0005   0.0014  -0.0005   6.00   15.7
2024/07/08 12:15:37.000   28.292825306  -16.543456210  2330.1064   1   8   0.0013   0.0010   0.0089   0.0005   0.0014  -0.0005   7.00   15.7
2024/07/08 12:15:38.000   28.292825306  -16.543456210  2330.1065   1   8   0.0013   0.0010   0.0089   0.0005   0.0014  -0.0005   8.00   15.7
2024/07/08 12:15:39.000   28.292825306  -16.543456210  2330.1065   1   8   0.0013   0.0010   0.0089   0.0005   0.0014  -0.0005   9.00   15.7
2024/07/08 12:15:40.000   28.292825306  -16.543456210  2330.1064   1   8   0.0013   0.0010   0.0089   0.0005   0.0014  -0.0005  10.00   15.7
2024/07/08 12:15:41.000   28.292825306  -16.543456211  2330.1064   1   8   0.0013   0.0010   0.0089   0.0005   0.0014  -0.0005  11.00   15.6
2024/07/08 12:15:42.000   28.292825306  -16.543456211  2330.1064   1   8   0.0013   0.0010   0.0089   0.0005   0.0014  -0.0005  12.00   15.6
2024/07/08 12:15:43.000   28.292825306  -16.543456211  2330.1064   1   8   0.0013   0.0010   0.0089   0.0005   0.0014  -0.0005  13.00   15.6
2024/07/08 12:15:44.001   28.292825306  -16.543456211  2330.1064   1   8   0.0013   0.0010   0.0089   0.0005   0.0014  -0.0005  14.00   15.6
2024/07/08 12:15:45.000   28.292825306  -16.543456211  2330.1063   1   8   0.0013   0.0010   0.0089   0.0005   0.0014  -0.0005  15.00   15.6
2024/07/08 12:15:46.000   28.292825306  -16.543456211  2330.1063   1   8   0.0013   0.0010   0.0089   0.0005   0.0014  -0.0005 -14.00   15.6
2024/07/08 12:15:47.000   28.292825306  -16.543456212  2330.1063   1   8   0.0013   0.0010   0.0089   0.0005   0.0014  -0.0005 -13.00   15.6
2024/07/08 12:15:48.000   28.292825305  -16.543456212  2330.1062   1   8   0.0013   0.0010   0.0089   0.0005   0.0014  -0.0005 -12.00   15.6
2024/07/08 12:15:49.000   28.292825305  -16.543456212  2330.1062   1   8   0.0013   0.0010   0.0089   0.0005   0.0014  -0.0005 -11.00   15.6
2024/07/08 12:15:50.000   28.292825305  -16.543456212  2330.1062   1   8   0.0013   0.0010   0.0089   0.0005   0.0014  -0.0005 -10.00   15.6
2024/07/08 12:15:51.000   28.292825305  -16.543456212  2330.1061   1   8   0.0013   0.0010   0.0089   0.0005   0.0014  -0.0005  -9.00   15.6
2024/07/08 12:15:52.000   28.292825305  -16.543456212  2330.1061   1   8   0.0013   0.0010   0.0089   0.0005   0.0014  -0.0005  -8.00   15.5
2024/07/08 12:15:53.000   28.292825305  -16.543456212  2330.1061   1   8   0.0013   0.0010   0.0089   0.0005   0.0014  -0.0005  -7.00   15.5
2024/07/08 12:15:54.000   28.292825305  -16.543456212  2330.1061   1   8   0.0013   0.0010   0.0089   0.0005   0.0014  -0.0005  -6.00   15.5
2024/07/08 12:15:55.000   28.292825305  -16.543456212  2330.1060   1   8   0.0013   0.0010   0.0089   0.0005   0.0014  -0.0005  -5.00   15.6
2024/07/08 12:15:56.000   28.292825306  -16.543456212  2330.1060   1   8   0.0013   0.0010   0.0089   0.0005   0.0014  -0.0005  -4.00   15.6
2024/07/08 12:15:57.000   28.292825306  -16.543456212  2330.1060   1   8   0.0013   0.0010   0.0089   0.0005   0.0014  -0.0005  -3.00   15.6
2024/07/08 12:15:58.000   28.292825306  -16.543456212  2330.1060   1   8   0.0013   0.0010   0.0089   0.0005   0.0014  -0.0005  -2.00   15.6
2024/07/08 12:15:59.000   28.292825306  -16.543456212  2330.1061   1   8   0.0013   0.0010   0.0089   0.0005   0.0014  -0.0005  -1.00   15.6
2024/07/08 12:16:00.000   28.292825307  -16.543456211  2330.1061   1   8   0.0013   0.0010   0.0089   0.0005   0.0014  -0.0005   0.00   15.7
2024/07/08 12:16:01.000   28.292825307  -16.543456211  2330.1062   1   8   0.0013   0.0010   0.0089   0.0005   0.0014  -0.0005   1.00   15.7
2024/07/08 12:16:02.000   28.292825307  -16.543456211  2330.1063   1   8   0.0013   0.0010   0.0089   0.0005   0.0014  -0.0005   2.00   15.7
2024/07/08 12:16:03.000   28.292825307  -16.543456210  2330.1064   1   8   0.0013   0.0010   0.0089   0.0005   0.0014  -0.0005   3.00   15.8
2024/07/08 12:16:04.000   28.292825307  -16.543456210  2330.1064   1   8   0.0013   0.0010   0.0089   0.0005   0.0014  -0.0005   4.00   15.8
2024/07/08 12:16:05.000   28.292825308  -16.543456210  2330.1064   1   8   0.0013   0.0010   0.0089   0.0005   0.0014  -0.0005   5.00   15.8
2024/07/08 12:16:06.000   28.292825308  -16.543456210  2330.1064   1   8   0.0013   0.0010   0.0089   0.0005   0.0014  -0.0005   6.00   15.8
2024/07/08 12:16:07.000   28.292825308  -16.543456210  2330.1064   1   8   0.0013   0.0010   0.0089   0.0005   0.0014  -0.0005   7.00   15.8
2024/07/08 12:16:08.000   28.292825308  -16.543456210  2330.1064   1   8   0.0013   0.0010   0.0089   0.0005   0.0014  -0.0005   8.00   15.8
2024/07/08 12:16:09.000   28.292825308  -16.543456210  2330.1064   1   8   0.0013   0.0010   0.0089   0.0005   0.0014  -0.0005   9.00   15.8
2024/07/08 12:16:10.000   28.292825308  -16.543456210  2330.1064   1   8   0.0013   0.0010   0.0089   0.0005   0.0014  -0.0005  10.00   15.8
2024/07/08 12:16:11.000   28.292825308  -16.543456210  2330.1064   1   8   0.0013   0.0010   0.0089   0.0005   0.0014  -0.0005  11.00   15.8
2024/07/08 12:16:12.000   28.292825308  -16.543456210  2330.1063   1   8   0.0013   0.0010   0.0089   0.0005   0.0014  -0.0005  12.00   15.8
2024/07/08 12:16:13.000   28.292825308  -16.543456210  2330.1063   1   8   0.0013   0.0010   0.0089   0.0005   0.0014  -0.0005  13.00   15.8
2024/07/08 12:16:14.000   28.292825308  -16.543456210  2330.1063   1   8   0.0013   0.0010   0.0089   0.0005   0.0014  -0.0005  14.00   15.8
2024/07/08 12:16:15.000   28.292825308  -16.543456210  2330.1062   1   8   0.0013   0.0010   0.0089   0.0005   0.0014  -0.0005  15.00   15.8
2024/07/08 12:16:16.000   28.292825307  -16.543456211  2330.1062   1   8   0.0013   0.0010   0.0089   0.0005   0.0014  -0.0005 -14.00   15.8
2024/07/08 12:16:17.000   28.292825307  -16.543456211  2330.1062   1   8   0.0013   0.0010   0.0089   0.0005   0.0014  -0.0005 -13.00   15.8
2024/07/08 12:16:18.000   28.292825307  -16.543456211  2330.1062   1   8   0.0013   0.0010   0.0089   0.0005   0.0014  -0.0005 -12.00   15.8
2024/07/08 12:16:19.000   28.292825307  -16.543456211  2330.1061   1   8   0.0013   0.0010   0.0088   0.0005   0.0014  -0.0005 -11.00   15.7
2024/07/08 12:16:20.000   28.292825307  -16.543456211  2330.1061   1   8   0.0013   0.0010   0.0088   0.0005   0.0014  -0.0005 -10.00   15.7
2024/07/08 12:16:21.000   28.292825307  -16.543456211  2330.1061   1   8   0.0013   0.0010   0.0088   0.0005   0.0014  -0.0005  -9.00   15.7
2024/07/08 12:16:22.000   28.292825307  -16.543456211  2330.1060   1   8   0.0013   0.0010   0.0088   0.0005   0.0014  -0.0005  -8.00   15.7
2024/07/08 12:16:23.000   28.292825307  -16.543456211  2330.1060   1   8   0.0013   0.0010   0.0088   0.0005   0.0014  -0.0005  -7.00   15.7
2024/07/08 12:16:24.000   28.292825307  -16.543456211  2330.1060   1   8   0.0013   0.0010   0.0088   0.0005   0.0014  -0.0005  -6.00   15.7
2024/07/08 12:16:25.000   28.292825308  -16.543456211  2330.1059   1   8   0.0013   0.0010   0.0088   0.0005   0.0014  -0.0005  -5.00   15.8
2024/07/08 12:16:26.000   28.292825308  -16.543456211  2330.1059   1   8   0.0013   0.0010   0.0088   0.0005   0.0014  -0.0005  -4.00   15.8
2024/07/08 12:16:27.000   28.292825308  -16.543456211  2330.1059   1   8   0.0013   0.0010   0.0088   0.0005   0.0014  -0.0005  -3.00   15.8
2024/07/08 12:16:28.000   28.292825308  -16.543456211  2330.1059   1   8   0.0013   0.0010   0.0088   0.0005   0.0014  -0.0005  -2.00   15.8
2024/07/08 12:16:29.000   28.292825308  -16.543456211  2330.1060   1   8   0.0013   0.0010   0.0088   0.0005   0.0014  -0.0005  -1.00   15.8
2024/07/08 12:16:30.000   28.292825309  -16.543456210  2330.1060   1   8   0.0013   0.0010   0.0088   0.0005   0.0014  -0.0005   0.00   15.9
2024/07/08 12:16:31.000   28.292825309  -16.543456210  2330.1061   1   8   0.0013   0.0010   0.0088   0.0005   0.0014  -0.0005   1.00   15.9
2024/07/08 12:16:32.000   28.292825309  -16.543456210  2330.1061   1   8   0.0013   0.0010   0.0089   0.0005   0.0014  -0.0005   2.00   16.0
2024/07/08 12:16:33.000   28.292825310  -16.543456209  2330.1062   1   8   0.0013   0.0010   0.0089   0.0005   0.0014  -0.0005   3.00   16.0
2024/07/08 12:16:34.000   28.292825310  -16.543456209  2330.1062   1   8   0.0013   0.0010   0.0089   0.0005   0.0014  -0.0005   4.00   16.0
2024/07/08 12:16:35.000   28.292825310  -16.543456209  2330.1062   1   8   0.0013   0.0010   0.0089   0.0005   0.0014  -0.0005   5.00   16.0
2024/07/08 12:16:36.000   28.292825310  -16.543456209  2330.1062   1   8   0.0013   0.0010   0.0089   0.0005   0.0014  -0.0005   6.00   16.0
2024/07/08 12:16:37.000   28.292825311  -16.543456209  2330.1062   1   8   0.0013   0.0010   0.0089   0.0005   0.0014  -0.0005   7.00   16.0
2024/07/08 12:16:38.000   28.292825311  -16.543456209  2330.1062   1   8   0.0013   0.0010   0.0089   0.0005   0.0014  -0.0005   8.00   16.0
2024/07/08 12:16:39.000   28.292825310  -16.543456209  2330.1062   1   8   0.0013   0.0010   0.0089   0.0005   0.0014  -0.0005   9.00   16.0
2024/07/08 12:16:40.000   28.292825310  -16.543456209  2330.1062   1   8   0.0013   0.0010   0.0089   0.0005   0.0014  -0.0005  10.00   16.0
2024/07/08 12:16:41.000   28.292825310  -16.543456209  2330.1061   1   8   0.0013   0.0010   0.0088   0.0005   0.0014  -0.0005  11.00   16.0
2024/07/08 12:16:42.000   28.292825310  -16.543456209  2330.1061   1   8   0.0013   0.0010   0.0088   0.0005   0.0014  -0.0005  12.00   16.0
2024/07/08 12:16:43.000   28.292825310  -16.543456209  2330.1061   1   8   0.0013   0.0010   0.0088   0.0005   0.0014  -0.0005  13.00   16.0
2024/07/08 12:16:44.000   28.292825310  -16.543456209  2330.1061   1   8   0.0013   0.0010   0.0088   0.0005   0.0014  -0.0005  14.00   16.0
2024/07/08 12:16:45.000   28.292825310  -16.543456209  2330.1061   1   8   0.0013   0.0010   0.0088   0.0005   0.0014  -0.0005  15.00   16.0
2024/07/08 12:16:46.000   28.292825310  -16.543456209  2330.1060   1   8   0.0013   0.0010   0.0088   0.0005   0.0014  -0.0005 -14.00   16.0
2024/07/08 12:16:47.000   28.292825310  -16.543456210  2330.1060   1   8   0.0013   0.0010   0.0088   0.0005   0.0014  -0.0005 -13.00   16.0
2024/07/08 12:16:48.000   28.292825310  -16.543456210  2330.1060   1   8   0.0013   0.0010   0.0088   0.0005   0.0014  -0.0005 -12.00   15.9
2024/07/08 12:16:49.000   28.292825310  -16.543456210  2330.1060   1   8   0.0013   0.0010   0.0088   0.0005   0.0014  -0.0005 -11.00   15.9
2024/07/08 12:16:50.000   28.292825310  -16.543456210  2330.1060   1   8   0.0013   0.0010   0.0088   0.0005   0.0014  -0.0005 -10.00   15.9
2024/07/08 12:16:51.000   28.292825309  -16.543456210  2330.1059   1   8   0.0013   0.0010   0.0088   0.0005   0.0014  -0.0005  -9.00   15.9
2024/07/08 12:16:52.000   28.292825309  -16.543456210  2330.1059   1   8   0.0013   0.0010   0.0088   0.0005   0.0014  -0.0005  -8.00   15.9
2024/07/08 12:16:53.000   28.292825309  -16.543456210  2330.1059   1   8   0.0013   0.0010   0.0088   0.0005   0.0014  -0.0005  -7.00   15.9
2024/07/08 12:16:54.000   28.292825309  -16.543456210  2330.1059   1   8   0.0013   0.0010   0.0088   0.0005   0.0014  -0.0005  -6.00   15.9
2024/07/08 12:16:55.000   28.292825309  -16.543456210  2330.1059   1   8   0.0013   0.0010   0.0088   0.0005   0.0014  -0.0005  -5.00   15.9
2024/07/08 12:16:56.000   28.292825309  -16.543456210  2330.1058   1   8   0.0013   0.0010   0.0088   0.0005   0.0014  -0.0005  -4.00   15.9
2024/07/08 12:16:57.000   28.292825309  -16.543456210  2330.1059   1   8   0.0013   0.0010   0.0088   0.0005   0.0014  -0.0005  -3.00   15.9
2024/07/08 12:16:58.000   28.292825309  -16.543456210  2330.1059   1   8   0.0013   0.0010   0.0088   0.0005   0.0014  -0.0005  -2.00   16.0
2024/07/08 12:16:59.000   28.292825310  -16.543456210  2330.1059   1   8   0.0013   0.0010   0.0088   0.0005   0.0014  -0.0005  -1.00   16.0
2024/07/08 12:17:00.000   28.292825310  -16.543456209  2330.1059   1   8   0.0013   0.0010   0.0088   0.0005   0.0014  -0.0005   0.00   16.0
2024/07/08 12:17:01.000   28.292825310  -16.543456209  2330.1059   1   8   0.0013   0.0010   0.0088   0.0005   0.0014  -0.0005   1.00   16.0
2024/07/08 12:17:02.000   28.292825311  -16.543456209  2330.1059   1   8   0.0013   0.0010   0.0088   0.0005   0.0014  -0.0005   2.00   16.1
2024/07/08 12:17:03.000   28.292825311  -16.543456209  2330.1060   1   8   0.0013   0.0010   0.0088   0.0005   0.0014  -0.0005   3.00   16.1
2024/07/08 12:17:04.000   28.292825311  -16.543456208  2330.1060   1   8   0.0013   0.0010   0.0088   0.0005   0.0014  -0.0005   4.00   16.1
2024/07/08 12:17:05.000   28.292825311  -16.543456208  2330.1060   1   8   0.0013   0.0010   0.0088   0.0005   0.0014  -0.0006   5.00   16.1
2024/07/08 12:17:06.000   28.292825311  -16.543456208  2330.1061   1   8   0.0013   0.0010   0.0088   0.0005   0.0014  -0.0006   6.00   16.1
2024/07/08 12:17:07.000   28.292825311  -16.543456208  2330.1061   1   8   0.0013   0.0010   0.0088   0.0005   0.0014  -0.0006   7.00   16.1
2024/07/08 12:17:08.000   28.292825311  -16.543456208  2330.1061   1   8   0.0013   0.0010   0.0088   0.0005   0.0014  -0.0006   8.00   16.1
2024/07/08 12:17:09.000   28.292825311  -16.543456208  2330.1061   1   8   0.0013   0.0010   0.0088   0.0005   0.0014  -0.0006   9.00   16.1
2024/07/08 12:17:10.000   28.292825310  -16.543456208  2330.1061   1   8   0.0013   0.0010   0.0088   0.0005   0.0014  -0.0006  10.00   16.1
2024/07/08 12:17:11.000   28.292825310  -16.543456208  2330.1061   1   8   0.0013   0.0010   0.0088   0.0005   0.0014  -0.0006  11.00   16.1
2024/07/08 12:17:12.000   28.292825310  -16.543456209  2330.1061   1   8   0.0013   0.0010   0.0088   0.0005   0.0014  -0.0006  12.00   16.1
2024/07/08 12:17:13.000   28.292825310  -16.543456209  2330.1061   1   8   0.0013   0.0010   0.0088   0.0005   0.0014  -0.0006  13.00   16.1
2024/07/08 12:17:14.000   28.292825310  -16.543456209  2330.1061   1   8   0.0013   0.0010   0.0088   0.0005   0.0014  -0.0006  14.00   16.1
2024/07/08 12:17:15.000   28.292825310  -16.543456209  2330.1061   1   8   0.0013   0.0010   0.0088   0.0005   0.0014  -0.0006  15.00   16.0
2024/07/08 12:17:16.000   28.292825310  -16.543456209  2330.1060   1   8   0.0013   0.0010   0.0088   0.0005   0.0014  -0.0006 -14.00   16.0
2024/07/08 12:17:17.000   28.292825310  -16.543456209  2330.1060   1   8   0.0013   0.0010   0.0088   0.0005   0.0014  -0.0006 -13.00   16.0
2024/07/08 12:17:18.000   28.292825310  -16.543456209  2330.1060   1   8   0.0013   0.0010   0.0088   0.0005   0.0014  -0.0006 -12.00   16.0
2024/07/08 12:17:19.000   28.292825310  -16.543456210  2330.1060   1   8   0.0013   0.0010   0.0088   0.0005   0.0014  -0.0006 -11.00   16.0
2024/07/08 12:17:20.000   28.292825310  -16.543456210  2330.1059   1   8   0.0013   0.0010   0.0088   0.0005   0.0014  -0.0006 -10.00   16.0
2024/07/08 12:17:21.000   28.292825310  -16.543456210  2330.1059   1   8   0.0013   0.0010   0.0088   0.0005   0.0014  -0.0006  -9.00   16.0
2024/07/08 12:17:22.000   28.292825310  -16.543456210  2330.1059   1   8   0.0013   0.0010   0.0088   0.0005   0.0014  -0.0006  -8.00   16.0
2024/07/08 12:17:23.000   28.292825310  -16.543456210  2330.1058   1   8   0.0013   0.0010   0.0088   0.0005   0.0014  -0.0006  -7.00   16.0
2024/07/08 12:17:24.000   28.292825310  -16.543456210  2330.1058   1   8   0.0013   0.0010   0.0088   0.0005   0.0014  -0.0006  -6.00   16.0
2024/07/08 12:17:25.000   28.292825310  -16.543456210  2330.1058   1   8   0.0013   0.0010   0.0088   0.0005   0.0014  -0.0006  -5.00   16.0
2024/07/08 12:17:26.000   28.292825310  -16.543456210  2330.1058   1   8   0.0013   0.0010   0.0088   0.0005   0.0014  -0.0006  -4.00   16.0
2024/07/08 12:17:27.000   28.292825310  -16.543456210  2330.1058   1   8   0.0013   0.0010   0.0088   0.0005   0.0014  -0.0006  -3.00   16.0
2024/07/08 12:17:28.000   28.292825310  -16.543456210  2330.1058   1   8   0.0013   0.0010   0.0088   0.0005   0.0013  -0.0006  -2.00   16.0
2024/07/08 12:17:29.000   28.292825310  -16.543456210  2330.1058   1   8   0.0013   0.0010   0.0088   0.0005   0.0013  -0.0006  -1.00   16.0
2024/07/08 12:17:30.000   28.292825310  -16.543456210  2330.1059   1   8   0.0013   0.0010   0.0088   0.0005   0.0013  -0.0006   0.00   16.0
2024/07/08 12:17:31.000   28.292825311  -16.543456209  2330.1060   1   8   0.0013   0.0010   0.0088   0.0005   0.0013  -0.0006   1.00   16.1
2024/07/08 12:17:32.000   28.292825311  -16.543456209  2330.1060   1   8   0.0013   0.0010   0.0088   0.0005   0.0013  -0.0006   2.00   16.1
2024/07/08 12:17:33.000   28.292825311  -16.543456209  2330.1061   1   8   0.0013   0.0010   0.0088   0.0005   0.0013  -0.0006   3.00   16.1
2024/07/08 12:17:34.000   28.292825311  -16.543456208  2330.1061   1   8   0.0013   0.0010   0.0088   0.0005   0.0013  -0.0006   4.00   16.1
2024/07/08 12:17:35.000   28.292825311  -16.543456208  2330.1062   1   8   0.0013   0.0010   0.0088   0.0005   0.0013  -0.0006   5.00   16.1
2024/07/08 12:17:36.000   28.292825311  -16.543456208  2330.1062   1   8   0.0013   0.0010   0.0088   0.0005   0.0013  -0.0006   6.00   16.1
2024/07/08 12:17:37.000   28.292825311  -16.543456208  2330.1062   1   8   0.0013   0.0010   0.0088   0.0005   0.0013  -0.0006   7.00   16.1
2024/07/08 12:17:38.000   28.292825311  -16.543456208  2330.1062   1   8   0.0013   0.0010   0.0088   0.0005   0.0013  -0.0006   8.00   16.1
2024/07/08 12:17:39.000   28.292825311  -16.543456208  2330.1062   1   8   0.0013   0.0010   0.0088   0.0005   0.0013  -0.0006   9.00   16.1
2024/07/08 12:17:40.000   28.292825311  -16.543456208  2330.1062   1   8   0.0013   0.0010   0.0088   0.0005   0.0013  -0.0006  10.00   16.1
2024/07/08 12:17:41.000   28.292825311  -16.543456208  2330.1061   1   8   0.0013   0.0010   0.0088   0.0005   0.0013  -0.0006  11.00   16.1
2024/07/08 12:17:42.000   28.292825311  -16.543456208  2330.1061   1   8   0.0013   0.0010   0.0088   0.0005   0.0013  -0.0006  12.00   16.1
2024/07/08 12:17:43.000   28.292825311  -16.543456208  2330.1061   1   8   0.0013   0.0010   0.0088   0.0005   0.0013  -0.0006  13.00   16.1
2024/07/08 12:17:44.000   28.292825311  -16.543456209  2330.1061   1   8   0.0013   0.0010   0.0088   0.0005   0.0013  -0.0006  14.00   16.1
2024/07/08 12:17:45.000   28.292825311  -16.543456209  2330.1060   1   8   0.0013   0.0010   0.0088   0.0005   0.0013  -0.0006  15.00   16.1
2024/07/08 12:17:46.000   28.292825311  -16.543456209  2330.1060   1   8   0.0013   0.0010   0.0088   0.0005   0.0013  -0.0006 -14.00   16.1
2024/07/08 12:17:47.000   28.292825311  -16.543456209  2330.1059   1   8   0.0013   0.0010   0.0088   0.0005   0.0013  -0.0006 -13.00   16.1
2024/07/08 12:17:48.000   28.292825311  -16.543456209  2330.1059   1   8   0.0013   0.0010   0.0088   0.0005   0.0013  -0.0006 -12.00   16.1
2024/07/08 12:17:49.000   28.292825311  -16.543456209  2330.1059   1   8   0.0013   0.0010   0.0088   0.0005   0.0013  -0.0006 -11.00   16.1
2024/07/08 12:17:50.000   28.292825311  -16.543456209  2330.1058   1   8   0.0013   0.0010   0.0088   0.0005   0.0013  -0.0006 -10.00   16.1
2024/07/08 12:17:51.000   28.292825311  -16.543456210  2330.1058   1   8   0.0013   0.0010   0.0088   0.0005   0.0013  -0.0006  -9.00   16.1
2024/07/08 12:17:52.000   28.292825311  -16.543456210  2330.1057   1   8   0.0013   0.0010   0.0088   0.0005   0.0013  -0.0006  -8.00   16.0
2024/07/08 12:17:53.000   28.292825311  -16.543456210  2330.1057   1   8   0.0013   0.0010   0.0088   0.0005   0.0013  -0.0006  -7.00   16.0
2024/07/08 12:17:54.000   28.292825311  -16.543456210  2330.1057   1   8   0.0013   0.0010   0.0088   0.0005   0.0013  -0.0006  -6.00   16.0
2024/07/08 12:17:55.000   28.292825311  -16.543456210  2330.1056   1   8   0.0013   0.0010   0.0088   0.0005   0.0013  -0.0006  -5.00   16.0
2024/07/08 12:17:56.000   28.292825311  -16.543456210  2330.1056   1   8   0.0013   0.0010   0.0088   0.0005   0.0013  -0.0006  -4.00   16.0
2024/07/08 12:17:57.000   28.292825311  -16.543456210  2330.1056   1   8   0.0013   0.0010   0.0088   0.0005   0.0013  -0.0006  -3.00   16.0
2024/07/08 12:17:58.000   28.292825311  -16.543456209  2330.1056   1   8   0.0013   0.0010   0.0088   0.0005   0.0013  -0.0006  -2.00   16.0
2024/07/08 12:17:59.000   28.292825311  -16.543456209  2330.1056   1   8   0.0013   0.0010   0.0088   0.0005   0.0013  -0.0006  -1.00   16.0
2024/07/08 12:18:00.000   28.292825311  -16.543456209  2330.1057   1   8   0.0013   0.0010   0.0088   0.0005   0.0013  -0.0006   0.00   16.0
2024/07/08 12:18:01.000   28.292825311  -16.543456209  2330.1058   1   8   0.0013   0.0010   0.0088   0.0005   0.0013  -0.0006   1.00   16.1
2024/07/08 12:18:02.000   28.292825311  -16.543456208  2330.1060   1   8   0.0013   0.0010   0.0088   0.0005   0.0013  -0.0006   2.00   16.1
2024/07/08 12:18:03.000   28.292825311  -16.543456208  2330.1061   1   8   0.0013   0.0010   0.0088   0.0005   0.0013  -0.0006   3.00   16.1
2024/07/08 12:18:04.000   28.292825311  -16.543456208  2330.1061   1   8   0.0013   0.0010   0.0088   0.0005   0.0013  -0.0006   4.00   16.1
2024/07/08 12:18:05.000   28.292825312  -16.543456208  2330.1062   1   8   0.0013   0.0010   0.0088   0.0005   0.0013  -0.0006   5.00   16.1
2024/07/08 12:18:06.000   28.292825312  -16.543456208  2330.1062   1   8   0.0013   0.0010   0.0088   0.0005   0.0013  -0.0006   6.00   16.1
2024/07/08 12:18:07.000   28.292825312  -16.543456207  2330.1063   1   8   0.0013   0.0010   0.0088   0.0005   0.0013  -0.0006   7.00   16.1
2024/07/08 12:18:08.000   28.292825311  -16.543456207  2330.1063   1   8   0.0013   0.0010   0.0088   0.0005   0.0013  -0.0006   8.00   16.1
2024/07/08 12:18:09.000   28.292825311  -16.543456207  2330.1063   1   8   0.0013   0.0010   0.0088   0.0005   0.0013  -0.0006   9.00   16.1
2024/07/08 12:18:10.000   28.292825311  -16.543456208  2330.1063   1   8   0.0013   0.0010   0.0088   0.0005   0.0013  -0.0006  10.00   16.1
2024/07/08 12:18:11.000   28.292825311  -16.543456208  2330.1063   1   8   0.0013   0.0010   0.0088   0.0005   0.0013  -0.0006  11.00   16.1
2024/07/08 12:18:12.000   28.292825311  -16.543456208  2330.1062   1   8   0.0013   0.0010   0.0088   0.0005   0.0013  -0.0006  12.00   16.1
2024/07/08 12:18:13.000   28.292825311  -16.543456208  2330.1062   1   8   0.0013   0.0010   0.0088   0.0005   0.0013  -0.0006  13.00   16.1
2024/07/08 12:18:14.000   28.292825311  -16.543456208  2330.1062   1   8   0.0013   0.0010   0.0088   0.0005   0.0013  -0.0006  14.00   16.1
2024/07/08 12:18:15.000   28.292825311  -16.543456208  2330.1061   1   8   0.0013   0.0010   0.0088   0.0005   0.0013  -0.0006  15.00   16.1
2024/07/08 12:18:16.000   28.292825311  -16.543456208  2330.1061   1   8   0.0013   0.0010   0.0088   0.0005   0.0013  -0.0006 -14.00   16.0
2024/07/08 12:18:17.000   28.292825311  -16.543456208  2330.1061   1   8   0.0013   0.0010   0.0088   0.0005   0.0013  -0.0006 -13.00   16.0
2024/07/08 12:18:18.000   28.292825311  -16.543456209  2330.1060   1   8   0.0013   0.0010   0.0088   0.0005   0.0013  -0.0006 -12.00   16.0
2024/07/08 12:18:19.000   28.292825311  -16.543456209  2330.1060   1   8   0.0013   0.0010   0.0088   0.0005   0.0013  -0.0006 -11.00   16.0
2024/07/08 12:18:20.000   28.292825311  -16.543456209  2330.1060   1   8   0.0013   0.0010   0.0088   0.0005   0.0013  -0.0006 -10.00   16.0
2024/07/08 12:18:21.000   28.292825311  -16.543456209  2330.1060   1   8   0.0013   0.0010   0.0088   0.0005   0.0013  -0.0006  -9.00   16.0
2024/07/08 12:18:22.000   28.292825311  -16.543456209  2330.1059   1   8   0.0013   0.0010   0.0088   0.0005   0.0013  -0.0006  -8.00   16.0
2024/07/08 12:18:23.000   28.292825311  -16.543456209  2330.1059   1   8   0.0013   0.0010   0.0088   0.0005   0.0013  -0.0006  -7.00   16.0
2024/07/08 12:18:24.000   28.292825311  -16.543456209  2330.1059   1   8   0.0013   0.0010   0.0088   0.0005   0.0013  -0.0006  -6.00   16.0
2024/07/08 12:18:25.000   28.292825311  -16.543456209  2330.1059   1   8   0.0013   0.0010   0.0088   0.0005   0.0013  -0.0006  -5.00   16.0
2024/07/08 12:18:26.000   28.292825311  -16.543456209  2330.1059   1   8   0.0013   0.0010   0.0088   0.0005   0.0013  -0.0006  -4.00   16.0
2024/07/08 12:18:27.000   28.292825311  -16.543456209  2330.1059   1   8   0.0013   0.0010   0.0088   0.0005   0.0013  -0.0006  -3.00   16.0
2024/07/08 12:18:28.000   28.292825311  -16.543456209  2330.1059   1   8   0.0013   0.0010   0.0088   0.0005   0.0013  -0.0006  -2.00   16.0
2024/07/08 12:18:29.000   28.292825311  -16.543456208  2330.1060   1   8   0.0013   0.0010   0.0088   0.0005   0.0013  -0.0006  -1.00   16.0
2024/07/08 12:18:30.000   28.292825311  -16.543456208  2330.1061   1   8   0.0013   0.0010   0.0088   0.0005   0.0013  -0.0006   0.00   16.0
2024/07/08 12:18:31.000   28.292825312  -16.543456208  2330.1061   1   8   0.0013   0.0010   0.0088   0.0005   0.0013  -0.0006   1.00   16.0
2024/07/08 12:18:32.000   28.292825312  -16.543456208  2330.1061   1   8   0.0013   0.0010   0.0088   0.0005   0.0013  -0.0006   2.00   16.0
2024/07/08 12:18:33.000   28.292825312  -16.543456207  2330.1062   1   8   0.0013   0.0010   0.0088   0.0005   0.0013  -0.0006   3.00   16.0
2024/07/08 12:18:34.000   28.292825312  -16.543456207  2330.1062   1   8   0.0013   0.0010   0.0088   0.0005   0.0013  -0.0006   4.00   16.0
2024/07/08 12:18:35.000   28.292825312  -16.543456207  2330.1062   1   8   0.0013   0.0010   0.0088   0.0005   0.0013  -0.0006   5.00   16.0
2024/07/08 12:18:36.000   28.292825312  -16.543456207  2330.1062   1   8   0.0013   0.0010   0.0088   0.0005   0.0013  -0.0006   6.00   16.0
2024/07/08 12:18:37.000   28.292825312  -16.543456207  2330.1062   1   8   0.0013   0.0010   0.0088   0.0005   0.0013  -0.0006   7.00   16.0
2024/07/08 12:18:38.000   28.292825312  -16.543456207  2330.1062   1   8   0.0013   0.0010   0.0088   0.0005   0.0013  -0.0006   8.00   16.0
2024/07/08 12:18:39.000   28.292825312  -16.543456207  2330.1062   1   8   0.0013   0.0010   0.0088   0.0005   0.0013  -0.0006   9.00   16.0
2024/07/08 12:18:40.000   28.292825312  -16.543456207  2330.1061   1   8   0.0013   0.0010   0.0088   0.0005   0.0013  -0.0006  10.00   16.0
2024/07/08 12:18:41.000   28.292825312  -16.543456207  2330.1061   1   8   0.0013   0.0010   0.0088   0.0005   0.0013  -0.0006  11.00   16.0
2024/07/08 12:18:42.000   28.292825312  -16.543456207  2330.1061   1   8   0.0013   0.0010   0.0088   0.0005   0.0013  -0.0006  12.00   16.0
2024/07/08 12:18:43.000   28.292825312  -16.543456208  2330.1061   1   8   0.0013   0.0010   0.0088   0.0005   0.0013  -0.0006  13.00   16.0
2024/07/08 12:18:44.000   28.292825312  -16.543456208  2330.1060   1   8   0.0013   0.0010   0.0088   0.0005   0.0013  -0.0006  14.00   15.9
2024/07/08 12:18:45.000   28.292825312  -16.543456208  2330.1060   1   8   0.0013   0.0010   0.0088   0.0005   0.0013  -0.0006  15.00   15.9
2024/07/08 12:18:46.000   28.292825312  -16.543456208  2330.1060   1   8   0.0013   0.0010   0.0088   0.0005   0.0013  -0.0006 -14.00   15.9
2024/07/08 12:18:47.000   28.292825312  -16.543456208  2330.1060   1   8   0.0013   0.0010   0.0088   0.0005   0.0013  -0.0006 -13.00   15.9
2024/07/08 12:18:48.000   28.292825312  -16.543456208  2330.1059   1   8   0.0013   0.0010   0.0088   0.0005   0.0013  -0.0006 -12.00   15.9
2024/07/08 12:18:49.000   28.292825312  -16.543456208  2330.1059   1   8   0.0013   0.0010   0.0088   0.0005   0.0013  -0.0006 -11.00   15.9
2024/07/08 12:18:50.000   28.292825312  -16.543456208  2330.1059   1   8   0.0013   0.0010   0.0088   0.0005   0.0013  -0.0006 -10.00   15.9
2024/07/08 12:18:51.000   28.292825311  -16.543456209  2330.1059   1   8   0.0013   0.0010   0.0088   0.0005   0.0013  -0.0006  -9.00   15.9
2024/07/08 12:18:52.000   28.292825311  -16.543456209  2330.1058   1   8   0.0013   0.0010   0.0088   0.0005   0.0013  -0.0006  -8.00   15.9
2024/07/08 12:18:53.000   28.292825311  -16.543456209  2330.1058   1   8   0.0013   0.0010   0.0088   0.0005   0.0013  -0.0006  -7.00   15.9
2024/07/08 12:18:54.000   28.292825311  -16.543456209  2330.1058   1   8   0.0013   0.0010   0.0088   0.0005   0.0013  -0.0006  -6.00   15.9
2024/07/08 12:18:55.000   28.292825312  -16.543456209  2330.1058   1   8   0.0013   0.0010   0.0088   0.0005   0.0013  -0.0006  -5.00   15.9
2024/07/08 12:18:56.000   28.292825312  -16.543456209  2330.1057   1   8   0.0013   0.0010   0.0088   0.0005   0.0013  -0.0006  -4.00   15.9
2024/07/08 12:18:57.000   28.292825312  -16.543456209  2330.1057   1   8   0.0013   0.0010   0.0088   0.0005   0.0013  -0.0006  -3.00   15.9
2024/07/08 12:18:58.000   28.292825312  -16.543456208  2330.1057   1   8   0.0013   0.0010   0.0088   0.0005   0.0013  -0.0006  -2.00   15.9
2024/07/08 12:18:59.000   28.292825312  -16.543456208  2330.1057   1   8   0.0013   0.0010   0.0088   0.0005   0.0013  -0.0006  -1.00   15.9
2024/07/08 12:19:00.000   28.292825313  -16.543456208  2330.1057   1   8   0.0013   0.0010   0.0088   0.0005   0.0013  -0.0006   0.00   15.9
2024/07/08 12:19:01.000   28.292825313  -16.543456208  2330.1058   1   8   0.0013   0.0010   0.0088   0.0005   0.0013  -0.0006   1.00   15.9
2024/07/08 12:19:02.000   28.292825313  -16.543456207  2330.1058   1   8   0.0013   0.0010   0.0088   0.0005   0.0013  -0.0006   2.00   15.9
2024/07/08 12:19:03.000   28.292825313  -16.543456207  2330.1058   1   8   0.0013   0.0010   0.0088   0.0005   0.0013  -0.0007   3.00   15.9
2024/07/08 12:19:04.000   28.292825313  -16.543456207  2330.1059   1   8   0.0013   0.0010   0.0088   0.0005   0.0013  -0.0007   4.00   15.9
2024/07/08 12:19:05.000   28.292825313  -16.543456207  2330.1059   1   8   0.0013   0.0010   0.0088   0.0005   0.0013  -0.0007   5.00   15.9
2024/07/08 12:19:06.000   28.292825313  -16.543456207  2330.1059   1   8   0.0013   0.0010   0.0088   0.0005   0.0013  -0.0007   6.00   15.9
2024/07/08 12:19:07.000   28.292825313  -16.543456207  2330.1059   1   8   0.0013   0.0010   0.0088   0.0005   0.0013  -0.0007   7.00   15.9
2024/07/08 12:19:08.000   28.292825313  -16.543456207  2330.1059   1   8   0.0013   0.0010   0.0088   0.0005   0.0013  -0.0007   8.00   15.9
2024/07/08 12:19:09.000   28.292825313  -16.543456207  2330.1060   1   8   0.0013   0.0010   0.0088   0.0005   0.0013  -0.0007   9.00   15.9
2024/07/08 12:19:10.000   28.292825313  -16.543456207  2330.1060   1   8   0.0013   0.0010   0.0088   0.0005   0.0013  -0.0007  10.00   15.9
2024/07/08 12:19:11.000   28.292825313  -16.543456207  2330.1059   1   8   0.0013   0.0010   0.0088   0.0005   0.0013  -0.0007  11.00   15.9
2024/07/08 12:19:12.000   28.292825313  -16.543456207  2330.1059   1   8   0.0013   0.0010   0.0088   0.0005   0.0013  -0.0007  12.00   15.9
2024/07/08 12:19:13.000   28.292825313  -16.543456207  2330.1059   1   8   0.0013   0.0010   0.0088   0.0005   0.0013  -0.0007  13.00   15.9
2024/07/08 12:19:14.000   28.292825312  -16.543456207  2330.1059   1   8   0.0013   0.0010   0.0088   0.0005   0.0013  -0.0007  14.00   15.9
2024/07/08 12:19:15.000   28.292825312  -16.543456208  2330.1059   1   8   0.0013   0.0010   0.0088   0.0005   0.0013  -0.0007  15.00   15.9
2024/07/08 12:19:16.000   28.292825312  -16.543456208  2330.1059   1   8   0.0013   0.0010   0.0088   0.0005   0.0013  -0.0007 -14.00   15.8
2024/07/08 12:19:17.000   28.292825312  -16.543456208  2330.1058   1   8   0.0013   0.0010   0.0088   0.0005   0.0013  -0.0007 -13.00   15.8
2024/07/08 12:19:18.000   28.292825312  -16.543456208  2330.1058   1   8   0.0013   0.0010   0.0088   0.0005   0.0013  -0.0007 -12.00   15.8
2024/07/08 12:19:19.000   28.292825312  -16.543456208  2330.1058   1   8   0.0013   0.0010   0.0088   0.0005   0.0013  -0.0007 -11.00   15.8
2024/07/08 12:19:20.000   28.292825312  -16.543456208  2330.1057   1   8   0.0013   0.0010   0.0088   0.0005   0.0013  -0.0007 -10.00   15.8
2024/07/08 12:19:21.000   28.292825312  -16.543456208  2330.1057   1   8   0.0013   0.0010   0.0088   0.0005   0.0013  -0.0007  -9.00   15.8
2024/07/08 12:19:22.000   28.292825312  -16.543456208  2330.1057   1   8   0.0013   0.0010   0.0088   0.0005   0.0013  -0.0007  -8.00   15.8
2024/07/08 12:19:23.000   28.292825312  -16.543456208  2330.1057   1   8   0.0013   0.0010   0.0088   0.0005   0.0013  -0.0007  -7.00   15.8
2024/07/08 12:19:24.000   28.292825312  -16.543456208  2330.1056   1   8   0.0013   0.0010   0.0088   0.0005   0.0013  -0.0007  -6.00   15.8
2024/07/08 12:19:25.000   28.292825312  -16.543456208  2330.1056   1   8   0.0013   0.0010   0.0088   0.0005   0.0013  -0.0007  -5.00   15.8
2024/07/08 12:19:26.000   28.292825312  -16.543456208  2330.1056   1   8   0.0013   0.0010   0.0088   0.0005   0.0013  -0.0007  -4.00   15.8
2024/07/08 12:19:27.000   28.292825312  -16.543456208  2330.1056   1   8   0.0013   0.0010   0.0088   0.0005   0.0013  -0.0007  -3.00   15.8
2024/07/08 12:19:28.000   28.292825312  -16.543456208  2330.1057   1   8   0.0013   0.0010   0.0088   0.0005   0.0013  -0.0007  -2.00   15.8
2024/07/08 12:19:29.000   28.292825312  -16.543456207  2330.1058   1   8   0.0013   0.0010   0.0088   0.0005   0.0013  -0.0007  -1.00   15.8
2024/07/08 12:19:30.000   28.292825312  -16.543456207  2330.1059   1   8   0.0013   0.0010   0.0088   0.0005   0.0013  -0.0007   0.00   15.8
2024/07/08 12:19:31.000   28.292825312  -16.543456207  2330.1060   1   8   0.0013   0.0010   0.0088   0.0005   0.0013  -0.0007   1.00   15.8
2024/07/08 12:19:32.000   28.292825312  -16.543456207  2330.1061   1   8   0.0013   0.0010   0.0088   0.0005   0.0013  -0.0007   2.00   15.8
2024/07/08 12:19:33.000   28.292825312  -16.543456207  2330.1063   1   8   0.0013   0.0010   0.0088   0.0005   0.0013  -0.0007   3.00   15.9
2024/07/08 12:19:34.000   28.292825312  -16.543456206  2330.1063   1   8   0.0013   0.0010   0.0088   0.0005   0.0013  -0.0007   4.00   15.9
2024/07/08 12:19:35.000   28.292825312  -16.543456206  2330.1064   1   8   0.0013   0.0010   0.0088   0.0005   0.0013  -0.0007   5.00   15.9
2024/07/08 12:19:36.000   28.292825312  -16.543456206  2330.1064   1   8   0.0013   0.0010   0.0088   0.0005   0.0013  -0.0007   6.00   15.9
2024/07/08 12:19:37.000   28.292825312  -16.543456206  2330.1064   1   8   0.0013   0.0010   0.0088   0.0005   0.0013  -0.0007   7.00   15.9
2024/07/08 12:19:38.000   28.292825311  -16.543456206  2330.1064   1   8   0.0013   0.0010   0.0088   0.0005   0.0013  -0.0007   8.00   15.8
2024/07/08 12:19:39.000   28.292825311  -16.543456206  2330.1064   1   8   0.0013   0.0010   0.0088   0.0005   0.0013  -0.0007   9.00   15.8
2024/07/08 12:19:40.000   28.292825311  -16.543456206  2330.1064   1   8   0.0013   0.0010   0.0088   0.0005   0.0013  -0.0007  10.00   15.8
2024/07/08 12:19:41.000   28.292825311  -16.543456207  2330.1064   1   8   0.0013   0.0010   0.0088   0.0005   0.0013  -0.0007  11.00   15.8
2024/07/08 12:19:42.000   28.292825311  -16.543456207  2330.1064   1   8   0.0013   0.0010   0.0088   0.0005   0.0013  -0.0007  12.00   15.8
2024/07/08 12:19:43.000   28.292825311  -16.543456207  2330.1064   1   8   0.0013   0.0010   0.0088   0.0005   0.0013  -0.0007  13.00   15.8
2024/07/08 12:19:44.000   28.292825311  -16.543456207  2330.1064   1   8   0.0013   0.0010   0.0088   0.0005   0.0013  -0.0007  14.00   15.8
2024/07/08 12:19:45.000   28.292825311  -16.543456207  2330.1063   1   8   0.0013   0.0010   0.0088   0.0005   0.0013  -0.0007  15.00   15.8
2024/07/08 12:19:46.000   28.292825311  -16.543456207  2330.1063   1   8   0.0013   0.0010   0.0088   0.0005   0.0013  -0.0007 -14.00   15.8
2024/07/08 12:19:47.000   28.292825311  -16.543456207  2330.1063   1   8   0.0013   0.0010   0.0088   0.0005   0.0013  -0.0007 -13.00   15.8
2024/07/08 12:19:48.000   28.292825311  -16.543456208  2330.1063   1   8   0.0013   0.0010   0.0088   0.0005   0.0013  -0.0007 -12.00   15.8
2024/07/08 12:19:49.000   28.292825310  -16.543456208  2330.1062   1   8   0.0013   0.0010   0.0088   0.0005   0.0013  -0.0007 -11.00   15.8
2024/07/08 12:19:50.000   28.292825310  -16.543456208  2330.1062   1   8   0.0013   0.0010   0.0088   0.0005   0.0013  -0.0007 -10.00   15.7
2024/07/08 12:19:51.000   28.292825310  -16.543456208  2330.1062   1   8   0.0013   0.0010   0.0088   0.0005   0.0013  -0.0007  -9.00   15.7
2024/07/08 12:19:52.000   28.292825310  -16.543456208  2330.1062   1   8   0.0013   0.0010   0.0088   0.0005   0.0013  -0.0007  -8.00   15.7
2024/07/08 12:19:53.000   28.292825310  -16.543456208  2330.1062   1   8   0.0013   0.0010   0.0088   0.0005   0.0013  -0.0007  -7.00   15.7
2024/07/08 12:19:54.000   28.292825310  -16.543456208  2330.1062   1   8   0.0013   0.0010   0.0088   0.0005   0.0013  -0.0007  -6.00   15.7
2024/07/08 12:19:55.000   28.292825310  -16.543456208  2330.1062   1   8   0.0013   0.0010   0.0088   0.0005   0.0013  -0.0007  -5.00   15.7
2024/07/08 12:19:56.000   28.292825310  -16.543456208  2330.1062   1   8   0.0013   0.0010   0.0088   0.0005   0.0013  -0.0007  -4.00   15.7
2024/07/08 12:19:57.000   28.292825310  -16.543456208  2330.1062   1   8   0.0013   0.0010   0.0088   0.0005   0.0013  -0.0007  -3.00   15.7
2024/07/08 12:19:58.000   28.292825310  -16.543456208  2330.1063   1   8   0.0013   0.0010   0.0088   0.0005   0.0013  -0.0007  -2.00   15.7
2024/07/08 12:19:59.000   28.292825310  -16.543456208  2330.1064   1   8   0.0013   0.0010   0.0088   0.0005   0.0013  -0.0007  -1.00   15.7
2024/07/08 12:20:00.000   28.292825311  -16.543456207  2330.1065   1   8   0.0013   0.0010   0.0088   0.0005   0.0013  -0.0007   0.00   15.8
2024/07/08 12:20:01.000   28.292825311  -16.543456207  2330.1066   1   8   0.0013   0.0010   0.0088   0.0005   0.0013  -0.0007   1.00   15.8
2024/07/08 12:20:02.000   28.292825311  -16.543456207  2330.1067   1   8   0.0013   0.0010   0.0088   0.0005   0.0013  -0.0007   2.00   15.8
2024/07/08 12:20:03.000   28.292825311  -16.543456207  2330.1068   1   8   0.0013   0.0010   0.0088   0.0005   0.0013  -0.0007   3.00   15.8
2024/07/08 12:20:04.000   28.292825311  -16.543456206  2330.1069   1   8   0.0013   0.0010   0.0088   0.0005   0.0013  -0.0007   4.00   15.8
2024/07/08 12:20:05.000   28.292825311  -16.543456206  2330.1069   1   8   0.0013   0.0010   0.0088   0.0005   0.0013  -0.0007   5.00   15.8
2024/07/08 12:20:06.000   28.292825311  -16.543456206  2330.1070   1   8   0.0013   0.0010   0.0088   0.0005   0.0013  -0.0007   6.00   15.8
2024/07/08 12:20:07.000   28.292825311  -16.543456206  2330.1070   1   8   0.0013   0.0010   0.0088   0.0005   0.0013  -0.0007   7.00   15.8
2024/07/08 12:20:08.000   28.292825311  -16.543456206  2330.1071   1   8   0.0013   0.0010   0.0088   0.0005   0.0013  -0.0007   8.00   15.8
2024/07/08 12:20:09.000   28.292825311  -16.543456207  2330.1071   1   8   0.0013   0.0010   0.0088   0.0005   0.0013  -0.0007   9.00   15.8
2024/07/08 12:20:10.000   28.292825310  -16.543456207  2330.1071   1   8   0.0013   0.0010   0.0088   0.0005   0.0013  -0.0007  10.00   15.8
2024/07/08 12:20:11.000   28.292825310  -16.543456207  2330.1071   1   8   0.0013   0.0010   0.0088   0.0005   0.0013  -0.0007  11.00   15.8
2024/07/08 12:20:12.000   28.292825310  -16.543456207  2330.1071   1   8   0.0013   0.0010   0.0088   0.0005   0.0013  -0.0007  12.00   15.7
2024/07/08 12:20:13.000   28.292825310  -16.543456207  2330.1071   1   8   0.0013   0.0010   0.0088   0.0005   0.0013  -0.0007  13.00   15.7
2024/07/08 12:20:14.000   28.292825310  -16.543456207  2330.1071   1   8   0.0013   0.0010   0.0088   0.0005   0.0013  -0.0007  14.00   15.7
2024/07/08 12:20:15.000   28.292825310  -16.543456207  2330.1071   1   8   0.0013   0.0010   0.0088   0.0005   0.0013  -0.0007  15.00   15.7
2024/07/08 12:20:16.000   28.292825310  -16.543456208  2330.1071   1   8   0.0013   0.0010   0.0088   0.0005   0.0013  -0.0007 -14.00   15.7
2024/07/08 12:20:17.000   28.292825309  -16.543456208  2330.1071   1   8   0.0013   0.0010   0.0088   0.0005   0.0013  -0.0007 -13.00   15.7
2024/07/08 12:20:18.000   28.292825309  -16.543456208  2330.1071   1   8   0.0013   0.0010   0.0088   0.0005   0.0013  -0.0007 -12.00   15.7
2024/07/08 12:20:19.000   28.292825309  -16.543456208  2330.1072   1   8   0.0013   0.0010   0.0088   0.0005   0.0013  -0.0007 -11.00   15.7
2024/07/08 12:20:20.000   28.292825309  -16.543456208  2330.1072   1   8   0.0013   0.0010   0.0088   0.0005   0.0013  -0.0007 -10.00   15.7
2024/07/08 12:20:21.000   28.292825309  -16.543456208  2330.1072   1   8   0.0013   0.0010   0.0088   0.0005   0.0013  -0.0007  -9.00   15.7
2024/07/08 12:20:22.000   28.292825309  -16.543456208  2330.1072   1   8   0.0013   0.0010   0.0088   0.0005   0.0013  -0.0007  -8.00   15.7
2024/07/08 12:20:23.000   28.292825309  -16.543456208  2330.1072   1   8   0.0013   0.0010   0.0088   0.0005   0.0013  -0.0007  -7.00   15.6
2024/07/08 12:20:24.000   28.292825308  -16.543456209  2330.1073   1   8   0.0013   0.0010   0.0088   0.0005   0.0013  -0.0007  -6.00   15.6
2024/07/08 12:20:25.000   28.292825308  -16.543456209  2330.1073   1   8   0.0013   0.0010   0.0088   0.0005   0.0013  -0.0007  -5.00   15.6
2024/07/08 12:20:26.000   28.292825308  -16.543456208  2330.1074   1   8   0.0013   0.0010   0.0088   0.0005   0.0013  -0.0007  -4.00   15.6
2024/07/08 12:20:27.000   28.292825308  -16.543456208  2330.1075   1   8   0.0013   0.0010   0.0088   0.0005   0.0013  -0.0007  -3.00   15.6
2024/07/08 12:20:28.000   28.292825308  -16.543456208  2330.1076   1   8   0.0013   0.0010   0.0088   0.0005   0.0013  -0.0007  -2.00   15.6
2024/07/08 12:20:29.000   28.292825308  -16.543456208  2330.1078   1   8   0.0013   0.0010   0.0088   0.0005   0.0013  -0.0007  -1.00   15.7
2024/07/08 12:20:30.000   28.292825308  -16.543456208  2330.1079   1   8   0.0013   0.0010   0.0088   0.0005   0.0013  -0.0007   0.00   15.7
2024/07/08 12:20:31.000   28.292825308  -16.543456207  2330.1081   1   8   0.0013   0.0010   0.0088   0.0005   0.0013  -0.0007   1.00   15.7
2024/07/08 12:20:32.000   28.292825308  -16.543456207  2330.1081   1   8   0.0013   0.0010   0.0088   0.0005   0.0013  -0.0007   2.00   15.7
2024/07/08 12:20:33.000   28.292825309  -16.543456207  2330.1082   1   8   0.0013   0.0010   0.0088   0.0005   0.0013  -0.0007   3.00   15.7
2024/07/08 12:20:34.000   28.292825309  -16.543456207  2330.1083   1   8   0.0013   0.0010   0.0088   0.0005   0.0013  -0.0007   4.00   15.7
2024/07/08 12:20:35.000   28.292825309  -16.543456207  2330.1083   1   8   0.0013   0.0010   0.0088   0.0005   0.0013  -0.0007   5.00   15.7
2024/07/08 12:20:36.000   28.292825309  -16.543456207  2330.1083   1   8   0.0013   0.0010   0.0088   0.0005   0.0013  -0.0007   6.00   15.7
2024/07/08 12:20:37.000   28.292825309  -16.543456207  2330.1083   1   8   0.0013   0.0010   0.0088   0.0005   0.0013  -0.0007   7.00   15.7
2024/07/08 12:20:38.000   28.292825309  -16.543456207  2330.1083   1   8   0.0013   0.0010   0.0088   0.0005   0.0013  -0.0007   8.00   15.7
2024/07/08 12:20:39.000   28.292825309  -16.543456207  2330.1083   1   8   0.0013   0.0010   0.0088   0.0005   0.0013  -0.0007   9.00   15.7
2024/07/08 12:20:40.000   28.292825309  -16.543456207  2330.1083   1   8   0.0013   0.0010   0.0088   0.0005   0.0013  -0.0007  10.00   15.7
2024/07/08 12:20:41.000   28.292825309  -16.543456207  2330.1083   1   8   0.0013   0.0010   0.0088   0.0005   0.0013  -0.0007  11.00   15.7
2024/07/08 12:20:42.000   28.292825309  -16.543456207  2330.1083   1   8   0.0013   0.0010   0.0088   0.0005   0.0013  -0.0007  12.00   15.7
2024/07/08 12:20:43.000   28.292825309  -16.543456207  2330.1083   1   8   0.0013   0.0010   0.0088   0.0005   0.0013  -0.0007  13.00   15.7
2024/07/08 12:20:44.000   28.292825309  -16.543456208  2330.1083   1   8   0.0013   0.0010   0.0088   0.0005   0.0013  -0.0007  14.00   15.7
2024/07/08 12:20:45.000   28.292825309  -16.543456208  2330.1082   1   8   0.0013   0.0010   0.0088   0.0005   0.0013  -0.0007  15.00   15.7
2024/07/08 12:20:46.000   28.292825308  -16.543456208  2330.1082   1   8   0.0013   0.0010   0.0088   0.0005   0.0013  -0.0007 -14.00   15.6
2024/07/08 12:20:47.000   28.292825308  -16.543456208  2330.1082   1   8   0.0013   0.0010   0.0088   0.0005   0.0013  -0.0007 -13.00   15.6
2024/07/08 12:20:48.000   28.292825308  -16.543456208  2330.1082   1   8   0.0013   0.0010   0.0088   0.0005   0.0013  -0.0007 -12.00   15.6
2024/07/08 12:20:49.000   28.292825308  -16.543456208  2330.1081   1   8   0.0013   0.0010   0.0088   0.0005   0.0013  -0.0007 -11.00   15.6
2024/07/08 12:20:50.000   28.292825308  -16.543456208  2330.1081   1   8   0.0013   0.0010   0.0088   0.0005   0.0013  -0.0007 -10.00   15.6
2024/07/08 12:20:51.000   28.292825308  -16.543456209  2330.1081   1   8   0.0013   0.0010   0.0088   0.0005   0.0013  -0.0007  -9.00   15.6
2024/07/08 12:20:52.000   28.292825308  -16.543456209  2330.1081   1   8   0.0013   0.0010   0.0087   0.0005   0.0013  -0.0007  -8.00   15.6
2024/07/08 12:20:53.000   28.292825308  -16.543456209  2330.1081   1   8   0.0013   0.0010   0.0087   0.0005   0.0013  -0.0007  -7.00   15.6
2024/07/08 12:20:54.000   28.292825308  -16.543456209  2330.1081   1   8   0.0013   0.0010   0.0087   0.0005   0.0013  -0.0007  -6.00   15.6
2024/07/08 12:20:55.000   28.292825308  -16.543456209  2330.1081   1   8   0.0013   0.0010   0.0087   0.0005   0.0013  -0.0007  -5.00   15.6
2024/07/08 12:20:56.000   28.292825308  -16.543456209  2330.1081   1   8   0.0013   0.0010   0.0087   0.0005   0.0013  -0.0007  -4.00   15.6
2024/07/08 12:20:57.000   28.292825309  -16.543456209  2330.1081   1   8   0.0013   0.0010   0.0087   0.0005   0.0013  -0.0007  -3.00   15.6
2024/07/08 12:20:58.000   28.292825309  -16.543456208  2330.1082   1   8   0.0013   0.0010   0.0087   0.0005   0.0013  -0.0007  -2.00   15.6
2024/07/08 12:20:59.000   28.292825309  -16.543456208  2330.1083   1   8   0.0013   0.0010   0.0088   0.0005   0.0013  -0.0007  -1.00   15.6
2024/07/08 12:21:00.000   28.292825309  -16.543456208  2330.1084   1   8   0.0013   0.0010   0.0088   0.0005   0.0013  -0.0007   0.00   15.6
2024/07/08 12:21:01.000   28.292825309  -16.543456208  2330.1085   1   8   0.0013   0.0010   0.0088   0.0005   0.0012  -0.0007   1.00   15.6
2024/07/08 12:21:02.000   28.292825309  -16.543456208  2330.1087   1   8   0.0013   0.0010   0.0088   0.0005   0.0012  -0.0007   2.00   15.6
2024/07/08 12:21:03.000   28.292825310  -16.543456208  2330.1088   1   8   0.0013   0.0010   0.0088   0.0005   0.0012  -0.0007   3.00   15.6
2024/07/08 12:21:04.000   28.292825310  -16.543456207  2330.1090   1   8   0.0013   0.0010   0.0088   0.0005   0.0012  -0.0007   4.00   15.6
2024/07/08 12:21:05.000   28.292825310  -16.543456207  2330.1091   1   8   0.0013   0.0010   0.0088   0.0005   0.0012  -0.0007   5.00   15.6
2024/07/08 12:21:06.000   28.292825310  -16.543456207  2330.1091   1   8   0.0013   0.0010   0.0088   0.0005   0.0012  -0.0007   6.00   15.6
2024/07/08 12:21:07.000   28.292825310  -16.543456207  2330.1092   1   8   0.0013   0.0010   0.0088   0.0005   0.0012  -0.0007   7.00   15.6
2024/07/08 12:21:08.000   28.292825310  -16.543456207  2330.1092   1   8   0.0013   0.0010   0.0088   0.0005   0.0012  -0.0007   8.00   15.6
2024/07/08 12:21:09.000   28.292825310  -16.543456207  2330.1093   1   8   0.0013   0.0010   0.0088   0.0005   0.0012  -0.0007   9.00   15.6
2024/07/08 12:21:10.000   28.292825310  -16.543456208  2330.1093   1   8   0.0013   0.0010   0.0088   0.0005   0.0012  -0.0007  10.00   15.6
2024/07/08 12:21:11.000   28.292825310  -16.543456208  2330.1093   1   8   0.0013   0.0010   0.0088   0.0005   0.0012  -0.0007  11.00   15.6
2024/07/08 12:21:12.000   28.292825310  -16.543456208  2330.1093   1   8   0.0013   0.0010   0.0088   0.0005   0.0012  -0.0007  12.00   15.6
2024/07/08 12:21:13.000   28.292825310  -16.543456208  2330.1093   1   8   0.0013   0.0010   0.0088   0.0005   0.0012  -0.0007  13.00   15.6
2024/07/08 12:21:14.000   28.292825310  -16.543456208  2330.1093   1   8   0.0013   0.0010   0.0088   0.0005   0.0012  -0.0007  14.00   15.6
2024/07/08 12:21:15.000   28.292825310  -16.543456208  2330.1093   1   8   0.0013   0.0010   0.0088   0.0005   0.0012  -0.0007  15.00   15.6
2024/07/08 12:21:16.000   28.292825309  -16.543456208  2330.1093   1   8   0.0013   0.0010   0.0088   0.0005   0.0012  -0.0007 -14.00   15.6
2024/07/08 12:21:17.000   28.292825309  -16.543456208  2330.1093   1   8   0.0013   0.0010   0.0087   0.0005   0.0012  -0.0007 -13.00   15.6
2024/07/08 12:21:18.000   28.292825309  -16.543456209  2330.1092   1   8   0.0013   0.0010   0.0087   0.0005   0.0012  -0.0007 -12.00   15.6
2024/07/08 12:21:19.000   28.292825309  -16.543456209  2330.1092   1   8   0.0013   0.0010   0.0087   0.0005   0.0012  -0.0007 -11.00   15.6
2024/07/08 12:21:20.000   28.292825309  -16.543456209  2330.1092   1   8   0.0013   0.0010   0.0087   0.0005   0.0012  -0.0007 -10.00   15.6
2024/07/08 12:21:21.000   28.292825309  -16.543456209  2330.1092   1   8   0.0013   0.0010   0.0087   0.0005   0.0012  -0.0007  -9.00   15.6
2024/07/08 12:21:22.000   28.292825309  -16.543456209  2330.1092   1   8   0.0013   0.0010   0.0087   0.0005   0.0012  -0.0007  -8.00   15.6
2024/07/08 12:21:23.000   28.292825309  -16.543456209  2330.1092   1   8   0.0013   0.0010   0.0087   0.0005   0.0012  -0.0007  -7.00   15.6
2024/07/08 12:21:24.000   28.292825309  -16.543456209  2330.1093   1   8   0.0013   0.0010   0.0087   0.0005   0.0012  -0.0007  -6.00   15.6
2024/07/08 12:21:25.000   28.292825309  -16.543456209  2330.1093   1   8   0.0013   0.0010   0.0087   0.0005   0.0012  -0.0007  -5.00   15.6
2024/07/08 12:21:26.000   28.292825309  -16.543456209  2330.1093   1   8   0.0013   0.0010   0.0087   0.0005   0.0012  -0.0007  -4.00   15.6
2024/07/08 12:21:27.000   28.292825309  -16.543456209  2330.1094   1   8   0.0013   0.0010   0.0087   0.0005   0.0012  -0.0007  -3.00   15.6
2024/07/08 12:21:28.000   28.292825309  -16.543456209  2330.1095   1   8   0.0013   0.0010   0.0087   0.0005   0.0012  -0.0007  -2.00   15.6
2024/07/08 12:21:29.000   28.292825310  -16.543456208  2330.1095   1   8   0.0013   0.0010   0.0087   0.0005   0.0012  -0.0007  -1.00   15.6
2024/07/08 12:21:30.000   28.292825310  -16.543456208  2330.1096   1   8   0.0013   0.0010   0.0087   0.0005   0.0012  -0.0007   0.00   15.6
2024/07/08 12:21:31.000   28.292825310  -16.543456208  2330.1098   1   8   0.0013   0.0010   0.0087   0.0005   0.0012  -0.0007   1.00   15.6
2024/07/08 12:21:32.000   28.292825310  -16.543456208  2330.1098   1   8   0.0013   0.0010   0.0088   0.0005   0.0012  -0.0007   2.00   15.6
