% program   : RTKPOST-EX 2.5.0
% inp file  : C:\Users\SallyHenry\Desktop\Sally Internship\GNSS gravi\DATA\Survey Rover Obs\LM010_G7.24o
% inp file  : C:\Users\SallyHenry\Desktop\Sally Internship\GNSS gravi\DATA\BaseStations\IZAN\IZAN00ESP_R_20241900000_01D_30S_MO.rnx
% inp file  : C:\Users\SallyHenry\Desktop\Sally Internship\GNSS gravi\DATA\BaseStations\IZAN\IZAN00ESP_R_20241900000_01D_MN.rnx
% inp file  : C:\Users\SallyHenry\Desktop\Sally Internship\GNSS gravi\DATA\aux_files\Survey\IGS0OPSFIN_20241900000_01D_15M_ORB.SP3
% inp file  : C:\Users\SallyHenry\Desktop\Sally Internship\GNSS gravi\DATA\aux_files\Survey\IGS0OPSFIN_20241900000_01D_30S_CLK.CLK
% obs start : 2024/07/08 11:31:02.0 GPST (week2322 127862.0s)
% obs end   : 2024/07/08 12:12:00.0 GPST (week2322 130320.0s)
% pos mode  : Static
% freqs     : L1+L2/E5b
% solution  : Combined-No Phase Reset
% elev mask : 15.0 deg
% dynamics  : on
% tidecorr  : solid
% ionos opt : Estimate TEC
% tropo opt : Estimate ZTD+Grad
% ephemeris : Precise
% navi sys  : GPS GLONASS Galileo QZSS BDS
% amb res   : Fix and Hold
% amb glo   : Fix and Hold
% amb bds   : on
% val thres : 3.0
% antenna1  :                       ( 0.0000  0.0000  1.7650)
% antenna2  :                       ( 0.0000  0.0000  0.0000)
% ref pos   :  28.308069410  -16.499677180  2417.4044
%
% (lat/lon/height=WGS84/ellipsoidal,Q=1:fix,2:float,3:sbas,4:dgps,5:single,6:ppp,ns=# of satellites)
%  GPST                  latitude(deg) longitude(deg)  height(m)   Q  ns   sdn(m)   sde(m)   sdu(m)  sdne(m)  sdeu(m)  sdun(m) age(s)  ratio
2024/07/08 11:31:02.000   28.292738552  -16.543950651  2329.6932   1   8   0.0010   0.0011   0.0084   0.0007   0.0013   0.0013   2.00  476.2
2024/07/08 11:31:03.000   28.292738552  -16.543950651  2329.6931   1   8   0.0010   0.0011   0.0084   0.0007   0.0013   0.0013   3.00  477.1
2024/07/08 11:31:04.000   28.292738552  -16.543950651  2329.6930   1   8   0.0010   0.0011   0.0084   0.0007   0.0013   0.0013   4.00  476.9
2024/07/08 11:31:05.000   28.292738552  -16.543950651  2329.6929   1   8   0.0010   0.0011   0.0084   0.0007   0.0013   0.0013   5.00  477.4
2024/07/08 11:31:06.000   28.292738552  -16.543950651  2329.6929   1   8   0.0010   0.0011   0.0084   0.0007   0.0013   0.0013   6.00  477.5
2024/07/08 11:31:07.000   28.292738552  -16.543950651  2329.6928   1   8   0.0010   0.0011   0.0084   0.0007   0.0013   0.0013   7.00  477.6
2024/07/08 11:31:08.000   28.292738552  -16.543950651  2329.6928   1   8   0.0010   0.0011   0.0084   0.0007   0.0013   0.0013   8.00  476.5
2024/07/08 11:31:09.000   28.292738552  -16.543950651  2329.6928   1   8   0.0010   0.0011   0.0084   0.0007   0.0013   0.0013   9.00  475.7
2024/07/08 11:31:10.000   28.292738552  -16.543950651  2329.6928   1   8   0.0010   0.0011   0.0084   0.0007   0.0013   0.0013  10.00  474.8
2024/07/08 11:31:11.000   28.292738552  -16.543950651  2329.6928   1   8   0.0010   0.0011   0.0084   0.0007   0.0013   0.0013  11.00  473.5
2024/07/08 11:31:12.000   28.292738552  -16.543950651  2329.6928   1   8   0.0010   0.0011   0.0084   0.0007   0.0013   0.0013  12.00  472.3
2024/07/08 11:31:13.000   28.292738552  -16.543950651  2329.6928   1   8   0.0010   0.0011   0.0084   0.0007   0.0013   0.0013  13.00  471.0
2024/07/08 11:31:14.000   28.292738552  -16.543950651  2329.6928   1   8   0.0010   0.0011   0.0084   0.0007   0.0013   0.0013  14.00  469.7
2024/07/08 11:31:15.000   28.292738552  -16.543950651  2329.6928   1   8   0.0010   0.0010   0.0084   0.0007   0.0013   0.0013  15.00  468.5
2024/07/08 11:31:16.000   28.292738552  -16.543950651  2329.6928   1   8   0.0010   0.0010   0.0084   0.0007   0.0013   0.0013 -14.00  467.4
2024/07/08 11:31:17.000   28.292738552  -16.543950651  2329.6928   1   8   0.0010   0.0010   0.0084   0.0007   0.0013   0.0013 -13.00  466.1
2024/07/08 11:31:18.000   28.292738552  -16.543950651  2329.6927   1   8   0.0010   0.0010   0.0084   0.0007   0.0013   0.0013 -12.00  465.0
2024/07/08 11:31:19.000   28.292738552  -16.543950651  2329.6927   1   8   0.0010   0.0010   0.0084   0.0007   0.0013   0.0013 -11.00  463.8
2024/07/08 11:31:20.000   28.292738552  -16.543950651  2329.6927   1   8   0.0010   0.0010   0.0084   0.0007   0.0013   0.0013 -10.00  462.5
2024/07/08 11:31:21.000   28.292738552  -16.543950651  2329.6927   1   8   0.0010   0.0010   0.0084   0.0007   0.0013   0.0013  -9.00  461.2
2024/07/08 11:31:22.000   28.292738552  -16.543950651  2329.6926   1   8   0.0010   0.0010   0.0084   0.0007   0.0013   0.0013  -8.00  459.8
2024/07/08 11:31:23.000   28.292738553  -16.543950651  2329.6926   1   8   0.0010   0.0010   0.0084   0.0007   0.0013   0.0013  -7.00  458.4
2024/07/08 11:31:24.000   28.292738553  -16.543950651  2329.6925   1   8   0.0010   0.0010   0.0084   0.0007   0.0013   0.0013  -6.00  457.0
2024/07/08 11:31:25.000   28.292738553  -16.543950651  2329.6925   1   8   0.0010   0.0010   0.0084   0.0007   0.0013   0.0013  -5.00  455.8
2024/07/08 11:31:26.000   28.292738553  -16.543950652  2329.6923   1   8   0.0010   0.0010   0.0084   0.0007   0.0013   0.0013  -4.00  454.4
2024/07/08 11:31:27.000   28.292738553  -16.543950652  2329.6922   1   8   0.0010   0.0010   0.0084   0.0007   0.0013   0.0013  -3.00  452.8
2024/07/08 11:31:28.000   28.292738553  -16.543950652  2329.6920   1   8   0.0010   0.0010   0.0084   0.0007   0.0013   0.0013  -2.00  451.8
2024/07/08 11:31:29.000   28.292738553  -16.543950652  2329.6919   1   8   0.0010   0.0010   0.0084   0.0007   0.0013   0.0013  -1.00  450.6
2024/07/08 11:31:30.000   28.292738553  -16.543950652  2329.6917   1   8   0.0010   0.0010   0.0084   0.0007   0.0013   0.0013   0.00  450.1
2024/07/08 11:31:31.000   28.292738553  -16.543950652  2329.6914   1   8   0.0010   0.0010   0.0084   0.0007   0.0014   0.0013   1.00  449.9
2024/07/08 11:31:32.000   28.292738553  -16.543950652  2329.6912   1   8   0.0010   0.0011   0.0084   0.0007   0.0014   0.0013   2.00  449.2
2024/07/08 11:31:33.000   28.292738554  -16.543950652  2329.6911   1   8   0.0010   0.0011   0.0084   0.0007   0.0014   0.0013   3.00  448.9
2024/07/08 11:31:34.000   28.292738554  -16.543950652  2329.6909   1   8   0.0010   0.0011   0.0084   0.0007   0.0014   0.0013   4.00  448.3
2024/07/08 11:31:35.000   28.292738554  -16.543950652  2329.6908   1   8   0.0010   0.0011   0.0084   0.0007   0.0014   0.0013   5.00  447.7
2024/07/08 11:31:36.000   28.292738554  -16.543950652  2329.6907   1   8   0.0010   0.0011   0.0084   0.0007   0.0014   0.0013   6.00  447.0
2024/07/08 11:31:37.000   28.292738554  -16.543950652  2329.6907   1   8   0.0010   0.0011   0.0084   0.0007   0.0014   0.0013   7.00  446.5
2024/07/08 11:31:38.000   28.292738554  -16.543950652  2329.6906   1   8   0.0010   0.0011   0.0084   0.0007   0.0014   0.0013   8.00  445.9
2024/07/08 11:31:39.000   28.292738554  -16.543950653  2329.6906   1   8   0.0010   0.0011   0.0084   0.0007   0.0014   0.0013   9.00  445.0
2024/07/08 11:31:40.000   28.292738554  -16.543950653  2329.6905   1   8   0.0010   0.0011   0.0084   0.0007   0.0014   0.0013  10.00  444.1
2024/07/08 11:31:41.000   28.292738554  -16.543950653  2329.6905   1   8   0.0010   0.0011   0.0084   0.0007   0.0014   0.0013  11.00  443.0
2024/07/08 11:31:42.000   28.292738554  -16.543950653  2329.6904   1   8   0.0010   0.0011   0.0084   0.0007   0.0014   0.0013  12.00  442.1
2024/07/08 11:31:43.000   28.292738554  -16.543950653  2329.6904   1   8   0.0010   0.0011   0.0084   0.0007   0.0014   0.0013  13.00  441.2
2024/07/08 11:31:44.000   28.292738554  -16.543950653  2329.6904   1   8   0.0010   0.0011   0.0084   0.0007   0.0014   0.0013  14.00  440.3
2024/07/08 11:31:45.000   28.292738554  -16.543950653  2329.6903   1   8   0.0010   0.0010   0.0084   0.0007   0.0014   0.0013  15.00  439.3
2024/07/08 11:31:46.000   28.292738554  -16.543950653  2329.6903   1   8   0.0010   0.0010   0.0084   0.0007   0.0014   0.0013 -14.00  438.4
2024/07/08 11:31:47.000   28.292738554  -16.543950653  2329.6903   1   8   0.0010   0.0010   0.0084   0.0007   0.0014   0.0013 -13.00  437.6
2024/07/08 11:31:48.000   28.292738554  -16.543950653  2329.6902   1   8   0.0010   0.0010   0.0084   0.0007   0.0014   0.0013 -12.00  436.8
2024/07/08 11:31:49.000   28.292738554  -16.543950653  2329.6902   1   8   0.0010   0.0010   0.0084   0.0007   0.0014   0.0013 -11.00  436.0
2024/07/08 11:31:50.000   28.292738554  -16.543950653  2329.6902   1   8   0.0010   0.0010   0.0084   0.0007   0.0014   0.0013 -10.00  435.3
2024/07/08 11:31:51.000   28.292738554  -16.543950653  2329.6901   1   8   0.0010   0.0010   0.0084   0.0007   0.0014   0.0013  -9.00  434.9
2024/07/08 11:31:52.000   28.292738554  -16.543950653  2329.6901   1   8   0.0010   0.0010   0.0084   0.0007   0.0014   0.0013  -8.00  434.0
2024/07/08 11:31:53.000   28.292738554  -16.543950653  2329.6900   1   8   0.0010   0.0010   0.0084   0.0007   0.0014   0.0013  -7.00  433.3
2024/07/08 11:31:54.000   28.292738554  -16.543950654  2329.6899   1   8   0.0010   0.0010   0.0084   0.0007   0.0014   0.0013  -6.00  432.9
2024/07/08 11:31:55.000   28.292738554  -16.543950654  2329.6898   1   8   0.0010   0.0010   0.0084   0.0007   0.0014   0.0013  -5.00  432.5
2024/07/08 11:31:56.000   28.292738554  -16.543950654  2329.6897   1   8   0.0010   0.0010   0.0084   0.0007   0.0014   0.0013  -4.00  432.3
2024/07/08 11:31:57.000   28.292738554  -16.543950654  2329.6896   1   8   0.0010   0.0010   0.0084   0.0007   0.0014   0.0013  -3.00  432.1
2024/07/08 11:31:58.000   28.292738554  -16.543950654  2329.6894   1   8   0.0010   0.0010   0.0084   0.0007   0.0014   0.0013  -2.00  432.2
2024/07/08 11:31:59.000   28.292738555  -16.543950654  2329.6892   1   8   0.0010   0.0010   0.0084   0.0007   0.0014   0.0013  -1.00  432.1
2024/07/08 11:32:00.000   28.292738555  -16.543950654  2329.6890   1   8   0.0010   0.0010   0.0084   0.0007   0.0014   0.0013   0.00  432.1
2024/07/08 11:32:01.000   28.292738555  -16.543950654  2329.6888   1   8   0.0010   0.0011   0.0085   0.0007   0.0014   0.0013   1.00  431.3
2024/07/08 11:32:02.000   28.292738555  -16.543950654  2329.6886   1   8   0.0010   0.0011   0.0085   0.0007   0.0014   0.0013   2.00  430.9
2024/07/08 11:32:03.000   28.292738555  -16.543950654  2329.6884   1   8   0.0010   0.0011   0.0085   0.0007   0.0014   0.0013   3.00  429.6
2024/07/08 11:32:04.000   28.292738555  -16.543950654  2329.6883   1   8   0.0010   0.0011   0.0085   0.0007   0.0014   0.0013   4.00  428.7
2024/07/08 11:32:05.000   28.292738554  -16.543950655  2329.6881   1   8   0.0010   0.0011   0.0085   0.0007   0.0014   0.0013   5.00  427.7
2024/07/08 11:32:06.000   28.292738554  -16.543950655  2329.6880   1   8   0.0010   0.0011   0.0085   0.0007   0.0014   0.0013   6.00  426.6
2024/07/08 11:32:07.000   28.292738554  -16.543950655  2329.6879   1   8   0.0010   0.0011   0.0085   0.0007   0.0014   0.0013   7.00  425.5
2024/07/08 11:32:08.000   28.292738554  -16.543950655  2329.6878   1   8   0.0010   0.0011   0.0085   0.0007   0.0014   0.0013   8.00  424.3
2024/07/08 11:32:09.000   28.292738554  -16.543950655  2329.6877   1   8   0.0010   0.0011   0.0085   0.0007   0.0014   0.0013   9.00  423.5
2024/07/08 11:32:10.000   28.292738554  -16.543950655  2329.6877   1   8   0.0010   0.0011   0.0085   0.0007   0.0014   0.0013  10.00  422.6
2024/07/08 11:32:11.000   28.292738554  -16.543950655  2329.6876   1   8   0.0010   0.0011   0.0085   0.0007   0.0014   0.0013  11.00  421.6
2024/07/08 11:32:12.000   28.292738554  -16.543950655  2329.6876   1   8   0.0010   0.0011   0.0085   0.0007   0.0014   0.0013  12.00  420.6
2024/07/08 11:32:13.000   28.292738554  -16.543950655  2329.6875   1   8   0.0010   0.0011   0.0085   0.0007   0.0014   0.0013  13.00  419.7
2024/07/08 11:32:14.000   28.292738554  -16.543950655  2329.6875   1   8   0.0010   0.0011   0.0085   0.0007   0.0014   0.0013  14.00  418.9
2024/07/08 11:32:15.000   28.292738554  -16.543950655  2329.6875   1   8   0.0010   0.0011   0.0085   0.0007   0.0014   0.0013  15.00  418.0
2024/07/08 11:32:16.000   28.292738554  -16.543950655  2329.6874   1   8   0.0010   0.0010   0.0085   0.0007   0.0014   0.0013 -14.00  417.2
2024/07/08 11:32:17.000   28.292738554  -16.543950655  2329.6874   1   8   0.0010   0.0010   0.0085   0.0007   0.0014   0.0013 -13.00  416.4
2024/07/08 11:32:18.000   28.292738554  -16.543950655  2329.6873   1   8   0.0010   0.0010   0.0085   0.0007   0.0014   0.0013 -12.00  415.7
2024/07/08 11:32:19.000   28.292738554  -16.543950656  2329.6873   1   8   0.0010   0.0010   0.0085   0.0007   0.0014   0.0013 -11.00  415.0
2024/07/08 11:32:20.000   28.292738554  -16.543950656  2329.6872   1   8   0.0010   0.0010   0.0085   0.0007   0.0014   0.0013 -10.00  414.4
2024/07/08 11:32:21.000   28.292738553  -16.543950656  2329.6872   1   8   0.0010   0.0010   0.0085   0.0007   0.0014   0.0013  -9.00  413.8
2024/07/08 11:32:22.000   28.292738553  -16.543950656  2329.6871   1   8   0.0010   0.0010   0.0085   0.0007   0.0014   0.0013  -8.00  413.2
2024/07/08 11:32:23.000   28.292738553  -16.543950656  2329.6869   1   8   0.0010   0.0010   0.0085   0.0007   0.0014   0.0013  -7.00  412.9
2024/07/08 11:32:24.000   28.292738553  -16.543950656  2329.6868   1   8   0.0010   0.0010   0.0085   0.0007   0.0014   0.0013  -6.00  412.3
2024/07/08 11:32:25.000   28.292738553  -16.543950656  2329.6867   1   8   0.0010   0.0010   0.0085   0.0007   0.0014   0.0013  -5.00  411.9
2024/07/08 11:32:26.000   28.292738553  -16.543950656  2329.6865   1   8   0.0010   0.0010   0.0085   0.0007   0.0014   0.0013  -4.00  411.6
2024/07/08 11:32:27.000   28.292738553  -16.543950656  2329.6863   1   8   0.0010   0.0010   0.0085   0.0007   0.0014   0.0013  -3.00  411.1
2024/07/08 11:32:28.000   28.292738553  -16.543950656  2329.6861   1   8   0.0010   0.0010   0.0085   0.0007   0.0014   0.0013  -2.00  410.5
2024/07/08 11:32:29.000   28.292738553  -16.543950656  2329.6858   1   8   0.0010   0.0010   0.0085   0.0007   0.0014   0.0013  -1.00  411.1
2024/07/08 11:32:30.000   28.292738553  -16.543950656  2329.6856   1   8   0.0010   0.0010   0.0085   0.0007   0.0014   0.0013   0.00  411.2
2024/07/08 11:32:31.000   28.292738550  -16.543950654  2329.6929   1   8   0.0010   0.0010   0.0080   0.0006   0.0013   0.0013   1.00    4.0
2024/07/08 11:32:32.000   28.292738550  -16.543950654  2329.6928   1   8   0.0010   0.0010   0.0080   0.0006   0.0013   0.0013   2.00    4.0
2024/07/08 11:32:33.000   28.292738550  -16.543950654  2329.6928   1   8   0.0010   0.0010   0.0080   0.0006   0.0013   0.0013   3.00    4.1
2024/07/08 11:32:34.000   28.292738550  -16.543950654  2329.6927   1   8   0.0010   0.0010   0.0080   0.0006   0.0013   0.0013   4.00    4.1
2024/07/08 11:32:35.000   28.292738550  -16.543950654  2329.6927   1   8   0.0010   0.0010   0.0080   0.0006   0.0013   0.0013   5.00    4.1
2024/07/08 11:32:36.000   28.292738550  -16.543950654  2329.6926   1   8   0.0010   0.0010   0.0080   0.0006   0.0013   0.0013   6.00    4.1
2024/07/08 11:32:37.000   28.292738550  -16.543950654  2329.6926   1   8   0.0010   0.0010   0.0080   0.0006   0.0013   0.0013   7.00    4.1
2024/07/08 11:32:38.000   28.292738550  -16.543950654  2329.6925   1   8   0.0010   0.0010   0.0080   0.0006   0.0013   0.0013   8.00    4.1
2024/07/08 11:32:39.000   28.292738550  -16.543950654  2329.6925   1   8   0.0010   0.0010   0.0080   0.0006   0.0013   0.0013   9.00    4.1
2024/07/08 11:32:40.000   28.292738550  -16.543950654  2329.6925   1   8   0.0010   0.0010   0.0080   0.0006   0.0013   0.0013  10.00    4.1
2024/07/08 11:32:41.000   28.292738550  -16.543950654  2329.6925   1   8   0.0010   0.0010   0.0080   0.0006   0.0013   0.0013  11.00    4.1
2024/07/08 11:32:42.000   28.292738550  -16.543950654  2329.6924   1   8   0.0010   0.0010   0.0080   0.0006   0.0013   0.0013  12.00    4.1
2024/07/08 11:32:43.000   28.292738550  -16.543950654  2329.6924   1   8   0.0010   0.0010   0.0080   0.0006   0.0013   0.0013  13.00    4.1
2024/07/08 11:32:44.000   28.292738550  -16.543950655  2329.6924   1   8   0.0010   0.0010   0.0080   0.0006   0.0013   0.0013  14.00    4.1
2024/07/08 11:32:45.000   28.292738550  -16.543950655  2329.6923   1   8   0.0010   0.0010   0.0080   0.0006   0.0013   0.0013 -15.00    4.1
2024/07/08 11:32:46.000   28.292738550  -16.543950655  2329.6923   1   8   0.0010   0.0010   0.0080   0.0006   0.0013   0.0013 -14.00    4.1
2024/07/08 11:32:47.000   28.292738550  -16.543950655  2329.6923   1   8   0.0010   0.0010   0.0080   0.0006   0.0013   0.0013 -13.00    4.1
2024/07/08 11:32:48.000   28.292738550  -16.543950655  2329.6923   1   8   0.0010   0.0010   0.0080   0.0006   0.0013   0.0013 -12.00    4.1
2024/07/08 11:32:49.000   28.292738550  -16.543950655  2329.6923   1   8   0.0010   0.0010   0.0080   0.0006   0.0013   0.0013 -11.00    4.0
2024/07/08 11:32:50.000   28.292738550  -16.543950655  2329.6923   1   8   0.0010   0.0010   0.0080   0.0006   0.0013   0.0013 -10.00    4.0
2024/07/08 11:32:51.000   28.292738550  -16.543950655  2329.6922   1   8   0.0010   0.0010   0.0080   0.0006   0.0013   0.0013  -9.00   12.6
2024/07/08 11:32:52.000   28.292738550  -16.543950655  2329.6922   1   8   0.0010   0.0010   0.0079   0.0006   0.0013   0.0013  -8.00   16.1
2024/07/08 11:32:53.000   28.292738550  -16.543950655  2329.6922   1   8   0.0010   0.0010   0.0079   0.0006   0.0013   0.0013  -7.00   19.5
2024/07/08 11:32:54.000   28.292738550  -16.543950655  2329.6922   1   8   0.0010   0.0010   0.0079   0.0006   0.0013   0.0013  -6.00   22.7
2024/07/08 11:32:55.000   28.292738550  -16.543950655  2329.6922   1   8   0.0010   0.0010   0.0079   0.0006   0.0013   0.0013  -5.00   25.8
2024/07/08 11:32:56.000   28.292738550  -16.543950655  2329.6922   1   8   0.0010   0.0010   0.0079   0.0006   0.0013   0.0013  -4.00   29.0
2024/07/08 11:32:57.000   28.292738550  -16.543950655  2329.6922   1   8   0.0010   0.0010   0.0079   0.0006   0.0013   0.0013  -3.00   31.9
2024/07/08 11:32:58.000   28.292738550  -16.543950655  2329.6922   1   8   0.0010   0.0010   0.0079   0.0006   0.0013   0.0013  -2.00   34.6
2024/07/08 11:32:59.000   28.292738550  -16.543950655  2329.6921   1   8   0.0010   0.0010   0.0079   0.0006   0.0013   0.0013  -1.00   36.9
2024/07/08 11:33:00.000   28.292738549  -16.543950655  2329.6921   1   8   0.0010   0.0010   0.0079   0.0006   0.0013   0.0013   0.00   38.8
2024/07/08 11:33:01.000   28.292738549  -16.543950655  2329.6921   1   8   0.0010   0.0010   0.0079   0.0006   0.0013   0.0013   1.00   40.3
2024/07/08 11:33:02.000   28.292738549  -16.543950656  2329.6920   1   8   0.0010   0.0010   0.0079   0.0006   0.0013   0.0013   2.00   41.9
2024/07/08 11:33:03.000   28.292738549  -16.543950656  2329.6920   1   8   0.0010   0.0010   0.0079   0.0006   0.0013   0.0013   3.00   43.0
2024/07/08 11:33:04.000   28.292738549  -16.543950656  2329.6919   1   8   0.0010   0.0010   0.0079   0.0006   0.0013   0.0013   4.00   44.1
2024/07/08 11:33:05.000   28.292738549  -16.543950656  2329.6918   1   8   0.0010   0.0010   0.0079   0.0006   0.0013   0.0013   5.00   45.0
2024/07/08 11:33:06.000   28.292738549  -16.543950656  2329.6917   1   8   0.0010   0.0010   0.0079   0.0006   0.0013   0.0013   6.00   46.1
2024/07/08 11:33:07.000   28.292738549  -16.543950656  2329.6916   1   8   0.0010   0.0010   0.0079   0.0006   0.0013   0.0013   7.00   47.1
2024/07/08 11:33:08.000   28.292738549  -16.543950656  2329.6916   1   8   0.0010   0.0010   0.0079   0.0006   0.0013   0.0013   8.00   48.2
2024/07/08 11:33:09.000   28.292738549  -16.543950656  2329.6915   1   8   0.0010   0.0010   0.0079   0.0006   0.0013   0.0013   9.00   49.4
2024/07/08 11:33:10.000   28.292738549  -16.543950656  2329.6914   1   8   0.0010   0.0010   0.0079   0.0006   0.0013   0.0013  10.00   50.5
2024/07/08 11:33:11.000   28.292738549  -16.543950656  2329.6914   1   8   0.0010   0.0010   0.0079   0.0006   0.0013   0.0013  11.00   51.7
2024/07/08 11:33:12.000   28.292738549  -16.543950656  2329.6913   1   8   0.0010   0.0010   0.0079   0.0006   0.0013   0.0013  12.00   53.0
2024/07/08 11:33:13.000   28.292738549  -16.543950656  2329.6913   1   8   0.0010   0.0010   0.0079   0.0006   0.0013   0.0013  13.00   54.4
2024/07/08 11:33:14.000   28.292738549  -16.543950656  2329.6912   1   8   0.0010   0.0010   0.0079   0.0006   0.0013   0.0013  14.00   55.8
2024/07/08 11:33:15.000   28.292738549  -16.543950656  2329.6912   1   8   0.0010   0.0010   0.0079   0.0006   0.0013   0.0013 -15.00   57.3
2024/07/08 11:33:16.000   28.292738549  -16.543950656  2329.6912   1   8   0.0010   0.0010   0.0079   0.0006   0.0013   0.0013 -14.00   58.7
2024/07/08 11:33:17.000   28.292738549  -16.543950656  2329.6911   1   8   0.0010   0.0010   0.0079   0.0006   0.0013   0.0013 -13.00   60.1
2024/07/08 11:33:18.000   28.292738549  -16.543950656  2329.6911   1   8   0.0010   0.0010   0.0079   0.0006   0.0013   0.0013 -12.00   61.2
2024/07/08 11:33:19.000   28.292738549  -16.543950656  2329.6911   1   8   0.0010   0.0010   0.0079   0.0006   0.0013   0.0013 -11.00   62.3
2024/07/08 11:33:20.000   28.292738548  -16.543950656  2329.6910   1   8   0.0010   0.0010   0.0078   0.0006   0.0013   0.0013 -10.00   63.4
2024/07/08 11:33:21.000   28.292738548  -16.543950656  2329.6910   1   8   0.0010   0.0010   0.0078   0.0006   0.0013   0.0013  -9.00   64.3
2024/07/08 11:33:22.000   28.292738548  -16.543950656  2329.6909   1   8   0.0010   0.0010   0.0078   0.0006   0.0013   0.0013  -8.00   65.0
2024/07/08 11:33:23.000   28.292738548  -16.543950657  2329.6909   1   8   0.0010   0.0010   0.0078   0.0006   0.0013   0.0013  -7.00   65.6
2024/07/08 11:33:24.000   28.292738548  -16.543950657  2329.6909   1   8   0.0010   0.0010   0.0078   0.0006   0.0013   0.0013  -6.00   65.9
2024/07/08 11:33:25.000   28.292738548  -16.543950657  2329.6908   1   8   0.0010   0.0010   0.0078   0.0006   0.0013   0.0013  -5.00   66.3
2024/07/08 11:33:26.000   28.292738548  -16.543950657  2329.6908   1   8   0.0010   0.0010   0.0078   0.0006   0.0013   0.0013  -4.00   66.1
2024/07/08 11:33:27.000   28.292738548  -16.543950657  2329.6908   1   8   0.0010   0.0010   0.0078   0.0006   0.0013   0.0013  -3.00   65.8
2024/07/08 11:33:28.000   28.292738548  -16.543950657  2329.6909   1   8   0.0010   0.0010   0.0078   0.0006   0.0013   0.0012  -2.00   65.5
2024/07/08 11:33:29.000   28.292738548  -16.543950657  2329.6909   1   8   0.0010   0.0010   0.0078   0.0006   0.0013   0.0012  -1.00   64.9
2024/07/08 11:33:30.000   28.292738548  -16.543950657  2329.6908   1   8   0.0010   0.0010   0.0078   0.0006   0.0013   0.0012   0.00   64.8
2024/07/08 11:33:31.000   28.292738548  -16.543950657  2329.6908   1   8   0.0010   0.0010   0.0078   0.0006   0.0013   0.0012   1.00   64.3
2024/07/08 11:33:32.000   28.292738548  -16.543950657  2329.6908   1   8   0.0010   0.0010   0.0078   0.0006   0.0013   0.0012   2.00   63.8
2024/07/08 11:33:33.000   28.292738548  -16.543950657  2329.6908   1   8   0.0010   0.0010   0.0078   0.0006   0.0013   0.0012   3.00   63.8
2024/07/08 11:33:34.000   28.292738548  -16.543950657  2329.6907   1   8   0.0010   0.0010   0.0078   0.0006   0.0013   0.0012   4.00   64.4
2024/07/08 11:33:35.000   28.292738548  -16.543950657  2329.6907   1   8   0.0010   0.0010   0.0078   0.0006   0.0013   0.0012   5.00   64.7
2024/07/08 11:33:36.000   28.292738548  -16.543950657  2329.6906   1   8   0.0010   0.0010   0.0078   0.0006   0.0013   0.0012   6.00   65.4
2024/07/08 11:33:37.000   28.292738548  -16.543950657  2329.6905   1   8   0.0010   0.0010   0.0078   0.0006   0.0013   0.0012   7.00   66.2
2024/07/08 11:33:38.000   28.292738548  -16.543950657  2329.6905   1   8   0.0010   0.0010   0.0078   0.0006   0.0013   0.0012   8.00   67.1
2024/07/08 11:33:39.000   28.292738547  -16.543950657  2329.6904   1   8   0.0010   0.0010   0.0078   0.0006   0.0013   0.0012   9.00   67.9
2024/07/08 11:33:40.000   28.292738547  -16.543950657  2329.6904   1   8   0.0010   0.0010   0.0078   0.0006   0.0013   0.0012  10.00   68.9
2024/07/08 11:33:41.000   28.292738547  -16.543950657  2329.6903   1   8   0.0010   0.0010   0.0078   0.0006   0.0013   0.0012  11.00   69.9
2024/07/08 11:33:42.000   28.292738547  -16.543950657  2329.6903   1   8   0.0010   0.0010   0.0078   0.0006   0.0013   0.0012  12.00   71.0
2024/07/08 11:33:43.000   28.292738547  -16.543950657  2329.6902   1   8   0.0010   0.0010   0.0078   0.0006   0.0013   0.0012  13.00   72.1
2024/07/08 11:33:44.000   28.292738547  -16.543950657  2329.6902   1   8   0.0010   0.0010   0.0078   0.0006   0.0013   0.0012  14.00   73.2
2024/07/08 11:33:45.000   28.292738547  -16.543950657  2329.6901   1   8   0.0010   0.0010   0.0078   0.0006   0.0013   0.0012 -15.00   74.4
2024/07/08 11:33:46.000   28.292738547  -16.543950657  2329.6901   1   8   0.0010   0.0010   0.0078   0.0006   0.0013   0.0012 -14.00   75.6
2024/07/08 11:33:47.000   28.292738547  -16.543950657  2329.6901   1   8   0.0010   0.0010   0.0078   0.0006   0.0013   0.0012 -13.00   76.8
2024/07/08 11:33:48.000   28.292738547  -16.543950657  2329.6901   1   8   0.0010   0.0010   0.0078   0.0006   0.0013   0.0012 -12.00   77.9
2024/07/08 11:33:49.000   28.292738547  -16.543950657  2329.6900   1   8   0.0010   0.0010   0.0078   0.0006   0.0013   0.0012 -11.00   78.9
2024/07/08 11:33:50.000   28.292738547  -16.543950657  2329.6900   1   8   0.0010   0.0010   0.0077   0.0006   0.0013   0.0012 -10.00   80.2
2024/07/08 11:33:51.000   28.292738547  -16.543950658  2329.6900   1   8   0.0010   0.0010   0.0077   0.0006   0.0013   0.0012  -9.00   81.2
2024/07/08 11:33:52.000   28.292738547  -16.543950658  2329.6899   1   8   0.0010   0.0010   0.0077   0.0006   0.0013   0.0012  -8.00   82.3
2024/07/08 11:33:53.000   28.292738547  -16.543950658  2329.6899   1   8   0.0010   0.0010   0.0077   0.0006   0.0013   0.0012  -7.00   83.2
2024/07/08 11:33:54.000   28.292738547  -16.543950658  2329.6899   1   8   0.0010   0.0010   0.0077   0.0006   0.0013   0.0012  -6.00   84.1
2024/07/08 11:33:55.000   28.292738547  -16.543950658  2329.6899   1   8   0.0010   0.0010   0.0077   0.0006   0.0013   0.0012  -5.00   84.8
2024/07/08 11:33:56.000   28.292738547  -16.543950658  2329.6899   1   8   0.0010   0.0010   0.0077   0.0006   0.0013   0.0012  -4.00   85.4
2024/07/08 11:33:57.000   28.292738547  -16.543950658  2329.6899   1   8   0.0010   0.0010   0.0077   0.0006   0.0013   0.0012  -3.00   86.1
2024/07/08 11:33:58.000   28.292738547  -16.543950658  2329.6899   1   8   0.0010   0.0010   0.0077   0.0006   0.0013   0.0012  -2.00   86.8
2024/07/08 11:33:59.000   28.292738547  -16.543950658  2329.6899   1   8   0.0010   0.0010   0.0077   0.0006   0.0013   0.0012  -1.00   87.3
2024/07/08 11:34:00.000   28.292738547  -16.543950658  2329.6900   1   8   0.0010   0.0010   0.0077   0.0006   0.0013   0.0012   0.00   88.0
2024/07/08 11:34:01.000   28.292738547  -16.543950658  2329.6900   1   8   0.0010   0.0010   0.0077   0.0006   0.0013   0.0012   1.00   89.0
2024/07/08 11:34:02.000   28.292738547  -16.543950658  2329.6900   1   8   0.0010   0.0010   0.0077   0.0006   0.0013   0.0012   2.00   89.4
2024/07/08 11:34:03.000   28.292738547  -16.543950658  2329.6899   1   8   0.0010   0.0010   0.0077   0.0006   0.0013   0.0012   3.00   89.6
2024/07/08 11:34:04.000   28.292738547  -16.543950658  2329.6899   1   8   0.0010   0.0010   0.0077   0.0006   0.0013   0.0012   4.00   90.0
2024/07/08 11:34:05.000   28.292738547  -16.543950658  2329.6899   1   8   0.0010   0.0010   0.0077   0.0006   0.0013   0.0012   5.00   90.6
2024/07/08 11:34:06.000   28.292738547  -16.543950658  2329.6898   1   8   0.0010   0.0010   0.0077   0.0006   0.0013   0.0012   6.00   91.2
2024/07/08 11:34:07.000   28.292738547  -16.543950658  2329.6897   1   8   0.0010   0.0010   0.0077   0.0006   0.0013   0.0012   7.00   91.5
2024/07/08 11:34:08.000   28.292738546  -16.543950658  2329.6897   1   8   0.0010   0.0010   0.0077   0.0006   0.0013   0.0012   8.00   91.9
2024/07/08 11:34:09.000   28.292738546  -16.543950658  2329.6896   1   8   0.0010   0.0010   0.0077   0.0006   0.0013   0.0012   9.00   92.4
2024/07/08 11:34:10.000   28.292738546  -16.543950658  2329.6896   1   8   0.0010   0.0010   0.0077   0.0006   0.0013   0.0012  10.00   92.9
2024/07/08 11:34:11.000   28.292738546  -16.543950658  2329.6895   1   8   0.0010   0.0010   0.0077   0.0006   0.0013   0.0012  11.00   93.4
2024/07/08 11:34:12.000   28.292738546  -16.543950658  2329.6895   1   8   0.0010   0.0010   0.0077   0.0006   0.0013   0.0012  12.00   94.1
2024/07/08 11:34:13.000   28.292738546  -16.543950658  2329.6894   1   8   0.0010   0.0010   0.0077   0.0006   0.0013   0.0012  13.00   94.9
2024/07/08 11:34:14.000   28.292738546  -16.543950658  2329.6894   1   8   0.0010   0.0010   0.0077   0.0006   0.0013   0.0012  14.00   95.6
2024/07/08 11:34:15.000   28.292738546  -16.543950658  2329.6894   1   8   0.0010   0.0010   0.0077   0.0006   0.0013   0.0012 -15.00   96.3
2024/07/08 11:34:16.000   28.292738546  -16.543950658  2329.6893   1   8   0.0010   0.0010   0.0077   0.0006   0.0013   0.0012 -14.00   97.0
2024/07/08 11:34:17.000   28.292738546  -16.543950658  2329.6893   1   8   0.0010   0.0010   0.0077   0.0006   0.0013   0.0012 -13.00   97.6
2024/07/08 11:34:18.000   28.292738546  -16.543950658  2329.6892   1   8   0.0010   0.0010   0.0077   0.0006   0.0013   0.0012 -12.00   98.1
2024/07/08 11:34:19.000   28.292738546  -16.543950658  2329.6892   1   8   0.0010   0.0010   0.0077   0.0006   0.0013   0.0012 -11.00   98.5
2024/07/08 11:34:20.000   28.292738546  -16.543950658  2329.6892   1   8   0.0010   0.0010   0.0077   0.0006   0.0013   0.0012 -10.00   98.7
2024/07/08 11:34:21.000   28.292738546  -16.543950658  2329.6891   1   8   0.0010   0.0010   0.0077   0.0006   0.0013   0.0012  -9.00   98.9
2024/07/08 11:34:22.000   28.292738546  -16.543950659  2329.6891   1   8   0.0010   0.0010   0.0076   0.0006   0.0013   0.0012  -8.00   99.2
2024/07/08 11:34:23.000   28.292738546  -16.543950659  2329.6890   1   8   0.0010   0.0010   0.0076   0.0006   0.0013   0.0012  -7.00   99.5
2024/07/08 11:34:24.000   28.292738546  -16.543950659  2329.6890   1   8   0.0010   0.0010   0.0076   0.0006   0.0013   0.0012  -6.00   99.1
2024/07/08 11:34:25.000   28.292738546  -16.543950659  2329.6890   1   8   0.0010   0.0010   0.0076   0.0006   0.0013   0.0012  -5.00   98.6
2024/07/08 11:34:26.000   28.292738546  -16.543950659  2329.6890   1   8   0.0010   0.0010   0.0076   0.0006   0.0013   0.0012  -4.00   98.2
2024/07/08 11:34:27.000   28.292738546  -16.543950659  2329.6890   1   8   0.0010   0.0010   0.0076   0.0006   0.0013   0.0012  -3.00   97.4
2024/07/08 11:34:28.000   28.292738546  -16.543950659  2329.6889   1   8   0.0010   0.0010   0.0076   0.0006   0.0013   0.0012  -2.00   96.9
2024/07/08 11:34:29.000   28.292738546  -16.543950659  2329.6890   1   8   0.0010   0.0010   0.0076   0.0006   0.0013   0.0012  -1.00   96.0
2024/07/08 11:34:30.000   28.292738546  -16.543950659  2329.6890   1   8   0.0010   0.0010   0.0076   0.0006   0.0013   0.0012   0.00   95.3
2024/07/08 11:34:31.000   28.292738546  -16.543950659  2329.6891   1   8   0.0010   0.0010   0.0076   0.0006   0.0013   0.0012   1.00   94.2
2024/07/08 11:34:32.000   28.292738546  -16.543950659  2329.6892   1   8   0.0010   0.0010   0.0076   0.0006   0.0013   0.0012   2.00   93.3
2024/07/08 11:34:33.000   28.292738546  -16.543950659  2329.6892   1   8   0.0010   0.0010   0.0076   0.0006   0.0013   0.0012   3.00   92.8
2024/07/08 11:34:34.000   28.292738546  -16.543950659  2329.6892   1   8   0.0010   0.0010   0.0076   0.0006   0.0013   0.0012   4.00   92.7
2024/07/08 11:34:35.000   28.292738546  -16.543950659  2329.6892   1   8   0.0010   0.0010   0.0076   0.0006   0.0013   0.0012   5.00   92.3
2024/07/08 11:34:36.000   28.292738546  -16.543950659  2329.6892   1   8   0.0010   0.0010   0.0076   0.0006   0.0013   0.0012   6.00   92.0
2024/07/08 11:34:37.000   28.292738546  -16.543950659  2329.6892   1   8   0.0010   0.0010   0.0076   0.0006   0.0013   0.0012   7.00   92.0
2024/07/08 11:34:38.000   28.292738546  -16.543950659  2329.6891   1   8   0.0010   0.0010   0.0076   0.0006   0.0013   0.0012   8.00   91.9
2024/07/08 11:34:39.000   28.292738546  -16.543950659  2329.6891   1   8   0.0010   0.0010   0.0076   0.0006   0.0013   0.0012   9.00   92.0
2024/07/08 11:34:40.000   28.292738546  -16.543950659  2329.6891   1   8   0.0010   0.0010   0.0076   0.0006   0.0013   0.0012  10.00   92.3
2024/07/08 11:34:41.000   28.292738545  -16.543950659  2329.6890   1   8   0.0010   0.0010   0.0076   0.0006   0.0013   0.0012  11.00   92.6
2024/07/08 11:34:42.000   28.292738545  -16.543950659  2329.6890   1   8   0.0010   0.0010   0.0076   0.0006   0.0013   0.0012  12.00   93.0
2024/07/08 11:34:43.000   28.292738545  -16.543950659  2329.6889   1   8   0.0010   0.0010   0.0076   0.0006   0.0013   0.0012  13.00   93.3
2024/07/08 11:34:44.000   28.292738545  -16.543950659  2329.6889   1   8   0.0010   0.0010   0.0076   0.0006   0.0013   0.0012  14.00   93.7
2024/07/08 11:34:45.000   28.292738545  -16.543950659  2329.6889   1   8   0.0010   0.0010   0.0076   0.0006   0.0013   0.0012 -15.00   94.1
2024/07/08 11:34:46.000   28.292738545  -16.543950659  2329.6889   1   8   0.0010   0.0010   0.0076   0.0006   0.0013   0.0012 -14.00   94.5
2024/07/08 11:34:47.000   28.292738545  -16.543950659  2329.6888   1   8   0.0010   0.0010   0.0076   0.0006   0.0013   0.0012 -13.00   94.9
2024/07/08 11:34:48.000   28.292738545  -16.543950659  2329.6888   1   8   0.0010   0.0010   0.0076   0.0006   0.0013   0.0012 -12.00   95.2
2024/07/08 11:34:49.000   28.292738545  -16.543950659  2329.6888   1   8   0.0010   0.0010   0.0076   0.0006   0.0013   0.0012 -11.00   95.4
2024/07/08 11:34:50.000   28.292738545  -16.543950659  2329.6887   1   8   0.0010   0.0009   0.0076   0.0006   0.0013   0.0012 -10.00   95.7
2024/07/08 11:34:51.000   28.292738545  -16.543950659  2329.6887   1   8   0.0010   0.0009   0.0076   0.0006   0.0013   0.0012  -9.00   95.9
2024/07/08 11:34:52.000   28.292738545  -16.543950659  2329.6887   1   8   0.0010   0.0009   0.0076   0.0006   0.0013   0.0012  -8.00   95.9
2024/07/08 11:34:53.000   28.292738545  -16.543950659  2329.6886   1   8   0.0010   0.0009   0.0076   0.0006   0.0013   0.0012  -7.00   95.9
2024/07/08 11:34:54.000   28.292738545  -16.543950659  2329.6886   1   8   0.0010   0.0009   0.0076   0.0006   0.0013   0.0012  -6.00   95.7
2024/07/08 11:34:55.000   28.292738545  -16.543950659  2329.6886   1   8   0.0010   0.0009   0.0076   0.0006   0.0013   0.0012  -5.00   95.6
2024/07/08 11:34:56.000   28.292738545  -16.543950659  2329.6886   1   8   0.0010   0.0009   0.0076   0.0006   0.0013   0.0012  -4.00   95.3
2024/07/08 11:34:57.000   28.292738545  -16.543950659  2329.6887   1   8   0.0010   0.0009   0.0075   0.0006   0.0013   0.0012  -3.00   94.5
2024/07/08 11:34:58.000   28.292738545  -16.543950659  2329.6886   1   8   0.0010   0.0009   0.0075   0.0006   0.0013   0.0012  -2.00   94.2
2024/07/08 11:34:59.000   28.292738545  -16.543950659  2329.6887   1   8   0.0010   0.0009   0.0075   0.0006   0.0013   0.0012  -1.00   93.4
2024/07/08 11:35:00.000   28.292738545  -16.543950659  2329.6888   1   8   0.0010   0.0009   0.0075   0.0006   0.0013   0.0012   0.00   92.7
2024/07/08 11:35:01.000   28.292738545  -16.543950659  2329.6888   1   8   0.0010   0.0009   0.0075   0.0006   0.0013   0.0012   1.00   91.9
2024/07/08 11:35:02.000   28.292738545  -16.543950659  2329.6889   1   8   0.0010   0.0009   0.0075   0.0006   0.0013   0.0012   2.00   91.3
2024/07/08 11:35:03.000   28.292738545  -16.543950659  2329.6889   1   8   0.0009   0.0009   0.0075   0.0006   0.0013   0.0012   3.00   90.7
2024/07/08 11:35:04.000   28.292738545  -16.543950659  2329.6889   1   8   0.0009   0.0009   0.0075   0.0006   0.0013   0.0012   4.00   90.1
2024/07/08 11:35:05.000   28.292738545  -16.543950659  2329.6889   1   8   0.0009   0.0009   0.0075   0.0006   0.0013   0.0012   5.00   90.0
2024/07/08 11:35:06.000   28.292738545  -16.543950659  2329.6889   1   8   0.0009   0.0009   0.0075   0.0006   0.0013   0.0012   6.00   90.0
2024/07/08 11:35:07.000   28.292738545  -16.543950659  2329.6889   1   8   0.0009   0.0009   0.0075   0.0006   0.0013   0.0012   7.00   89.8
2024/07/08 11:35:08.000   28.292738545  -16.543950659  2329.6889   1   8   0.0009   0.0009   0.0075   0.0006   0.0013   0.0012   8.00   89.7
2024/07/08 11:35:09.000   28.292738545  -16.543950659  2329.6888   1   8   0.0009   0.0009   0.0075   0.0006   0.0013   0.0012   9.00   89.7
2024/07/08 11:35:10.000   28.292738545  -16.543950659  2329.6888   1   8   0.0009   0.0009   0.0075   0.0006   0.0013   0.0012  10.00   89.8
2024/07/08 11:35:11.000   28.292738545  -16.543950659  2329.6888   1   8   0.0009   0.0009   0.0075   0.0006   0.0013   0.0012  11.00   90.0
2024/07/08 11:35:12.000   28.292738545  -16.543950659  2329.6888   1   8   0.0009   0.0009   0.0075   0.0006   0.0013   0.0012  12.00   90.2
2024/07/08 11:35:13.000   28.292738545  -16.543950659  2329.6887   1   8   0.0009   0.0009   0.0075   0.0006   0.0013   0.0012  13.00   90.5
2024/07/08 11:35:14.000   28.292738545  -16.543950659  2329.6887   1   8   0.0009   0.0009   0.0075   0.0006   0.0013   0.0012  14.00   90.8
2024/07/08 11:35:15.000   28.292738545  -16.543950659  2329.6887   1   8   0.0009   0.0009   0.0075   0.0006   0.0013   0.0012 -15.00   91.2
2024/07/08 11:35:16.000   28.292738545  -16.543950659  2329.6887   1   8   0.0009   0.0009   0.0075   0.0006   0.0013   0.0012 -14.00   91.5
2024/07/08 11:35:17.000   28.292738545  -16.543950659  2329.6886   1   8   0.0009   0.0009   0.0075   0.0006   0.0013   0.0012 -13.00   91.8
2024/07/08 11:35:18.000   28.292738545  -16.543950659  2329.6886   1   8   0.0009   0.0009   0.0075   0.0006   0.0013   0.0012 -12.00   92.1
2024/07/08 11:35:19.000   28.292738545  -16.543950659  2329.6886   1   8   0.0009   0.0009   0.0075   0.0006   0.0013   0.0012 -11.00   92.3
2024/07/08 11:35:20.000   28.292738545  -16.543950659  2329.6886   1   8   0.0009   0.0009   0.0075   0.0006   0.0013   0.0012 -10.00   92.5
2024/07/08 11:35:21.000   28.292738545  -16.543950659  2329.6886   1   8   0.0009   0.0009   0.0075   0.0006   0.0013   0.0012  -9.00   92.6
2024/07/08 11:35:22.000   28.292738544  -16.543950659  2329.6885   1   8   0.0009   0.0009   0.0075   0.0006   0.0013   0.0012  -8.00   92.4
2024/07/08 11:35:23.000   28.292738544  -16.543950659  2329.6885   1   8   0.0009   0.0009   0.0075   0.0006   0.0013   0.0012  -7.00   92.3
2024/07/08 11:35:24.000   28.292738544  -16.543950659  2329.6885   1   8   0.0009   0.0009   0.0075   0.0006   0.0013   0.0012  -6.00   91.9
2024/07/08 11:35:25.000   28.292738544  -16.543950659  2329.6885   1   8   0.0009   0.0009   0.0075   0.0006   0.0013   0.0012  -5.00   91.5
2024/07/08 11:35:26.000   28.292738544  -16.543950659  2329.6885   1   8   0.0009   0.0009   0.0075   0.0006   0.0013   0.0012  -4.00   91.2
2024/07/08 11:35:27.000   28.292738544  -16.543950659  2329.6885   1   8   0.0009   0.0009   0.0075   0.0006   0.0013   0.0012  -3.00   90.8
2024/07/08 11:35:28.000   28.292738544  -16.543950659  2329.6885   1   8   0.0009   0.0009   0.0075   0.0006   0.0013   0.0012  -2.00   90.5
2024/07/08 11:35:29.000   28.292738544  -16.543950659  2329.6885   1   8   0.0009   0.0009   0.0075   0.0006   0.0013   0.0012  -1.00   89.9
2024/07/08 11:35:30.000   28.292738544  -16.543950659  2329.6886   1   8   0.0009   0.0009   0.0075   0.0006   0.0013   0.0012   0.00   89.6
2024/07/08 11:35:31.000   28.292738544  -16.543950659  2329.6886   1   8   0.0009   0.0009   0.0075   0.0006   0.0013   0.0012   1.00   89.3
2024/07/08 11:35:32.000   28.292738544  -16.543950659  2329.6887   1   8   0.0009   0.0009   0.0075   0.0006   0.0013   0.0012   2.00   88.9
2024/07/08 11:35:33.000   28.292738544  -16.543950659  2329.6887   1   8   0.0009   0.0009   0.0075   0.0006   0.0013   0.0012   3.00   88.9
2024/07/08 11:35:34.000   28.292738544  -16.543950659  2329.6887   1   8   0.0009   0.0009   0.0075   0.0006   0.0013   0.0012   4.00   88.8
2024/07/08 11:35:35.000   28.292738544  -16.543950659  2329.6888   1   8   0.0009   0.0009   0.0075   0.0006   0.0013   0.0012   5.00   88.9
2024/07/08 11:35:36.000   28.292738544  -16.543950659  2329.6888   1   8   0.0009   0.0009   0.0075   0.0006   0.0013   0.0012   6.00   89.0
2024/07/08 11:35:37.000   28.292738544  -16.543950659  2329.6888   1   8   0.0009   0.0009   0.0075   0.0006   0.0013   0.0012   7.00   89.3
2024/07/08 11:35:38.000   28.292738544  -16.543950659  2329.6888   1   8   0.0009   0.0009   0.0075   0.0006   0.0013   0.0012   8.00   89.6
2024/07/08 11:35:39.000   28.292738544  -16.543950659  2329.6888   1   8   0.0009   0.0009   0.0074   0.0006   0.0013   0.0012   9.00   90.0
2024/07/08 11:35:40.000   28.292738544  -16.543950659  2329.6887   1   8   0.0009   0.0009   0.0074   0.0006   0.0013   0.0012  10.00   90.4
2024/07/08 11:35:41.000   28.292738544  -16.543950659  2329.6887   1   8   0.0009   0.0009   0.0074   0.0006   0.0013   0.0012  11.00   90.8
2024/07/08 11:35:42.000   28.292738544  -16.543950659  2329.6887   1   8   0.0009   0.0009   0.0074   0.0006   0.0013   0.0012  12.00   91.2
2024/07/08 11:35:43.000   28.292738544  -16.543950659  2329.6887   1   8   0.0009   0.0009   0.0074   0.0006   0.0013   0.0012  13.00   91.7
2024/07/08 11:35:44.000   28.292738544  -16.543950659  2329.6887   1   8   0.0009   0.0009   0.0074   0.0006   0.0013   0.0012  14.00   92.2
2024/07/08 11:35:45.000   28.292738544  -16.543950659  2329.6887   1   8   0.0009   0.0009   0.0074   0.0006   0.0013   0.0012 -15.00   92.6
2024/07/08 11:35:46.000   28.292738544  -16.543950659  2329.6887   1   8   0.0009   0.0009   0.0074   0.0006   0.0013   0.0012 -14.00   93.2
2024/07/08 11:35:47.000   28.292738544  -16.543950659  2329.6886   1   8   0.0009   0.0009   0.0074   0.0006   0.0013   0.0012 -13.00   93.6
2024/07/08 11:35:48.000   28.292738544  -16.543950659  2329.6886   1   8   0.0009   0.0009   0.0074   0.0006   0.0013   0.0012 -12.00   94.0
2024/07/08 11:35:49.000   28.292738544  -16.543950659  2329.6886   1   8   0.0009   0.0009   0.0074   0.0006   0.0013   0.0012 -11.00   94.4
2024/07/08 11:35:50.000   28.292738544  -16.543950659  2329.6886   1   8   0.0009   0.0009   0.0074   0.0006   0.0013   0.0012 -10.00   94.7
2024/07/08 11:35:51.000   28.292738544  -16.543950659  2329.6886   1   8   0.0009   0.0009   0.0074   0.0006   0.0013   0.0012  -9.00   94.9
2024/07/08 11:35:52.000   28.292738544  -16.543950659  2329.6885   1   8   0.0009   0.0009   0.0074   0.0006   0.0013   0.0012  -8.00   95.1
2024/07/08 11:35:53.000   28.292738544  -16.543950659  2329.6885   1   8   0.0009   0.0009   0.0074   0.0006   0.0013   0.0012  -7.00   95.4
2024/07/08 11:35:54.000   28.292738544  -16.543950659  2329.6885   1   8   0.0009   0.0009   0.0074   0.0006   0.0013   0.0012  -6.00   95.6
2024/07/08 11:35:55.000   28.292738544  -16.543950659  2329.6885   1   8   0.0009   0.0009   0.0074   0.0006   0.0013   0.0012  -5.00   95.7
2024/07/08 11:35:56.000   28.292738544  -16.543950659  2329.6885   1   8   0.0009   0.0009   0.0074   0.0006   0.0013   0.0012  -4.00   95.7
2024/07/08 11:35:57.000   28.292738544  -16.543950659  2329.6885   1   8   0.0009   0.0009   0.0074   0.0006   0.0013   0.0012  -3.00   95.9
2024/07/08 11:35:58.000   28.292738544  -16.543950659  2329.6885   1   8   0.0009   0.0009   0.0074   0.0006   0.0013   0.0012  -2.00   95.6
2024/07/08 11:35:59.000   28.292738544  -16.543950659  2329.6885   1   8   0.0009   0.0009   0.0074   0.0006   0.0013   0.0012  -1.00   95.2
2024/07/08 11:36:00.000   28.292738544  -16.543950659  2329.6885   1   8   0.0009   0.0009   0.0074   0.0006   0.0013   0.0012   0.00   95.1
2024/07/08 11:36:01.000   28.292738544  -16.543950659  2329.6886   1   8   0.0009   0.0009   0.0074   0.0006   0.0013   0.0012   1.00   94.8
2024/07/08 11:36:02.000   28.292738544  -16.543950659  2329.6886   1   8   0.0009   0.0009   0.0074   0.0006   0.0013   0.0012   2.00   94.5
2024/07/08 11:36:03.000   28.292738544  -16.543950659  2329.6887   1   8   0.0009   0.0009   0.0074   0.0006   0.0013   0.0012   3.00   94.3
2024/07/08 11:36:04.000   28.292738544  -16.543950659  2329.6887   1   8   0.0009   0.0009   0.0074   0.0006   0.0013   0.0012   4.00   94.0
2024/07/08 11:36:05.000   28.292738544  -16.543950659  2329.6887   1   8   0.0009   0.0009   0.0074   0.0006   0.0013   0.0012   5.00   94.0
2024/07/08 11:36:06.000   28.292738543  -16.543950659  2329.6887   1   8   0.0009   0.0009   0.0074   0.0006   0.0013   0.0012   6.00   94.1
2024/07/08 11:36:07.000   28.292738543  -16.543950659  2329.6887   1   8   0.0009   0.0009   0.0074   0.0006   0.0013   0.0012   7.00   94.2
2024/07/08 11:36:08.000   28.292738543  -16.543950659  2329.6887   1   8   0.0009   0.0009   0.0074   0.0006   0.0013   0.0012   8.00   94.4
2024/07/08 11:36:09.000   28.292738543  -16.543950659  2329.6887   1   8   0.0009   0.0009   0.0074   0.0006   0.0013   0.0012   9.00   94.6
2024/07/08 11:36:10.000   28.292738543  -16.543950659  2329.6887   1   8   0.0009   0.0009   0.0074   0.0006   0.0013   0.0012  10.00   94.8
2024/07/08 11:36:11.000   28.292738543  -16.543950659  2329.6887   1   8   0.0009   0.0009   0.0074   0.0006   0.0013   0.0012  11.00   95.1
2024/07/08 11:36:12.000   28.292738543  -16.543950659  2329.6887   1   8   0.0009   0.0009   0.0074   0.0006   0.0013   0.0012  12.00   95.5
2024/07/08 11:36:13.000   28.292738543  -16.543950659  2329.6887   1   8   0.0009   0.0009   0.0074   0.0006   0.0013   0.0012  13.00   95.8
2024/07/08 11:36:14.000   28.292738543  -16.543950659  2329.6887   1   8   0.0009   0.0009   0.0074   0.0006   0.0013   0.0012  14.00   96.2
2024/07/08 11:36:15.000   28.292738543  -16.543950659  2329.6886   1   8   0.0009   0.0009   0.0074   0.0006   0.0013   0.0012 -15.00   96.7
2024/07/08 11:36:16.000   28.292738543  -16.543950659  2329.6886   1   8   0.0009   0.0009   0.0074   0.0006   0.0013   0.0012 -14.00   97.0
2024/07/08 11:36:17.000   28.292738543  -16.543950659  2329.6886   1   8   0.0009   0.0009   0.0074   0.0006   0.0013   0.0012 -13.00   97.4
2024/07/08 11:36:18.000   28.292738543  -16.543950659  2329.6886   1   8   0.0009   0.0009   0.0074   0.0006   0.0013   0.0012 -12.00   97.7
2024/07/08 11:36:19.000   28.292738543  -16.543950659  2329.6886   1   8   0.0009   0.0009   0.0074   0.0006   0.0013   0.0012 -11.00   97.9
2024/07/08 11:36:20.000   28.292738543  -16.543950659  2329.6886   1   8   0.0009   0.0009   0.0074   0.0006   0.0013   0.0012 -10.00   98.2
2024/07/08 11:36:21.000   28.292738543  -16.543950659  2329.6886   1   8   0.0009   0.0009   0.0074   0.0006   0.0013   0.0012  -9.00   98.4
2024/07/08 11:36:22.000   28.292738543  -16.543950659  2329.6885   1   8   0.0009   0.0009   0.0074   0.0006   0.0013   0.0012  -8.00   98.6
2024/07/08 11:36:23.000   28.292738543  -16.543950659  2329.6885   1   8   0.0009   0.0009   0.0074   0.0006   0.0013   0.0012  -7.00   98.7
2024/07/08 11:36:24.000   28.292738543  -16.543950659  2329.6885   1   8   0.0009   0.0009   0.0074   0.0006   0.0013   0.0012  -6.00   98.6
2024/07/08 11:36:25.000   28.292738543  -16.543950659  2329.6885   1   8   0.0009   0.0009   0.0074   0.0006   0.0013   0.0012  -5.00   98.4
2024/07/08 11:36:26.000   28.292738543  -16.543950659  2329.6885   1   8   0.0009   0.0009   0.0074   0.0006   0.0013   0.0012  -4.00   98.2
2024/07/08 11:36:27.000   28.292738543  -16.543950659  2329.6885   1   8   0.0009   0.0009   0.0073   0.0006   0.0013   0.0012  -3.00   97.5
2024/07/08 11:36:28.000   28.292738543  -16.543950659  2329.6885   1   8   0.0009   0.0009   0.0073   0.0006   0.0013   0.0012  -2.00   96.9
2024/07/08 11:36:29.000   28.292738543  -16.543950659  2329.6886   1   8   0.0009   0.0009   0.0073   0.0006   0.0013   0.0012  -1.00   96.3
2024/07/08 11:36:30.000   28.292738543  -16.543950659  2329.6886   1   8   0.0009   0.0009   0.0073   0.0006   0.0013   0.0012   0.00   95.8
2024/07/08 11:36:31.000   28.292738543  -16.543950659  2329.6887   1   8   0.0009   0.0009   0.0073   0.0006   0.0013   0.0012   1.00   95.5
2024/07/08 11:36:32.000   28.292738543  -16.543950659  2329.6887   1   8   0.0009   0.0009   0.0073   0.0006   0.0013   0.0012   2.00   94.9
2024/07/08 11:36:33.000   28.292738543  -16.543950659  2329.6888   1   8   0.0009   0.0009   0.0073   0.0006   0.0013   0.0012   3.00   94.6
2024/07/08 11:36:34.000   28.292738543  -16.543950659  2329.6888   1   8   0.0009   0.0009   0.0073   0.0006   0.0013   0.0012   4.00   94.4
2024/07/08 11:36:35.000   28.292738543  -16.543950659  2329.6888   1   8   0.0009   0.0009   0.0073   0.0006   0.0013   0.0012   5.00   94.1
2024/07/08 11:36:36.000   28.292738543  -16.543950659  2329.6889   1   8   0.0009   0.0009   0.0073   0.0006   0.0013   0.0012   6.00   94.1
2024/07/08 11:36:37.000   28.292738543  -16.543950659  2329.6889   1   8   0.0009   0.0009   0.0073   0.0006   0.0013   0.0012   7.00   93.9
2024/07/08 11:36:38.000   28.292738543  -16.543950659  2329.6889   1   8   0.0009   0.0009   0.0073   0.0006   0.0013   0.0012   8.00   93.8
2024/07/08 11:36:39.000   28.292738543  -16.543950659  2329.6889   1   8   0.0009   0.0009   0.0073   0.0006   0.0013   0.0012   9.00   94.0
2024/07/08 11:36:40.000   28.292738543  -16.543950659  2329.6889   1   8   0.0009   0.0009   0.0073   0.0006   0.0013   0.0012  10.00   94.1
2024/07/08 11:36:41.000   28.292738543  -16.543950659  2329.6889   1   8   0.0009   0.0009   0.0073   0.0006   0.0013   0.0012  11.00   94.2
2024/07/08 11:36:42.000   28.292738543  -16.543950659  2329.6889   1   8   0.0009   0.0009   0.0073   0.0006   0.0013   0.0012  12.00   94.4
2024/07/08 11:36:43.000   28.292738543  -16.543950659  2329.6889   1   8   0.0009   0.0009   0.0073   0.0006   0.0013   0.0012  13.00   94.7
2024/07/08 11:36:44.000   28.292738543  -16.543950659  2329.6889   1   8   0.0009   0.0009   0.0073   0.0006   0.0013   0.0012  14.00   94.9
2024/07/08 11:36:45.000   28.292738543  -16.543950659  2329.6889   1   8   0.0009   0.0009   0.0073   0.0006   0.0013   0.0012 -15.00   95.2
2024/07/08 11:36:46.000   28.292738543  -16.543950659  2329.6889   1   8   0.0009   0.0009   0.0073   0.0006   0.0013   0.0012 -14.00   95.5
2024/07/08 11:36:47.000   28.292738543  -16.543950659  2329.6889   1   8   0.0009   0.0009   0.0073   0.0006   0.0013   0.0012 -13.00   95.8
2024/07/08 11:36:48.000   28.292738543  -16.543950659  2329.6889   1   8   0.0009   0.0009   0.0073   0.0006   0.0013   0.0012 -12.00   96.0
2024/07/08 11:36:49.000   28.292738543  -16.543950659  2329.6889   1   8   0.0009   0.0009   0.0073   0.0006   0.0013   0.0012 -11.00   96.2
2024/07/08 11:36:50.000   28.292738543  -16.543950659  2329.6889   1   8   0.0009   0.0009   0.0073   0.0006   0.0013   0.0012 -10.00   96.3
2024/07/08 11:36:51.000   28.292738543  -16.543950659  2329.6888   1   8   0.0009   0.0009   0.0073   0.0006   0.0013   0.0012  -9.00   96.4
2024/07/08 11:36:52.000   28.292738543  -16.543950659  2329.6888   1   8   0.0009   0.0009   0.0073   0.0006   0.0013   0.0012  -8.00   96.5
2024/07/08 11:36:53.000   28.292738543  -16.543950659  2329.6888   1   8   0.0009   0.0009   0.0073   0.0006   0.0013   0.0012  -7.00   96.6
2024/07/08 11:36:54.000   28.292738543  -16.543950659  2329.6888   1   8   0.0009   0.0009   0.0073   0.0006   0.0013   0.0012  -6.00   96.6
2024/07/08 11:36:55.000   28.292738543  -16.543950659  2329.6888   1   8   0.0009   0.0009   0.0073   0.0006   0.0013   0.0012  -5.00   96.5
2024/07/08 11:36:56.000   28.292738543  -16.543950659  2329.6888   1   8   0.0009   0.0009   0.0073   0.0006   0.0013   0.0012  -4.00   96.3
2024/07/08 11:36:57.000   28.292738543  -16.543950659  2329.6888   1   8   0.0009   0.0009   0.0073   0.0006   0.0013   0.0012  -3.00   96.0
2024/07/08 11:36:58.000   28.292738543  -16.543950659  2329.6889   1   8   0.0009   0.0009   0.0073   0.0006   0.0013   0.0012  -2.00   95.8
2024/07/08 11:36:59.000   28.292738543  -16.543950659  2329.6889   1   8   0.0009   0.0009   0.0073   0.0006   0.0013   0.0012  -1.00   95.6
2024/07/08 11:37:00.000   28.292738543  -16.543950659  2329.6889   1   8   0.0009   0.0009   0.0073   0.0006   0.0013   0.0012   0.00   95.3
2024/07/08 11:37:01.000   28.292738543  -16.543950659  2329.6890   1   8   0.0009   0.0009   0.0073   0.0006   0.0013   0.0012   1.00   95.3
2024/07/08 11:37:02.000   28.292738543  -16.543950659  2329.6890   1   8   0.0009   0.0009   0.0073   0.0006   0.0013   0.0012   2.00   95.3
2024/07/08 11:37:03.000   28.292738543  -16.543950659  2329.6890   1   8   0.0009   0.0009   0.0073   0.0006   0.0013   0.0012   3.00   95.6
2024/07/08 11:37:04.000   28.292738542  -16.543950659  2329.6890   1   8   0.0009   0.0009   0.0073   0.0006   0.0013   0.0012   4.00   95.9
2024/07/08 11:37:05.000   28.292738543  -16.543950659  2329.6890   1   8   0.0009   0.0009   0.0073   0.0006   0.0013   0.0012   5.00   96.1
2024/07/08 11:37:06.000   28.292738543  -16.543950659  2329.6890   1   8   0.0009   0.0009   0.0073   0.0006   0.0013   0.0012   6.00   96.3
2024/07/08 11:37:07.000   28.292738542  -16.543950659  2329.6890   1   8   0.0009   0.0009   0.0073   0.0006   0.0013   0.0012   7.00   96.6
2024/07/08 11:37:08.000   28.292738542  -16.543950659  2329.6891   1   8   0.0009   0.0009   0.0073   0.0006   0.0013   0.0012   8.00   96.9
2024/07/08 11:37:09.000   28.292738542  -16.543950659  2329.6891   1   8   0.0009   0.0009   0.0073   0.0006   0.0013   0.0012   9.00   97.2
2024/07/08 11:37:10.000   28.292738542  -16.543950659  2329.6891   1   8   0.0009   0.0009   0.0073   0.0006   0.0013   0.0012  10.00   97.3
2024/07/08 11:37:11.000   28.292738542  -16.543950659  2329.6891   1   8   0.0009   0.0009   0.0073   0.0006   0.0013   0.0012  11.00   97.5
2024/07/08 11:37:12.000   28.292738542  -16.543950659  2329.6891   1   8   0.0009   0.0009   0.0073   0.0006   0.0013   0.0012  12.00   97.8
2024/07/08 11:37:13.000   28.292738542  -16.543950659  2329.6891   1   8   0.0009   0.0009   0.0073   0.0006   0.0013   0.0012  13.00   98.1
2024/07/08 11:37:14.000   28.292738542  -16.543950659  2329.6891   1   8   0.0009   0.0009   0.0073   0.0006   0.0013   0.0012  14.00   98.4
2024/07/08 11:37:15.000   28.292738542  -16.543950659  2329.6890   1   8   0.0009   0.0009   0.0073   0.0006   0.0013   0.0012 -15.00   98.7
2024/07/08 11:37:16.000   28.292738542  -16.543950659  2329.6890   1   8   0.0009   0.0009   0.0073   0.0006   0.0013   0.0012 -14.00   98.9
2024/07/08 11:37:17.000   28.292738542  -16.543950659  2329.6890   1   8   0.0009   0.0009   0.0073   0.0006   0.0013   0.0012 -13.00   99.1
2024/07/08 11:37:18.000   28.292738542  -16.543950659  2329.6890   1   8   0.0009   0.0009   0.0073   0.0006   0.0013   0.0012 -12.00   99.3
2024/07/08 11:37:19.000   28.292738542  -16.543950659  2329.6890   1   8   0.0009   0.0009   0.0073   0.0006   0.0013   0.0012 -11.00   99.5
2024/07/08 11:37:20.000   28.292738542  -16.543950659  2329.6890   1   8   0.0009   0.0009   0.0073   0.0006   0.0013   0.0012 -10.00   99.7
2024/07/08 11:37:21.000   28.292738542  -16.543950659  2329.6890   1   8   0.0009   0.0009   0.0073   0.0006   0.0013   0.0012  -9.00   99.9
2024/07/08 11:37:22.001   28.292738542  -16.543950659  2329.6890   1   8   0.0009   0.0009   0.0073   0.0006   0.0013   0.0012  -8.00  100.1
2024/07/08 11:37:23.000   28.292738542  -16.543950659  2329.6889   1   8   0.0009   0.0009   0.0073   0.0006   0.0013   0.0012  -7.00  100.4
2024/07/08 11:37:24.000   28.292738542  -16.543950659  2329.6889   1   8   0.0009   0.0009   0.0073   0.0006   0.0013   0.0012  -6.00  100.5
2024/07/08 11:37:25.000   28.292738542  -16.543950659  2329.6889   1   8   0.0009   0.0009   0.0073   0.0006   0.0013   0.0012  -5.00  100.5
2024/07/08 11:37:26.000   28.292738542  -16.543950659  2329.6889   1   8   0.0009   0.0009   0.0073   0.0006   0.0013   0.0012  -4.00  100.6
2024/07/08 11:37:27.000   28.292738542  -16.543950659  2329.6889   1   8   0.0009   0.0009   0.0073   0.0006   0.0013   0.0012  -3.00  100.6
2024/07/08 11:37:28.000   28.292738542  -16.543950659  2329.6889   1   8   0.0009   0.0009   0.0072   0.0006   0.0013   0.0012  -2.00  100.6
2024/07/08 11:37:29.000   28.292738542  -16.543950659  2329.6889   1   8   0.0009   0.0009   0.0072   0.0006   0.0013   0.0012  -1.00  100.6
2024/07/08 11:37:30.000   28.292738542  -16.543950659  2329.6889   1   8   0.0009   0.0009   0.0072   0.0006   0.0013   0.0012   0.00  100.5
2024/07/08 11:37:31.000   28.292738542  -16.543950659  2329.6889   1   8   0.0009   0.0009   0.0072   0.0006   0.0013   0.0012   1.00  100.5
2024/07/08 11:37:32.000   28.292738542  -16.543950659  2329.6889   1   8   0.0009   0.0009   0.0072   0.0006   0.0013   0.0012   2.00  100.7
2024/07/08 11:37:33.000   28.292738542  -16.543950659  2329.6890   1   8   0.0009   0.0009   0.0072   0.0006   0.0013   0.0012   3.00  101.0
2024/07/08 11:37:34.000   28.292738542  -16.543950659  2329.6890   1   8   0.0009   0.0009   0.0072   0.0006   0.0013   0.0012   4.00  101.4
2024/07/08 11:37:35.000   28.292738542  -16.543950659  2329.6890   1   8   0.0009   0.0009   0.0072   0.0006   0.0013   0.0012   5.00  101.7
2024/07/08 11:37:36.000   28.292738542  -16.543950659  2329.6890   1   8   0.0009   0.0009   0.0072   0.0006   0.0013   0.0012   6.00  101.9
2024/07/08 11:37:37.000   28.292738542  -16.543950659  2329.6890   1   8   0.0009   0.0009   0.0072   0.0006   0.0013   0.0012   7.00  102.2
2024/07/08 11:37:38.000   28.292738542  -16.543950659  2329.6890   1   8   0.0009   0.0009   0.0072   0.0006   0.0013   0.0012   8.00  102.5
2024/07/08 11:37:39.000   28.292738542  -16.543950659  2329.6890   1   8   0.0009   0.0009   0.0072   0.0006   0.0013   0.0012   9.00  102.7
2024/07/08 11:37:40.000   28.292738542  -16.543950659  2329.6890   1   8   0.0009   0.0009   0.0072   0.0006   0.0013   0.0012  10.00  103.1
2024/07/08 11:37:41.000   28.292738542  -16.543950659  2329.6890   1   8   0.0009   0.0009   0.0072   0.0006   0.0013   0.0012  11.00  103.4
2024/07/08 11:37:42.000   28.292738542  -16.543950659  2329.6890   1   8   0.0009   0.0009   0.0072   0.0006   0.0013   0.0012  12.00  103.6
2024/07/08 11:37:43.000   28.292738542  -16.543950659  2329.6890   1   8   0.0009   0.0009   0.0072   0.0006   0.0013   0.0012  13.00  103.9
2024/07/08 11:37:44.000   28.292738542  -16.543950659  2329.6890   1   8   0.0009   0.0009   0.0072   0.0006   0.0013   0.0012  14.00  104.2
2024/07/08 11:37:45.000   28.292738542  -16.543950659  2329.6890   1   8   0.0009   0.0009   0.0072   0.0006   0.0013   0.0012 -15.00  104.4
2024/07/08 11:37:46.000   28.292738542  -16.543950659  2329.6890   1   8   0.0009   0.0009   0.0072   0.0006   0.0013   0.0012 -14.00  104.7
2024/07/08 11:37:47.000   28.292738542  -16.543950659  2329.6890   1   8   0.0009   0.0009   0.0072   0.0006   0.0013   0.0012 -13.00  105.0
2024/07/08 11:37:48.000   28.292738542  -16.543950659  2329.6890   1   8   0.0009   0.0009   0.0072   0.0006   0.0013   0.0012 -12.00  105.3
2024/07/08 11:37:49.000   28.292738542  -16.543950659  2329.6890   1   8   0.0009   0.0009   0.0072   0.0006   0.0013   0.0012 -11.00  105.6
2024/07/08 11:37:50.000   28.292738542  -16.543950659  2329.6890   1   8   0.0009   0.0009   0.0072   0.0006   0.0013   0.0012 -10.00  105.9
2024/07/08 11:37:51.000   28.292738542  -16.543950659  2329.6890   1   8   0.0009   0.0009   0.0072   0.0006   0.0013   0.0012  -9.00  106.2
2024/07/08 11:37:52.000   28.292738542  -16.543950659  2329.6890   1   8   0.0009   0.0009   0.0072   0.0006   0.0013   0.0012  -8.00  106.4
