% program   : RTKPOST-EX 2.5.0
% inp file  : C:\Users\SallyHenry\Desktop\Sally Internship\GNSS gravi\DATA\Survey Rover Obs\LM016_G19.24o
% inp file  : C:\Users\SallyHenry\Desktop\Sally Internship\GNSS gravi\DATA\BaseStations\IZAN\IZAN00ESP_R_20241910000_01D_30S_MO.rnx
% inp file  : C:\Users\SallyHenry\Desktop\Sally Internship\GNSS gravi\DATA\BaseStations\IZAN\IZAN00ESP_R_20241910000_01D_MN.rnx
% inp file  : C:\Users\SallyHenry\Desktop\Sally Internship\GNSS gravi\DATA\aux_files\Survey\IGS0OPSFIN_20241910000_01D_15M_ORB.SP3
% inp file  : C:\Users\SallyHenry\Desktop\Sally Internship\GNSS gravi\DATA\aux_files\Survey\IGS0OPSFIN_20241910000_01D_30S_CLK.CLK
% obs start : 2024/07/09 12:32:45.0 GPST (week2322 217965.0s)
% obs end   : 2024/07/09 13:22:45.0 GPST (week2322 220965.0s)
% pos mode  : Static
% freqs     : L1+L2/E5b
% solution  : Combined-No Phase Reset
% elev mask : 15.0 deg
% dynamics  : on
% tidecorr  : solid
% ionos opt : Estimate TEC
% tropo opt : Estimate ZTD+Grad
% ephemeris : Precise
% navi sys  : GPS GLONASS Galileo QZSS BDS
% amb res   : Fix and Hold
% amb glo   : Fix and Hold
% amb bds   : on
% val thres : 3.0
% antenna1  :                       ( 0.0000  0.0000  1.7740)
% antenna2  :                       ( 0.0000  0.0000  0.0000)
% ref pos   :  28.308069410  -16.499677180  2417.4044
%
% (lat/lon/height=WGS84/ellipsoidal,Q=1:fix,2:float,3:sbas,4:dgps,5:single,6:ppp,ns=# of satellites)
%  GPST                  latitude(deg) longitude(deg)  height(m)   Q  ns   sdn(m)   sde(m)   sdu(m)  sdne(m)  sdeu(m)  sdun(m) age(s)  ratio
2024/07/09 12:32:45.000   28.293390709  -16.540967175  2332.7813   1  10   0.0009   0.0007   0.0069   0.0002   0.0005  -0.0010  15.00   50.6
2024/07/09 12:32:46.000   28.293390709  -16.540967175  2332.7813   1  10   0.0009   0.0007   0.0069   0.0002   0.0005  -0.0010 -14.00   49.5
2024/07/09 12:32:47.000   28.293390710  -16.540967175  2332.7813   1  10   0.0009   0.0007   0.0069   0.0002   0.0005  -0.0010 -13.00   48.3
2024/07/09 12:32:48.000   28.293390710  -16.540967175  2332.7813   1  10   0.0009   0.0007   0.0069   0.0002   0.0005  -0.0010 -12.00   47.1
2024/07/09 12:32:49.000   28.293390710  -16.540967175  2332.7812   1  10   0.0009   0.0007   0.0069   0.0002   0.0005  -0.0010 -11.00   45.9
2024/07/09 12:32:50.000   28.293390710  -16.540967175  2332.7812   1  10   0.0009   0.0007   0.0069   0.0002   0.0005  -0.0010 -10.00   44.5
2024/07/09 12:32:51.000   28.293390710  -16.540967174  2332.7812   1  10   0.0009   0.0007   0.0069   0.0002   0.0005  -0.0010  -9.00   42.6
2024/07/09 12:32:52.000   28.293390710  -16.540967174  2332.7812   1  10   0.0009   0.0007   0.0069   0.0002   0.0005  -0.0010  -8.00   40.2
2024/07/09 12:32:53.000   28.293390710  -16.540967174  2332.7812   1  10   0.0009   0.0007   0.0069   0.0002   0.0005  -0.0010  -7.00   37.5
2024/07/09 12:32:54.000   28.293390710  -16.540967174  2332.7811   1  10   0.0009   0.0007   0.0069   0.0002   0.0005  -0.0010  -6.00   34.5
2024/07/09 12:32:55.000   28.293390710  -16.540967174  2332.7811   1  10   0.0009   0.0007   0.0069   0.0002   0.0005  -0.0010  -5.00   31.0
2024/07/09 12:32:56.000   28.293390710  -16.540967174  2332.7810   1  10   0.0009   0.0007   0.0069   0.0002   0.0005  -0.0010  -4.00   26.4
2024/07/09 12:32:57.000   28.293390710  -16.540967174  2332.7809   1  10   0.0009   0.0007   0.0069   0.0002   0.0006  -0.0010  -3.00   20.9
2024/07/09 12:32:58.000   28.293390711  -16.540967174  2332.7808   1  10   0.0009   0.0007   0.0069   0.0002   0.0006  -0.0010  -2.00   15.1
2024/07/09 12:32:59.000   28.293390711  -16.540967174  2332.7807   1  10   0.0009   0.0007   0.0070   0.0002   0.0006  -0.0010  -1.00    8.4
2024/07/09 12:33:00.000   28.293390711  -16.540967173  2332.7812   1  10   0.0009   0.0007   0.0069   0.0002   0.0005  -0.0010   0.00   67.3
2024/07/09 12:33:01.000   28.293390711  -16.540967173  2332.7810   1  10   0.0009   0.0007   0.0069   0.0002   0.0005  -0.0010   1.00   66.8
2024/07/09 12:33:02.000   28.293390711  -16.540967173  2332.7808   1  10   0.0009   0.0007   0.0069   0.0002   0.0005  -0.0010   2.00   66.3
2024/07/09 12:33:03.000   28.293390711  -16.540967173  2332.7807   1  10   0.0009   0.0007   0.0070   0.0002   0.0005  -0.0010   3.00   65.5
2024/07/09 12:33:04.000   28.293390711  -16.540967173  2332.7805   1  10   0.0009   0.0007   0.0070   0.0002   0.0005  -0.0010   4.00   64.7
2024/07/09 12:33:05.000   28.293390712  -16.540967173  2332.7804   1  10   0.0009   0.0007   0.0070   0.0002   0.0005  -0.0010   5.00   63.8
2024/07/09 12:33:06.000   28.293390712  -16.540967173  2332.7804   1  10   0.0009   0.0007   0.0070   0.0002   0.0006  -0.0010   6.00   62.8
2024/07/09 12:33:07.000   28.293390712  -16.540967173  2332.7804   1  10   0.0009   0.0007   0.0070   0.0002   0.0006  -0.0010   7.00   61.7
2024/07/09 12:33:08.000   28.293390712  -16.540967172  2332.7804   1  10   0.0009   0.0007   0.0070   0.0002   0.0006  -0.0010   8.00   60.4
2024/07/09 12:33:09.000   28.293390712  -16.540967172  2332.7804   1  10   0.0009   0.0007   0.0070   0.0002   0.0006  -0.0010   9.00   59.2
2024/07/09 12:33:10.000   28.293390712  -16.540967172  2332.7804   1  10   0.0009   0.0007   0.0070   0.0002   0.0006  -0.0010  10.00   58.0
2024/07/09 12:33:11.000   28.293390712  -16.540967172  2332.7805   1  10   0.0009   0.0007   0.0070   0.0002   0.0006  -0.0010  11.00   56.8
2024/07/09 12:33:12.000   28.293390712  -16.540967172  2332.7805   1  10   0.0009   0.0007   0.0070   0.0002   0.0006  -0.0010  12.00   55.5
2024/07/09 12:33:13.000   28.293390712  -16.540967172  2332.7805   1  10   0.0009   0.0007   0.0070   0.0002   0.0006  -0.0010  13.00   54.3
2024/07/09 12:33:14.000   28.293390713  -16.540967172  2332.7805   1  10   0.0009   0.0007   0.0070   0.0002   0.0006  -0.0010  14.00   53.1
2024/07/09 12:33:15.000   28.293390713  -16.540967172  2332.7805   1  10   0.0009   0.0007   0.0070   0.0002   0.0006  -0.0010  15.00   51.9
2024/07/09 12:33:16.000   28.293390713  -16.540967172  2332.7805   1  10   0.0009   0.0007   0.0070   0.0002   0.0006  -0.0010 -14.00   50.7
2024/07/09 12:33:17.000   28.293390713  -16.540967172  2332.7805   1  10   0.0009   0.0007   0.0070   0.0002   0.0006  -0.0010 -13.00   49.5
2024/07/09 12:33:18.000   28.293390713  -16.540967172  2332.7805   1  10   0.0009   0.0007   0.0070   0.0002   0.0006  -0.0010 -12.00   48.3
2024/07/09 12:33:19.000   28.293390713  -16.540967172  2332.7805   1  10   0.0009   0.0007   0.0070   0.0002   0.0006  -0.0010 -11.00   47.0
2024/07/09 12:33:20.000   28.293390713  -16.540967172  2332.7805   1  10   0.0009   0.0007   0.0070   0.0002   0.0006  -0.0010 -10.00   45.6
2024/07/09 12:33:21.000   28.293390713  -16.540967172  2332.7805   1  10   0.0009   0.0007   0.0070   0.0002   0.0006  -0.0010  -9.00   44.0
2024/07/09 12:33:22.000   28.293390713  -16.540967172  2332.7806   1  10   0.0009   0.0007   0.0070   0.0002   0.0006  -0.0010  -8.00   41.7
2024/07/09 12:33:23.000   28.293390713  -16.540967172  2332.7806   1  10   0.0009   0.0007   0.0070   0.0002   0.0006  -0.0010  -7.00   38.8
2024/07/09 12:33:24.000   28.293390713  -16.540967172  2332.7806   1  10   0.0009   0.0007   0.0070   0.0002   0.0006  -0.0010  -6.00   35.7
2024/07/09 12:33:25.000   28.293390714  -16.540967172  2332.7806   1  10   0.0009   0.0007   0.0070   0.0002   0.0006  -0.0010  -5.00   32.0
2024/07/09 12:33:26.000   28.293390714  -16.540967172  2332.7806   1  10   0.0009   0.0007   0.0070   0.0002   0.0006  -0.0010  -4.00   27.2
2024/07/09 12:33:27.000   28.293390714  -16.540967171  2332.7807   1  10   0.0009   0.0007   0.0070   0.0002   0.0006  -0.0010  -3.00   21.7
2024/07/09 12:33:28.000   28.293390714  -16.540967171  2332.7807   1  10   0.0009   0.0007   0.0070   0.0002   0.0006  -0.0010  -2.00   15.5
2024/07/09 12:33:29.000   28.293390714  -16.540967171  2332.7807   1  10   0.0009   0.0007   0.0070   0.0002   0.0006  -0.0010  -1.00    8.6
2024/07/09 12:33:30.000   28.293390714  -16.540967171  2332.7811   1  10   0.0009   0.0007   0.0070   0.0002   0.0006  -0.0010   0.00   67.4
2024/07/09 12:33:31.000   28.293390714  -16.540967170  2332.7810   1  10   0.0009   0.0007   0.0070   0.0002   0.0006  -0.0010   1.00   66.6
2024/07/09 12:33:32.000   28.293390714  -16.540967170  2332.7810   1  10   0.0009   0.0007   0.0070   0.0002   0.0006  -0.0010   2.00   65.6
2024/07/09 12:33:33.000   28.293390714  -16.540967170  2332.7810   1  10   0.0009   0.0007   0.0070   0.0002   0.0006  -0.0010   3.00   64.5
2024/07/09 12:33:34.000   28.293390714  -16.540967170  2332.7810   1  10   0.0009   0.0007   0.0070   0.0002   0.0006  -0.0010   4.00   63.2
2024/07/09 12:33:35.000   28.293390714  -16.540967169  2332.7810   1  10   0.0009   0.0008   0.0070   0.0002   0.0006  -0.0010   5.00   61.8
2024/07/09 12:33:36.000   28.293390714  -16.540967169  2332.7810   1  10   0.0009   0.0008   0.0070   0.0002   0.0006  -0.0010   6.00   60.5
2024/07/09 12:33:37.000   28.293390714  -16.540967169  2332.7809   1  10   0.0009   0.0008   0.0070   0.0002   0.0006  -0.0010   7.00   59.3
2024/07/09 12:33:38.000   28.293390714  -16.540967169  2332.7809   1  10   0.0009   0.0008   0.0070   0.0002   0.0006  -0.0010   8.00   58.0
2024/07/09 12:33:39.000   28.293390714  -16.540967169  2332.7809   1  10   0.0009   0.0008   0.0070   0.0002   0.0006  -0.0010   9.00   56.7
2024/07/09 12:33:40.000   28.293390714  -16.540967168  2332.7809   1  10   0.0009   0.0008   0.0070   0.0002   0.0006  -0.0010  10.00   55.5
2024/07/09 12:33:41.000   28.293390714  -16.540967168  2332.7809   1  10   0.0009   0.0008   0.0070   0.0002   0.0006  -0.0010  11.00   54.3
2024/07/09 12:33:42.000   28.293390714  -16.540967168  2332.7809   1  10   0.0009   0.0008   0.0070   0.0002   0.0006  -0.0010  12.00   53.1
2024/07/09 12:33:43.000   28.293390714  -16.540967168  2332.7809   1  10   0.0009   0.0008   0.0070   0.0002   0.0006  -0.0010  13.00   51.9
2024/07/09 12:33:44.000   28.293390714  -16.540967168  2332.7809   1  10   0.0009   0.0008   0.0070   0.0002   0.0006  -0.0010  14.00   50.6
2024/07/09 12:33:45.000   28.293390714  -16.540967168  2332.7810   1  10   0.0009   0.0007   0.0070   0.0002   0.0006  -0.0010  15.00   49.2
2024/07/09 12:33:46.000   28.293390714  -16.540967168  2332.7809   1  10   0.0009   0.0007   0.0070   0.0002   0.0006  -0.0010 -14.00   48.0
2024/07/09 12:33:47.000   28.293390714  -16.540967168  2332.7809   1  10   0.0009   0.0007   0.0070   0.0002   0.0006  -0.0010 -13.00   46.8
2024/07/09 12:33:48.000   28.293390714  -16.540967168  2332.7809   1  10   0.0009   0.0007   0.0070   0.0002   0.0006  -0.0010 -12.00   45.6
2024/07/09 12:33:49.000   28.293390714  -16.540967168  2332.7809   1  10   0.0009   0.0007   0.0070   0.0002   0.0006  -0.0010 -11.00   44.3
2024/07/09 12:33:50.000   28.293390714  -16.540967168  2332.7809   1  10   0.0009   0.0007   0.0070   0.0002   0.0006  -0.0010 -10.00   42.8
2024/07/09 12:33:51.000   28.293390714  -16.540967168  2332.7809   1  10   0.0009   0.0007   0.0071   0.0002   0.0006  -0.0010  -9.00   40.8
2024/07/09 12:33:52.000   28.293390714  -16.540967168  2332.7809   1  10   0.0009   0.0007   0.0071   0.0002   0.0006  -0.0010  -8.00   38.6
2024/07/09 12:33:53.000   28.293390714  -16.540967168  2332.7809   1  10   0.0009   0.0007   0.0071   0.0002   0.0006  -0.0010  -7.00   36.1
2024/07/09 12:33:54.000   28.293390712  -16.540967176  2332.7813   1  10   0.0009   0.0007   0.0068   0.0002   0.0005  -0.0010  -6.00    3.1
2024/07/09 12:33:55.000   28.293390712  -16.540967176  2332.7813   1  10   0.0009   0.0007   0.0068   0.0002   0.0005  -0.0010  -5.00    3.1
2024/07/09 12:33:56.000   28.293390712  -16.540967176  2332.7813   1  10   0.0009   0.0007   0.0068   0.0002   0.0005  -0.0010  -4.00    3.0
2024/07/09 12:33:57.000   28.293390712  -16.540967176  2332.7812   1  10   0.0009   0.0007   0.0068   0.0002   0.0005  -0.0010  -3.00    3.0
2024/07/09 12:33:58.000   28.293390712  -16.540967176  2332.7812   1  10   0.0009   0.0007   0.0068   0.0002   0.0005  -0.0010  -2.00    3.0
2024/07/09 12:33:59.000   28.293390712  -16.540967176  2332.7812   1  10   0.0009   0.0007   0.0068   0.0002   0.0005  -0.0010  -1.00    3.0
2024/07/09 12:34:00.000   28.293390712  -16.540967175  2332.7826   1  10   0.0009   0.0007   0.0067   0.0002   0.0005  -0.0010   0.00    3.1
2024/07/09 12:34:01.000   28.293390714  -16.540967167  2332.7819   1  10   0.0009   0.0008   0.0071   0.0002   0.0006  -0.0010   1.00   56.2
2024/07/09 12:34:02.000   28.293390714  -16.540967167  2332.7817   1  10   0.0009   0.0008   0.0071   0.0002   0.0006  -0.0010   2.00   55.8
2024/07/09 12:34:03.000   28.293390714  -16.540967167  2332.7816   1  10   0.0009   0.0008   0.0071   0.0002   0.0006  -0.0010   3.00   55.0
2024/07/09 12:34:04.000   28.293390715  -16.540967167  2332.7815   1  10   0.0009   0.0008   0.0071   0.0002   0.0006  -0.0010   4.00   54.2
2024/07/09 12:34:05.000   28.293390715  -16.540967167  2332.7814   1  10   0.0009   0.0008   0.0071   0.0002   0.0006  -0.0010   5.00   53.5
2024/07/09 12:34:06.000   28.293390715  -16.540967167  2332.7813   1  10   0.0009   0.0008   0.0071   0.0002   0.0006  -0.0010   6.00   52.7
2024/07/09 12:34:07.000   28.293390715  -16.540967167  2332.7812   1  10   0.0009   0.0008   0.0071   0.0002   0.0006  -0.0010   7.00   52.1
2024/07/09 12:34:08.000   28.293390715  -16.540967167  2332.7811   1  10   0.0009   0.0008   0.0071   0.0002   0.0006  -0.0010   8.00   51.3
2024/07/09 12:34:09.000   28.293390714  -16.540967174  2332.7846   1  10   0.0009   0.0007   0.0069   0.0002   0.0006  -0.0009   9.00    3.1
2024/07/09 12:34:10.000   28.293390714  -16.540967174  2332.7845   1  10   0.0009   0.0007   0.0069   0.0002   0.0006  -0.0009  10.00    3.1
2024/07/09 12:34:11.000   28.293390714  -16.540967174  2332.7845   1  10   0.0009   0.0007   0.0069   0.0002   0.0006  -0.0009  11.00    3.1
2024/07/09 12:34:12.000   28.293390714  -16.540967174  2332.7844   1  10   0.0009   0.0007   0.0069   0.0002   0.0006  -0.0009  12.00    3.1
2024/07/09 12:34:13.000   28.293390714  -16.540967174  2332.7844   1  10   0.0009   0.0007   0.0069   0.0002   0.0006  -0.0009  13.00    3.1
2024/07/09 12:34:14.000   28.293390714  -16.540967174  2332.7844   1  10   0.0009   0.0007   0.0069   0.0002   0.0006  -0.0009  14.00    3.1
2024/07/09 12:34:15.000   28.293390714  -16.540967174  2332.7843   1  10   0.0009   0.0007   0.0069   0.0002   0.0006  -0.0009 -15.00    3.1
2024/07/09 12:34:16.000   28.293390714  -16.540967174  2332.7843   1  10   0.0009   0.0007   0.0069   0.0002   0.0006  -0.0009 -14.00    3.1
2024/07/09 12:34:17.000   28.293390714  -16.540967174  2332.7843   1  10   0.0009   0.0007   0.0069   0.0002   0.0006  -0.0009 -13.00    3.1
2024/07/09 12:34:18.000   28.293390714  -16.540967174  2332.7843   1  10   0.0009   0.0007   0.0069   0.0002   0.0006  -0.0009 -12.00    3.1
2024/07/09 12:34:19.000   28.293390714  -16.540967174  2332.7842   1  10   0.0009   0.0007   0.0069   0.0002   0.0006  -0.0009 -11.00    3.1
2024/07/09 12:34:20.000   28.293390714  -16.540967175  2332.7841   1  10   0.0009   0.0007   0.0068   0.0002   0.0006  -0.0009 -10.00    3.4
2024/07/09 12:34:21.000   28.293390714  -16.540967175  2332.7841   1  10   0.0009   0.0007   0.0068   0.0002   0.0006  -0.0009  -9.00    3.4
2024/07/09 12:34:22.000   28.293390714  -16.540967175  2332.7841   1  10   0.0009   0.0007   0.0068   0.0002   0.0006  -0.0009  -8.00    3.4
2024/07/09 12:34:23.000   28.293390714  -16.540967175  2332.7840   1  10   0.0009   0.0007   0.0068   0.0002   0.0006  -0.0009  -7.00    3.4
2024/07/09 12:34:24.000   28.293390714  -16.540967175  2332.7840   1  10   0.0009   0.0007   0.0068   0.0002   0.0006  -0.0009  -6.00    3.4
2024/07/09 12:34:25.000   28.293390714  -16.540967175  2332.7840   1  10   0.0009   0.0007   0.0068   0.0002   0.0006  -0.0009  -5.00    3.4
2024/07/09 12:34:26.000   28.293390714  -16.540967175  2332.7839   1  10   0.0009   0.0007   0.0068   0.0002   0.0006  -0.0009  -4.00    3.5
2024/07/09 12:34:27.000   28.293390712  -16.540967175  2332.7821   1  10   0.0009   0.0007   0.0067   0.0002   0.0005  -0.0010  -3.00    3.0
2024/07/09 12:34:28.000   28.293390712  -16.540967175  2332.7820   1  10   0.0009   0.0007   0.0067   0.0002   0.0005  -0.0010  -2.00    3.0
2024/07/09 12:34:29.000   28.293390713  -16.540967175  2332.7820   1  10   0.0009   0.0007   0.0067   0.0002   0.0005  -0.0010  -1.00    7.1
2024/07/09 12:34:30.000   28.293390712  -16.540967174  2332.7836   1  10   0.0009   0.0007   0.0067   0.0002   0.0005  -0.0010   0.00    8.8
2024/07/09 12:34:31.000   28.293390712  -16.540967175  2332.7830   1  10   0.0009   0.0007   0.0067   0.0002   0.0005  -0.0010   1.00    5.9
2024/07/09 12:34:32.000   28.293390712  -16.540967175  2332.7830   1  10   0.0009   0.0007   0.0067   0.0002   0.0005  -0.0010   2.00    8.2
2024/07/09 12:34:33.000   28.293390712  -16.540967175  2332.7829   1  10   0.0009   0.0007   0.0067   0.0002   0.0005  -0.0010   3.00   10.0
2024/07/09 12:34:34.000   28.293390712  -16.540967175  2332.7829   1  10   0.0009   0.0007   0.0067   0.0002   0.0005  -0.0010   4.00   11.8
2024/07/09 12:34:35.000   28.293390712  -16.540967175  2332.7828   1  10   0.0009   0.0007   0.0067   0.0002   0.0005  -0.0010   5.00   13.5
2024/07/09 12:34:36.000   28.293390712  -16.540967175  2332.7828   1  10   0.0009   0.0007   0.0067   0.0002   0.0005  -0.0010   6.00   15.0
2024/07/09 12:34:37.000   28.293390712  -16.540967175  2332.7827   1  10   0.0009   0.0007   0.0067   0.0002   0.0005  -0.0010   7.00   16.5
2024/07/09 12:34:38.000   28.293390712  -16.540967175  2332.7827   1  10   0.0009   0.0007   0.0067   0.0002   0.0005  -0.0010   8.00   18.0
2024/07/09 12:34:39.000   28.293390713  -16.540967175  2332.7826   1  10   0.0009   0.0007   0.0067   0.0002   0.0005  -0.0010   9.00   19.5
2024/07/09 12:34:40.000   28.293390713  -16.540967175  2332.7826   1  10   0.0009   0.0007   0.0067   0.0002   0.0005  -0.0010  10.00   20.9
2024/07/09 12:34:41.000   28.293390713  -16.540967175  2332.7825   1  10   0.0009   0.0007   0.0067   0.0002   0.0005  -0.0010  11.00   22.4
2024/07/09 12:34:42.000   28.293390713  -16.540967175  2332.7825   1  10   0.0009   0.0007   0.0067   0.0002   0.0005  -0.0010  12.00   23.7
2024/07/09 12:34:43.000   28.293390713  -16.540967175  2332.7825   1  10   0.0009   0.0007   0.0067   0.0002   0.0005  -0.0010  13.00   25.1
2024/07/09 12:34:44.000   28.293390713  -16.540967175  2332.7824   1  10   0.0009   0.0007   0.0067   0.0002   0.0005  -0.0010  14.00   26.4
2024/07/09 12:34:45.000   28.293390713  -16.540967175  2332.7824   1  10   0.0009   0.0007   0.0067   0.0002   0.0005  -0.0010 -15.00   27.8
2024/07/09 12:34:46.000   28.293390713  -16.540967175  2332.7824   1  10   0.0009   0.0007   0.0067   0.0002   0.0005  -0.0010 -14.00   29.1
2024/07/09 12:34:47.000   28.293390713  -16.540967175  2332.7824   1  10   0.0009   0.0007   0.0067   0.0002   0.0005  -0.0010 -13.00   30.3
2024/07/09 12:34:48.000   28.293390713  -16.540967175  2332.7823   1  10   0.0009   0.0007   0.0067   0.0002   0.0005  -0.0010 -12.00   31.5
2024/07/09 12:34:49.000   28.293390713  -16.540967175  2332.7823   1  10   0.0009   0.0007   0.0067   0.0002   0.0005  -0.0010 -11.00   32.8
2024/07/09 12:34:50.000   28.293390713  -16.540967175  2332.7823   1  10   0.0009   0.0007   0.0067   0.0002   0.0005  -0.0010 -10.00   34.0
2024/07/09 12:34:51.000   28.293390713  -16.540967175  2332.7823   1  10   0.0009   0.0007   0.0067   0.0002   0.0005  -0.0010  -9.00   35.4
2024/07/09 12:34:52.000   28.293390713  -16.540967175  2332.7822   1  10   0.0009   0.0007   0.0067   0.0002   0.0005  -0.0010  -8.00   36.5
2024/07/09 12:34:53.000   28.293390713  -16.540967175  2332.7822   1  10   0.0009   0.0007   0.0067   0.0002   0.0005  -0.0010  -7.00   37.7
2024/07/09 12:34:54.000   28.293390713  -16.540967175  2332.7821   1  10   0.0009   0.0007   0.0067   0.0002   0.0005  -0.0010  -6.00   39.0
2024/07/09 12:34:55.000   28.293390713  -16.540967175  2332.7821   1  10   0.0009   0.0007   0.0067   0.0002   0.0005  -0.0010  -5.00   40.5
2024/07/09 12:34:56.000   28.293390713  -16.540967175  2332.7821   1  10   0.0009   0.0007   0.0067   0.0002   0.0005  -0.0010  -4.00   41.8
2024/07/09 12:34:57.000   28.293390713  -16.540967175  2332.7820   1  10   0.0009   0.0007   0.0067   0.0002   0.0005  -0.0010  -3.00   43.2
2024/07/09 12:34:58.000   28.293390713  -16.540967175  2332.7820   1  10   0.0009   0.0007   0.0067   0.0002   0.0006  -0.0010  -2.00   44.7
2024/07/09 12:34:59.000   28.293390713  -16.540967175  2332.7819   1  10   0.0009   0.0007   0.0067   0.0002   0.0006  -0.0010  -1.00   46.4
2024/07/09 12:35:00.000   28.293390713  -16.540967174  2332.7830   1  10   0.0009   0.0007   0.0067   0.0002   0.0005  -0.0010   0.00   47.6
2024/07/09 12:35:01.000   28.293390713  -16.540967175  2332.7824   1  10   0.0009   0.0007   0.0067   0.0002   0.0005  -0.0010   1.00   10.0
2024/07/09 12:35:02.000   28.293390713  -16.540967175  2332.7824   1  10   0.0009   0.0007   0.0067   0.0002   0.0005  -0.0010   2.00   18.1
2024/07/09 12:35:03.000   28.293390713  -16.540967175  2332.7823   1  10   0.0009   0.0007   0.0067   0.0002   0.0005  -0.0010   3.00   25.4
2024/07/09 12:35:04.000   28.293390713  -16.540967175  2332.7822   1  10   0.0009   0.0007   0.0067   0.0002   0.0005  -0.0010   4.00   30.3
2024/07/09 12:35:05.000   28.293390713  -16.540967175  2332.7822   1  10   0.0009   0.0007   0.0067   0.0002   0.0005  -0.0010   5.00   33.0
2024/07/09 12:35:06.000   28.293390713  -16.540967175  2332.7821   1  10   0.0009   0.0007   0.0067   0.0002   0.0005  -0.0010   6.00   35.0
2024/07/09 12:35:07.000   28.293390713  -16.540967175  2332.7820   1  10   0.0009   0.0007   0.0067   0.0002   0.0005  -0.0010   7.00   36.9
2024/07/09 12:35:08.000   28.293390713  -16.540967175  2332.7820   1  10   0.0009   0.0007   0.0067   0.0002   0.0005  -0.0010   8.00   38.5
2024/07/09 12:35:09.000   28.293390713  -16.540967175  2332.7820   1  10   0.0009   0.0007   0.0067   0.0002   0.0005  -0.0010   9.00   40.1
2024/07/09 12:35:10.000   28.293390714  -16.540967175  2332.7819   1  10   0.0009   0.0007   0.0067   0.0002   0.0005  -0.0010  10.00   41.6
2024/07/09 12:35:11.000   28.293390714  -16.540967175  2332.7819   1  10   0.0009   0.0007   0.0067   0.0002   0.0005  -0.0010  11.00   43.1
2024/07/09 12:35:12.000   28.293390714  -16.540967175  2332.7818   1  10   0.0009   0.0007   0.0067   0.0002   0.0005  -0.0010  12.00   44.6
2024/07/09 12:35:13.000   28.293390714  -16.540967175  2332.7818   1  10   0.0009   0.0007   0.0067   0.0002   0.0005  -0.0010  13.00   46.1
2024/07/09 12:35:14.000   28.293390714  -16.540967175  2332.7818   1  10   0.0009   0.0007   0.0067   0.0002   0.0005  -0.0010  14.00   47.4
2024/07/09 12:35:15.000   28.293390714  -16.540967175  2332.7817   1  10   0.0009   0.0007   0.0067   0.0002   0.0005  -0.0010 -15.00   48.8
2024/07/09 12:35:16.000   28.293390714  -16.540967175  2332.7817   1  10   0.0009   0.0007   0.0067   0.0002   0.0005  -0.0010 -14.00   50.2
2024/07/09 12:35:17.000   28.293390714  -16.540967175  2332.7817   1  10   0.0009   0.0007   0.0067   0.0002   0.0005  -0.0010 -13.00   51.6
2024/07/09 12:35:18.000   28.293390714  -16.540967175  2332.7817   1  10   0.0009   0.0007   0.0067   0.0002   0.0005  -0.0010 -12.00   53.0
2024/07/09 12:35:19.000   28.293390714  -16.540967175  2332.7817   1  10   0.0009   0.0007   0.0067   0.0002   0.0006  -0.0010 -11.00   54.4
2024/07/09 12:35:20.000   28.293390714  -16.540967175  2332.7817   1  10   0.0009   0.0007   0.0067   0.0002   0.0006  -0.0010 -10.00   55.8
2024/07/09 12:35:21.000   28.293390714  -16.540967175  2332.7816   1  10   0.0009   0.0007   0.0067   0.0002   0.0006  -0.0010  -9.00   57.0
2024/07/09 12:35:22.000   28.293390714  -16.540967175  2332.7816   1  10   0.0009   0.0007   0.0067   0.0002   0.0006  -0.0010  -8.00   58.3
2024/07/09 12:35:23.000   28.293390714  -16.540967175  2332.7816   1  10   0.0009   0.0007   0.0067   0.0002   0.0006  -0.0010  -7.00   59.4
2024/07/09 12:35:24.000   28.293390714  -16.540967175  2332.7815   1  10   0.0009   0.0007   0.0067   0.0002   0.0006  -0.0010  -6.00   60.6
2024/07/09 12:35:25.000   28.293390714  -16.540967175  2332.7815   1  10   0.0009   0.0007   0.0067   0.0002   0.0006  -0.0010  -5.00   61.6
2024/07/09 12:35:26.000   28.293390714  -16.540967175  2332.7815   1  10   0.0009   0.0007   0.0067   0.0002   0.0006  -0.0010  -4.00   62.7
2024/07/09 12:35:27.000   28.293390714  -16.540967175  2332.7815   1  10   0.0009   0.0007   0.0067   0.0002   0.0006  -0.0010  -3.00   63.8
2024/07/09 12:35:28.000   28.293390714  -16.540967175  2332.7815   1  10   0.0009   0.0007   0.0067   0.0002   0.0006  -0.0010  -2.00   64.9
2024/07/09 12:35:29.000   28.293390714  -16.540967175  2332.7815   1  10   0.0009   0.0007   0.0067   0.0002   0.0006  -0.0010  -1.00   66.1
2024/07/09 12:35:30.000   28.293390714  -16.540967175  2332.7816   1  10   0.0009   0.0007   0.0066   0.0002   0.0005  -0.0010   0.00   67.0
2024/07/09 12:35:31.000   28.293390714  -16.540967175  2332.7814   1  10   0.0009   0.0007   0.0066   0.0002   0.0005  -0.0010   1.00    9.3
2024/07/09 12:35:32.000   28.293390714  -16.540967175  2332.7814   1  10   0.0009   0.0007   0.0066   0.0002   0.0005  -0.0010   2.00   16.9
2024/07/09 12:35:33.000   28.293390714  -16.540967175  2332.7813   1  10   0.0009   0.0007   0.0066   0.0002   0.0005  -0.0010   3.00   23.7
2024/07/09 12:35:34.000   28.293390714  -16.540967175  2332.7813   1  10   0.0009   0.0007   0.0066   0.0002   0.0005  -0.0010   4.00   29.7
2024/07/09 12:35:35.000   28.293390714  -16.540967175  2332.7813   1  10   0.0009   0.0007   0.0066   0.0002   0.0006  -0.0010   5.00   34.7
2024/07/09 12:35:36.000   28.293390714  -16.540967175  2332.7813   1  10   0.0009   0.0007   0.0066   0.0002   0.0006  -0.0010   6.00   38.3
2024/07/09 12:35:37.000   28.293390714  -16.540967175  2332.7812   1  10   0.0009   0.0007   0.0066   0.0002   0.0006  -0.0010   7.00   41.4
2024/07/09 12:35:38.000   28.293390714  -16.540967175  2332.7812   1  10   0.0009   0.0007   0.0066   0.0002   0.0006  -0.0010   8.00   43.3
2024/07/09 12:35:39.000   28.293390714  -16.540967175  2332.7812   1  10   0.0009   0.0007   0.0066   0.0002   0.0006  -0.0010   9.00   45.1
2024/07/09 12:35:40.000   28.293390714  -16.540967175  2332.7812   1  10   0.0009   0.0007   0.0066   0.0002   0.0006  -0.0010  10.00   46.8
2024/07/09 12:35:41.000   28.293390714  -16.540967175  2332.7812   1  10   0.0009   0.0007   0.0066   0.0002   0.0006  -0.0010  11.00   48.4
2024/07/09 12:35:42.000   28.293390715  -16.540967175  2332.7811   1  10   0.0009   0.0007   0.0066   0.0002   0.0006  -0.0010  12.00   49.9
2024/07/09 12:35:43.000   28.293390715  -16.540967175  2332.7811   1  10   0.0009   0.0007   0.0066   0.0002   0.0006  -0.0010  13.00   51.3
2024/07/09 12:35:44.000   28.293390715  -16.540967175  2332.7811   1  10   0.0009   0.0007   0.0066   0.0002   0.0006  -0.0010  14.00   52.6
2024/07/09 12:35:45.000   28.293390715  -16.540967175  2332.7811   1  10   0.0009   0.0007   0.0066   0.0002   0.0006  -0.0010 -15.00   54.0
2024/07/09 12:35:46.000   28.293390715  -16.540967175  2332.7811   1  10   0.0009   0.0007   0.0066   0.0002   0.0006  -0.0010 -14.00   55.5
2024/07/09 12:35:47.000   28.293390715  -16.540967175  2332.7811   1  10   0.0009   0.0007   0.0066   0.0002   0.0006  -0.0010 -13.00   56.8
2024/07/09 12:35:48.000   28.293390715  -16.540967175  2332.7810   1  10   0.0009   0.0007   0.0066   0.0002   0.0006  -0.0010 -12.00   58.2
2024/07/09 12:35:49.000   28.293390715  -16.540967175  2332.7810   1  10   0.0009   0.0007   0.0066   0.0002   0.0006  -0.0010 -11.00   59.6
2024/07/09 12:35:50.000   28.293390715  -16.540967175  2332.7810   1  10   0.0009   0.0007   0.0066   0.0002   0.0006  -0.0010 -10.00   61.4
2024/07/09 12:35:51.000   28.293390715  -16.540967175  2332.7810   1  10   0.0009   0.0007   0.0066   0.0002   0.0006  -0.0010  -9.00   62.7
2024/07/09 12:35:52.000   28.293390715  -16.540967175  2332.7810   1  10   0.0009   0.0007   0.0066   0.0002   0.0006  -0.0010  -8.00   64.3
2024/07/09 12:35:53.000   28.293390715  -16.540967175  2332.7809   1  10   0.0009   0.0007   0.0066   0.0002   0.0006  -0.0010  -7.00   66.1
2024/07/09 12:35:54.000   28.293390715  -16.540967175  2332.7809   1  10   0.0009   0.0007   0.0066   0.0002   0.0006  -0.0010  -6.00   67.8
2024/07/09 12:35:55.000   28.293390715  -16.540967175  2332.7809   1  10   0.0009   0.0007   0.0066   0.0002   0.0006  -0.0010  -5.00   69.1
2024/07/09 12:35:56.000   28.293390715  -16.540967175  2332.7809   1  10   0.0009   0.0007   0.0066   0.0002   0.0006  -0.0010  -4.00   70.7
2024/07/09 12:35:57.000   28.293390715  -16.540967175  2332.7809   1  10   0.0009   0.0007   0.0066   0.0002   0.0006  -0.0010  -3.00   72.2
2024/07/09 12:35:58.000   28.293390715  -16.540967175  2332.7808   1  10   0.0009   0.0007   0.0066   0.0002   0.0006  -0.0010  -2.00   73.3
2024/07/09 12:35:59.000   28.293390715  -16.540967175  2332.7808   1  10   0.0009   0.0007   0.0066   0.0002   0.0006  -0.0010  -1.00   74.2
2024/07/09 12:36:00.000   28.293390715  -16.540967175  2332.7803   1  10   0.0009   0.0007   0.0066   0.0002   0.0005  -0.0010   0.00   75.4
2024/07/09 12:36:01.000   28.293390715  -16.540967175  2332.7810   1  10   0.0009   0.0007   0.0066   0.0002   0.0006  -0.0010   1.00    9.9
2024/07/09 12:36:02.000   28.293390715  -16.540967175  2332.7809   1  10   0.0009   0.0007   0.0066   0.0002   0.0006  -0.0010   2.00   18.0
2024/07/09 12:36:03.000   28.293390715  -16.540967175  2332.7809   1  10   0.0009   0.0007   0.0066   0.0002   0.0006  -0.0010   3.00   25.0
2024/07/09 12:36:04.000   28.293390715  -16.540967175  2332.7808   1  10   0.0009   0.0007   0.0066   0.0002   0.0006  -0.0010   4.00   31.1
2024/07/09 12:36:05.000   28.293390715  -16.540967175  2332.7808   1  10   0.0009   0.0007   0.0066   0.0002   0.0006  -0.0010   5.00   36.3
2024/07/09 12:36:06.000   28.293390715  -16.540967175  2332.7807   1  10   0.0009   0.0007   0.0066   0.0002   0.0006  -0.0010   6.00   39.9
2024/07/09 12:36:07.000   28.293390715  -16.540967175  2332.7807   1  10   0.0009   0.0007   0.0066   0.0002   0.0006  -0.0010   7.00   42.9
2024/07/09 12:36:08.000   28.293390715  -16.540967175  2332.7806   1  10   0.0009   0.0007   0.0066   0.0002   0.0006  -0.0010   8.00   45.6
2024/07/09 12:36:09.000   28.293390715  -16.540967175  2332.7806   1  10   0.0009   0.0007   0.0066   0.0002   0.0006  -0.0010   9.00   48.2
2024/07/09 12:36:10.000   28.293390715  -16.540967175  2332.7806   1  10   0.0009   0.0007   0.0066   0.0002   0.0006  -0.0010  10.00   50.6
2024/07/09 12:36:11.000   28.293390715  -16.540967175  2332.7805   1  10   0.0009   0.0007   0.0066   0.0002   0.0006  -0.0010  11.00   52.5
2024/07/09 12:36:12.000   28.293390715  -16.540967175  2332.7805   1  10   0.0009   0.0007   0.0066   0.0002   0.0006  -0.0010  12.00   54.1
2024/07/09 12:36:13.000   28.293390715  -16.540967175  2332.7805   1  10   0.0009   0.0007   0.0066   0.0002   0.0006  -0.0010  13.00   55.6
2024/07/09 12:36:14.000   28.293390715  -16.540967175  2332.7804   1  10   0.0009   0.0007   0.0066   0.0002   0.0006  -0.0010  14.00   57.1
2024/07/09 12:36:15.000   28.293390715  -16.540967175  2332.7804   1  10   0.0009   0.0007   0.0066   0.0002   0.0006  -0.0010 -15.00   58.3
2024/07/09 12:36:16.000   28.293390715  -16.540967175  2332.7804   1  10   0.0009   0.0007   0.0066   0.0002   0.0006  -0.0010 -14.00   59.4
2024/07/09 12:36:17.000   28.293390715  -16.540967175  2332.7804   1  10   0.0009   0.0007   0.0066   0.0002   0.0006  -0.0010 -13.00   60.7
2024/07/09 12:36:18.000   28.293390715  -16.540967175  2332.7804   1  10   0.0009   0.0007   0.0066   0.0002   0.0006  -0.0010 -12.00   61.8
2024/07/09 12:36:19.000   28.293390715  -16.540967175  2332.7803   1  10   0.0009   0.0007   0.0066   0.0002   0.0006  -0.0010 -11.00   62.7
2024/07/09 12:36:20.000   28.293390715  -16.540967175  2332.7803   1  10   0.0009   0.0007   0.0066   0.0002   0.0006  -0.0010 -10.00   63.9
2024/07/09 12:36:21.000   28.293390715  -16.540967175  2332.7803   1  10   0.0009   0.0007   0.0066   0.0002   0.0006  -0.0010  -9.00   65.0
2024/07/09 12:36:22.000   28.293390715  -16.540967175  2332.7803   1  10   0.0009   0.0007   0.0066   0.0002   0.0006  -0.0010  -8.00   66.2
2024/07/09 12:36:23.000   28.293390715  -16.540967175  2332.7802   1  10   0.0009   0.0007   0.0066   0.0002   0.0006  -0.0010  -7.00   67.2
2024/07/09 12:36:24.000   28.293390715  -16.540967175  2332.7802   1  10   0.0009   0.0007   0.0066   0.0002   0.0006  -0.0010  -6.00   68.0
2024/07/09 12:36:25.000   28.293390716  -16.540967175  2332.7802   1  10   0.0009   0.0007   0.0066   0.0002   0.0006  -0.0010  -5.00   68.7
2024/07/09 12:36:26.000   28.293390716  -16.540967175  2332.7801   1  10   0.0009   0.0007   0.0066   0.0002   0.0006  -0.0010  -4.00   70.0
2024/07/09 12:36:27.000   28.293390716  -16.540967175  2332.7801   1  10   0.0009   0.0007   0.0066   0.0002   0.0006  -0.0010  -3.00   71.4
2024/07/09 12:36:28.000   28.293390716  -16.540967176  2332.7801   1  10   0.0009   0.0007   0.0066   0.0002   0.0006  -0.0010  -2.00   72.5
2024/07/09 12:36:29.000   28.293390716  -16.540967176  2332.7801   1  10   0.0009   0.0007   0.0066   0.0002   0.0006  -0.0010  -1.00   73.3
2024/07/09 12:36:30.000   28.293390716  -16.540967175  2332.7802   1  10   0.0009   0.0007   0.0065   0.0002   0.0005  -0.0010   0.00   73.9
2024/07/09 12:36:31.000   28.293390715  -16.540967175  2332.7815   1  10   0.0009   0.0007   0.0066   0.0002   0.0006  -0.0010   1.00   10.9
2024/07/09 12:36:32.000   28.293390715  -16.540967175  2332.7814   1  10   0.0009   0.0007   0.0066   0.0002   0.0006  -0.0010   2.00   19.6
2024/07/09 12:36:33.000   28.293390715  -16.540967175  2332.7814   1  10   0.0009   0.0007   0.0066   0.0002   0.0006  -0.0010   3.00   27.1
2024/07/09 12:36:34.000   28.293390715  -16.540967175  2332.7813   1  10   0.0009   0.0007   0.0066   0.0002   0.0006  -0.0010   4.00   34.2
2024/07/09 12:36:35.000   28.293390715  -16.540967175  2332.7813   1  10   0.0009   0.0007   0.0066   0.0002   0.0006  -0.0010   5.00   40.1
2024/07/09 12:36:36.000   28.293390715  -16.540967175  2332.7813   1  10   0.0009   0.0007   0.0066   0.0002   0.0006  -0.0010   6.00   44.2
2024/07/09 12:36:37.000   28.293390715  -16.540967175  2332.7812   1  10   0.0009   0.0007   0.0066   0.0002   0.0006  -0.0010   7.00   47.8
2024/07/09 12:36:38.000   28.293390715  -16.540967175  2332.7812   1  10   0.0009   0.0007   0.0066   0.0002   0.0006  -0.0010   8.00   51.0
2024/07/09 12:36:39.000   28.293390715  -16.540967175  2332.7811   1  10   0.0009   0.0007   0.0066   0.0002   0.0006  -0.0010   9.00   53.6
2024/07/09 12:36:40.000   28.293390715  -16.540967175  2332.7811   1  10   0.0009   0.0007   0.0066   0.0002   0.0006  -0.0010  10.00   56.0
2024/07/09 12:36:41.000   28.293390715  -16.540967175  2332.7811   1  10   0.0009   0.0007   0.0066   0.0002   0.0006  -0.0010  11.00   58.1
2024/07/09 12:36:42.000   28.293390715  -16.540967175  2332.7810   1  10   0.0009   0.0007   0.0066   0.0002   0.0006  -0.0010  12.00   59.7
2024/07/09 12:36:43.000   28.293390715  -16.540967175  2332.7810   1  10   0.0009   0.0007   0.0066   0.0002   0.0006  -0.0010  13.00   61.2
2024/07/09 12:36:44.000   28.293390715  -16.540967175  2332.7810   1  10   0.0009   0.0007   0.0066   0.0002   0.0006  -0.0010  14.00   62.6
2024/07/09 12:36:45.000   28.293390715  -16.540967175  2332.7810   1  10   0.0009   0.0007   0.0066   0.0002   0.0006  -0.0010 -15.00   64.1
2024/07/09 12:36:46.000   28.293390715  -16.540967175  2332.7810   1  10   0.0009   0.0007   0.0066   0.0002   0.0006  -0.0010 -14.00   65.5
2024/07/09 12:36:47.000   28.293390715  -16.540967175  2332.7810   1  10   0.0009   0.0007   0.0066   0.0002   0.0006  -0.0010 -13.00   66.9
2024/07/09 12:36:48.000   28.293390715  -16.540967175  2332.7809   1  10   0.0009   0.0007   0.0066   0.0002   0.0006  -0.0010 -12.00   68.3
2024/07/09 12:36:49.000   28.293390715  -16.540967175  2332.7809   1  10   0.0009   0.0007   0.0066   0.0002   0.0006  -0.0010 -11.00   69.6
2024/07/09 12:36:50.000   28.293390715  -16.540967175  2332.7809   1  10   0.0009   0.0007   0.0066   0.0002   0.0006  -0.0010 -10.00   71.0
2024/07/09 12:36:51.000   28.293390715  -16.540967175  2332.7809   1  10   0.0009   0.0007   0.0066   0.0002   0.0006  -0.0010  -9.00   72.2
2024/07/09 12:36:52.000   28.293390715  -16.540967175  2332.7809   1  10   0.0009   0.0007   0.0066   0.0002   0.0006  -0.0010  -8.00   73.4
2024/07/09 12:36:53.000   28.293390715  -16.540967175  2332.7808   1  10   0.0009   0.0007   0.0066   0.0002   0.0006  -0.0010  -7.00   74.3
2024/07/09 12:36:54.000   28.293390715  -16.540967175  2332.7808   1  10   0.0009   0.0007   0.0066   0.0002   0.0006  -0.0010  -6.00   75.1
2024/07/09 12:36:55.000   28.293390715  -16.540967175  2332.7808   1  10   0.0009   0.0007   0.0066   0.0002   0.0006  -0.0010  -5.00   75.8
2024/07/09 12:36:56.000   28.293390715  -16.540967175  2332.7807   1  10   0.0009   0.0007   0.0066   0.0002   0.0006  -0.0010  -4.00   76.7
2024/07/09 12:36:57.000   28.293390716  -16.540967175  2332.7807   1  10   0.0009   0.0007   0.0066   0.0002   0.0006  -0.0010  -3.00   77.4
2024/07/09 12:36:58.000   28.293390716  -16.540967175  2332.7807   1  10   0.0009   0.0007   0.0066   0.0002   0.0006  -0.0010  -2.00   78.2
2024/07/09 12:36:59.000   28.293390716  -16.540967175  2332.7808   1  10   0.0009   0.0007   0.0066   0.0002   0.0006  -0.0010  -1.00   78.6
2024/07/09 12:37:00.000   28.293390715  -16.540967174  2332.7840   1  10   0.0009   0.0007   0.0061   0.0002   0.0003  -0.0009   0.00   78.9
2024/07/09 12:37:01.000   28.293390714  -16.540967173  2332.7846   1  10   0.0009   0.0007   0.0061   0.0002   0.0003  -0.0009   1.00    9.5
2024/07/09 12:37:02.000   28.293390714  -16.540967173  2332.7846   1  10   0.0009   0.0007   0.0061   0.0002   0.0003  -0.0009   2.00   17.1
2024/07/09 12:37:03.000   28.293390714  -16.540967173  2332.7846   1  10   0.0008   0.0007   0.0061   0.0002   0.0003  -0.0009   3.00   23.5
2024/07/09 12:37:04.000   28.293390714  -16.540967173  2332.7845   1  10   0.0008   0.0007   0.0061   0.0002   0.0003  -0.0009   4.00   29.2
2024/07/09 12:37:05.000   28.293390714  -16.540967173  2332.7845   1  10   0.0008   0.0007   0.0061   0.0002   0.0003  -0.0009   5.00   33.9
2024/07/09 12:37:06.000   28.293390714  -16.540967173  2332.7844   1  10   0.0008   0.0007   0.0061   0.0002   0.0003  -0.0009   6.00   37.3
2024/07/09 12:37:07.000   28.293390714  -16.540967173  2332.7844   1  10   0.0008   0.0007   0.0061   0.0002   0.0003  -0.0009   7.00   40.3
2024/07/09 12:37:08.000   28.293390714  -16.540967173  2332.7844   1  10   0.0008   0.0007   0.0061   0.0002   0.0003  -0.0009   8.00   42.9
2024/07/09 12:37:09.000   28.293390714  -16.540967173  2332.7843   1  10   0.0008   0.0007   0.0061   0.0002   0.0003  -0.0009   9.00   45.1
2024/07/09 12:37:10.000   28.293390714  -16.540967173  2332.7843   1  10   0.0008   0.0007   0.0061   0.0002   0.0003  -0.0009  10.00   47.2
2024/07/09 12:37:11.000   28.293390714  -16.540967173  2332.7843   1  10   0.0008   0.0007   0.0061   0.0002   0.0003  -0.0009  11.00   49.1
2024/07/09 12:37:12.000   28.293390714  -16.540967173  2332.7843   1  10   0.0008   0.0007   0.0061   0.0002   0.0003  -0.0009  12.00   50.4
2024/07/09 12:37:13.000   28.293390714  -16.540967173  2332.7843   1  10   0.0008   0.0007   0.0061   0.0002   0.0003  -0.0009  13.00   51.8
2024/07/09 12:37:14.000   28.293390714  -16.540967173  2332.7843   1  10   0.0008   0.0007   0.0061   0.0002   0.0003  -0.0009  14.00   53.1
2024/07/09 12:37:15.000   28.293390714  -16.540967173  2332.7843   1  10   0.0008   0.0007   0.0061   0.0002   0.0003  -0.0009 -15.00   54.4
2024/07/09 12:37:16.000   28.293390714  -16.540967173  2332.7843   1  10   0.0008   0.0007   0.0061   0.0002   0.0003  -0.0009 -14.00   55.7
2024/07/09 12:37:17.000   28.293390714  -16.540967173  2332.7842   1  10   0.0008   0.0007   0.0061   0.0002   0.0003  -0.0009 -13.00   56.9
2024/07/09 12:37:18.000   28.293390714  -16.540967173  2332.7842   1  10   0.0008   0.0007   0.0061   0.0002   0.0003  -0.0009 -12.00   58.2
2024/07/09 12:37:19.000   28.293390714  -16.540967173  2332.7842   1  10   0.0008   0.0007   0.0061   0.0002   0.0003  -0.0009 -11.00   59.5
2024/07/09 12:37:20.000   28.293390714  -16.540967173  2332.7842   1  10   0.0008   0.0007   0.0061   0.0002   0.0003  -0.0009 -10.00   60.7
2024/07/09 12:37:21.001   28.293390715  -16.540967173  2332.7842   1  10   0.0008   0.0007   0.0061   0.0002   0.0003  -0.0009  -9.00   62.1
2024/07/09 12:37:22.000   28.293390715  -16.540967173  2332.7842   1  10   0.0008   0.0007   0.0061   0.0002   0.0003  -0.0009  -8.00   63.4
2024/07/09 12:37:23.000   28.293390715  -16.540967173  2332.7842   1  10   0.0008   0.0007   0.0061   0.0002   0.0003  -0.0009  -7.00   64.9
2024/07/09 12:37:24.000   28.293390715  -16.540967173  2332.7841   1  10   0.0008   0.0007   0.0061   0.0002   0.0003  -0.0009  -6.00   66.1
2024/07/09 12:37:25.000   28.293390715  -16.540967173  2332.7841   1  10   0.0008   0.0007   0.0061   0.0002   0.0003  -0.0009  -5.00   67.2
2024/07/09 12:37:26.000   28.293390715  -16.540967173  2332.7841   1  10   0.0008   0.0007   0.0061   0.0002   0.0003  -0.0009  -4.00   68.1
2024/07/09 12:37:27.000   28.293390715  -16.540967173  2332.7841   1  10   0.0008   0.0007   0.0061   0.0002   0.0003  -0.0009  -3.00   68.8
2024/07/09 12:37:28.000   28.293390715  -16.540967173  2332.7841   1  10   0.0008   0.0007   0.0061   0.0002   0.0003  -0.0009  -2.00   69.6
2024/07/09 12:37:29.000   28.293390715  -16.540967173  2332.7840   1  10   0.0008   0.0007   0.0061   0.0002   0.0003  -0.0009  -1.00   70.1
2024/07/09 12:37:30.000   28.293390715  -16.540967173  2332.7840   1  10   0.0008   0.0007   0.0061   0.0002   0.0003  -0.0009   0.00   70.7
2024/07/09 12:37:31.000   28.293390715  -16.540967173  2332.7840   1  10   0.0008   0.0007   0.0061   0.0002   0.0003  -0.0009   1.00   71.2
2024/07/09 12:37:32.000   28.293390715  -16.540967173  2332.7839   1  10   0.0008   0.0007   0.0061   0.0002   0.0003  -0.0009   2.00   71.3
2024/07/09 12:37:33.000   28.293390715  -16.540967173  2332.7839   1  10   0.0008   0.0007   0.0061   0.0002   0.0003  -0.0009   3.00   71.8
2024/07/09 12:37:34.000   28.293390715  -16.540967173  2332.7839   1  10   0.0008   0.0007   0.0061   0.0002   0.0003  -0.0009   4.00   71.9
2024/07/09 12:37:35.000   28.293390715  -16.540967173  2332.7839   1  10   0.0008   0.0007   0.0061   0.0002   0.0003  -0.0009   5.00   72.4
2024/07/09 12:37:36.000   28.293390715  -16.540967173  2332.7839   1  10   0.0008   0.0007   0.0061   0.0002   0.0003  -0.0009   6.00   72.8
2024/07/09 12:37:37.000   28.293390715  -16.540967173  2332.7839   1  10   0.0008   0.0007   0.0061   0.0002   0.0003  -0.0009   7.00   73.3
2024/07/09 12:37:38.000   28.293390715  -16.540967173  2332.7839   1  10   0.0008   0.0007   0.0061   0.0002   0.0003  -0.0009   8.00   73.9
2024/07/09 12:37:39.000   28.293390715  -16.540967173  2332.7838   1  10   0.0008   0.0007   0.0061   0.0002   0.0003  -0.0009   9.00   74.6
2024/07/09 12:37:40.000   28.293390715  -16.540967173  2332.7838   1  10   0.0008   0.0007   0.0061   0.0002   0.0003  -0.0009  10.00   75.4
2024/07/09 12:37:41.000   28.293390715  -16.540967173  2332.7838   1  10   0.0008   0.0007   0.0061   0.0002   0.0003  -0.0009  11.00   76.3
2024/07/09 12:37:42.000   28.293390715  -16.540967173  2332.7838   1  10   0.0008   0.0007   0.0061   0.0002   0.0003  -0.0009  12.00   77.3
2024/07/09 12:37:43.000   28.293390715  -16.540967173  2332.7838   1  10   0.0008   0.0007   0.0061   0.0002   0.0003  -0.0009  13.00   78.2
2024/07/09 12:37:44.000   28.293390715  -16.540967173  2332.7838   1  10   0.0008   0.0007   0.0061   0.0002   0.0003  -0.0009  14.00   79.2
2024/07/09 12:37:45.000   28.293390715  -16.540967173  2332.7838   1  10   0.0008   0.0007   0.0061   0.0002   0.0003  -0.0009 -15.00   80.3
2024/07/09 12:37:46.000   28.293390715  -16.540967173  2332.7838   1  10   0.0008   0.0007   0.0061   0.0002   0.0003  -0.0009 -14.00   81.4
2024/07/09 12:37:47.000   28.293390715  -16.540967173  2332.7838   1  10   0.0008   0.0007   0.0061   0.0002   0.0003  -0.0009 -13.00   82.4
2024/07/09 12:37:48.000   28.293390715  -16.540967173  2332.7838   1  10   0.0008   0.0007   0.0061   0.0002   0.0003  -0.0009 -12.00   83.6
2024/07/09 12:37:49.000   28.293390715  -16.540967173  2332.7838   1  10   0.0008   0.0007   0.0061   0.0002   0.0003  -0.0009 -11.00   84.8
2024/07/09 12:37:50.000   28.293390715  -16.540967173  2332.7838   1  10   0.0008   0.0007   0.0061   0.0002   0.0003  -0.0009 -10.00   86.2
2024/07/09 12:37:51.000   28.293390715  -16.540967173  2332.7838   1  10   0.0008   0.0007   0.0061   0.0002   0.0003  -0.0009  -9.00   87.4
2024/07/09 12:37:52.000   28.293390715  -16.540967173  2332.7838   1  10   0.0008   0.0007   0.0061   0.0002   0.0003  -0.0009  -8.00   88.8
2024/07/09 12:37:53.000   28.293390715  -16.540967173  2332.7838   1  10   0.0008   0.0007   0.0061   0.0002   0.0003  -0.0009  -7.00   90.2
2024/07/09 12:37:54.000   28.293390715  -16.540967173  2332.7838   1  10   0.0008   0.0007   0.0061   0.0002   0.0003  -0.0009  -6.00   91.7
2024/07/09 12:37:55.000   28.293390715  -16.540967173  2332.7838   1  10   0.0008   0.0007   0.0061   0.0002   0.0003  -0.0009  -5.00   93.1
2024/07/09 12:37:56.000   28.293390715  -16.540967173  2332.7838   1  10   0.0008   0.0007   0.0061   0.0002   0.0003  -0.0009  -4.00   94.8
2024/07/09 12:37:57.000   28.293390715  -16.540967173  2332.7838   1  10   0.0008   0.0007   0.0061   0.0002   0.0003  -0.0009  -3.00   95.9
2024/07/09 12:37:58.000   28.293390715  -16.540967173  2332.7838   1  10   0.0008   0.0007   0.0061   0.0002   0.0004  -0.0009  -2.00   96.8
2024/07/09 12:37:59.000   28.293390715  -16.540967173  2332.7838   1  10   0.0008   0.0007   0.0061   0.0002   0.0004  -0.0009  -1.00   97.7
2024/07/09 12:38:00.000   28.293390715  -16.540967173  2332.7838   1  10   0.0008   0.0007   0.0061   0.0002   0.0004  -0.0009   0.00   98.9
2024/07/09 12:38:01.000   28.293390715  -16.540967172  2332.7838   1  10   0.0008   0.0007   0.0061   0.0002   0.0004  -0.0009   1.00  100.6
2024/07/09 12:38:02.000   28.293390715  -16.540967172  2332.7838   1  10   0.0008   0.0007   0.0061   0.0002   0.0004  -0.0009   2.00  102.1
2024/07/09 12:38:03.000   28.293390715  -16.540967172  2332.7838   1  10   0.0008   0.0007   0.0061   0.0002   0.0004  -0.0009   3.00  103.4
2024/07/09 12:38:04.000   28.293390715  -16.540967172  2332.7838   1  10   0.0008   0.0007   0.0061   0.0002   0.0004  -0.0009   4.00  104.6
2024/07/09 12:38:05.000   28.293390715  -16.540967172  2332.7838   1  10   0.0008   0.0007   0.0061   0.0002   0.0004  -0.0009   5.00  105.7
2024/07/09 12:38:06.000   28.293390715  -16.540967172  2332.7838   1  10   0.0008   0.0007   0.0061   0.0002   0.0004  -0.0009   6.00  107.1
2024/07/09 12:38:07.000   28.293390715  -16.540967172  2332.7838   1  10   0.0008   0.0007   0.0061   0.0002   0.0004  -0.0009   7.00  108.3
2024/07/09 12:38:08.000   28.293390715  -16.540967172  2332.7837   1  10   0.0008   0.0007   0.0061   0.0002   0.0004  -0.0009   8.00  109.7
2024/07/09 12:38:09.000   28.293390715  -16.540967172  2332.7838   1  10   0.0008   0.0007   0.0061   0.0002   0.0004  -0.0009   9.00  111.1
2024/07/09 12:38:10.000   28.293390715  -16.540967172  2332.7837   1  10   0.0008   0.0007   0.0061   0.0002   0.0004  -0.0009  10.00  112.4
2024/07/09 12:38:11.000   28.293390715  -16.540967172  2332.7837   1  10   0.0008   0.0007   0.0061   0.0002   0.0004  -0.0009  11.00  113.5
2024/07/09 12:38:12.000   28.293390715  -16.540967172  2332.7837   1  10   0.0008   0.0007   0.0061   0.0002   0.0004  -0.0009  12.00  114.7
2024/07/09 12:38:13.000   28.293390715  -16.540967172  2332.7837   1  10   0.0008   0.0007   0.0061   0.0002   0.0004  -0.0009  13.00  115.8
2024/07/09 12:38:14.000   28.293390715  -16.540967172  2332.7837   1  10   0.0008   0.0007   0.0061   0.0002   0.0004  -0.0009  14.00  117.0
2024/07/09 12:38:15.000   28.293390715  -16.540967172  2332.7837   1  10   0.0008   0.0007   0.0061   0.0002   0.0004  -0.0009 -15.00  118.2
2024/07/09 12:38:16.000   28.293390715  -16.540967172  2332.7837   1  10   0.0008   0.0007   0.0061   0.0002   0.0004  -0.0009 -14.00  119.3
2024/07/09 12:38:17.000   28.293390715  -16.540967172  2332.7837   1  10   0.0008   0.0007   0.0061   0.0002   0.0004  -0.0009 -13.00  120.5
2024/07/09 12:38:18.000   28.293390715  -16.540967172  2332.7837   1  10   0.0008   0.0007   0.0061   0.0002   0.0004  -0.0009 -12.00  121.7
2024/07/09 12:38:19.000   28.293390715  -16.540967172  2332.7837   1  10   0.0008   0.0007   0.0061   0.0002   0.0004  -0.0009 -11.00  122.9
2024/07/09 12:38:20.000   28.293390715  -16.540967172  2332.7837   1  10   0.0008   0.0007   0.0061   0.0002   0.0004  -0.0009 -10.00  124.0
2024/07/09 12:38:21.000   28.293390715  -16.540967172  2332.7837   1  10   0.0008   0.0007   0.0061   0.0002   0.0004  -0.0009  -9.00  125.0
2024/07/09 12:38:22.000   28.293390715  -16.540967172  2332.7838   1  10   0.0008   0.0007   0.0061   0.0002   0.0004  -0.0009  -8.00  126.2
2024/07/09 12:38:23.000   28.293390715  -16.540967172  2332.7838   1  10   0.0008   0.0007   0.0061   0.0002   0.0004  -0.0009  -7.00  127.2
2024/07/09 12:38:24.000   28.293390715  -16.540967172  2332.7838   1  10   0.0008   0.0007   0.0061   0.0002   0.0004  -0.0009  -6.00  128.1
2024/07/09 12:38:25.000   28.293390715  -16.540967172  2332.7838   1  10   0.0008   0.0007   0.0061   0.0002   0.0004  -0.0009  -5.00  129.0
2024/07/09 12:38:26.000   28.293390715  -16.540967172  2332.7838   1  10   0.0008   0.0007   0.0061   0.0002   0.0004  -0.0009  -4.00  129.4
2024/07/09 12:38:27.000   28.293390715  -16.540967172  2332.7838   1  10   0.0008   0.0007   0.0061   0.0002   0.0004  -0.0009  -3.00  129.9
2024/07/09 12:38:28.000   28.293390715  -16.540967172  2332.7838   1  10   0.0008   0.0007   0.0061   0.0002   0.0004  -0.0009  -2.00  129.9
2024/07/09 12:38:29.000   28.293390715  -16.540967172  2332.7837   1  10   0.0008   0.0007   0.0061   0.0002   0.0004  -0.0009  -1.00  130.4
2024/07/09 12:38:30.000   28.293390715  -16.540967172  2332.7838   1  10   0.0008   0.0007   0.0061   0.0002   0.0004  -0.0009   0.00  130.5
2024/07/09 12:38:31.000   28.293390715  -16.540967172  2332.7837   1  10   0.0008   0.0007   0.0061   0.0002   0.0004  -0.0009   1.00  130.7
2024/07/09 12:38:32.000   28.293390715  -16.540967172  2332.7837   1  10   0.0008   0.0007   0.0061   0.0002   0.0004  -0.0009   2.00  131.1
2024/07/09 12:38:33.000   28.293390715  -16.540967172  2332.7837   1  10   0.0008   0.0007   0.0061   0.0002   0.0004  -0.0009   3.00  131.6
2024/07/09 12:38:34.000   28.293390715  -16.540967172  2332.7837   1  10   0.0008   0.0007   0.0061   0.0002   0.0004  -0.0009   4.00  132.2
2024/07/09 12:38:35.000   28.293390715  -16.540967172  2332.7837   1  10   0.0008   0.0007   0.0061   0.0002   0.0004  -0.0009   5.00  132.8
2024/07/09 12:38:36.000   28.293390715  -16.540967172  2332.7837   1  10   0.0008   0.0007   0.0061   0.0002   0.0004  -0.0009   6.00  133.5
2024/07/09 12:38:37.000   28.293390715  -16.540967172  2332.7837   1  10   0.0008   0.0007   0.0061   0.0002   0.0004  -0.0009   7.00  134.3
2024/07/09 12:38:38.000   28.293390715  -16.540967172  2332.7837   1  10   0.0008   0.0007   0.0061   0.0002   0.0004  -0.0009   8.00  135.1
2024/07/09 12:38:39.000   28.293390715  -16.540967172  2332.7837   1  10   0.0008   0.0007   0.0061   0.0002   0.0004  -0.0009   9.00  136.0
2024/07/09 12:38:40.000   28.293390715  -16.540967172  2332.7837   1  10   0.0008   0.0007   0.0061   0.0002   0.0004  -0.0009  10.00  136.9
2024/07/09 12:38:41.000   28.293390715  -16.540967172  2332.7837   1  10   0.0008   0.0007   0.0061   0.0002   0.0004  -0.0009  11.00  137.7
2024/07/09 12:38:42.000   28.293390715  -16.540967172  2332.7837   1  10   0.0008   0.0007   0.0061   0.0002   0.0004  -0.0009  12.00  138.6
2024/07/09 12:38:43.000   28.293390715  -16.540967172  2332.7838   1  10   0.0008   0.0007   0.0061   0.0002   0.0004  -0.0009  13.00  139.6
2024/07/09 12:38:44.000   28.293390715  -16.540967172  2332.7838   1  10   0.0008   0.0007   0.0061   0.0002   0.0004  -0.0009  14.00  140.7
2024/07/09 12:38:45.000   28.293390715  -16.540967172  2332.7838   1  10   0.0008   0.0007   0.0061   0.0002   0.0004  -0.0009 -15.00  141.7
2024/07/09 12:38:46.000   28.293390715  -16.540967172  2332.7838   1  10   0.0008   0.0007   0.0061   0.0002   0.0004  -0.0009 -14.00  142.7
2024/07/09 12:38:47.000   28.293390715  -16.540967172  2332.7838   1  10   0.0008   0.0007   0.0061   0.0002   0.0004  -0.0009 -13.00  143.6
2024/07/09 12:38:48.000   28.293390715  -16.540967172  2332.7838   1  10   0.0008   0.0007   0.0061   0.0002   0.0004  -0.0009 -12.00  144.5
2024/07/09 12:38:49.000   28.293390715  -16.540967172  2332.7838   1  10   0.0008   0.0007   0.0061   0.0002   0.0004  -0.0009 -11.00  145.1
2024/07/09 12:38:50.000   28.293390715  -16.540967172  2332.7838   1  10   0.0008   0.0007   0.0061   0.0002   0.0004  -0.0009 -10.00  146.1
2024/07/09 12:38:51.000   28.293390715  -16.540967172  2332.7838   1  10   0.0008   0.0007   0.0061   0.0002   0.0004  -0.0009  -9.00  146.9
2024/07/09 12:38:52.000   28.293390715  -16.540967172  2332.7838   1  10   0.0008   0.0007   0.0061   0.0002   0.0004  -0.0009  -8.00  147.5
2024/07/09 12:38:53.000   28.293390715  -16.540967172  2332.7838   1  10   0.0008   0.0007   0.0061   0.0002   0.0004  -0.0009  -7.00  148.0
2024/07/09 12:38:54.000   28.293390715  -16.540967172  2332.7839   1  10   0.0008   0.0007   0.0061   0.0002   0.0004  -0.0009  -6.00  148.4
2024/07/09 12:38:55.000   28.293390715  -16.540967172  2332.7839   1  10   0.0008   0.0007   0.0061   0.0002   0.0004  -0.0009  -5.00  148.9
2024/07/09 12:38:56.000   28.293390715  -16.540967172  2332.7839   1  10   0.0008   0.0007   0.0061   0.0002   0.0004  -0.0009  -4.00  149.5
2024/07/09 12:38:57.000   28.293390715  -16.540967172  2332.7839   1  10   0.0008   0.0007   0.0061   0.0002   0.0004  -0.0009  -3.00  149.3
2024/07/09 12:38:58.000   28.293390715  -16.540967171  2332.7839   1  10   0.0008   0.0007   0.0061   0.0002   0.0004  -0.0009  -2.00  149.6
2024/07/09 12:38:59.000   28.293390715  -16.540967171  2332.7840   1  10   0.0008   0.0007   0.0061   0.0002   0.0004  -0.0009  -1.00  149.2
2024/07/09 12:39:00.000   28.293390715  -16.540967171  2332.7839   1  10   0.0008   0.0007   0.0061   0.0002   0.0004  -0.0009   0.00  149.3
2024/07/09 12:39:01.000   28.293390715  -16.540967171  2332.7839   1  10   0.0008   0.0007   0.0061   0.0002   0.0004  -0.0009   1.00  149.0
2024/07/09 12:39:02.000   28.293390715  -16.540967171  2332.7838   1  10   0.0008   0.0007   0.0061   0.0002   0.0004  -0.0009   2.00  149.3
2024/07/09 12:39:03.000   28.293390715  -16.540967172  2332.7838   1  10   0.0008   0.0007   0.0061   0.0002   0.0004  -0.0009   3.00  149.7
2024/07/09 12:39:04.000   28.293390715  -16.540967172  2332.7838   1  10   0.0008   0.0007   0.0061   0.0002   0.0004  -0.0009   4.00  150.1
2024/07/09 12:39:05.000   28.293390715  -16.540967172  2332.7838   1  10   0.0008   0.0007   0.0061   0.0002   0.0004  -0.0009   5.00  150.4
2024/07/09 12:39:06.000   28.293390715  -16.540967172  2332.7838   1  10   0.0008   0.0007   0.0061   0.0002   0.0004  -0.0009   6.00  151.0
2024/07/09 12:39:07.000   28.293390715  -16.540967172  2332.7838   1  10   0.0008   0.0007   0.0061   0.0002   0.0004  -0.0009   7.00  151.8
2024/07/09 12:39:08.000   28.293390715  -16.540967172  2332.7838   1  10   0.0008   0.0007   0.0061   0.0002   0.0004  -0.0009   8.00  152.5
2024/07/09 12:39:09.000   28.293390715  -16.540967172  2332.7838   1  10   0.0008   0.0007   0.0061   0.0002   0.0004  -0.0009   9.00  153.3
2024/07/09 12:39:10.000   28.293390715  -16.540967172  2332.7837   1  10   0.0008   0.0007   0.0061   0.0002   0.0004  -0.0009  10.00  154.2
2024/07/09 12:39:11.000   28.293390715  -16.540967172  2332.7837   1  10   0.0008   0.0007   0.0061   0.0002   0.0004  -0.0009  11.00  155.2
2024/07/09 12:39:12.000   28.293390715  -16.540967172  2332.7837   1  10   0.0008   0.0007   0.0061   0.0002   0.0004  -0.0009  12.00  156.2
2024/07/09 12:39:13.000   28.293390715  -16.540967172  2332.7837   1  10   0.0008   0.0007   0.0061   0.0002   0.0004  -0.0009  13.00  157.0
2024/07/09 12:39:14.000   28.293390715  -16.540967172  2332.7837   1  10   0.0008   0.0007   0.0061   0.0002   0.0004  -0.0009  14.00  157.9
2024/07/09 12:39:15.000   28.293390715  -16.540967172  2332.7837   1  10   0.0008   0.0007   0.0061   0.0002   0.0004  -0.0009 -15.00  158.9
2024/07/09 12:39:16.000   28.293390715  -16.540967172  2332.7837   1  10   0.0008   0.0007   0.0061   0.0002   0.0004  -0.0009 -14.00  159.9
2024/07/09 12:39:17.000   28.293390715  -16.540967172  2332.7837   1  10   0.0008   0.0007   0.0061   0.0002   0.0004  -0.0009 -13.00  160.9
2024/07/09 12:39:18.000   28.293390715  -16.540967172  2332.7837   1  10   0.0008   0.0007   0.0061   0.0002   0.0004  -0.0009 -12.00  161.9
2024/07/09 12:39:19.000   28.293390715  -16.540967172  2332.7837   1  10   0.0008   0.0007   0.0061   0.0002   0.0004  -0.0009 -11.00  162.9
2024/07/09 12:39:20.000   28.293390715  -16.540967172  2332.7837   1  10   0.0008   0.0007   0.0061   0.0002   0.0004  -0.0009 -10.00  163.7
2024/07/09 12:39:21.000   28.293390715  -16.540967172  2332.7837   1  10   0.0008   0.0007   0.0061   0.0002   0.0004  -0.0009  -9.00  164.6
2024/07/09 12:39:22.000   28.293390715  -16.540967172  2332.7838   1  10   0.0008   0.0007   0.0061   0.0002   0.0004  -0.0009  -8.00  165.3
2024/07/09 12:39:23.000   28.293390715  -16.540967172  2332.7837   1  10   0.0008   0.0007   0.0061   0.0002   0.0004  -0.0009  -7.00  166.1
2024/07/09 12:39:24.000   28.293390715  -16.540967172  2332.7837   1  10   0.0008   0.0007   0.0061   0.0002   0.0004  -0.0009  -6.00  166.6
2024/07/09 12:39:25.000   28.293390715  -16.540967172  2332.7837   1  10   0.0008   0.0007   0.0061   0.0002   0.0004  -0.0009  -5.00  166.6
2024/07/09 12:39:26.000   28.293390715  -16.540967172  2332.7837   1  10   0.0008   0.0007   0.0061   0.0002   0.0004  -0.0009  -4.00  166.5
2024/07/09 12:39:27.000   28.293390715  -16.540967172  2332.7837   1  10   0.0008   0.0007   0.0061   0.0002   0.0004  -0.0009  -3.00  166.6
2024/07/09 12:39:28.000   28.293390715  -16.540967172  2332.7837   1  10   0.0008   0.0007   0.0061   0.0002   0.0004  -0.0009  -2.00  167.2
2024/07/09 12:39:29.000   28.293390715  -16.540967172  2332.7836   1  10   0.0008   0.0007   0.0061   0.0002   0.0004  -0.0009  -1.00  168.9
2024/07/09 12:39:30.000   28.293390716  -16.540967172  2332.7837   1  10   0.0008   0.0007   0.0061   0.0002   0.0004  -0.0009   0.00  169.3
2024/07/09 12:39:31.000   28.293390716  -16.540967172  2332.7837   1  10   0.0008   0.0007   0.0061   0.0002   0.0004  -0.0009   1.00  171.0
2024/07/09 12:39:32.000   28.293390715  -16.540967172  2332.7837   1  10   0.0008   0.0007   0.0061   0.0002   0.0004  -0.0009   2.00  172.4
2024/07/09 12:39:33.000   28.293390715  -16.540967172  2332.7837   1  10   0.0008   0.0007   0.0061   0.0002   0.0004  -0.0009   3.00  174.1
2024/07/09 12:39:34.000   28.293390715  -16.540967172  2332.7837   1  10   0.0008   0.0007   0.0061   0.0002   0.0004  -0.0009   4.00  175.8
2024/07/09 12:39:35.000   28.293390715  -16.540967172  2332.7837   1  10   0.0008   0.0007   0.0061   0.0002   0.0004  -0.0009   5.00  177.5
