% program   : RTKPOST-EX 2.5.0
% inp file  : C:\Users\SallyHenry\Desktop\Sally Internship\GNSS gravi\DATA\Survey Rover Obs\LM013_G13.24o
% inp file  : C:\Users\SallyHenry\Desktop\Sally Internship\GNSS gravi\DATA\BaseStations\IZAN\IZAN00ESP_R_20241910000_01D_30S_MO.rnx
% inp file  : C:\Users\SallyHenry\Desktop\Sally Internship\GNSS gravi\DATA\BaseStations\IZAN\IZAN00ESP_R_20241910000_01D_MN.rnx
% inp file  : C:\Users\SallyHenry\Desktop\Sally Internship\GNSS gravi\DATA\aux_files\Survey\IGS0OPSFIN_20241910000_01D_15M_ORB.SP3
% inp file  : C:\Users\SallyHenry\Desktop\Sally Internship\GNSS gravi\DATA\aux_files\Survey\IGS0OPSFIN_20241910000_01D_30S_CLK.CLK
% obs start : 2024/07/09 09:50:38.0 GPST (week2322 208238.0s)
% obs end   : 2024/07/09 10:40:38.0 GPST (week2322 211238.0s)
% pos mode  : Static
% freqs     : L1+L2/E5b
% solution  : Combined-No Phase Reset
% elev mask : 15.0 deg
% dynamics  : on
% tidecorr  : solid
% ionos opt : Estimate TEC
% tropo opt : Estimate ZTD+Grad
% ephemeris : Precise
% navi sys  : GPS GLONASS Galileo QZSS BDS
% amb res   : Fix and Hold
% amb glo   : Fix and Hold
% amb bds   : on
% val thres : 3.0
% antenna1  :                       ( 0.0000  0.0000  1.7570)
% antenna2  :                       ( 0.0000  0.0000  0.0000)
% ref pos   :  28.308069410  -16.499677180  2417.4044
%
% (lat/lon/height=WGS84/ellipsoidal,Q=1:fix,2:float,3:sbas,4:dgps,5:single,6:ppp,ns=# of satellites)
%  GPST                  latitude(deg) longitude(deg)  height(m)   Q  ns   sdn(m)   sde(m)   sdu(m)  sdne(m)  sdeu(m)  sdun(m) age(s)  ratio
2024/07/09 09:50:38.000   28.293072900  -16.542445037  2332.0405   1   7   0.0020   0.0012   0.0120  -0.0004   0.0015  -0.0035   8.00   75.9
2024/07/09 09:50:39.000   28.293072900  -16.542445037  2332.0405   1   7   0.0020   0.0012   0.0120  -0.0004   0.0015  -0.0035   9.00   75.9
2024/07/09 09:50:40.000   28.293072900  -16.542445037  2332.0406   1   7   0.0020   0.0012   0.0120  -0.0004   0.0015  -0.0035  10.00   75.9
2024/07/09 09:50:41.000   28.293072900  -16.542445037  2332.0407   1   7   0.0020   0.0012   0.0120  -0.0004   0.0015  -0.0035  11.00   75.9
2024/07/09 09:50:42.000   28.293072900  -16.542445037  2332.0408   1   7   0.0020   0.0012   0.0120  -0.0004   0.0015  -0.0035  12.00   75.9
2024/07/09 09:50:43.000   28.293072900  -16.542445037  2332.0410   1   7   0.0020   0.0012   0.0120  -0.0004   0.0015  -0.0035  13.00   75.8
2024/07/09 09:50:44.000   28.293072900  -16.542445037  2332.0411   1   7   0.0020   0.0012   0.0120  -0.0004   0.0015  -0.0035  14.00   75.8
2024/07/09 09:50:45.000   28.293072899  -16.542445037  2332.0412   1   7   0.0019   0.0012   0.0120  -0.0004   0.0015  -0.0035  15.00   75.7
2024/07/09 09:50:46.000   28.293072899  -16.542445037  2332.0413   1   7   0.0019   0.0012   0.0120  -0.0004   0.0015  -0.0035 -14.00   75.7
2024/07/09 09:50:47.000   28.293072899  -16.542445037  2332.0414   1   7   0.0019   0.0012   0.0120  -0.0004   0.0015  -0.0035 -13.00   75.6
2024/07/09 09:50:48.000   28.293072899  -16.542445037  2332.0415   1   7   0.0019   0.0012   0.0120  -0.0004   0.0015  -0.0035 -12.00   75.6
2024/07/09 09:50:49.000   28.293072899  -16.542445037  2332.0416   1   7   0.0019   0.0012   0.0120  -0.0004   0.0015  -0.0035 -11.00   75.5
2024/07/09 09:50:50.000   28.293072899  -16.542445037  2332.0417   1   7   0.0019   0.0012   0.0120  -0.0004   0.0015  -0.0035 -10.00   75.5
2024/07/09 09:50:51.000   28.293072898  -16.542445037  2332.0418   1   7   0.0019   0.0012   0.0120  -0.0004   0.0015  -0.0035  -9.00   75.4
2024/07/09 09:50:52.000   28.293072898  -16.542445037  2332.0418   1   7   0.0019   0.0012   0.0120  -0.0004   0.0015  -0.0035  -8.00   75.4
2024/07/09 09:50:53.000   28.293072898  -16.542445037  2332.0419   1   7   0.0019   0.0012   0.0120  -0.0004   0.0015  -0.0035  -7.00   75.4
2024/07/09 09:50:54.000   28.293072898  -16.542445037  2332.0419   1   7   0.0019   0.0012   0.0120  -0.0004   0.0015  -0.0035  -6.00   75.3
2024/07/09 09:50:55.000   28.293072898  -16.542445037  2332.0418   1   7   0.0019   0.0012   0.0120  -0.0004   0.0015  -0.0035  -5.00   75.3
2024/07/09 09:50:56.000   28.293072898  -16.542445037  2332.0418   1   7   0.0019   0.0012   0.0120  -0.0004   0.0015  -0.0035  -4.00   75.3
2024/07/09 09:50:57.000   28.293072898  -16.542445037  2332.0417   1   7   0.0019   0.0012   0.0120  -0.0004   0.0015  -0.0035  -3.00   75.3
2024/07/09 09:50:58.000   28.293072898  -16.542445037  2332.0415   1   7   0.0019   0.0012   0.0120  -0.0004   0.0015  -0.0035  -2.00   75.4
2024/07/09 09:50:59.000   28.293072899  -16.542445037  2332.0412   1   7   0.0019   0.0012   0.0120  -0.0004   0.0015  -0.0035  -1.00   75.4
2024/07/09 09:51:00.000   28.293072899  -16.542445037  2332.0409   1   7   0.0019   0.0012   0.0120  -0.0004   0.0015  -0.0035   0.00   75.5
2024/07/09 09:51:01.000   28.293072899  -16.542445038  2332.0405   1   7   0.0019   0.0012   0.0120  -0.0004   0.0015  -0.0035   1.00   75.6
2024/07/09 09:51:02.000   28.293072900  -16.542445038  2332.0401   1   7   0.0019   0.0012   0.0120  -0.0004   0.0015  -0.0035   2.00   75.8
2024/07/09 09:51:03.000   28.293072900  -16.542445038  2332.0398   1   7   0.0019   0.0012   0.0120  -0.0004   0.0015  -0.0035   3.00   75.9
2024/07/09 09:51:04.000   28.293072900  -16.542445038  2332.0395   1   7   0.0019   0.0012   0.0120  -0.0004   0.0015  -0.0035   4.00   75.9
2024/07/09 09:51:05.000   28.293072900  -16.542445038  2332.0393   1   7   0.0019   0.0012   0.0120  -0.0004   0.0015  -0.0035   5.00   76.0
2024/07/09 09:51:06.000   28.293072900  -16.542445038  2332.0392   1   7   0.0019   0.0012   0.0120  -0.0004   0.0015  -0.0035   6.00   76.0
2024/07/09 09:51:07.000   28.293072900  -16.542445038  2332.0392   1   7   0.0019   0.0012   0.0120  -0.0004   0.0015  -0.0035   7.00   76.0
2024/07/09 09:51:08.000   28.293072900  -16.542445038  2332.0391   1   7   0.0019   0.0012   0.0120  -0.0004   0.0015  -0.0035   8.00   75.9
2024/07/09 09:51:09.000   28.293072900  -16.542445038  2332.0391   1   7   0.0019   0.0012   0.0120  -0.0004   0.0015  -0.0035   9.00   75.9
2024/07/09 09:51:10.000   28.293072900  -16.542445038  2332.0392   1   7   0.0019   0.0012   0.0120  -0.0004   0.0015  -0.0035  10.00   75.9
2024/07/09 09:51:11.000   28.293072900  -16.542445038  2332.0392   1   7   0.0019   0.0012   0.0120  -0.0004   0.0015  -0.0035  11.00   75.8
2024/07/09 09:51:12.000   28.293072900  -16.542445038  2332.0393   1   7   0.0019   0.0012   0.0120  -0.0004   0.0015  -0.0035  12.00   75.8
2024/07/09 09:51:13.000   28.293072899  -16.542445038  2332.0394   1   7   0.0019   0.0012   0.0120  -0.0004   0.0015  -0.0035  13.00   75.7
2024/07/09 09:51:14.000   28.293072899  -16.542445038  2332.0395   1   7   0.0019   0.0012   0.0120  -0.0004   0.0015  -0.0035  14.00   75.6
2024/07/09 09:51:15.000   28.293072899  -16.542445038  2332.0396   1   7   0.0019   0.0012   0.0120  -0.0004   0.0015  -0.0035  15.00   75.6
2024/07/09 09:51:16.000   28.293072899  -16.542445038  2332.0397   1   7   0.0019   0.0012   0.0120  -0.0004   0.0015  -0.0035 -14.00   75.5
2024/07/09 09:51:17.000   28.293072899  -16.542445038  2332.0398   1   7   0.0019   0.0012   0.0120  -0.0004   0.0015  -0.0035 -13.00   75.5
2024/07/09 09:51:18.000   28.293072899  -16.542445038  2332.0399   1   7   0.0019   0.0012   0.0120  -0.0004   0.0015  -0.0035 -12.00   75.4
2024/07/09 09:51:19.000   28.293072898  -16.542445038  2332.0400   1   7   0.0019   0.0012   0.0120  -0.0004   0.0015  -0.0035 -11.00   75.4
2024/07/09 09:51:20.000   28.293072898  -16.542445038  2332.0400   1   7   0.0019   0.0012   0.0120  -0.0004   0.0015  -0.0035 -10.00   75.3
2024/07/09 09:51:21.000   28.293072898  -16.542445038  2332.0401   1   7   0.0019   0.0012   0.0120  -0.0004   0.0015  -0.0035  -9.00   75.3
2024/07/09 09:51:22.000   28.293072898  -16.542445038  2332.0401   1   7   0.0019   0.0012   0.0120  -0.0004   0.0015  -0.0035  -8.00   75.2
2024/07/09 09:51:23.000   28.293072898  -16.542445038  2332.0402   1   7   0.0019   0.0012   0.0120  -0.0004   0.0015  -0.0035  -7.00   75.2
2024/07/09 09:51:24.000   28.293072898  -16.542445038  2332.0401   1   7   0.0019   0.0012   0.0120  -0.0004   0.0015  -0.0035  -6.00   75.2
2024/07/09 09:51:25.000   28.293072898  -16.542445038  2332.0401   1   7   0.0019   0.0012   0.0120  -0.0004   0.0015  -0.0035  -5.00   75.2
2024/07/09 09:51:26.000   28.293072898  -16.542445038  2332.0400   1   7   0.0019   0.0012   0.0120  -0.0004   0.0015  -0.0035  -4.00   75.2
2024/07/09 09:51:27.000   28.293072898  -16.542445038  2332.0399   1   7   0.0019   0.0012   0.0120  -0.0004   0.0015  -0.0035  -3.00   75.2
2024/07/09 09:51:28.000   28.293072898  -16.542445038  2332.0396   1   7   0.0019   0.0012   0.0120  -0.0004   0.0015  -0.0035  -2.00   75.3
2024/07/09 09:51:29.000   28.293072899  -16.542445038  2332.0392   1   7   0.0019   0.0012   0.0120  -0.0004   0.0015  -0.0035  -1.00   75.4
2024/07/09 09:51:30.000   28.293072899  -16.542445038  2332.0388   1   7   0.0019   0.0012   0.0120  -0.0004   0.0015  -0.0035   0.00   75.6
2024/07/09 09:51:31.000   28.293072899  -16.542445038  2332.0384   1   7   0.0019   0.0012   0.0120  -0.0004   0.0015  -0.0035   1.00   75.6
2024/07/09 09:51:32.000   28.293072900  -16.542445039  2332.0380   1   7   0.0019   0.0012   0.0120  -0.0004   0.0015  -0.0035   2.00   75.7
2024/07/09 09:51:33.000   28.293072900  -16.542445039  2332.0377   1   7   0.0019   0.0012   0.0120  -0.0004   0.0015  -0.0035   3.00   75.8
2024/07/09 09:51:34.000   28.293072900  -16.542445039  2332.0375   1   7   0.0019   0.0012   0.0120  -0.0004   0.0015  -0.0035   4.00   75.8
2024/07/09 09:51:35.000   28.293072900  -16.542445039  2332.0374   1   7   0.0019   0.0012   0.0120  -0.0004   0.0015  -0.0035   5.00   75.8
2024/07/09 09:51:36.000   28.293072900  -16.542445039  2332.0372   1   7   0.0019   0.0012   0.0120  -0.0004   0.0015  -0.0035   6.00   75.9
2024/07/09 09:51:37.000   28.293072900  -16.542445039  2332.0372   1   7   0.0019   0.0012   0.0120  -0.0004   0.0015  -0.0035   7.00   75.9
2024/07/09 09:51:38.000   28.293072900  -16.542445039  2332.0372   1   7   0.0019   0.0012   0.0120  -0.0004   0.0015  -0.0035   8.00   75.8
2024/07/09 09:51:39.000   28.293072900  -16.542445039  2332.0372   1   7   0.0019   0.0012   0.0120  -0.0004   0.0015  -0.0035   9.00   75.8
2024/07/09 09:51:40.000   28.293072900  -16.542445039  2332.0373   1   7   0.0019   0.0012   0.0120  -0.0004   0.0015  -0.0035  10.00   75.8
2024/07/09 09:51:41.000   28.293072900  -16.542445039  2332.0373   1   7   0.0019   0.0012   0.0120  -0.0004   0.0015  -0.0035  11.00   75.7
2024/07/09 09:51:42.000   28.293072900  -16.542445039  2332.0374   1   7   0.0019   0.0012   0.0120  -0.0004   0.0015  -0.0035  12.00   75.7
2024/07/09 09:51:43.000   28.293072900  -16.542445039  2332.0375   1   7   0.0019   0.0012   0.0120  -0.0004   0.0015  -0.0035  13.00   75.6
2024/07/09 09:51:44.000   28.293072899  -16.542445039  2332.0376   1   7   0.0019   0.0012   0.0120  -0.0004   0.0015  -0.0035  14.00   75.6
2024/07/09 09:51:45.000   28.293072899  -16.542445039  2332.0377   1   7   0.0019   0.0012   0.0120  -0.0004   0.0015  -0.0035  15.00   75.5
2024/07/09 09:51:46.000   28.293072899  -16.542445039  2332.0378   1   7   0.0019   0.0012   0.0120  -0.0004   0.0015  -0.0035 -14.00   75.5
2024/07/09 09:51:47.000   28.293072899  -16.542445039  2332.0379   1   7   0.0019   0.0012   0.0120  -0.0004   0.0015  -0.0035 -13.00   75.4
2024/07/09 09:51:48.000   28.293072899  -16.542445039  2332.0381   1   7   0.0019   0.0012   0.0120  -0.0004   0.0014  -0.0035 -12.00   75.4
2024/07/09 09:51:49.000   28.293072899  -16.542445039  2332.0382   1   7   0.0019   0.0012   0.0120  -0.0004   0.0014  -0.0035 -11.00   75.3
2024/07/09 09:51:50.000   28.293072898  -16.542445039  2332.0382   1   7   0.0019   0.0012   0.0120  -0.0004   0.0014  -0.0035 -10.00   75.3
2024/07/09 09:51:51.000   28.293072898  -16.542445039  2332.0383   1   7   0.0019   0.0012   0.0120  -0.0004   0.0014  -0.0035  -9.00   75.3
2024/07/09 09:51:52.000   28.293072898  -16.542445039  2332.0383   1   7   0.0019   0.0012   0.0120  -0.0004   0.0014  -0.0035  -8.00   75.2
2024/07/09 09:51:53.000   28.293072898  -16.542445039  2332.0383   1   7   0.0019   0.0012   0.0120  -0.0004   0.0014  -0.0035  -7.00   75.2
2024/07/09 09:51:54.000   28.293072898  -16.542445039  2332.0383   1   7   0.0019   0.0012   0.0120  -0.0004   0.0014  -0.0035  -6.00   75.3
2024/07/09 09:51:55.000   28.293072898  -16.542445039  2332.0383   1   7   0.0019   0.0012   0.0120  -0.0004   0.0014  -0.0035  -5.00   75.3
2024/07/09 09:51:56.000   28.293072898  -16.542445039  2332.0382   1   7   0.0019   0.0012   0.0120  -0.0004   0.0014  -0.0035  -4.00   75.4
2024/07/09 09:51:57.000   28.293072899  -16.542445039  2332.0380   1   7   0.0019   0.0012   0.0120  -0.0004   0.0014  -0.0035  -3.00   75.5
2024/07/09 09:51:58.000   28.293072899  -16.542445039  2332.0376   1   7   0.0019   0.0012   0.0120  -0.0004   0.0014  -0.0035  -2.00   75.7
2024/07/09 09:51:59.000   28.293072899  -16.542445039  2332.0373   1   7   0.0019   0.0012   0.0120  -0.0004   0.0014  -0.0035  -1.00   75.9
2024/07/09 09:52:00.000   28.293072900  -16.542445039  2332.0369   1   7   0.0019   0.0012   0.0120  -0.0004   0.0014  -0.0035   0.00   76.1
2024/07/09 09:52:01.000   28.293072900  -16.542445039  2332.0364   1   7   0.0019   0.0012   0.0120  -0.0004   0.0014  -0.0035   1.00   76.4
2024/07/09 09:52:02.000   28.293072901  -16.542445039  2332.0359   1   7   0.0019   0.0012   0.0120  -0.0004   0.0014  -0.0035   2.00   76.7
2024/07/09 09:52:03.000   28.293072901  -16.542445039  2332.0355   1   7   0.0019   0.0012   0.0120  -0.0004   0.0014  -0.0035   3.00   76.9
2024/07/09 09:52:04.000   28.293072902  -16.542445039  2332.0353   1   7   0.0019   0.0012   0.0120  -0.0004   0.0014  -0.0035   4.00   77.0
2024/07/09 09:52:05.000   28.293072902  -16.542445039  2332.0351   1   7   0.0019   0.0012   0.0120  -0.0004   0.0014  -0.0035   5.00   77.1
2024/07/09 09:52:06.000   28.293072902  -16.542445039  2332.0350   1   7   0.0019   0.0012   0.0121  -0.0004   0.0014  -0.0035   6.00   77.1
2024/07/09 09:52:07.000   28.293072902  -16.542445039  2332.0349   1   7   0.0019   0.0012   0.0121  -0.0004   0.0014  -0.0035   7.00   77.2
2024/07/09 09:52:08.000   28.293072902  -16.542445039  2332.0349   1   7   0.0019   0.0012   0.0121  -0.0004   0.0014  -0.0035   8.00   77.2
2024/07/09 09:52:09.000   28.293072902  -16.542445039  2332.0350   1   7   0.0019   0.0012   0.0120  -0.0004   0.0014  -0.0035   9.00   77.2
2024/07/09 09:52:10.000   28.293072902  -16.542445039  2332.0350   1   7   0.0019   0.0012   0.0120  -0.0004   0.0014  -0.0035  10.00   77.2
2024/07/09 09:52:11.000   28.293072902  -16.542445039  2332.0350   1   7   0.0019   0.0012   0.0120  -0.0004   0.0014  -0.0035  11.00   77.2
2024/07/09 09:52:12.000   28.293072902  -16.542445039  2332.0351   1   7   0.0019   0.0012   0.0120  -0.0004   0.0014  -0.0035  12.00   77.2
2024/07/09 09:52:13.000   28.293072902  -16.542445039  2332.0352   1   7   0.0019   0.0012   0.0120  -0.0004   0.0014  -0.0035  13.00   77.1
2024/07/09 09:52:14.000   28.293072901  -16.542445039  2332.0353   1   7   0.0019   0.0012   0.0120  -0.0004   0.0014  -0.0035  14.00   77.1
2024/07/09 09:52:15.000   28.293072901  -16.542445039  2332.0354   1   7   0.0019   0.0012   0.0120  -0.0004   0.0014  -0.0035  15.00   77.0
2024/07/09 09:52:16.000   28.293072901  -16.542445039  2332.0355   1   7   0.0019   0.0012   0.0120  -0.0004   0.0014  -0.0035 -14.00   77.0
2024/07/09 09:52:17.000   28.293072901  -16.542445039  2332.0356   1   7   0.0019   0.0012   0.0120  -0.0004   0.0014  -0.0035 -13.00   76.9
2024/07/09 09:52:18.000   28.293072901  -16.542445039  2332.0357   1   7   0.0019   0.0012   0.0120  -0.0004   0.0014  -0.0035 -12.00   76.9
2024/07/09 09:52:19.000   28.293072901  -16.542445039  2332.0358   1   7   0.0019   0.0012   0.0120  -0.0004   0.0014  -0.0035 -11.00   76.9
2024/07/09 09:52:20.000   28.293072900  -16.542445039  2332.0359   1   7   0.0019   0.0012   0.0120  -0.0004   0.0014  -0.0035 -10.00   76.8
2024/07/09 09:52:21.000   28.293072900  -16.542445039  2332.0360   1   7   0.0019   0.0012   0.0120  -0.0004   0.0014  -0.0035  -9.00   76.8
2024/07/09 09:52:22.000   28.293072900  -16.542445039  2332.0361   1   7   0.0019   0.0012   0.0120  -0.0004   0.0014  -0.0035  -8.00   76.7
2024/07/09 09:52:23.000   28.293072900  -16.542445039  2332.0361   1   7   0.0019   0.0012   0.0120  -0.0004   0.0014  -0.0035  -7.00   76.7
2024/07/09 09:52:24.000   28.293072900  -16.542445039  2332.0361   1   7   0.0019   0.0012   0.0120  -0.0004   0.0014  -0.0035  -6.00   76.7
2024/07/09 09:52:25.000   28.293072900  -16.542445039  2332.0361   1   7   0.0019   0.0012   0.0120  -0.0004   0.0014  -0.0035  -5.00   76.7
2024/07/09 09:52:26.000   28.293072900  -16.542445039  2332.0360   1   7   0.0019   0.0012   0.0120  -0.0004   0.0014  -0.0035  -4.00   76.7
2024/07/09 09:52:27.000   28.293072900  -16.542445039  2332.0358   1   7   0.0019   0.0012   0.0120  -0.0004   0.0014  -0.0035  -3.00   76.8
2024/07/09 09:52:28.000   28.293072901  -16.542445039  2332.0356   1   7   0.0019   0.0012   0.0120  -0.0004   0.0014  -0.0035  -2.00   76.8
2024/07/09 09:52:29.000   28.293072901  -16.542445039  2332.0353   1   7   0.0019   0.0012   0.0120  -0.0004   0.0014  -0.0035  -1.00   76.9
2024/07/09 09:52:30.000   28.293072901  -16.542445039  2332.0349   1   7   0.0019   0.0012   0.0120  -0.0004   0.0014  -0.0035   0.00   77.1
2024/07/09 09:52:31.000   28.293072902  -16.542445039  2332.0345   1   7   0.0019   0.0012   0.0120  -0.0004   0.0014  -0.0035   1.00   77.3
2024/07/09 09:52:32.000   28.293072902  -16.542445039  2332.0342   1   7   0.0019   0.0012   0.0120  -0.0004   0.0014  -0.0035   2.00   77.4
2024/07/09 09:52:33.000   28.293072902  -16.542445039  2332.0339   1   7   0.0019   0.0012   0.0121  -0.0004   0.0014  -0.0035   3.00   77.5
2024/07/09 09:52:34.000   28.293072903  -16.542445039  2332.0336   1   7   0.0019   0.0013   0.0121  -0.0004   0.0014  -0.0035   4.00   77.6
2024/07/09 09:52:35.000   28.293072903  -16.542445039  2332.0335   1   7   0.0019   0.0013   0.0121  -0.0004   0.0014  -0.0035   5.00   77.6
2024/07/09 09:52:36.000   28.293072903  -16.542445039  2332.0334   1   7   0.0019   0.0013   0.0121  -0.0004   0.0014  -0.0035   6.00   77.6
2024/07/09 09:52:37.000   28.293072903  -16.542445038  2332.0333   1   7   0.0019   0.0013   0.0121  -0.0004   0.0014  -0.0035   7.00   77.6
2024/07/09 09:52:38.000   28.293072903  -16.542445038  2332.0333   1   7   0.0019   0.0013   0.0121  -0.0004   0.0014  -0.0035   8.00   77.6
2024/07/09 09:52:39.000   28.293072903  -16.542445038  2332.0333   1   7   0.0019   0.0013   0.0121  -0.0004   0.0014  -0.0035   9.00   77.6
2024/07/09 09:52:40.000   28.293072903  -16.542445038  2332.0334   1   7   0.0019   0.0013   0.0121  -0.0004   0.0014  -0.0035  10.00   77.6
2024/07/09 09:52:41.000   28.293072903  -16.542445038  2332.0334   1   7   0.0019   0.0013   0.0121  -0.0004   0.0014  -0.0035  11.00   77.5
2024/07/09 09:52:42.000   28.293072903  -16.542445038  2332.0335   1   7   0.0019   0.0012   0.0121  -0.0004   0.0014  -0.0035  12.00   77.5
2024/07/09 09:52:43.000   28.293072902  -16.542445038  2332.0336   1   7   0.0019   0.0012   0.0121  -0.0004   0.0014  -0.0035  13.00   77.4
2024/07/09 09:52:44.000   28.293072902  -16.542445038  2332.0337   1   7   0.0019   0.0012   0.0120  -0.0004   0.0014  -0.0035  14.00   77.4
2024/07/09 09:52:45.000   28.293072902  -16.542445038  2332.0338   1   7   0.0019   0.0012   0.0120  -0.0004   0.0014  -0.0035  15.00   77.3
2024/07/09 09:52:46.000   28.293072902  -16.542445038  2332.0339   1   7   0.0019   0.0012   0.0120  -0.0004   0.0014  -0.0035 -14.00   77.3
2024/07/09 09:52:47.000   28.293072902  -16.542445038  2332.0340   1   7   0.0019   0.0012   0.0120  -0.0004   0.0014  -0.0035 -13.00   77.2
2024/07/09 09:52:48.000   28.293072902  -16.542445038  2332.0341   1   7   0.0019   0.0012   0.0120  -0.0004   0.0014  -0.0035 -12.00   77.2
2024/07/09 09:52:49.000   28.293072902  -16.542445038  2332.0342   1   7   0.0019   0.0012   0.0120  -0.0004   0.0014  -0.0035 -11.00   77.1
2024/07/09 09:52:50.000   28.293072901  -16.542445038  2332.0343   1   7   0.0019   0.0012   0.0120  -0.0004   0.0014  -0.0035 -10.00   77.1
2024/07/09 09:52:51.000   28.293072901  -16.542445038  2332.0343   1   7   0.0019   0.0012   0.0120  -0.0004   0.0014  -0.0035  -9.00   77.1
2024/07/09 09:52:52.000   28.293072901  -16.542445038  2332.0343   1   7   0.0019   0.0012   0.0120  -0.0004   0.0014  -0.0035  -8.00   77.1
2024/07/09 09:52:53.000   28.293072901  -16.542445038  2332.0344   1   7   0.0019   0.0012   0.0120  -0.0004   0.0014  -0.0035  -7.00   77.1
2024/07/09 09:52:54.000   28.293072901  -16.542445038  2332.0344   1   7   0.0019   0.0012   0.0120  -0.0004   0.0014  -0.0035  -6.00   77.0
2024/07/09 09:52:55.000   28.293072901  -16.542445038  2332.0343   1   7   0.0019   0.0012   0.0120  -0.0004   0.0014  -0.0035  -5.00   77.1
2024/07/09 09:52:56.000   28.293072901  -16.542445038  2332.0341   1   7   0.0019   0.0012   0.0120  -0.0004   0.0014  -0.0035  -4.00   77.1
2024/07/09 09:52:57.000   28.293072902  -16.542445038  2332.0340   1   7   0.0019   0.0012   0.0120  -0.0004   0.0014  -0.0035  -3.00   77.1
2024/07/09 09:52:58.000   28.293072902  -16.542445038  2332.0338   1   7   0.0019   0.0012   0.0120  -0.0004   0.0014  -0.0035  -2.00   77.2
2024/07/09 09:52:59.000   28.293072902  -16.542445038  2332.0335   1   7   0.0019   0.0012   0.0120  -0.0004   0.0014  -0.0035  -1.00   77.3
2024/07/09 09:53:00.000   28.293072903  -16.542445038  2332.0331   1   7   0.0019   0.0012   0.0120  -0.0004   0.0014  -0.0035   0.00   77.5
2024/07/09 09:53:01.000   28.293072903  -16.542445038  2332.0326   1   7   0.0019   0.0013   0.0121  -0.0004   0.0014  -0.0035   1.00   77.7
2024/07/09 09:53:02.000   28.293072903  -16.542445038  2332.0322   1   7   0.0019   0.0013   0.0121  -0.0004   0.0014  -0.0035   2.00   77.9
2024/07/09 09:53:03.000   28.293072904  -16.542445038  2332.0318   1   7   0.0019   0.0013   0.0121  -0.0004   0.0014  -0.0035   3.00   78.0
2024/07/09 09:53:04.000   28.293072904  -16.542445038  2332.0315   1   7   0.0019   0.0013   0.0121  -0.0004   0.0014  -0.0035   4.00   78.2
2024/07/09 09:53:05.000   28.293072904  -16.542445037  2332.0312   1   7   0.0019   0.0013   0.0121  -0.0004   0.0014  -0.0035   5.00   78.3
2024/07/09 09:53:06.000   28.293072905  -16.542445037  2332.0311   1   7   0.0019   0.0013   0.0121  -0.0004   0.0014  -0.0035   6.00   78.4
2024/07/09 09:53:07.000   28.293072905  -16.542445037  2332.0310   1   7   0.0019   0.0013   0.0121  -0.0004   0.0014  -0.0035   7.00   78.4
2024/07/09 09:53:08.000   28.293072905  -16.542445037  2332.0309   1   7   0.0019   0.0013   0.0121  -0.0004   0.0014  -0.0035   8.00   78.4
2024/07/09 09:53:09.000   28.293072905  -16.542445037  2332.0309   1   7   0.0019   0.0013   0.0121  -0.0004   0.0014  -0.0035   9.00   78.5
2024/07/09 09:53:10.000   28.293072905  -16.542445037  2332.0309   1   7   0.0019   0.0013   0.0121  -0.0004   0.0014  -0.0035  10.00   78.4
2024/07/09 09:53:11.000   28.293072904  -16.542445037  2332.0309   1   7   0.0019   0.0013   0.0121  -0.0004   0.0014  -0.0035  11.00   78.4
2024/07/09 09:53:12.000   28.293072904  -16.542445037  2332.0310   1   7   0.0019   0.0013   0.0121  -0.0004   0.0014  -0.0035  12.00   78.4
2024/07/09 09:53:13.000   28.293072904  -16.542445037  2332.0311   1   7   0.0019   0.0013   0.0121  -0.0004   0.0014  -0.0035  13.00   78.3
2024/07/09 09:53:14.000   28.293072904  -16.542445037  2332.0312   1   7   0.0019   0.0013   0.0121  -0.0004   0.0014  -0.0035  14.00   78.3
2024/07/09 09:53:15.000   28.293072904  -16.542445037  2332.0313   1   7   0.0019   0.0013   0.0121  -0.0004   0.0014  -0.0035  15.00   78.3
2024/07/09 09:53:16.000   28.293072904  -16.542445037  2332.0314   1   7   0.0019   0.0013   0.0121  -0.0004   0.0014  -0.0035 -14.00   78.2
2024/07/09 09:53:17.000   28.293072904  -16.542445037  2332.0315   1   7   0.0019   0.0013   0.0120  -0.0004   0.0014  -0.0035 -13.00   78.2
2024/07/09 09:53:18.000   28.293072903  -16.542445037  2332.0316   1   7   0.0019   0.0012   0.0120  -0.0004   0.0014  -0.0035 -12.00   78.1
2024/07/09 09:53:19.000   28.293072903  -16.542445037  2332.0316   1   7   0.0019   0.0012   0.0120  -0.0004   0.0014  -0.0035 -11.00   78.1
2024/07/09 09:53:20.000   28.293072903  -16.542445037  2332.0317   1   7   0.0019   0.0012   0.0120  -0.0004   0.0014  -0.0035 -10.00   78.1
2024/07/09 09:53:21.000   28.293072903  -16.542445037  2332.0317   1   7   0.0019   0.0012   0.0120  -0.0004   0.0014  -0.0035  -9.00   78.0
2024/07/09 09:53:22.000   28.293072903  -16.542445037  2332.0318   1   7   0.0019   0.0012   0.0120  -0.0004   0.0014  -0.0035  -8.00   78.0
2024/07/09 09:53:23.000   28.293072903  -16.542445037  2332.0318   1   7   0.0019   0.0012   0.0120  -0.0004   0.0014  -0.0035  -7.00   78.0
2024/07/09 09:53:24.000   28.293072903  -16.542445037  2332.0318   1   7   0.0019   0.0012   0.0120  -0.0004   0.0014  -0.0035  -6.00   78.0
2024/07/09 09:53:25.000   28.293072903  -16.542445037  2332.0317   1   7   0.0019   0.0012   0.0120  -0.0004   0.0014  -0.0035  -5.00   78.1
2024/07/09 09:53:26.000   28.293072903  -16.542445037  2332.0316   1   7   0.0019   0.0012   0.0120  -0.0004   0.0014  -0.0035  -4.00   78.1
2024/07/09 09:53:27.000   28.293072903  -16.542445037  2332.0314   1   7   0.0019   0.0012   0.0120  -0.0004   0.0014  -0.0035  -3.00   78.2
2024/07/09 09:53:28.000   28.293072904  -16.542445037  2332.0312   1   7   0.0019   0.0012   0.0120  -0.0004   0.0014  -0.0035  -2.00   78.3
2024/07/09 09:53:29.000   28.293072904  -16.542445037  2332.0309   1   7   0.0019   0.0013   0.0120  -0.0004   0.0014  -0.0035  -1.00   78.5
2024/07/09 09:53:30.000   28.293072904  -16.542445037  2332.0304   1   7   0.0019   0.0013   0.0121  -0.0004   0.0014  -0.0035   0.00   78.7
2024/07/09 09:53:31.000   28.293072905  -16.542445037  2332.0300   1   7   0.0019   0.0013   0.0121  -0.0004   0.0014  -0.0035   1.00   79.0
2024/07/09 09:53:32.000   28.293072905  -16.542445037  2332.0295   1   7   0.0019   0.0013   0.0121  -0.0004   0.0014  -0.0035   2.00   79.2
2024/07/09 09:53:33.000   28.293072906  -16.542445037  2332.0292   1   7   0.0019   0.0013   0.0121  -0.0004   0.0014  -0.0035   3.00   79.3
2024/07/09 09:53:34.000   28.293072906  -16.542445037  2332.0290   1   7   0.0019   0.0013   0.0121  -0.0004   0.0014  -0.0035   4.00   79.4
2024/07/09 09:53:35.000   28.293072906  -16.542445037  2332.0288   1   7   0.0019   0.0013   0.0121  -0.0004   0.0014  -0.0035   5.00   79.5
2024/07/09 09:53:36.000   28.293072906  -16.542445037  2332.0287   1   7   0.0019   0.0013   0.0121  -0.0004   0.0014  -0.0035   6.00   79.5
2024/07/09 09:53:37.000   28.293072906  -16.542445037  2332.0287   1   7   0.0019   0.0013   0.0121  -0.0004   0.0014  -0.0035   7.00   79.5
2024/07/09 09:53:38.000   28.293072906  -16.542445037  2332.0287   1   7   0.0019   0.0013   0.0121  -0.0004   0.0014  -0.0035   8.00   79.6
2024/07/09 09:53:39.000   28.293072906  -16.542445037  2332.0287   1   7   0.0019   0.0013   0.0121  -0.0004   0.0014  -0.0035   9.00   79.6
2024/07/09 09:53:40.000   28.293072906  -16.542445037  2332.0287   1   7   0.0019   0.0013   0.0121  -0.0004   0.0014  -0.0035  10.00   79.6
2024/07/09 09:53:41.000   28.293072906  -16.542445037  2332.0288   1   7   0.0019   0.0013   0.0121  -0.0004   0.0014  -0.0035  11.00   79.5
2024/07/09 09:53:42.000   28.293072906  -16.542445037  2332.0289   1   7   0.0019   0.0013   0.0121  -0.0004   0.0014  -0.0035  12.00   79.5
2024/07/09 09:53:43.000   28.293072906  -16.542445037  2332.0290   1   7   0.0019   0.0013   0.0121  -0.0004   0.0014  -0.0035  13.00   79.5
2024/07/09 09:53:44.000   28.293072906  -16.542445037  2332.0291   1   7   0.0019   0.0013   0.0121  -0.0004   0.0014  -0.0035  14.00   79.4
2024/07/09 09:53:45.000   28.293072906  -16.542445037  2332.0292   1   7   0.0019   0.0013   0.0121  -0.0004   0.0014  -0.0035  15.00   79.4
2024/07/09 09:53:46.000   28.293072905  -16.542445037  2332.0293   1   7   0.0019   0.0013   0.0121  -0.0004   0.0014  -0.0035 -14.00   79.3
2024/07/09 09:53:47.000   28.293072905  -16.542445037  2332.0294   1   7   0.0019   0.0013   0.0121  -0.0004   0.0014  -0.0035 -13.00   79.3
2024/07/09 09:53:48.000   28.293072905  -16.542445037  2332.0296   1   7   0.0019   0.0013   0.0121  -0.0004   0.0014  -0.0035 -12.00   79.2
2024/07/09 09:53:49.000   28.293072905  -16.542445037  2332.0297   1   7   0.0019   0.0013   0.0120  -0.0004   0.0014  -0.0035 -11.00   79.2
2024/07/09 09:53:50.000   28.293072905  -16.542445037  2332.0298   1   7   0.0019   0.0013   0.0120  -0.0004   0.0014  -0.0035 -10.00   79.1
2024/07/09 09:53:51.000   28.293072905  -16.542445037  2332.0298   1   7   0.0019   0.0013   0.0120  -0.0004   0.0014  -0.0035  -9.00   79.1
2024/07/09 09:53:52.000   28.293072905  -16.542445037  2332.0299   1   7   0.0019   0.0013   0.0120  -0.0004   0.0014  -0.0035  -8.00   79.1
2024/07/09 09:53:53.000   28.293072905  -16.542445037  2332.0299   1   7   0.0019   0.0013   0.0120  -0.0004   0.0014  -0.0035  -7.00   79.1
2024/07/09 09:53:54.000   28.293072905  -16.542445037  2332.0300   1   7   0.0019   0.0013   0.0120  -0.0004   0.0014  -0.0035  -6.00   79.0
2024/07/09 09:53:55.000   28.293072905  -16.542445037  2332.0300   1   7   0.0019   0.0013   0.0120  -0.0004   0.0014  -0.0035  -5.00   79.1
2024/07/09 09:53:56.000   28.293072905  -16.542445037  2332.0299   1   7   0.0019   0.0013   0.0120  -0.0004   0.0013  -0.0035  -4.00   79.1
2024/07/09 09:53:57.000   28.293072905  -16.542445037  2332.0298   1   7   0.0019   0.0013   0.0120  -0.0004   0.0013  -0.0035  -3.00   79.2
2024/07/09 09:53:58.000   28.293072905  -16.542445037  2332.0296   1   7   0.0019   0.0013   0.0120  -0.0004   0.0013  -0.0035  -2.00   79.3
2024/07/09 09:53:59.000   28.293072905  -16.542445037  2332.0293   1   7   0.0019   0.0013   0.0121  -0.0004   0.0013  -0.0035  -1.00   79.4
2024/07/09 09:54:00.000   28.293072906  -16.542445037  2332.0289   1   7   0.0019   0.0013   0.0121  -0.0004   0.0013  -0.0035   0.00   79.6
2024/07/09 09:54:01.000   28.293072907  -16.542445037  2332.0285   1   7   0.0019   0.0013   0.0121  -0.0004   0.0013  -0.0035   1.00   79.9
2024/07/09 09:54:02.000   28.293072907  -16.542445037  2332.0281   1   7   0.0019   0.0013   0.0121  -0.0004   0.0013  -0.0035   2.00   80.2
2024/07/09 09:54:03.000   28.293072907  -16.542445037  2332.0278   1   7   0.0019   0.0013   0.0121  -0.0004   0.0013  -0.0035   3.00   80.4
2024/07/09 09:54:04.000   28.293072908  -16.542445037  2332.0275   1   7   0.0019   0.0013   0.0121  -0.0004   0.0013  -0.0035   4.00   80.6
2024/07/09 09:54:05.000   28.293072908  -16.542445037  2332.0273   1   7   0.0019   0.0013   0.0121  -0.0004   0.0013  -0.0035   5.00   80.7
2024/07/09 09:54:06.000   28.293072908  -16.542445037  2332.0272   1   7   0.0019   0.0013   0.0121  -0.0004   0.0013  -0.0035   6.00   80.8
2024/07/09 09:54:07.000   28.293072908  -16.542445037  2332.0271   1   7   0.0019   0.0013   0.0121  -0.0004   0.0013  -0.0035   7.00   80.9
2024/07/09 09:54:08.000   28.293072887  -16.542444996  2332.0544   1   7   0.0019   0.0012   0.0117  -0.0001   0.0008  -0.0034   8.00    4.2
2024/07/09 09:54:09.000   28.293072887  -16.542444996  2332.0545   1   7   0.0019   0.0012   0.0117  -0.0001   0.0008  -0.0034   9.00    4.3
2024/07/09 09:54:10.000   28.293072887  -16.542444996  2332.0546   1   7   0.0019   0.0012   0.0117  -0.0001   0.0008  -0.0034  10.00    4.3
2024/07/09 09:54:11.000   28.293072887  -16.542444996  2332.0546   1   7   0.0019   0.0012   0.0117  -0.0001   0.0008  -0.0034  11.00    4.3
2024/07/09 09:54:12.000   28.293072887  -16.542444996  2332.0547   1   7   0.0019   0.0012   0.0117  -0.0001   0.0007  -0.0034  12.00    4.3
2024/07/09 09:54:13.000   28.293072887  -16.542444996  2332.0548   1   7   0.0019   0.0012   0.0117  -0.0001   0.0007  -0.0034  13.00    4.4
2024/07/09 09:54:14.000   28.293072887  -16.542444996  2332.0549   1   7   0.0019   0.0012   0.0117  -0.0001   0.0007  -0.0034  14.00    4.4
2024/07/09 09:54:15.000   28.293072887  -16.542444996  2332.0549   1   7   0.0019   0.0012   0.0117  -0.0001   0.0007  -0.0034 -15.00    4.4
2024/07/09 09:54:16.000   28.293072887  -16.542444996  2332.0551   1   7   0.0019   0.0012   0.0117  -0.0001   0.0007  -0.0034 -14.00    4.4
2024/07/09 09:54:17.000   28.293072887  -16.542444995  2332.0552   1   7   0.0019   0.0012   0.0117  -0.0001   0.0007  -0.0034 -13.00    4.4
2024/07/09 09:54:18.000   28.293072887  -16.542444995  2332.0553   1   7   0.0019   0.0012   0.0117  -0.0001   0.0007  -0.0033 -12.00    4.4
2024/07/09 09:54:19.000   28.293072887  -16.542444995  2332.0554   1   7   0.0019   0.0012   0.0117  -0.0001   0.0007  -0.0033 -11.00    4.4
2024/07/09 09:54:20.000   28.293072886  -16.542444995  2332.0555   1   7   0.0019   0.0012   0.0117  -0.0001   0.0007  -0.0033 -10.00    4.4
2024/07/09 09:54:21.000   28.293072886  -16.542444995  2332.0556   1   7   0.0019   0.0012   0.0117  -0.0001   0.0007  -0.0033  -9.00    4.5
2024/07/09 09:54:22.000   28.293072886  -16.542444995  2332.0557   1   7   0.0019   0.0012   0.0117  -0.0001   0.0007  -0.0033  -8.00    4.5
2024/07/09 09:54:23.000   28.293072886  -16.542444995  2332.0558   1   7   0.0019   0.0012   0.0117  -0.0001   0.0007  -0.0033  -7.00    4.5
2024/07/09 09:54:24.000   28.293072886  -16.542444994  2332.0559   1   7   0.0019   0.0012   0.0117  -0.0001   0.0007  -0.0033  -6.00    4.5
2024/07/09 09:54:25.000   28.293072886  -16.542444994  2332.0560   1   7   0.0019   0.0012   0.0117  -0.0001   0.0007  -0.0033  -5.00    4.4
2024/07/09 09:54:26.000   28.293072886  -16.542444994  2332.0560   1   7   0.0019   0.0012   0.0117  -0.0001   0.0007  -0.0033  -4.00    4.4
2024/07/09 09:54:27.000   28.293072887  -16.542444993  2332.0561   1   7   0.0019   0.0012   0.0117  -0.0001   0.0007  -0.0033  -3.00    4.4
2024/07/09 09:54:28.000   28.293072887  -16.542444993  2332.0561   1   7   0.0019   0.0012   0.0117  -0.0000   0.0007  -0.0033  -2.00    8.1
2024/07/09 09:54:29.000   28.293072887  -16.542444992  2332.0561   1   7   0.0019   0.0012   0.0117  -0.0000   0.0007  -0.0033  -1.00   11.3
2024/07/09 09:54:30.000   28.293072887  -16.542444992  2332.0561   1   7   0.0019   0.0012   0.0117   0.0000   0.0007  -0.0033   0.00   14.4
2024/07/09 09:54:31.000   28.293072888  -16.542444991  2332.0561   1   7   0.0019   0.0012   0.0117   0.0000   0.0006  -0.0033   1.00   17.9
2024/07/09 09:54:32.000   28.293072888  -16.542444991  2332.0561   1   7   0.0019   0.0012   0.0117   0.0001   0.0006  -0.0033   2.00   21.4
2024/07/09 09:54:33.000   28.293072888  -16.542444990  2332.0560   1   7   0.0019   0.0012   0.0117   0.0001   0.0006  -0.0033   3.00   24.5
2024/07/09 09:54:34.000   28.293072888  -16.542444990  2332.0560   1   7   0.0019   0.0012   0.0117   0.0001   0.0006  -0.0033   4.00   27.9
2024/07/09 09:54:35.000   28.293072888  -16.542444990  2332.0560   1   7   0.0019   0.0012   0.0117   0.0001   0.0006  -0.0033   5.00   31.0
2024/07/09 09:54:36.000   28.293072889  -16.542444989  2332.0560   1   7   0.0019   0.0012   0.0117   0.0001   0.0006  -0.0033   6.00   34.2
2024/07/09 09:54:37.000   28.293072889  -16.542444989  2332.0561   1   7   0.0019   0.0012   0.0117   0.0001   0.0006  -0.0033   7.00   37.6
2024/07/09 09:54:38.000   28.293072889  -16.542444989  2332.0562   1   7   0.0018   0.0012   0.0117   0.0001   0.0006  -0.0033   8.00   40.8
2024/07/09 09:54:39.000   28.293072889  -16.542444989  2332.0563   1   7   0.0018   0.0012   0.0117   0.0001   0.0006  -0.0033   9.00   44.1
2024/07/09 09:54:40.000   28.293072889  -16.542444989  2332.0564   1   7   0.0018   0.0012   0.0117   0.0001   0.0006  -0.0033  10.00   47.5
2024/07/09 09:54:41.000   28.293072889  -16.542444989  2332.0565   1   7   0.0018   0.0012   0.0117   0.0001   0.0006  -0.0033  11.00   50.9
2024/07/09 09:54:42.000   28.293072889  -16.542444989  2332.0566   1   7   0.0018   0.0012   0.0117   0.0001   0.0006  -0.0033  12.00   54.3
2024/07/09 09:54:43.000   28.293072889  -16.542444989  2332.0567   1   7   0.0018   0.0012   0.0117   0.0001   0.0006  -0.0033  13.00   57.7
2024/07/09 09:54:44.000   28.293072888  -16.542444989  2332.0569   1   7   0.0018   0.0012   0.0117   0.0001   0.0006  -0.0033  14.00   61.1
2024/07/09 09:54:45.000   28.293072888  -16.542444989  2332.0570   1   7   0.0018   0.0012   0.0117   0.0001   0.0006  -0.0033 -15.00   64.6
2024/07/09 09:54:46.000   28.293072888  -16.542444989  2332.0571   1   7   0.0018   0.0012   0.0117   0.0001   0.0006  -0.0033 -14.00   68.0
2024/07/09 09:54:47.000   28.293072888  -16.542444989  2332.0572   1   7   0.0018   0.0012   0.0117   0.0001   0.0006  -0.0033 -13.00   71.5
2024/07/09 09:54:48.000   28.293072888  -16.542444989  2332.0574   1   7   0.0018   0.0012   0.0116   0.0001   0.0006  -0.0033 -12.00   75.0
2024/07/09 09:54:49.000   28.293072888  -16.542444989  2332.0575   1   7   0.0018   0.0012   0.0116   0.0001   0.0006  -0.0033 -11.00   78.4
2024/07/09 09:54:50.000   28.293072888  -16.542444989  2332.0577   1   7   0.0018   0.0012   0.0116   0.0001   0.0006  -0.0033 -10.00   81.8
2024/07/09 09:54:51.000   28.293072888  -16.542444989  2332.0578   1   7   0.0018   0.0012   0.0116   0.0001   0.0006  -0.0033  -9.00   85.6
2024/07/09 09:54:52.000   28.293072888  -16.542444988  2332.0579   1   7   0.0018   0.0012   0.0116   0.0001   0.0006  -0.0033  -8.00   89.0
2024/07/09 09:54:53.000   28.293072888  -16.542444988  2332.0581   1   7   0.0018   0.0012   0.0116   0.0001   0.0006  -0.0033  -7.00   92.1
2024/07/09 09:54:54.000   28.293072888  -16.542444988  2332.0583   1   7   0.0018   0.0012   0.0116   0.0001   0.0005  -0.0033  -6.00   95.9
2024/07/09 09:54:55.000   28.293072888  -16.542444988  2332.0584   1   7   0.0018   0.0012   0.0116   0.0001   0.0005  -0.0033  -5.00   99.1
2024/07/09 09:54:56.000   28.293072888  -16.542444988  2332.0585   1   7   0.0018   0.0012   0.0116   0.0001   0.0005  -0.0033  -4.00  102.9
2024/07/09 09:54:57.000   28.293072888  -16.542444987  2332.0586   1   7   0.0018   0.0012   0.0116   0.0001   0.0005  -0.0033  -3.00  106.5
2024/07/09 09:54:58.000   28.293072888  -16.542444987  2332.0587   1   7   0.0018   0.0012   0.0116   0.0001   0.0005  -0.0033  -2.00  113.3
2024/07/09 09:54:59.000   28.293072889  -16.542444986  2332.0589   1   7   0.0018   0.0012   0.0116   0.0001   0.0005  -0.0033  -1.00  120.3
2024/07/09 09:55:00.000   28.293072889  -16.542444986  2332.0589   1   7   0.0018   0.0012   0.0116   0.0001   0.0005  -0.0033   0.00  125.6
2024/07/09 09:55:01.000   28.293072881  -16.542445001  2332.0532   1   7   0.0018   0.0012   0.0117   0.0002   0.0007  -0.0033   1.00    5.6
2024/07/09 09:55:02.000   28.293072862  -16.542445006  2332.0522   1   7   0.0017   0.0012   0.0117  -0.0004   0.0006  -0.0034   2.00    3.3
2024/07/09 09:55:03.000   28.293072862  -16.542445006  2332.0523   1   7   0.0017   0.0012   0.0117  -0.0004   0.0006  -0.0034   3.00    6.6
2024/07/09 09:55:04.000   28.293072862  -16.542445005  2332.0525   1   7   0.0017   0.0012   0.0117  -0.0004   0.0006  -0.0034   4.00    9.8
2024/07/09 09:55:05.000   28.293072854  -16.542445036  2332.0802   1   7   0.0017   0.0011   0.0112  -0.0004   0.0013  -0.0033   5.00    4.4
2024/07/09 09:55:06.000   28.293072854  -16.542445036  2332.0805   1   7   0.0017   0.0011   0.0112  -0.0004   0.0013  -0.0033   6.00    5.6
2024/07/09 09:55:07.000   28.293072854  -16.542445036  2332.0808   1   7   0.0017   0.0011   0.0112  -0.0004   0.0013  -0.0033   7.00    6.8
2024/07/09 09:55:08.000   28.293072853  -16.542445036  2332.0811   1   7   0.0017   0.0011   0.0112  -0.0004   0.0013  -0.0033   8.00    8.0
2024/07/09 09:55:09.000   28.293072853  -16.542445036  2332.0813   1   7   0.0017   0.0011   0.0112  -0.0004   0.0013  -0.0033   9.00    9.2
2024/07/09 09:55:10.000   28.293072853  -16.542445036  2332.0816   1   7   0.0017   0.0011   0.0112  -0.0004   0.0013  -0.0033  10.00   10.4
2024/07/09 09:55:11.000   28.293072853  -16.542445036  2332.0818   1   7   0.0017   0.0011   0.0112  -0.0004   0.0013  -0.0033  11.00   11.6
2024/07/09 09:55:12.000   28.293072852  -16.542445036  2332.0820   1   7   0.0017   0.0011   0.0112  -0.0004   0.0012  -0.0033  12.00   12.8
2024/07/09 09:55:13.000   28.293072852  -16.542445036  2332.0822   1   7   0.0017   0.0011   0.0112  -0.0004   0.0012  -0.0033  13.00   14.1
2024/07/09 09:55:14.000   28.293072852  -16.542445036  2332.0824   1   7   0.0017   0.0011   0.0112  -0.0004   0.0012  -0.0033  14.00   15.4
2024/07/09 09:55:15.000   28.293072852  -16.542445036  2332.0825   1   7   0.0017   0.0011   0.0112  -0.0004   0.0012  -0.0033 -15.00   16.8
2024/07/09 09:55:16.000   28.293072852  -16.542445036  2332.0827   1   7   0.0017   0.0011   0.0111  -0.0004   0.0012  -0.0033 -14.00   18.1
2024/07/09 09:55:17.000   28.293072852  -16.542445036  2332.0829   1   7   0.0017   0.0011   0.0111  -0.0004   0.0012  -0.0033 -13.00   19.4
2024/07/09 09:55:18.000   28.293072851  -16.542445036  2332.0831   1   7   0.0017   0.0011   0.0111  -0.0004   0.0012  -0.0033 -12.00   20.8
2024/07/09 09:55:19.000   28.293072851  -16.542445036  2332.0833   1   7   0.0017   0.0011   0.0111  -0.0004   0.0012  -0.0033 -11.00   22.1
2024/07/09 09:55:20.000   28.293072851  -16.542445036  2332.0836   1   7   0.0017   0.0011   0.0111  -0.0004   0.0012  -0.0033 -10.00   23.2
2024/07/09 09:55:21.000   28.293072851  -16.542445036  2332.0839   1   7   0.0017   0.0011   0.0111  -0.0004   0.0012  -0.0033  -9.00   24.4
2024/07/09 09:55:22.000   28.293072850  -16.542445035  2332.0842   1   7   0.0017   0.0011   0.0111  -0.0004   0.0012  -0.0033  -8.00   25.5
2024/07/09 09:55:23.000   28.293072850  -16.542445035  2332.0845   1   7   0.0017   0.0011   0.0111  -0.0004   0.0012  -0.0033  -7.00   26.6
2024/07/09 09:55:24.000   28.293072849  -16.542445035  2332.0849   1   7   0.0017   0.0011   0.0111  -0.0004   0.0012  -0.0033  -6.00   27.5
2024/07/09 09:55:25.000   28.293072849  -16.542445035  2332.0854   1   7   0.0017   0.0011   0.0111  -0.0004   0.0012  -0.0033  -5.00   28.3
2024/07/09 09:55:26.000   28.293072849  -16.542445035  2332.0858   1   7   0.0017   0.0011   0.0111  -0.0004   0.0012  -0.0033  -4.00   29.6
2024/07/09 09:55:27.000   28.293072848  -16.542445035  2332.0863   1   7   0.0016   0.0011   0.0111  -0.0004   0.0012  -0.0033  -3.00   30.5
2024/07/09 09:55:28.000   28.293072848  -16.542445035  2332.0868   1   7   0.0016   0.0011   0.0111  -0.0004   0.0012  -0.0033  -2.00   31.4
2024/07/09 09:55:29.000   28.293072847  -16.542445035  2332.0873   1   7   0.0016   0.0011   0.0111  -0.0004   0.0012  -0.0033  -1.00   32.2
2024/07/09 09:55:30.000   28.293072847  -16.542445035  2332.0877   1   7   0.0016   0.0011   0.0111  -0.0004   0.0012  -0.0033   0.00   33.1
2024/07/09 09:55:31.000   28.293072855  -16.542445036  2332.0832   1   7   0.0017   0.0011   0.0111  -0.0004   0.0012  -0.0033   1.00   17.1
2024/07/09 09:55:32.000   28.293072855  -16.542445036  2332.0836   1   7   0.0017   0.0011   0.0111  -0.0004   0.0012  -0.0033   2.00   30.5
2024/07/09 09:55:33.000   28.293072854  -16.542445036  2332.0841   1   7   0.0017   0.0011   0.0111  -0.0004   0.0012  -0.0033   3.00   42.0
2024/07/09 09:55:34.000   28.293072854  -16.542445036  2332.0844   1   7   0.0017   0.0011   0.0111  -0.0004   0.0012  -0.0033   4.00   48.3
2024/07/09 09:55:35.000   28.293072853  -16.542445036  2332.0848   1   7   0.0017   0.0011   0.0111  -0.0004   0.0012  -0.0033   5.00   48.7
2024/07/09 09:55:36.000   28.293072853  -16.542445036  2332.0851   1   7   0.0016   0.0011   0.0111  -0.0004   0.0012  -0.0033   6.00   49.1
2024/07/09 09:55:37.000   28.293072853  -16.542445036  2332.0854   1   7   0.0016   0.0011   0.0111  -0.0004   0.0012  -0.0033   7.00   50.1
2024/07/09 09:55:38.000   28.293072853  -16.542445036  2332.0856   1   7   0.0016   0.0011   0.0111  -0.0004   0.0012  -0.0033   8.00   51.1
2024/07/09 09:55:39.000   28.293072852  -16.542445036  2332.0858   1   7   0.0016   0.0011   0.0111  -0.0004   0.0012  -0.0033   9.00   51.9
2024/07/09 09:55:40.000   28.293072852  -16.542445036  2332.0860   1   7   0.0016   0.0011   0.0111  -0.0004   0.0012  -0.0033  10.00   52.9
2024/07/09 09:55:41.000   28.293072852  -16.542445036  2332.0862   1   7   0.0016   0.0011   0.0111  -0.0004   0.0012  -0.0033  11.00   53.8
2024/07/09 09:55:42.000   28.293072852  -16.542445036  2332.0864   1   7   0.0016   0.0011   0.0111  -0.0004   0.0012  -0.0033  12.00   54.9
2024/07/09 09:55:43.000   28.293072851  -16.542445036  2332.0865   1   7   0.0016   0.0011   0.0111  -0.0004   0.0012  -0.0033  13.00   55.9
2024/07/09 09:55:44.000   28.293072851  -16.542445036  2332.0866   1   7   0.0016   0.0011   0.0111  -0.0004   0.0012  -0.0033  14.00   57.0
2024/07/09 09:55:45.000   28.293072851  -16.542445036  2332.0868   1   7   0.0016   0.0011   0.0111  -0.0004   0.0012  -0.0033 -15.00   58.3
2024/07/09 09:55:46.000   28.293072851  -16.542445036  2332.0869   1   7   0.0016   0.0011   0.0111  -0.0004   0.0012  -0.0033 -14.00   59.5
2024/07/09 09:55:47.000   28.293072851  -16.542445036  2332.0870   1   7   0.0016   0.0011   0.0111  -0.0004   0.0012  -0.0033 -13.00   60.8
2024/07/09 09:55:48.000   28.293072851  -16.542445036  2332.0872   1   7   0.0016   0.0011   0.0111  -0.0004   0.0012  -0.0033 -12.00   62.3
2024/07/09 09:55:49.000   28.293072850  -16.542445036  2332.0874   1   7   0.0016   0.0011   0.0111  -0.0004   0.0012  -0.0033 -11.00   63.5
2024/07/09 09:55:50.000   28.293072850  -16.542445035  2332.0875   1   7   0.0016   0.0011   0.0110  -0.0004   0.0012  -0.0033 -10.00   64.9
2024/07/09 09:55:51.000   28.293072850  -16.542445035  2332.0878   1   7   0.0016   0.0011   0.0110  -0.0004   0.0012  -0.0033  -9.00   66.5
2024/07/09 09:55:52.000   28.293072850  -16.542445035  2332.0880   1   7   0.0016   0.0011   0.0110  -0.0004   0.0012  -0.0033  -8.00   68.0
2024/07/09 09:55:53.000   28.293072850  -16.542445035  2332.0882   1   7   0.0016   0.0011   0.0110  -0.0004   0.0012  -0.0033  -7.00   69.8
2024/07/09 09:55:54.000   28.293072849  -16.542445035  2332.0885   1   7   0.0016   0.0011   0.0110  -0.0004   0.0012  -0.0033  -6.00   71.4
2024/07/09 09:55:55.000   28.293072849  -16.542445035  2332.0889   1   7   0.0016   0.0011   0.0110  -0.0004   0.0012  -0.0033  -5.00   72.8
2024/07/09 09:55:56.000   28.293072849  -16.542445035  2332.0893   1   7   0.0016   0.0011   0.0110  -0.0004   0.0012  -0.0033  -4.00   74.1
2024/07/09 09:55:57.000   28.293072848  -16.542445035  2332.0897   1   7   0.0016   0.0011   0.0110  -0.0004   0.0012  -0.0033  -3.00   74.6
2024/07/09 09:55:58.000   28.293072848  -16.542445035  2332.0901   1   7   0.0016   0.0011   0.0110  -0.0004   0.0012  -0.0033  -2.00   76.1
2024/07/09 09:55:59.000   28.293072847  -16.542445035  2332.0906   1   7   0.0016   0.0011   0.0110  -0.0004   0.0012  -0.0033  -1.00   77.3
2024/07/09 09:56:00.000   28.293072847  -16.542445035  2332.0911   1   7   0.0016   0.0011   0.0110  -0.0004   0.0012  -0.0033   0.00   79.0
2024/07/09 09:56:01.000   28.293072854  -16.542445036  2332.0870   1   7   0.0016   0.0011   0.0110  -0.0004   0.0012  -0.0033   1.00   23.1
2024/07/09 09:56:02.000   28.293072854  -16.542445036  2332.0874   1   7   0.0016   0.0011   0.0110  -0.0004   0.0012  -0.0033   2.00   41.6
2024/07/09 09:56:03.000   28.293072853  -16.542445036  2332.0877   1   7   0.0016   0.0011   0.0110  -0.0004   0.0012  -0.0033   3.00   58.8
2024/07/09 09:56:04.000   28.293072853  -16.542445036  2332.0880   1   7   0.0016   0.0011   0.0110  -0.0004   0.0012  -0.0033   4.00   72.3
2024/07/09 09:56:05.000   28.293072853  -16.542445036  2332.0883   1   7   0.0016   0.0011   0.0110  -0.0004   0.0012  -0.0033   5.00   81.1
2024/07/09 09:56:06.000   28.293072852  -16.542445036  2332.0886   1   7   0.0016   0.0011   0.0110  -0.0004   0.0012  -0.0033   6.00   88.3
2024/07/09 09:56:07.000   28.293072852  -16.542445036  2332.0889   1   7   0.0016   0.0011   0.0110  -0.0004   0.0012  -0.0033   7.00   92.2
2024/07/09 09:56:08.000   28.293072852  -16.542445036  2332.0891   1   7   0.0016   0.0011   0.0110  -0.0004   0.0012  -0.0033   8.00   94.5
2024/07/09 09:56:09.000   28.293072852  -16.542445036  2332.0894   1   7   0.0016   0.0011   0.0110  -0.0004   0.0012  -0.0033   9.00   96.8
2024/07/09 09:56:10.000   28.293072851  -16.542445036  2332.0896   1   7   0.0016   0.0011   0.0110  -0.0004   0.0012  -0.0033  10.00   99.5
2024/07/09 09:56:11.000   28.293072851  -16.542445036  2332.0897   1   7   0.0016   0.0011   0.0110  -0.0004   0.0012  -0.0033  11.00  101.7
2024/07/09 09:56:12.000   28.293072851  -16.542445036  2332.0899   1   7   0.0016   0.0011   0.0110  -0.0004   0.0012  -0.0033  12.00  103.8
2024/07/09 09:56:13.000   28.293072851  -16.542445036  2332.0901   1   7   0.0016   0.0011   0.0110  -0.0004   0.0012  -0.0033  13.00  106.1
2024/07/09 09:56:14.000   28.293072851  -16.542445036  2332.0902   1   7   0.0016   0.0011   0.0110  -0.0004   0.0012  -0.0033  14.00  108.3
2024/07/09 09:56:15.000   28.293072851  -16.542445036  2332.0904   1   7   0.0016   0.0011   0.0110  -0.0004   0.0012  -0.0033 -15.00  110.6
2024/07/09 09:56:16.000   28.293072850  -16.542445036  2332.0905   1   7   0.0016   0.0011   0.0110  -0.0004   0.0012  -0.0033 -14.00  111.5
2024/07/09 09:56:17.000   28.293072850  -16.542445036  2332.0907   1   7   0.0016   0.0011   0.0110  -0.0004   0.0012  -0.0033 -13.00  112.1
2024/07/09 09:56:18.000   28.293072850  -16.542445036  2332.0909   1   7   0.0016   0.0011   0.0110  -0.0004   0.0012  -0.0033 -12.00  113.5
2024/07/09 09:56:19.000   28.293072850  -16.542445036  2332.0911   1   7   0.0016   0.0011   0.0110  -0.0004   0.0012  -0.0033 -11.00  114.5
2024/07/09 09:56:20.000   28.293072850  -16.542445036  2332.0913   1   7   0.0016   0.0011   0.0110  -0.0004   0.0012  -0.0033 -10.00  115.4
2024/07/09 09:56:21.000   28.293072849  -16.542445036  2332.0916   1   7   0.0016   0.0011   0.0110  -0.0004   0.0012  -0.0033  -9.00  116.0
2024/07/09 09:56:22.000   28.293072849  -16.542445035  2332.0919   1   7   0.0016   0.0011   0.0110  -0.0004   0.0012  -0.0033  -8.00  115.5
2024/07/09 09:56:23.000   28.293072849  -16.542445035  2332.0922   1   7   0.0016   0.0011   0.0110  -0.0004   0.0012  -0.0033  -7.00  114.8
2024/07/09 09:56:24.000   28.293072849  -16.542445035  2332.0926   1   7   0.0016   0.0011   0.0109  -0.0004   0.0012  -0.0033  -6.00  114.4
2024/07/09 09:56:25.000   28.293072848  -16.542445035  2332.0930   1   7   0.0016   0.0011   0.0109  -0.0004   0.0012  -0.0033  -5.00  114.5
2024/07/09 09:56:26.000   28.293072848  -16.542445035  2332.0935   1   7   0.0016   0.0011   0.0109  -0.0004   0.0012  -0.0033  -4.00  115.0
2024/07/09 09:56:27.000   28.293072848  -16.542445035  2332.0940   1   7   0.0016   0.0011   0.0109  -0.0004   0.0012  -0.0032  -3.00  116.0
2024/07/09 09:56:28.000   28.293072847  -16.542445035  2332.0945   1   7   0.0016   0.0011   0.0109  -0.0004   0.0012  -0.0032  -2.00  116.8
2024/07/09 09:56:29.000   28.293072847  -16.542445035  2332.0950   1   7   0.0016   0.0011   0.0109  -0.0004   0.0012  -0.0032  -1.00  117.0
2024/07/09 09:56:30.000   28.293072847  -16.542445035  2332.0956   1   7   0.0016   0.0011   0.0109  -0.0004   0.0012  -0.0032   0.00  116.5
2024/07/09 09:56:31.000   28.293072853  -16.542445036  2332.0915   1   7   0.0016   0.0011   0.0109  -0.0004   0.0012  -0.0033   1.00   25.0
2024/07/09 09:56:32.000   28.293072853  -16.542445036  2332.0920   1   7   0.0016   0.0011   0.0109  -0.0004   0.0012  -0.0033   2.00   44.9
2024/07/09 09:56:33.000   28.293072853  -16.542445036  2332.0924   1   7   0.0016   0.0011   0.0109  -0.0004   0.0012  -0.0033   3.00   61.1
2024/07/09 09:56:34.000   28.293072853  -16.542445036  2332.0929   1   7   0.0016   0.0011   0.0109  -0.0004   0.0012  -0.0033   4.00   74.9
2024/07/09 09:56:35.000   28.293072852  -16.542445036  2332.0933   1   7   0.0016   0.0011   0.0109  -0.0004   0.0012  -0.0033   5.00   84.4
2024/07/09 09:56:36.000   28.293072852  -16.542445036  2332.0936   1   7   0.0016   0.0011   0.0109  -0.0004   0.0012  -0.0033   6.00   91.4
2024/07/09 09:56:37.000   28.293072852  -16.542445036  2332.0939   1   7   0.0016   0.0011   0.0109  -0.0004   0.0012  -0.0033   7.00   94.8
2024/07/09 09:56:38.000   28.293072852  -16.542445036  2332.0942   1   7   0.0016   0.0011   0.0109  -0.0004   0.0012  -0.0033   8.00   96.5
2024/07/09 09:56:39.000   28.293072851  -16.542445036  2332.0945   1   7   0.0016   0.0011   0.0109  -0.0004   0.0012  -0.0033   9.00   98.1
2024/07/09 09:56:40.000   28.293072851  -16.542445036  2332.0947   1   7   0.0016   0.0011   0.0109  -0.0004   0.0012  -0.0033  10.00   99.6
2024/07/09 09:56:41.000   28.293072851  -16.542445036  2332.0949   1   7   0.0016   0.0011   0.0109  -0.0004   0.0012  -0.0033  11.00  101.4
2024/07/09 09:56:42.000   28.293072851  -16.542445036  2332.0951   1   7   0.0016   0.0011   0.0109  -0.0004   0.0012  -0.0033  12.00  102.4
2024/07/09 09:56:43.000   28.293072851  -16.542445036  2332.0953   1   7   0.0016   0.0011   0.0109  -0.0004   0.0012  -0.0033  13.00  103.4
2024/07/09 09:56:44.000   28.293072851  -16.542445036  2332.0955   1   7   0.0016   0.0011   0.0109  -0.0004   0.0012  -0.0033  14.00  104.9
2024/07/09 09:56:45.000   28.293072850  -16.542445036  2332.0956   1   7   0.0016   0.0011   0.0109  -0.0004   0.0012  -0.0033 -15.00  106.0
2024/07/09 09:56:46.000   28.293072850  -16.542445036  2332.0958   1   7   0.0016   0.0011   0.0109  -0.0004   0.0012  -0.0032 -14.00  106.8
2024/07/09 09:56:47.000   28.293072850  -16.542445036  2332.0960   1   7   0.0016   0.0011   0.0109  -0.0004   0.0012  -0.0032 -13.00  107.0
2024/07/09 09:56:48.000   28.293072850  -16.542445036  2332.0962   1   7   0.0016   0.0011   0.0109  -0.0004   0.0012  -0.0032 -12.00  106.8
2024/07/09 09:56:49.000   28.293072850  -16.542445036  2332.0964   1   7   0.0016   0.0011   0.0109  -0.0004   0.0012  -0.0032 -11.00  107.1
2024/07/09 09:56:50.000   28.293072849  -16.542445036  2332.0967   1   7   0.0016   0.0011   0.0109  -0.0004   0.0012  -0.0032 -10.00  107.0
2024/07/09 09:56:51.000   28.293072849  -16.542445036  2332.0969   1   7   0.0016   0.0011   0.0109  -0.0004   0.0012  -0.0032  -9.00  107.1
2024/07/09 09:56:52.000   28.293072849  -16.542445036  2332.0972   1   7   0.0016   0.0011   0.0109  -0.0004   0.0012  -0.0032  -8.00  106.8
2024/07/09 09:56:53.000   28.293072848  -16.542445036  2332.0975   1   7   0.0016   0.0011   0.0109  -0.0004   0.0012  -0.0032  -7.00  106.4
2024/07/09 09:56:54.000   28.293072848  -16.542445035  2332.0978   1   7   0.0016   0.0011   0.0109  -0.0004   0.0012  -0.0032  -6.00  107.5
2024/07/09 09:56:55.000   28.293072848  -16.542445035  2332.0982   1   7   0.0016   0.0011   0.0109  -0.0004   0.0012  -0.0032  -5.00  107.7
2024/07/09 09:56:56.000   28.293072847  -16.542445035  2332.0986   1   7   0.0016   0.0011   0.0109  -0.0004   0.0012  -0.0032  -4.00  109.0
2024/07/09 09:56:57.000   28.293072847  -16.542445035  2332.0991   1   7   0.0016   0.0011   0.0108  -0.0004   0.0012  -0.0032  -3.00  110.1
2024/07/09 09:56:58.000   28.293072847  -16.542445035  2332.0996   1   7   0.0016   0.0011   0.0108  -0.0004   0.0012  -0.0032  -2.00  110.7
2024/07/09 09:56:59.000   28.293072846  -16.542445035  2332.1001   1   7   0.0016   0.0011   0.0108  -0.0004   0.0012  -0.0032  -1.00  112.7
2024/07/09 09:57:00.000   28.293072846  -16.542445035  2332.1005   1   7   0.0016   0.0011   0.0108  -0.0004   0.0012  -0.0032   0.00  114.9
2024/07/09 09:57:01.000   28.293072853  -16.542445036  2332.0957   1   7   0.0016   0.0011   0.0109  -0.0004   0.0012  -0.0033   1.00   26.7
2024/07/09 09:57:02.000   28.293072853  -16.542445036  2332.0961   1   7   0.0016   0.0011   0.0109  -0.0004   0.0012  -0.0033   2.00   46.0
2024/07/09 09:57:03.000   28.293072853  -16.542445036  2332.0965   1   7   0.0016   0.0011   0.0109  -0.0004   0.0012  -0.0032   3.00   60.3
2024/07/09 09:57:04.000   28.293072852  -16.542445036  2332.0968   1   7   0.0016   0.0011   0.0109  -0.0004   0.0012  -0.0032   4.00   70.7
2024/07/09 09:57:05.000   28.293072852  -16.542445036  2332.0971   1   7   0.0016   0.0011   0.0108  -0.0004   0.0012  -0.0032   5.00   79.2
2024/07/09 09:57:06.000   28.293072852  -16.542445036  2332.0973   1   7   0.0016   0.0011   0.0108  -0.0004   0.0012  -0.0032   6.00   86.7
2024/07/09 09:57:07.000   28.293072852  -16.542445036  2332.0975   1   7   0.0016   0.0011   0.0108  -0.0004   0.0012  -0.0032   7.00   90.5
2024/07/09 09:57:08.000   28.293072851  -16.542445036  2332.0977   1   7   0.0016   0.0011   0.0108  -0.0004   0.0012  -0.0032   8.00   93.2
2024/07/09 09:57:09.000   28.293072851  -16.542445036  2332.0978   1   7   0.0016   0.0011   0.0108  -0.0004   0.0012  -0.0032   9.00   95.9
2024/07/09 09:57:10.000   28.293072851  -16.542445036  2332.0980   1   7   0.0016   0.0011   0.0108  -0.0004   0.0012  -0.0032  10.00   99.0
2024/07/09 09:57:11.000   28.293072851  -16.542445036  2332.0981   1   7   0.0016   0.0011   0.0108  -0.0004   0.0012  -0.0032  11.00  101.5
2024/07/09 09:57:12.000   28.293072851  -16.542445036  2332.0982   1   7   0.0016   0.0011   0.0108  -0.0004   0.0012  -0.0032  12.00  104.4
2024/07/09 09:57:13.000   28.293072851  -16.542445036  2332.0984   1   7   0.0016   0.0011   0.0108  -0.0004   0.0012  -0.0032  13.00  107.1
2024/07/09 09:57:14.000   28.293072851  -16.542445036  2332.0985   1   7   0.0016   0.0011   0.0108  -0.0004   0.0012  -0.0032  14.00  110.3
2024/07/09 09:57:15.000   28.293072851  -16.542445036  2332.0985   1   7   0.0016   0.0011   0.0108  -0.0004   0.0012  -0.0032 -15.00  113.3
2024/07/09 09:57:16.000   28.293072850  -16.542445036  2332.0986   1   7   0.0016   0.0011   0.0108  -0.0004   0.0012  -0.0032 -14.00  116.2
2024/07/09 09:57:17.000   28.293072850  -16.542445036  2332.0988   1   7   0.0016   0.0011   0.0108  -0.0004   0.0012  -0.0032 -13.00  119.4
2024/07/09 09:57:18.000   28.293072850  -16.542445036  2332.0989   1   7   0.0016   0.0011   0.0108  -0.0004   0.0012  -0.0032 -12.00  122.6
2024/07/09 09:57:19.000   28.293072850  -16.542445036  2332.0990   1   7   0.0016   0.0011   0.0108  -0.0004   0.0012  -0.0032 -11.00  126.5
2024/07/09 09:57:20.000   28.293072850  -16.542445036  2332.0991   1   7   0.0016   0.0011   0.0108  -0.0004   0.0012  -0.0032 -10.00  129.9
2024/07/09 09:57:21.000   28.293072850  -16.542445036  2332.0993   1   7   0.0016   0.0011   0.0108  -0.0004   0.0011  -0.0032  -9.00  134.0
2024/07/09 09:57:22.000   28.293072850  -16.542445036  2332.0994   1   7   0.0016   0.0011   0.0108  -0.0004   0.0011  -0.0032  -8.00  138.2
2024/07/09 09:57:23.000   28.293072849  -16.542445036  2332.0996   1   7   0.0016   0.0011   0.0108  -0.0004   0.0011  -0.0032  -7.00  142.4
2024/07/09 09:57:24.000   28.293072849  -16.542445036  2332.0999   1   7   0.0016   0.0011   0.0108  -0.0004   0.0011  -0.0032  -6.00  146.7
2024/07/09 09:57:25.000   28.293072849  -16.542445036  2332.1002   1   7   0.0016   0.0011   0.0108  -0.0004   0.0011  -0.0032  -5.00  150.8
2024/07/09 09:57:26.000   28.293072848  -16.542445036  2332.1005   1   7   0.0016   0.0011   0.0108  -0.0004   0.0011  -0.0032  -4.00  153.9
2024/07/09 09:57:27.000   28.293072848  -16.542445036  2332.1009   1   7   0.0016   0.0011   0.0108  -0.0004   0.0011  -0.0032  -3.00  157.2
2024/07/09 09:57:28.000   28.293072848  -16.542445036  2332.1014   1   7   0.0016   0.0011   0.0108  -0.0004   0.0011  -0.0032  -2.00  159.6
