% program   : RTKPOST-EX 2.5.0
% inp file  : C:\Users\SallyHenry\Desktop\Sally Internship\GNSS gravi\DATA\Survey Rover Obs\MI00.24o
% inp file  : C:\Users\SallyHenry\Desktop\Sally Internship\GNSS gravi\DATA\BaseStations\TN02\TN0200ESP_R_20241310000_01D_30S_MO.rnx
% inp file  : C:\Users\SallyHenry\Desktop\Sally Internship\GNSS gravi\DATA\BaseStations\TN02\TN0200ESP_R_20241310000_01D_MN.rnx
% inp file  : C:\Users\SallyHenry\Desktop\Sally Internship\GNSS gravi\DATA\aux_files\Survey\IGS0OPSFIN_20241310000_01D_15M_ORB.SP3
% inp file  : C:\Users\SallyHenry\Desktop\Sally Internship\GNSS gravi\DATA\aux_files\Survey\IGS0OPSFIN_20241310000_01D_30S_CLK.CLK
% obs start : 2024/05/10 08:43:55.0 GPST (week2313 463435.0s)
% obs end   : 2024/05/10 08:58:55.0 GPST (week2313 464335.0s)
% pos mode  : Static
% freqs     : L1+L2/E5b
% solution  : Combined-No Phase Reset
% elev mask : 15.0 deg
% dynamics  : on
% tidecorr  : solid
% ionos opt : Estimate TEC
% tropo opt : Estimate ZTD+Grad
% ephemeris : Precise
% navi sys  : GPS GLONASS Galileo QZSS BDS
% amb res   : Fix and Hold
% amb glo   : Fix and Hold
% amb bds   : on
% val thres : 3.0
% antenna1  :                       ( 0.0000  0.0000  1.8000)
% antenna2  :                       ( 0.0000  0.0000  0.0771)
% ref pos   :  28.418257450  -16.550784480    54.4145
%
% (lat/lon/height=WGS84/ellipsoidal,Q=1:fix,2:float,3:sbas,4:dgps,5:single,6:ppp,ns=# of satellites)
%  GPST                  latitude(deg) longitude(deg)  height(m)   Q  ns   sdn(m)   sde(m)   sdu(m)  sdne(m)  sdeu(m)  sdun(m) age(s)  ratio
2024/05/10 08:43:55.000   28.470663387  -16.378623399   808.2424   2   7   0.0163   0.0349   0.0647   0.0143  -0.0334  -0.0222  -5.00    0.0
2024/05/10 08:43:56.000   28.470663386  -16.378623396   808.2415   2   7   0.0163   0.0349   0.0648   0.0143  -0.0334  -0.0223  -4.00    0.0
2024/05/10 08:43:57.000   28.470663385  -16.378623391   808.2400   2   7   0.0164   0.0349   0.0648   0.0143  -0.0334  -0.0223  -3.00    0.0
2024/05/10 08:43:58.000   28.470663384  -16.378623390   808.2381   2   7   0.0164   0.0349   0.0649   0.0143  -0.0334  -0.0223  -2.00    0.0
2024/05/10 08:43:59.000   28.470663382  -16.378623381   808.2359   2   7   0.0164   0.0350   0.0649   0.0143  -0.0335  -0.0223  -1.00    0.0
2024/05/10 08:44:00.000   28.470663381  -16.378623374   808.2337   2   7   0.0164   0.0350   0.0650   0.0143  -0.0335  -0.0223   0.00    0.0
2024/05/10 08:44:01.000   28.470663380  -16.378623369   808.2315   2   7   0.0164   0.0350   0.0651   0.0143  -0.0335  -0.0224   1.00    0.0
2024/05/10 08:44:02.000   28.470663380  -16.378623358   808.2285   2   7   0.0165   0.0351   0.0652   0.0143  -0.0336  -0.0224   2.00    0.0
2024/05/10 08:44:03.000   28.470663379  -16.378623350   808.2265   2   7   0.0165   0.0351   0.0653   0.0143  -0.0336  -0.0224   3.00    0.0
2024/05/10 08:44:04.000   28.470663378  -16.378623345   808.2250   2   7   0.0165   0.0351   0.0654   0.0143  -0.0336  -0.0224   4.00    0.0
2024/05/10 08:44:05.000   28.470663377  -16.378623342   808.2238   2   7   0.0165   0.0351   0.0654   0.0144  -0.0337  -0.0224   5.00    0.0
2024/05/10 08:44:06.000   28.470663376  -16.378623340   808.2229   2   7   0.0165   0.0352   0.0655   0.0144  -0.0337  -0.0224   6.00    0.0
2024/05/10 08:44:07.000   28.470663375  -16.378623340   808.2220   2   7   0.0165   0.0352   0.0655   0.0144  -0.0337  -0.0225   7.00    0.0
2024/05/10 08:44:08.000   28.470663374  -16.378623338   808.2216   2   7   0.0165   0.0352   0.0655   0.0144  -0.0337  -0.0225   8.00    0.0
2024/05/10 08:44:09.000   28.470663374  -16.378623337   808.2214   2   7   0.0165   0.0352   0.0655   0.0144  -0.0337  -0.0225   9.00    0.0
2024/05/10 08:44:10.000   28.470663373  -16.378623338   808.2213   2   7   0.0165   0.0352   0.0655   0.0144  -0.0337  -0.0225  10.00    0.0
2024/05/10 08:44:11.000   28.470663373  -16.378623339   808.2210   2   7   0.0165   0.0352   0.0656   0.0144  -0.0337  -0.0225  11.00    0.0
2024/05/10 08:44:12.000   28.470663373  -16.378623338   808.2208   2   7   0.0165   0.0352   0.0656   0.0144  -0.0337  -0.0225  12.00    0.0
2024/05/10 08:44:13.000   28.470663372  -16.378623338   808.2206   2   7   0.0165   0.0352   0.0656   0.0144  -0.0337  -0.0225  13.00    0.0
2024/05/10 08:44:14.000   28.470663372  -16.378623338   808.2204   2   7   0.0166   0.0352   0.0656   0.0144  -0.0337  -0.0225  14.00    0.0
2024/05/10 08:44:15.000   28.470663372  -16.378623337   808.2202   2   7   0.0166   0.0352   0.0656   0.0144  -0.0337  -0.0225 -15.00    0.0
2024/05/10 08:44:16.000   28.470663372  -16.378623336   808.2199   2   7   0.0166   0.0352   0.0656   0.0144  -0.0337  -0.0225 -14.00    0.0
2024/05/10 08:44:17.000   28.470663372  -16.378623336   808.2197   2   7   0.0166   0.0352   0.0656   0.0144  -0.0337  -0.0225 -13.00    0.0
2024/05/10 08:44:18.000   28.470663371  -16.378623336   808.2195   2   7   0.0166   0.0352   0.0656   0.0143  -0.0336  -0.0225 -12.00    0.0
2024/05/10 08:44:19.000   28.470663371  -16.378623335   808.2191   2   7   0.0166   0.0352   0.0656   0.0143  -0.0336  -0.0225 -11.00    0.0
2024/05/10 08:44:20.000   28.470663371  -16.378623336   808.2189   2   7   0.0166   0.0352   0.0656   0.0143  -0.0336  -0.0225 -10.00    0.0
2024/05/10 08:44:21.000   28.470663370  -16.378623336   808.2185   2   7   0.0166   0.0352   0.0656   0.0143  -0.0336  -0.0225  -9.00    0.0
2024/05/10 08:44:22.000   28.470663370  -16.378623334   808.2180   2   7   0.0166   0.0352   0.0656   0.0143  -0.0336  -0.0225  -8.00    0.0
2024/05/10 08:44:23.000   28.470663369  -16.378623333   808.2175   2   7   0.0166   0.0352   0.0656   0.0143  -0.0336  -0.0225  -7.00    0.0
2024/05/10 08:44:24.000   28.470663368  -16.378623331   808.2170   2   7   0.0166   0.0352   0.0657   0.0143  -0.0336  -0.0225  -6.00    0.0
2024/05/10 08:44:25.000   28.470663367  -16.378623328   808.2163   2   7   0.0166   0.0352   0.0657   0.0143  -0.0337  -0.0225  -5.00    0.0
2024/05/10 08:44:26.000   28.470663366  -16.378623326   808.2156   2   7   0.0166   0.0352   0.0657   0.0144  -0.0337  -0.0225  -4.00    0.0
2024/05/10 08:44:27.000   28.470663365  -16.378623322   808.2149   2   7   0.0166   0.0352   0.0658   0.0144  -0.0337  -0.0225  -3.00    0.0
2024/05/10 08:44:28.000   28.470663363  -16.378623318   808.2135   2   7   0.0166   0.0352   0.0658   0.0144  -0.0337  -0.0225  -2.00    0.0
2024/05/10 08:44:29.000   28.470663361  -16.378623311   808.2116   2   7   0.0166   0.0353   0.0659   0.0144  -0.0337  -0.0225  -1.00    0.0
2024/05/10 08:44:30.000   28.470663359  -16.378623304   808.2103   2   7   0.0167   0.0353   0.0660   0.0144  -0.0338  -0.0226   0.00    0.0
2024/05/10 08:44:31.000   28.470663356  -16.378623298   808.2083   2   7   0.0167   0.0353   0.0661   0.0144  -0.0338  -0.0226   1.00    0.0
2024/05/10 08:44:32.000   28.470663355  -16.378623293   808.2067   2   7   0.0167   0.0354   0.0662   0.0144  -0.0338  -0.0226   2.00    0.0
2024/05/10 08:44:33.000   28.470663352  -16.378623289   808.2049   2   7   0.0167   0.0354   0.0663   0.0144  -0.0339  -0.0226   3.00    0.0
2024/05/10 08:44:34.000   28.470663351  -16.378623286   808.2035   2   7   0.0168   0.0354   0.0664   0.0144  -0.0339  -0.0227   4.00    0.0
2024/05/10 08:44:35.000   28.470663348  -16.378623285   808.2024   2   7   0.0168   0.0355   0.0664   0.0145  -0.0339  -0.0227   5.00    0.0
2024/05/10 08:44:36.000   28.470663346  -16.378623283   808.2015   2   7   0.0168   0.0355   0.0664   0.0145  -0.0339  -0.0227   6.00    0.0
2024/05/10 08:44:37.000   28.470663344  -16.378623282   808.2008   2   7   0.0168   0.0355   0.0665   0.0145  -0.0339  -0.0227   7.00    0.0
2024/05/10 08:44:38.000   28.470663343  -16.378623279   808.2001   2   7   0.0168   0.0355   0.0665   0.0145  -0.0339  -0.0227   8.00    0.0
2024/05/10 08:44:39.000   28.470663342  -16.378623278   808.1997   2   7   0.0168   0.0355   0.0665   0.0145  -0.0339  -0.0227   9.00    0.0
2024/05/10 08:44:40.000   28.470663341  -16.378623277   808.1993   2   7   0.0168   0.0355   0.0665   0.0145  -0.0339  -0.0227  10.00    0.0
2024/05/10 08:44:41.000   28.470663341  -16.378623277   808.1991   2   7   0.0168   0.0355   0.0666   0.0145  -0.0339  -0.0227  11.00    0.0
2024/05/10 08:44:42.000   28.470663341  -16.378623276   808.1987   2   7   0.0168   0.0355   0.0666   0.0145  -0.0339  -0.0227  12.00    0.0
2024/05/10 08:44:43.000   28.470663340  -16.378623275   808.1986   2   7   0.0168   0.0355   0.0666   0.0145  -0.0339  -0.0227  13.00    0.0
2024/05/10 08:44:44.000   28.470663340  -16.378623275   808.1984   2   7   0.0168   0.0355   0.0666   0.0145  -0.0339  -0.0227  14.00    0.0
2024/05/10 08:44:45.000   28.470663340  -16.378623274   808.1982   2   7   0.0168   0.0355   0.0666   0.0145  -0.0339  -0.0227 -15.00    0.0
2024/05/10 08:44:46.000   28.470663340  -16.378623274   808.1981   2   7   0.0168   0.0355   0.0666   0.0145  -0.0339  -0.0227 -14.00    0.0
2024/05/10 08:44:47.000   28.470663339  -16.378623274   808.1980   2   7   0.0168   0.0355   0.0666   0.0145  -0.0339  -0.0227 -13.00    0.0
2024/05/10 08:44:48.000   28.470663339  -16.378623273   808.1978   2   7   0.0168   0.0355   0.0666   0.0145  -0.0339  -0.0227 -12.00    0.0
2024/05/10 08:44:49.000   28.470663338  -16.378623272   808.1975   2   7   0.0168   0.0355   0.0666   0.0145  -0.0339  -0.0227 -11.00    0.0
2024/05/10 08:44:50.000   28.470663338  -16.378623272   808.1975   2   7   0.0168   0.0355   0.0666   0.0145  -0.0339  -0.0227 -10.00    0.0
2024/05/10 08:44:51.000   28.470663336  -16.378623271   808.1974   2   7   0.0168   0.0355   0.0666   0.0145  -0.0339  -0.0227  -9.00    0.0
2024/05/10 08:44:52.000   28.470663335  -16.378623270   808.1973   2   7   0.0168   0.0355   0.0666   0.0145  -0.0339  -0.0227  -8.00    0.0
2024/05/10 08:44:53.000   28.470663333  -16.378623269   808.1972   2   7   0.0168   0.0355   0.0667   0.0145  -0.0339  -0.0227  -7.00    0.0
2024/05/10 08:44:54.000   28.470663330  -16.378623268   808.1972   2   7   0.0168   0.0355   0.0667   0.0145  -0.0339  -0.0227  -6.00    0.0
2024/05/10 08:44:55.000   28.470663327  -16.378623268   808.1975   2   7   0.0168   0.0355   0.0667   0.0145  -0.0339  -0.0227  -5.00    0.0
2024/05/10 08:44:56.000   28.470663324  -16.378623267   808.1975   2   7   0.0169   0.0355   0.0667   0.0145  -0.0340  -0.0227  -4.00    0.0
2024/05/10 08:44:57.000   28.470663318  -16.378623268   808.1976   2   7   0.0169   0.0356   0.0668   0.0145  -0.0340  -0.0228  -3.00    0.0
2024/05/10 08:44:58.000   28.470663312  -16.378623267   808.1978   2   7   0.0169   0.0356   0.0669   0.0145  -0.0340  -0.0228  -2.00    0.0
2024/05/10 08:44:59.000   28.470663304  -16.378623269   808.1984   2   7   0.0169   0.0356   0.0669   0.0145  -0.0340  -0.0228  -1.00    0.0
2024/05/10 08:45:00.000   28.470663295  -16.378623275   808.1993   2   7   0.0169   0.0357   0.0670   0.0145  -0.0341  -0.0228   0.00    0.0
2024/05/10 08:45:01.000   28.470663285  -16.378623275   808.1996   2   7   0.0169   0.0357   0.0671   0.0145  -0.0341  -0.0228   1.00    0.0
2024/05/10 08:45:02.000   28.470663277  -16.378623273   808.1985   2   7   0.0170   0.0357   0.0672   0.0145  -0.0341  -0.0229   2.00    0.0
2024/05/10 08:45:03.000   28.470663269  -16.378623273   808.1985   2   7   0.0170   0.0358   0.0673   0.0145  -0.0342  -0.0229   3.00    0.0
2024/05/10 08:45:04.000   28.470663263  -16.378623272   808.1983   2   7   0.0170   0.0358   0.0674   0.0146  -0.0342  -0.0229   4.00    0.0
2024/05/10 08:45:05.000   28.470663258  -16.378623269   808.1984   2   7   0.0170   0.0358   0.0674   0.0146  -0.0342  -0.0229   5.00    0.0
2024/05/10 08:45:06.000   28.470663256  -16.378623266   808.1980   2   7   0.0170   0.0358   0.0675   0.0146  -0.0342  -0.0229   6.00    0.0
2024/05/10 08:45:07.000   28.470663253  -16.378623263   808.1977   2   7   0.0170   0.0358   0.0675   0.0146  -0.0342  -0.0229   7.00    0.0
2024/05/10 08:45:08.000   28.470663252  -16.378623260   808.1970   2   7   0.0170   0.0358   0.0675   0.0146  -0.0342  -0.0229   8.00    0.0
2024/05/10 08:45:09.000   28.470663251  -16.378623258   808.1966   2   7   0.0171   0.0358   0.0675   0.0146  -0.0342  -0.0230   9.00    0.0
2024/05/10 08:45:10.000   28.470663251  -16.378623255   808.1961   2   7   0.0171   0.0359   0.0676   0.0146  -0.0342  -0.0230  10.00    0.0
2024/05/10 08:45:11.000   28.470663251  -16.378623251   808.1956   2   7   0.0171   0.0359   0.0676   0.0146  -0.0342  -0.0230  11.00    0.0
2024/05/10 08:45:12.000   28.470663251  -16.378623249   808.1952   2   7   0.0171   0.0359   0.0676   0.0146  -0.0342  -0.0230  12.00    0.0
2024/05/10 08:45:13.000   28.470663251  -16.378623246   808.1948   2   7   0.0171   0.0359   0.0676   0.0146  -0.0342  -0.0230  13.00    0.0
2024/05/10 08:45:14.000   28.470663251  -16.378623244   808.1944   2   7   0.0171   0.0359   0.0676   0.0146  -0.0342  -0.0230  14.00    0.0
2024/05/10 08:45:15.000   28.470663252  -16.378623243   808.1941   2   7   0.0171   0.0359   0.0676   0.0146  -0.0342  -0.0230 -15.00    0.0
2024/05/10 08:45:16.000   28.470663252  -16.378623240   808.1936   2   7   0.0171   0.0359   0.0676   0.0146  -0.0342  -0.0230 -14.00    0.0
2024/05/10 08:45:17.000   28.470663252  -16.378623237   808.1933   2   7   0.0171   0.0359   0.0676   0.0146  -0.0342  -0.0230 -13.00    0.0
2024/05/10 08:45:18.000   28.470663252  -16.378623236   808.1930   2   7   0.0171   0.0358   0.0676   0.0146  -0.0342  -0.0230 -12.00    0.0
2024/05/10 08:45:19.000   28.470663252  -16.378623233   808.1927   2   7   0.0171   0.0359   0.0676   0.0146  -0.0342  -0.0230 -11.00    0.0
2024/05/10 08:45:20.000   28.470663251  -16.378623232   808.1926   2   7   0.0171   0.0359   0.0676   0.0146  -0.0342  -0.0230 -10.00    0.0
2024/05/10 08:45:21.000   28.470663251  -16.378623231   808.1924   2   7   0.0171   0.0359   0.0676   0.0146  -0.0342  -0.0230  -9.00    0.0
2024/05/10 08:45:22.000   28.470663250  -16.378623230   808.1924   2   7   0.0171   0.0359   0.0676   0.0146  -0.0342  -0.0230  -8.00    0.0
2024/05/10 08:45:23.000   28.470663248  -16.378623228   808.1923   2   7   0.0171   0.0359   0.0677   0.0146  -0.0342  -0.0230  -7.00    0.0
2024/05/10 08:45:24.000   28.470663247  -16.378623227   808.1924   2   7   0.0171   0.0359   0.0677   0.0146  -0.0342  -0.0230  -6.00    0.0
2024/05/10 08:45:25.000   28.470663245  -16.378623225   808.1924   2   7   0.0171   0.0359   0.0677   0.0146  -0.0343  -0.0230  -5.00    0.0
2024/05/10 08:45:26.000   28.470663242  -16.378623222   808.1925   2   7   0.0171   0.0359   0.0678   0.0146  -0.0343  -0.0230  -4.00    0.0
2024/05/10 08:45:27.000   28.470663240  -16.378623221   808.1925   2   7   0.0171   0.0359   0.0678   0.0146  -0.0343  -0.0230  -3.00    0.0
2024/05/10 08:45:28.000   28.470663235  -16.378623221   808.1928   2   7   0.0171   0.0359   0.0679   0.0146  -0.0343  -0.0230  -2.00    0.0
2024/05/10 08:45:29.000   28.470663230  -16.378623222   808.1933   2   7   0.0172   0.0360   0.0679   0.0146  -0.0343  -0.0230  -1.00    0.0
2024/05/10 08:45:30.000   28.470663224  -16.378623222   808.1935   2   7   0.0172   0.0360   0.0680   0.0146  -0.0344  -0.0231   0.00    0.0
2024/05/10 08:45:31.000   28.470663218  -16.378623222   808.1932   2   7   0.0172   0.0360   0.0681   0.0146  -0.0344  -0.0231   1.00    0.0
2024/05/10 08:45:32.000   28.470663213  -16.378623222   808.1936   2   7   0.0172   0.0361   0.0682   0.0146  -0.0344  -0.0231   2.00    0.0
2024/05/10 08:45:33.000   28.470663207  -16.378623222   808.1944   2   7   0.0172   0.0361   0.0683   0.0146  -0.0345  -0.0231   3.00    0.0
2024/05/10 08:45:34.000   28.470663202  -16.378623225   808.1954   2   7   0.0173   0.0361   0.0684   0.0147  -0.0345  -0.0232   4.00    0.0
2024/05/10 08:45:35.000   28.470663198  -16.378623229   808.1965   2   7   0.0173   0.0362   0.0684   0.0147  -0.0345  -0.0232   5.00    0.0
2024/05/10 08:45:36.000   28.470663195  -16.378623230   808.1972   2   7   0.0173   0.0362   0.0684   0.0147  -0.0345  -0.0232   6.00    0.0
2024/05/10 08:45:37.000   28.470663192  -16.378623229   808.1978   2   7   0.0173   0.0362   0.0685   0.0147  -0.0345  -0.0232   7.00    0.0
2024/05/10 08:45:38.000   28.470663191  -16.378623229   808.1982   2   7   0.0173   0.0362   0.0685   0.0147  -0.0345  -0.0232   8.00    0.0
2024/05/10 08:45:39.000   28.470663189  -16.378623228   808.1987   2   7   0.0173   0.0362   0.0685   0.0147  -0.0345  -0.0232   9.00    0.0
2024/05/10 08:45:40.000   28.470663188  -16.378623227   808.1989   2   7   0.0173   0.0362   0.0685   0.0147  -0.0345  -0.0232  10.00    0.0
2024/05/10 08:45:41.000   28.470663187  -16.378623226   808.1991   2   7   0.0173   0.0362   0.0685   0.0147  -0.0345  -0.0232  11.00    0.0
2024/05/10 08:45:42.000   28.470663186  -16.378623224   808.1992   2   7   0.0173   0.0362   0.0686   0.0147  -0.0345  -0.0232  12.00    0.0
2024/05/10 08:45:43.000   28.470663186  -16.378623222   808.1993   2   7   0.0173   0.0362   0.0686   0.0147  -0.0345  -0.0232  13.00    0.0
2024/05/10 08:45:44.000   28.470663186  -16.378623220   808.1993   2   7   0.0173   0.0362   0.0686   0.0147  -0.0345  -0.0232  14.00    0.0
2024/05/10 08:45:45.000   28.470663186  -16.378623218   808.1993   2   7   0.0173   0.0362   0.0686   0.0147  -0.0345  -0.0232 -15.00    0.0
2024/05/10 08:45:46.000   28.470663186  -16.378623215   808.1993   2   7   0.0173   0.0362   0.0686   0.0147  -0.0345  -0.0232 -14.00    0.0
2024/05/10 08:45:47.000   28.470663186  -16.378623212   808.1991   2   7   0.0173   0.0362   0.0686   0.0147  -0.0345  -0.0232 -13.00    0.0
2024/05/10 08:45:48.000   28.470663186  -16.378623209   808.1991   2   7   0.0173   0.0362   0.0686   0.0147  -0.0345  -0.0232 -12.00    0.0
2024/05/10 08:45:49.000   28.470663186  -16.378623206   808.1990   2   7   0.0173   0.0362   0.0686   0.0147  -0.0345  -0.0232 -11.00    0.0
2024/05/10 08:45:50.000   28.470663186  -16.378623202   808.1990   2   7   0.0173   0.0362   0.0686   0.0147  -0.0345  -0.0232 -10.00    0.0
2024/05/10 08:45:51.000   28.470663186  -16.378623198   808.1990   2   7   0.0173   0.0362   0.0686   0.0147  -0.0345  -0.0232  -9.00    0.0
2024/05/10 08:45:52.000   28.470663186  -16.378623194   808.1990   2   7   0.0173   0.0362   0.0686   0.0147  -0.0345  -0.0232  -8.00    0.0
2024/05/10 08:45:53.000   28.470663187  -16.378623190   808.1991   2   7   0.0173   0.0362   0.0686   0.0147  -0.0345  -0.0232  -7.00    0.0
2024/05/10 08:45:54.000   28.470663187  -16.378623185   808.1992   2   7   0.0173   0.0362   0.0687   0.0147  -0.0345  -0.0232  -6.00    0.0
2024/05/10 08:45:55.000   28.470663188  -16.378623179   808.1992   2   7   0.0173   0.0362   0.0687   0.0147  -0.0346  -0.0232  -5.00    0.0
2024/05/10 08:45:56.000   28.470663188  -16.378623174   808.1994   2   7   0.0174   0.0362   0.0687   0.0147  -0.0346  -0.0232  -4.00    0.0
2024/05/10 08:45:57.000   28.470663189  -16.378623166   808.1995   2   7   0.0174   0.0363   0.0688   0.0147  -0.0346  -0.0232  -3.00    0.0
2024/05/10 08:45:58.000   28.470663191  -16.378623158   808.1992   2   7   0.0174   0.0363   0.0688   0.0147  -0.0346  -0.0233  -2.00    0.0
2024/05/10 08:45:59.000   28.470663193  -16.378623148   808.1992   2   7   0.0174   0.0363   0.0689   0.0147  -0.0346  -0.0233  -1.00    0.0
2024/05/10 08:46:00.000   28.470663197  -16.378623140   808.1990   2   7   0.0174   0.0363   0.0690   0.0147  -0.0347  -0.0233   0.00    0.0
2024/05/10 08:46:01.000   28.470663201  -16.378623129   808.1987   2   7   0.0174   0.0364   0.0691   0.0147  -0.0347  -0.0233   1.00    0.0
2024/05/10 08:46:02.000   28.470663205  -16.378623118   808.1986   2   7   0.0175   0.0364   0.0692   0.0147  -0.0347  -0.0233   2.00    0.0
2024/05/10 08:46:03.000   28.470663209  -16.378623108   808.1988   2   7   0.0175   0.0364   0.0692   0.0148  -0.0347  -0.0234   3.00    0.0
2024/05/10 08:46:04.000   28.470663212  -16.378623098   808.1990   2   7   0.0175   0.0365   0.0693   0.0148  -0.0348  -0.0234   4.00    0.0
2024/05/10 08:46:05.000   28.470663215  -16.378623090   808.1991   2   7   0.0175   0.0365   0.0693   0.0148  -0.0348  -0.0234   5.00    0.0
2024/05/10 08:46:06.000   28.470663218  -16.378623080   808.1986   2   7   0.0175   0.0365   0.0694   0.0148  -0.0348  -0.0234   6.00    0.0
2024/05/10 08:46:07.000   28.470663220  -16.378623073   808.1981   2   7   0.0175   0.0365   0.0694   0.0148  -0.0348  -0.0234   7.00    0.0
2024/05/10 08:46:08.000   28.470663221  -16.378623066   808.1979   2   7   0.0175   0.0365   0.0694   0.0148  -0.0348  -0.0234   8.00    0.0
2024/05/10 08:46:09.000   28.470663222  -16.378623061   808.1977   2   7   0.0175   0.0365   0.0695   0.0148  -0.0348  -0.0234   9.00    0.0
2024/05/10 08:46:10.000   28.470663223  -16.378623055   808.1973   2   7   0.0175   0.0365   0.0695   0.0148  -0.0348  -0.0234  10.00    0.0
2024/05/10 08:46:11.000   28.470663225  -16.378623051   808.1970   2   7   0.0176   0.0365   0.0695   0.0148  -0.0348  -0.0234  11.00    0.0
2024/05/10 08:46:12.000   28.470663225  -16.378623046   808.1966   2   7   0.0176   0.0365   0.0695   0.0148  -0.0348  -0.0234  12.00    0.0
2024/05/10 08:46:13.000   28.470663226  -16.378623042   808.1964   2   7   0.0176   0.0365   0.0695   0.0148  -0.0348  -0.0234  13.00    0.0
2024/05/10 08:46:14.000   28.470663227  -16.378623040   808.1962   2   7   0.0176   0.0365   0.0695   0.0148  -0.0348  -0.0234  14.00    0.0
2024/05/10 08:46:15.000   28.470663228  -16.378623037   808.1960   2   7   0.0176   0.0365   0.0695   0.0148  -0.0348  -0.0234 -15.00    0.0
2024/05/10 08:46:16.000   28.470663229  -16.378623034   808.1958   2   7   0.0176   0.0365   0.0695   0.0148  -0.0348  -0.0234 -14.00    0.0
2024/05/10 08:46:17.000   28.470663229  -16.378623031   808.1958   2   7   0.0176   0.0365   0.0695   0.0148  -0.0348  -0.0234 -13.00    0.0
2024/05/10 08:46:18.000   28.470663230  -16.378623029   808.1956   2   7   0.0176   0.0365   0.0695   0.0148  -0.0348  -0.0234 -12.00    0.0
2024/05/10 08:46:19.000   28.470663232  -16.378623026   808.1955   2   7   0.0176   0.0365   0.0695   0.0148  -0.0348  -0.0234 -11.00    0.0
2024/05/10 08:46:20.000   28.470663232  -16.378623022   808.1955   2   7   0.0176   0.0365   0.0695   0.0148  -0.0348  -0.0234 -10.00    0.0
2024/05/10 08:46:21.000   28.470663233  -16.378623019   808.1954   2   7   0.0176   0.0365   0.0696   0.0148  -0.0348  -0.0234  -9.00    1.0
2024/05/10 08:46:22.000   28.470663235  -16.378623016   808.1954   2   7   0.0176   0.0366   0.0696   0.0148  -0.0348  -0.0234  -8.00    1.1
2024/05/10 08:46:23.000   28.470663236  -16.378623011   808.1954   2   7   0.0176   0.0366   0.0696   0.0148  -0.0348  -0.0234  -7.00    1.2
2024/05/10 08:46:24.000   28.470663238  -16.378623005   808.1955   2   7   0.0176   0.0366   0.0696   0.0148  -0.0348  -0.0234  -6.00    1.2
2024/05/10 08:46:25.000   28.470663241  -16.378622999   808.1957   2   7   0.0176   0.0366   0.0696   0.0148  -0.0348  -0.0234  -5.00    1.1
2024/05/10 08:46:26.000   28.470663244  -16.378622991   808.1954   2   7   0.0176   0.0366   0.0697   0.0148  -0.0349  -0.0234  -4.00    1.0
2024/05/10 08:46:27.000   28.470663248  -16.378622982   808.1951   2   7   0.0176   0.0366   0.0697   0.0148  -0.0349  -0.0235  -3.00    1.0
2024/05/10 08:46:28.000   28.470663252  -16.378622972   808.1948   2   7   0.0176   0.0366   0.0697   0.0148  -0.0349  -0.0235  -2.00    1.0
2024/05/10 08:46:29.000   28.470663256  -16.378622961   808.1940   2   7   0.0176   0.0366   0.0698   0.0148  -0.0349  -0.0235  -1.00    1.1
2024/05/10 08:46:30.000   28.470663261  -16.378622949   808.1933   2   7   0.0177   0.0367   0.0699   0.0148  -0.0349  -0.0235   0.00    1.1
2024/05/10 08:46:31.000   28.470663267  -16.378622937   808.1928   2   7   0.0177   0.0367   0.0700   0.0148  -0.0350  -0.0235   1.00    1.3
2024/05/10 08:46:32.000   28.470663274  -16.378622922   808.1912   2   7   0.0177   0.0367   0.0701   0.0148  -0.0350  -0.0235   2.00    1.2
2024/05/10 08:46:33.000   28.470663279  -16.378622911   808.1906   2   7   0.0177   0.0368   0.0701   0.0148  -0.0350  -0.0236   3.00    1.0
2024/05/10 08:46:34.000   28.470663283  -16.378622903   808.1900   2   7   0.0177   0.0368   0.0702   0.0149  -0.0350  -0.0236   4.00    1.0
2024/05/10 08:46:35.000   28.470663285  -16.378622898   808.1900   2   7   0.0177   0.0368   0.0702   0.0149  -0.0351  -0.0236   5.00    1.0
2024/05/10 08:46:36.000   28.470663286  -16.378622895   808.1903   2   7   0.0178   0.0368   0.0703   0.0149  -0.0351  -0.0236   6.00    1.0
2024/05/10 08:46:37.000   28.470663286  -16.378622892   808.1907   2   7   0.0178   0.0368   0.0703   0.0149  -0.0351  -0.0236   7.00    1.1
2024/05/10 08:46:38.000   28.470663287  -16.378622891   808.1912   2   7   0.0178   0.0368   0.0703   0.0149  -0.0351  -0.0236   8.00    1.4
2024/05/10 08:46:39.000   28.470663287  -16.378622889   808.1917   2   7   0.0178   0.0369   0.0703   0.0149  -0.0351  -0.0236   9.00    1.2
2024/05/10 08:46:40.000   28.470663288  -16.378622887   808.1923   2   7   0.0178   0.0369   0.0704   0.0149  -0.0351  -0.0236  10.00    1.0
2024/05/10 08:46:41.000   28.470663288  -16.378622886   808.1928   2   7   0.0178   0.0369   0.0704   0.0149  -0.0351  -0.0236  11.00    1.0
2024/05/10 08:46:42.000   28.470663288  -16.378622885   808.1933   2   7   0.0178   0.0369   0.0704   0.0149  -0.0351  -0.0236  12.00    1.0
2024/05/10 08:46:43.000   28.470663288  -16.378622884   808.1937   2   7   0.0178   0.0369   0.0704   0.0149  -0.0351  -0.0236  13.00    1.0
2024/05/10 08:46:44.000   28.470663288  -16.378622884   808.1942   2   7   0.0178   0.0369   0.0704   0.0149  -0.0351  -0.0236  14.00    1.1
2024/05/10 08:46:45.000   28.470663287  -16.378622883   808.1947   2   7   0.0178   0.0369   0.0704   0.0149  -0.0351  -0.0236 -15.00    1.4
2024/05/10 08:46:46.000   28.470663286  -16.378622883   808.1952   2   7   0.0178   0.0369   0.0704   0.0149  -0.0351  -0.0236 -14.00    1.1
2024/05/10 08:46:47.000   28.470663286  -16.378622882   808.1957   2   7   0.0178   0.0369   0.0704   0.0149  -0.0351  -0.0236 -13.00    1.1
2024/05/10 08:46:48.000   28.470663286  -16.378622883   808.1963   2   7   0.0178   0.0369   0.0704   0.0149  -0.0351  -0.0236 -12.00    1.0
2024/05/10 08:46:49.000   28.470663285  -16.378622884   808.1970   2   7   0.0178   0.0369   0.0704   0.0149  -0.0351  -0.0236 -11.00    1.0
2024/05/10 08:46:50.000   28.470663284  -16.378622885   808.1980   2   7   0.0178   0.0369   0.0704   0.0149  -0.0351  -0.0236 -10.00    1.0
2024/05/10 08:46:51.000   28.470663283  -16.378622886   808.1991   2   7   0.0178   0.0369   0.0704   0.0149  -0.0351  -0.0236  -9.00    1.0
2024/05/10 08:46:52.000   28.470663282  -16.378622887   808.2001   2   7   0.0178   0.0369   0.0704   0.0149  -0.0351  -0.0236  -8.00    1.4
2024/05/10 08:46:53.000   28.470663282  -16.378622887   808.2013   2   7   0.0178   0.0369   0.0704   0.0149  -0.0351  -0.0236  -7.00    1.1
2024/05/10 08:46:54.000   28.470663282  -16.378622888   808.2028   2   7   0.0178   0.0369   0.0705   0.0149  -0.0351  -0.0236  -6.00    1.1
2024/05/10 08:46:55.000   28.470663282  -16.378622890   808.2044   2   7   0.0178   0.0369   0.0705   0.0149  -0.0351  -0.0236  -5.00    1.0
2024/05/10 08:46:56.000   28.470663282  -16.378622891   808.2061   2   7   0.0178   0.0369   0.0705   0.0149  -0.0351  -0.0236  -4.00    1.0
2024/05/10 08:46:57.000   28.470663283  -16.378622892   808.2085   2   7   0.0178   0.0369   0.0706   0.0149  -0.0351  -0.0236  -3.00    1.0
2024/05/10 08:46:58.000   28.470663285  -16.378622892   808.2114   2   7   0.0178   0.0369   0.0706   0.0149  -0.0351  -0.0237  -2.00    1.1
2024/05/10 08:46:59.000   28.470663286  -16.378622892   808.2144   2   7   0.0179   0.0370   0.0707   0.0149  -0.0352  -0.0237  -1.00    1.5
2024/05/10 08:47:00.000   28.470663288  -16.378622891   808.2176   2   7   0.0179   0.0370   0.0707   0.0149  -0.0352  -0.0237   0.00    1.0
2024/05/10 08:47:01.000   28.470663291  -16.378622889   808.2206   2   7   0.0179   0.0370   0.0708   0.0149  -0.0352  -0.0237   1.00    1.1
2024/05/10 08:47:02.000   28.470663296  -16.378622887   808.2238   2   7   0.0179   0.0370   0.0709   0.0149  -0.0352  -0.0237   2.00    1.1
2024/05/10 08:47:03.000   28.470663299  -16.378622886   808.2264   2   7   0.0179   0.0371   0.0709   0.0149  -0.0353  -0.0237   3.00    1.1
2024/05/10 08:47:04.000   28.470663301  -16.378622887   808.2283   2   7   0.0179   0.0371   0.0710   0.0149  -0.0353  -0.0238   4.00    1.0
2024/05/10 08:47:05.000   28.470663303  -16.378622886   808.2300   2   7   0.0180   0.0371   0.0710   0.0149  -0.0353  -0.0238   5.00    1.0
2024/05/10 08:47:06.000   28.470663304  -16.378622886   808.2313   2   7   0.0180   0.0371   0.0711   0.0149  -0.0353  -0.0238   6.00    1.4
2024/05/10 08:47:07.000   28.470663305  -16.378622886   808.2325   2   7   0.0180   0.0371   0.0711   0.0149  -0.0353  -0.0238   7.00    1.0
2024/05/10 08:47:08.000   28.470663306  -16.378622886   808.2335   2   7   0.0180   0.0371   0.0711   0.0149  -0.0353  -0.0238   8.00    1.1
2024/05/10 08:47:09.000   28.470663307  -16.378622886   808.2344   2   7   0.0180   0.0371   0.0711   0.0149  -0.0353  -0.0238   9.00    1.0
2024/05/10 08:47:10.000   28.470663308  -16.378622885   808.2350   2   7   0.0180   0.0371   0.0712   0.0149  -0.0353  -0.0238  10.00    1.1
2024/05/10 08:47:11.000   28.470663308  -16.378622885   808.2357   2   7   0.0180   0.0371   0.0712   0.0149  -0.0353  -0.0238  11.00    1.0
2024/05/10 08:47:12.000   28.470663309  -16.378622885   808.2361   2   7   0.0180   0.0372   0.0712   0.0149  -0.0353  -0.0238  12.00    1.1
2024/05/10 08:47:13.000   28.470663310  -16.378622885   808.2365   2   7   0.0180   0.0372   0.0712   0.0149  -0.0353  -0.0238  13.00    1.4
2024/05/10 08:47:14.000   28.470663311  -16.378622884   808.2368   2   7   0.0180   0.0372   0.0712   0.0149  -0.0353  -0.0238  14.00    1.0
2024/05/10 08:47:15.000   28.470663311  -16.378622885   808.2372   2   7   0.0180   0.0372   0.0712   0.0149  -0.0353  -0.0238 -15.00    1.1
2024/05/10 08:47:16.000   28.470663311  -16.378622885   808.2375   2   7   0.0180   0.0372   0.0712   0.0149  -0.0353  -0.0238 -14.00    1.0
2024/05/10 08:47:17.000   28.470663312  -16.378622885   808.2379   2   7   0.0180   0.0372   0.0712   0.0149  -0.0353  -0.0238 -13.00    1.1
2024/05/10 08:47:18.000   28.470663312  -16.378622887   808.2383   2   7   0.0180   0.0372   0.0712   0.0149  -0.0353  -0.0238 -12.00    1.0
2024/05/10 08:47:19.000   28.470663312  -16.378622888   808.2389   2   7   0.0180   0.0372   0.0712   0.0149  -0.0353  -0.0238 -11.00    1.1
2024/05/10 08:47:20.000   28.470663312  -16.378622890   808.2396   2   7   0.0180   0.0372   0.0712   0.0149  -0.0353  -0.0238 -10.00    1.4
2024/05/10 08:47:21.000   28.470663313  -16.378622891   808.2405   2   7   0.0180   0.0372   0.0712   0.0149  -0.0353  -0.0238  -9.00    1.0
2024/05/10 08:47:22.000   28.470663314  -16.378622892   808.2415   2   7   0.0180   0.0372   0.0712   0.0149  -0.0353  -0.0238  -8.00    1.0
2024/05/10 08:47:23.000   28.470663316  -16.378622894   808.2426   2   7   0.0180   0.0372   0.0712   0.0149  -0.0353  -0.0238  -7.00    1.0
2024/05/10 08:47:24.000   28.470663318  -16.378622894   808.2438   2   7   0.0180   0.0372   0.0712   0.0149  -0.0353  -0.0238  -6.00    1.1
2024/05/10 08:47:25.000   28.470663319  -16.378622896   808.2454   2   7   0.0180   0.0372   0.0713   0.0149  -0.0353  -0.0238  -5.00    1.0
2024/05/10 08:47:26.000   28.470663321  -16.378622898   808.2476   2   7   0.0180   0.0372   0.0713   0.0149  -0.0353  -0.0238  -4.00    1.2
2024/05/10 08:47:27.000   28.470663324  -16.378622901   808.2504   2   7   0.0180   0.0372   0.0713   0.0149  -0.0353  -0.0238  -3.00    1.3
2024/05/10 08:47:28.000   28.470663328  -16.378622904   808.2543   2   7   0.0180   0.0372   0.0714   0.0150  -0.0354  -0.0238  -2.00    1.1
2024/05/10 08:47:29.000   28.470663332  -16.378622908   808.2590   2   7   0.0181   0.0372   0.0714   0.0150  -0.0354  -0.0238  -1.00    1.0
2024/05/10 08:47:30.000   28.470663337  -16.378622911   808.2645   2   7   0.0181   0.0373   0.0715   0.0150  -0.0354  -0.0239   0.00    1.0
2024/05/10 08:47:31.000   28.470663342  -16.378622909   808.2693   2   7   0.0181   0.0373   0.0715   0.0150  -0.0354  -0.0239   1.00    1.0
2024/05/10 08:47:32.000   28.470663346  -16.378622909   808.2734   2   7   0.0181   0.0373   0.0716   0.0150  -0.0354  -0.0239   2.00    1.0
2024/05/10 08:47:33.000   28.470663350  -16.378622909   808.2775   2   7   0.0181   0.0373   0.0717   0.0150  -0.0355  -0.0239   3.00    1.1
2024/05/10 08:47:34.000   28.470663354  -16.378622908   808.2807   2   7   0.0181   0.0374   0.0717   0.0150  -0.0355  -0.0239   4.00    1.3
2024/05/10 08:47:35.000   28.470663357  -16.378622908   808.2837   2   7   0.0181   0.0374   0.0718   0.0150  -0.0355  -0.0239   5.00    1.1
2024/05/10 08:47:36.000   28.470663359  -16.378622908   808.2858   2   7   0.0182   0.0374   0.0718   0.0150  -0.0355  -0.0239   6.00    1.0
2024/05/10 08:47:37.000   28.470663361  -16.378622907   808.2874   2   7   0.0182   0.0374   0.0718   0.0150  -0.0355  -0.0239   7.00    1.0
2024/05/10 08:47:38.000   28.470663362  -16.378622906   808.2888   2   7   0.0182   0.0374   0.0718   0.0150  -0.0355  -0.0239   8.00    1.0
2024/05/10 08:47:39.000   28.470663364  -16.378622905   808.2898   2   7   0.0182   0.0374   0.0718   0.0150  -0.0355  -0.0239   9.00    1.1
2024/05/10 08:47:40.000   28.470663365  -16.378622903   808.2904   2   7   0.0182   0.0374   0.0719   0.0150  -0.0355  -0.0239  10.00    1.1
2024/05/10 08:47:41.000   28.470663366  -16.378622901   808.2910   2   7   0.0182   0.0374   0.0719   0.0150  -0.0355  -0.0239  11.00    1.3
2024/05/10 08:47:42.000   28.470663367  -16.378622899   808.2914   2   7   0.0182   0.0374   0.0719   0.0150  -0.0355  -0.0239  12.00    1.1
2024/05/10 08:47:43.000   28.470663368  -16.378622898   808.2918   2   7   0.0182   0.0374   0.0719   0.0150  -0.0355  -0.0239  13.00    1.0
2024/05/10 08:47:44.000   28.470663369  -16.378622896   808.2920   2   7   0.0182   0.0374   0.0719   0.0150  -0.0355  -0.0239  14.00    1.0
2024/05/10 08:47:45.000   28.470663370  -16.378622895   808.2923   2   7   0.0182   0.0374   0.0719   0.0150  -0.0355  -0.0239 -15.00    1.0
2024/05/10 08:47:46.000   28.470663370  -16.378622894   808.2927   2   7   0.0182   0.0374   0.0719   0.0150  -0.0355  -0.0239 -14.00    1.1
2024/05/10 08:47:47.000   28.470663370  -16.378622893   808.2931   2   7   0.0182   0.0374   0.0719   0.0150  -0.0355  -0.0239 -13.00    1.1
2024/05/10 08:47:48.000   28.470663371  -16.378622892   808.2935   2   7   0.0182   0.0374   0.0719   0.0150  -0.0355  -0.0239 -12.00    1.3
2024/05/10 08:47:49.000   28.470663371  -16.378622890   808.2941   2   7   0.0182   0.0374   0.0719   0.0150  -0.0355  -0.0239 -11.00    1.1
2024/05/10 08:47:50.000   28.470663371  -16.378622888   808.2948   2   7   0.0182   0.0374   0.0719   0.0150  -0.0355  -0.0239 -10.00    1.0
2024/05/10 08:47:51.000   28.470663371  -16.378622887   808.2955   2   7   0.0182   0.0374   0.0719   0.0150  -0.0355  -0.0239  -9.00    1.0
2024/05/10 08:47:52.000   28.470663372  -16.378622884   808.2963   2   7   0.0182   0.0374   0.0719   0.0150  -0.0355  -0.0239  -8.00    1.0
2024/05/10 08:47:53.000   28.470663372  -16.378622882   808.2975   2   7   0.0182   0.0374   0.0719   0.0150  -0.0355  -0.0239  -7.00    1.1
2024/05/10 08:47:54.000   28.470663372  -16.378622878   808.2990   2   7   0.0182   0.0374   0.0719   0.0150  -0.0355  -0.0239  -6.00    1.1
2024/05/10 08:47:55.000   28.470663373  -16.378622875   808.3008   2   7   0.0182   0.0374   0.0719   0.0150  -0.0355  -0.0239  -5.00    1.3
2024/05/10 08:47:56.000   28.470663373  -16.378622872   808.3031   2   7   0.0182   0.0374   0.0720   0.0150  -0.0355  -0.0239  -4.00    1.2
2024/05/10 08:47:57.000   28.470663374  -16.378622868   808.3060   2   7   0.0182   0.0374   0.0720   0.0150  -0.0355  -0.0240  -3.00    1.0
2024/05/10 08:47:58.000   28.470663374  -16.378622863   808.3099   2   7   0.0182   0.0375   0.0720   0.0150  -0.0355  -0.0240  -2.00    1.0
2024/05/10 08:47:59.000   28.470663374  -16.378622855   808.3136   2   7   0.0182   0.0375   0.0721   0.0150  -0.0355  -0.0240  -1.00    1.0
2024/05/10 08:48:00.000   28.470663375  -16.378622846   808.3178   2   7   0.0182   0.0375   0.0721   0.0150  -0.0356  -0.0240   0.00    1.1
2024/05/10 08:48:01.000   28.470663377  -16.378622837   808.3223   2   7   0.0183   0.0375   0.0722   0.0150  -0.0356  -0.0240   1.00    1.0
2024/05/10 08:48:02.000   28.470663378  -16.378622829   808.3266   2   7   0.0183   0.0375   0.0722   0.0150  -0.0356  -0.0240   2.00    1.2
2024/05/10 08:48:03.000   28.470663378  -16.378622823   808.3312   2   7   0.0183   0.0376   0.0723   0.0150  -0.0356  -0.0240   3.00    1.2
2024/05/10 08:48:04.000   28.470663378  -16.378622814   808.3338   2   7   0.0183   0.0376   0.0723   0.0150  -0.0356  -0.0240   4.00    1.0
2024/05/10 08:48:05.000   28.470663379  -16.378622808   808.3360   2   7   0.0183   0.0376   0.0724   0.0150  -0.0356  -0.0240   5.00    1.0
2024/05/10 08:48:06.000   28.470663380  -16.378622799   808.3377   2   7   0.0183   0.0376   0.0724   0.0151  -0.0356  -0.0240   6.00    1.0
2024/05/10 08:48:07.000   28.470663381  -16.378622792   808.3389   2   7   0.0183   0.0376   0.0724   0.0151  -0.0356  -0.0240   7.00    1.1
2024/05/10 08:48:08.000   28.470663382  -16.378622787   808.3394   2   7   0.0183   0.0376   0.0724   0.0151  -0.0357  -0.0241   8.00    1.0
2024/05/10 08:48:09.000   28.470663383  -16.378622782   808.3400   2   7   0.0183   0.0376   0.0724   0.0151  -0.0357  -0.0241   9.00    1.2
2024/05/10 08:48:10.000   28.470663383  -16.378622779   808.3407   2   7   0.0183   0.0376   0.0725   0.0151  -0.0357  -0.0241  10.00    1.2
2024/05/10 08:48:11.000   28.470663383  -16.378622776   808.3413   2   7   0.0183   0.0376   0.0725   0.0151  -0.0357  -0.0241  11.00    1.0
2024/05/10 08:48:12.000   28.470663383  -16.378622773   808.3418   2   7   0.0183   0.0376   0.0725   0.0151  -0.0357  -0.0241  12.00    1.0
2024/05/10 08:48:13.000   28.470663383  -16.378622771   808.3423   2   7   0.0183   0.0376   0.0725   0.0151  -0.0357  -0.0241  13.00    1.0
2024/05/10 08:48:14.000   28.470663383  -16.378622768   808.3428   2   7   0.0183   0.0376   0.0725   0.0151  -0.0357  -0.0241  14.00    1.0
2024/05/10 08:48:15.000   28.470663383  -16.378622767   808.3431   2   7   0.0183   0.0376   0.0725   0.0151  -0.0357  -0.0241 -15.00    1.0
2024/05/10 08:48:16.000   28.470663383  -16.378622765   808.3434   2   7   0.0183   0.0376   0.0725   0.0151  -0.0357  -0.0241 -14.00    1.2
2024/05/10 08:48:17.000   28.470663383  -16.378622763   808.3439   2   7   0.0183   0.0376   0.0725   0.0151  -0.0357  -0.0241 -13.00    1.2
2024/05/10 08:48:18.000   28.470663383  -16.378622759   808.3442   2   7   0.0183   0.0376   0.0725   0.0151  -0.0356  -0.0241 -12.00    1.0
2024/05/10 08:48:19.000   28.470663383  -16.378622756   808.3446   2   7   0.0183   0.0376   0.0725   0.0150  -0.0356  -0.0241 -11.00    1.0
2024/05/10 08:48:20.000   28.470663383  -16.378622754   808.3451   2   7   0.0183   0.0376   0.0725   0.0150  -0.0356  -0.0241 -10.00    1.0
2024/05/10 08:48:21.000   28.470663384  -16.378622750   808.3455   2   7   0.0183   0.0376   0.0725   0.0150  -0.0356  -0.0241  -9.00    1.0
2024/05/10 08:48:22.000   28.470663384  -16.378622745   808.3459   2   7   0.0183   0.0376   0.0725   0.0150  -0.0356  -0.0241  -8.00    1.0
2024/05/10 08:48:23.000   28.470663385  -16.378622740   808.3464   2   7   0.0183   0.0376   0.0725   0.0150  -0.0356  -0.0241  -7.00    1.3
2024/05/10 08:48:24.000   28.470663385  -16.378622734   808.3471   2   7   0.0183   0.0376   0.0725   0.0150  -0.0356  -0.0241  -6.00    1.1
2024/05/10 08:48:25.000   28.470663386  -16.378622726   808.3478   2   7   0.0183   0.0376   0.0725   0.0150  -0.0357  -0.0241  -5.00    1.0
2024/05/10 08:48:26.000   28.470663387  -16.378622718   808.3487   2   7   0.0184   0.0376   0.0725   0.0150  -0.0357  -0.0241  -4.00    1.0
2024/05/10 08:48:27.000   28.470663388  -16.378622710   808.3500   2   7   0.0184   0.0376   0.0726   0.0150  -0.0357  -0.0241  -3.00    1.0
2024/05/10 08:48:28.000   28.470663390  -16.378622698   808.3514   2   7   0.0184   0.0376   0.0726   0.0150  -0.0357  -0.0241  -2.00    1.0
2024/05/10 08:48:29.000   28.470663391  -16.378622685   808.3540   2   7   0.0184   0.0377   0.0726   0.0151  -0.0357  -0.0241  -1.00    1.0
2024/05/10 08:48:30.000   28.470663392  -16.378622672   808.3574   2   7   0.0184   0.0377   0.0727   0.0151  -0.0357  -0.0241   0.00    1.3
2024/05/10 08:48:31.000   28.470663394  -16.378622658   808.3598   2   7   0.0184   0.0377   0.0727   0.0151  -0.0357  -0.0241   1.00    1.0
2024/05/10 08:48:32.000   28.470663396  -16.378622646   808.3626   2   7   0.0184   0.0377   0.0728   0.0151  -0.0357  -0.0241   2.00    1.0
2024/05/10 08:48:33.000   28.470663396  -16.378622637   808.3656   2   7   0.0184   0.0377   0.0728   0.0151  -0.0357  -0.0241   3.00    1.0
2024/05/10 08:48:34.000   28.470663395  -16.378622628   808.3678   2   7   0.0184   0.0377   0.0728   0.0151  -0.0357  -0.0241   4.00    1.0
2024/05/10 08:48:35.000   28.470663396  -16.378622619   808.3692   2   7   0.0184   0.0378   0.0729   0.0151  -0.0357  -0.0241   5.00    1.0
2024/05/10 08:48:36.000   28.470663396  -16.378622614   808.3706   2   7   0.0184   0.0378   0.0729   0.0151  -0.0357  -0.0241   6.00    1.0
2024/05/10 08:48:37.000   28.470663396  -16.378622609   808.3716   2   7   0.0184   0.0378   0.0729   0.0151  -0.0357  -0.0241   7.00    1.3
2024/05/10 08:48:38.000   28.470663396  -16.378622605   808.3723   2   7   0.0185   0.0378   0.0729   0.0151  -0.0358  -0.0241   8.00    1.0
2024/05/10 08:48:39.000   28.470663396  -16.378622602   808.3728   2   7   0.0185   0.0378   0.0729   0.0151  -0.0358  -0.0241   9.00    1.1
2024/05/10 08:48:40.000   28.470663396  -16.378622599   808.3732   2   7   0.0185   0.0378   0.0729   0.0151  -0.0358  -0.0241  10.00    1.0
2024/05/10 08:48:41.000   28.470663396  -16.378622597   808.3736   2   7   0.0185   0.0378   0.0729   0.0151  -0.0358  -0.0241  11.00    1.0
2024/05/10 08:48:42.000   28.470663396  -16.378622595   808.3740   2   7   0.0185   0.0378   0.0729   0.0151  -0.0358  -0.0241  12.00    1.0
2024/05/10 08:48:43.000   28.470663396  -16.378622594   808.3743   2   7   0.0185   0.0378   0.0729   0.0151  -0.0358  -0.0241  13.00    1.0
2024/05/10 08:48:44.000   28.470663395  -16.378622594   808.3748   2   7   0.0185   0.0378   0.0729   0.0151  -0.0358  -0.0241  14.00    1.3
2024/05/10 08:48:45.000   28.470663395  -16.378622594   808.3751   2   7   0.0185   0.0378   0.0729   0.0151  -0.0358  -0.0241 -15.00    1.0
2024/05/10 08:48:46.000   28.470663394  -16.378622594   808.3755   2   7   0.0185   0.0378   0.0729   0.0151  -0.0357  -0.0241 -14.00    1.1
2024/05/10 08:48:47.000   28.470663394  -16.378622594   808.3758   2   7   0.0185   0.0378   0.0729   0.0151  -0.0357  -0.0241 -13.00    1.0
2024/05/10 08:48:48.000   28.470663393  -16.378622595   808.3763   2   7   0.0185   0.0378   0.0730   0.0151  -0.0357  -0.0241 -12.00    1.0
2024/05/10 08:48:49.000   28.470663393  -16.378622594   808.3768   2   7   0.0185   0.0378   0.0730   0.0151  -0.0357  -0.0241 -11.00    1.0
2024/05/10 08:48:50.000   28.470663392  -16.378622594   808.3774   2   7   0.0185   0.0378   0.0730   0.0151  -0.0357  -0.0241 -10.00    1.0
2024/05/10 08:48:51.000   28.470663391  -16.378622594   808.3780   2   7   0.0185   0.0378   0.0730   0.0151  -0.0357  -0.0241  -9.00    1.2
2024/05/10 08:48:52.000   28.470663390  -16.378622593   808.3786   2   7   0.0185   0.0378   0.0730   0.0151  -0.0357  -0.0241  -8.00    1.1
2024/05/10 08:48:53.000   28.470663389  -16.378622593   808.3794   2   7   0.0185   0.0378   0.0730   0.0151  -0.0357  -0.0241  -7.00    1.1
2024/05/10 08:48:54.000   28.470663388  -16.378622592   808.3804   2   7   0.0185   0.0378   0.0730   0.0151  -0.0357  -0.0241  -6.00    1.0
2024/05/10 08:48:55.000   28.470663387  -16.378622592   808.3817   2   7   0.0185   0.0378   0.0730   0.0151  -0.0357  -0.0241  -5.00    1.0
2024/05/10 08:48:56.000   28.470663386  -16.378622590   808.3832   2   7   0.0185   0.0378   0.0730   0.0151  -0.0357  -0.0241  -4.00    1.1
2024/05/10 08:48:57.000   28.470663385  -16.378622588   808.3848   2   7   0.0185   0.0378   0.0730   0.0151  -0.0357  -0.0241  -3.00    1.0
2024/05/10 08:48:58.000   28.470663384  -16.378622588   808.3863   2   7   0.0185   0.0378   0.0730   0.0151  -0.0357  -0.0241  -2.00    1.2
2024/05/10 08:48:59.000   28.470663383  -16.378622585   808.3875   2   7   0.0185   0.0378   0.0730   0.0151  -0.0357  -0.0241  -1.00    1.2
2024/05/10 08:49:00.000   28.470663383  -16.378622575   808.3888   2   7   0.0185   0.0378   0.0731   0.0151  -0.0358  -0.0241   0.00    1.1
2024/05/10 08:49:01.000   28.470663382  -16.378622568   808.3900   2   7   0.0185   0.0378   0.0731   0.0151  -0.0358  -0.0241   1.00    1.1
2024/05/10 08:49:02.000   28.470663379  -16.378622565   808.3911   2   7   0.0185   0.0378   0.0731   0.0151  -0.0358  -0.0242   2.00    1.0
2024/05/10 08:49:03.000   28.470663376  -16.378622561   808.3926   2   7   0.0185   0.0378   0.0732   0.0151  -0.0358  -0.0242   3.00    1.1
2024/05/10 08:49:04.000   28.470663374  -16.378622556   808.3935   2   7   0.0185   0.0379   0.0732   0.0151  -0.0358  -0.0242   4.00    1.0
2024/05/10 08:49:05.000   28.470663372  -16.378622553   808.3940   2   7   0.0185   0.0379   0.0732   0.0151  -0.0358  -0.0242   5.00    1.1
2024/05/10 08:49:06.000   28.470663370  -16.378622551   808.3946   2   7   0.0185   0.0379   0.0732   0.0151  -0.0358  -0.0242   6.00    1.3
2024/05/10 08:49:07.000   28.470663369  -16.378622549   808.3954   2   7   0.0185   0.0379   0.0732   0.0151  -0.0358  -0.0242   7.00    1.1
2024/05/10 08:49:08.000   28.470663367  -16.378622549   808.3963   2   7   0.0185   0.0379   0.0733   0.0151  -0.0358  -0.0242   8.00    1.1
2024/05/10 08:49:09.000   28.470663365  -16.378622549   808.3969   2   7   0.0186   0.0379   0.0733   0.0151  -0.0358  -0.0242   9.00    1.0
2024/05/10 08:49:10.000   28.470663364  -16.378622548   808.3974   2   7   0.0186   0.0379   0.0733   0.0151  -0.0358  -0.0242  10.00    1.2
2024/05/10 08:49:11.000   28.470663363  -16.378622549   808.3982   2   7   0.0186   0.0379   0.0733   0.0151  -0.0358  -0.0242  11.00    1.0
2024/05/10 08:49:12.000   28.470663362  -16.378622549   808.3989   2   7   0.0186   0.0379   0.0733   0.0151  -0.0358  -0.0242  12.00    1.1
2024/05/10 08:49:13.000   28.470663361  -16.378622549   808.3995   2   7   0.0186   0.0379   0.0733   0.0151  -0.0358  -0.0242  13.00    1.3
2024/05/10 08:49:14.000   28.470663360  -16.378622549   808.3998   2   7   0.0186   0.0379   0.0733   0.0151  -0.0358  -0.0242  14.00    1.1
2024/05/10 08:49:15.000   28.470663360  -16.378622549   808.4002   2   7   0.0186   0.0379   0.0733   0.0151  -0.0358  -0.0242 -15.00    1.2
2024/05/10 08:49:16.000   28.470663359  -16.378622549   808.4005   2   7   0.0186   0.0379   0.0733   0.0151  -0.0358  -0.0242 -14.00    1.0
2024/05/10 08:49:17.000   28.470663359  -16.378622548   808.4006   2   7   0.0186   0.0379   0.0733   0.0151  -0.0358  -0.0242 -13.00    1.1
2024/05/10 08:49:18.000   28.470663359  -16.378622547   808.4007   2   7   0.0186   0.0379   0.0733   0.0151  -0.0358  -0.0242 -12.00    1.0
2024/05/10 08:49:19.000   28.470663358  -16.378622546   808.4009   2   7   0.0186   0.0379   0.0733   0.0151  -0.0358  -0.0242 -11.00    1.0
2024/05/10 08:49:20.000   28.470663357  -16.378622544   808.4010   2   7   0.0186   0.0379   0.0733   0.0151  -0.0358  -0.0242 -10.00    1.3
2024/05/10 08:49:21.000   28.470663357  -16.378622543   808.4010   2   7   0.0186   0.0379   0.0733   0.0151  -0.0358  -0.0242  -9.00    1.1
2024/05/10 08:49:22.000   28.470663356  -16.378622541   808.4011   2   7   0.0186   0.0379   0.0733   0.0151  -0.0358  -0.0242  -8.00    1.2
2024/05/10 08:49:23.000   28.470663355  -16.378622539   808.4013   2   7   0.0186   0.0379   0.0733   0.0151  -0.0358  -0.0242  -7.00    1.0
2024/05/10 08:49:24.000   28.470663354  -16.378622536   808.4014   2   7   0.0186   0.0379   0.0733   0.0151  -0.0358  -0.0242  -6.00    1.0
2024/05/10 08:49:25.000   28.470663353  -16.378622532   808.4013   2   7   0.0186   0.0379   0.0733   0.0151  -0.0358  -0.0242  -5.00    1.0
2024/05/10 08:49:26.000   28.470663352  -16.378622529   808.4015   2   7   0.0186   0.0379   0.0733   0.0151  -0.0358  -0.0242  -4.00    1.0
2024/05/10 08:49:27.000   28.470663350  -16.378622524   808.4017   2   7   0.0186   0.0379   0.0733   0.0151  -0.0358  -0.0242  -3.00    1.2
2024/05/10 08:49:28.000   28.470663348  -16.378622520   808.4020   2   7   0.0186   0.0379   0.0733   0.0151  -0.0358  -0.0242  -2.00    1.0
2024/05/10 08:49:29.000   28.470663345  -16.378622515   808.4029   2   7   0.0186   0.0379   0.0733   0.0151  -0.0358  -0.0242  -1.00    1.2
2024/05/10 08:49:30.000   28.470663342  -16.378622509   808.4035   2   7   0.0186   0.0379   0.0733   0.0151  -0.0358  -0.0242   0.00    1.1
2024/05/10 08:49:31.000   28.470663339  -16.378622500   808.4031   2   7   0.0186   0.0379   0.0733   0.0151  -0.0358  -0.0242   1.00    1.1
2024/05/10 08:49:32.000   28.470663334  -16.378622494   808.4038   2   7   0.0186   0.0379   0.0734   0.0151  -0.0358  -0.0242   2.00    1.1
2024/05/10 08:49:33.000   28.470663331  -16.378622490   808.4044   2   7   0.0186   0.0379   0.0734   0.0151  -0.0358  -0.0242   3.00    1.0
2024/05/10 08:49:34.000   28.470663328  -16.378622485   808.4050   2   7   0.0186   0.0379   0.0734   0.0151  -0.0358  -0.0242   4.00    1.0
2024/05/10 08:49:35.000   28.470663326  -16.378622483   808.4055   2   7   0.0186   0.0379   0.0734   0.0151  -0.0358  -0.0242   5.00    1.0
2024/05/10 08:49:36.000   28.470663325  -16.378622482   808.4059   2   7   0.0186   0.0379   0.0734   0.0151  -0.0358  -0.0242   6.00    1.2
2024/05/10 08:49:37.000   28.470663323  -16.378622481   808.4067   2   7   0.0186   0.0379   0.0734   0.0151  -0.0358  -0.0242   7.00    1.0
2024/05/10 08:49:38.000   28.470663322  -16.378622480   808.4073   2   7   0.0186   0.0379   0.0734   0.0151  -0.0358  -0.0242   8.00    1.3
2024/05/10 08:49:39.000   28.470663321  -16.378622480   808.4078   2   7   0.0186   0.0379   0.0734   0.0151  -0.0358  -0.0242   9.00    1.2
2024/05/10 08:49:40.000   28.470663319  -16.378622480   808.4081   2   7   0.0186   0.0379   0.0734   0.0151  -0.0358  -0.0242  10.00    1.0
2024/05/10 08:49:41.000   28.470663319  -16.378622480   808.4083   2   7   0.0186   0.0379   0.0734   0.0151  -0.0358  -0.0242  11.00    1.0
2024/05/10 08:49:42.000   28.470663318  -16.378622480   808.4084   2   7   0.0186   0.0379   0.0734   0.0151  -0.0358  -0.0242  12.00    1.0
2024/05/10 08:49:43.000   28.470663317  -16.378622481   808.4087   2   7   0.0186   0.0379   0.0734   0.0151  -0.0358  -0.0242  13.00    1.2
2024/05/10 08:49:44.000   28.470663316  -16.378622481   808.4090   2   7   0.0186   0.0379   0.0734   0.0151  -0.0358  -0.0242  14.00    1.0
2024/05/10 08:49:45.000   28.470663316  -16.378622481   808.4091   2   7   0.0186   0.0379   0.0734   0.0151  -0.0358  -0.0242 -15.00    1.3
2024/05/10 08:49:46.000   28.470663315  -16.378622482   808.4092   2   7   0.0186   0.0379   0.0734   0.0151  -0.0358  -0.0242 -14.00    1.2
2024/05/10 08:49:47.000   28.470663315  -16.378622483   808.4093   2   7   0.0186   0.0379   0.0734   0.0151  -0.0358  -0.0242 -13.00    1.0
2024/05/10 08:49:48.000   28.470663314  -16.378622484   808.4094   2   7   0.0186   0.0379   0.0734   0.0151  -0.0358  -0.0242 -12.00    1.0
2024/05/10 08:49:49.000   28.470663313  -16.378622485   808.4095   2   7   0.0186   0.0379   0.0734   0.0151  -0.0358  -0.0242 -11.00    1.0
2024/05/10 08:49:50.000   28.470663312  -16.378622486   808.4097   2   7   0.0186   0.0379   0.0734   0.0151  -0.0358  -0.0242 -10.00    1.1
2024/05/10 08:49:51.000   28.470663312  -16.378622487   808.4100   2   7   0.0186   0.0379   0.0734   0.0151  -0.0358  -0.0242  -9.00    1.1
2024/05/10 08:49:52.000   28.470663310  -16.378622489   808.4103   2   7   0.0186   0.0379   0.0734   0.0151  -0.0358  -0.0242  -8.00    1.3
2024/05/10 08:49:53.000   28.470663309  -16.378622491   808.4107   2   7   0.0186   0.0379   0.0734   0.0151  -0.0358  -0.0242  -7.00    1.2
2024/05/10 08:49:54.000   28.470663308  -16.378622493   808.4111   2   7   0.0186   0.0379   0.0734   0.0151  -0.0358  -0.0242  -6.00    1.0
2024/05/10 08:49:55.000   28.470663306  -16.378622495   808.4117   2   7   0.0186   0.0379   0.0734   0.0151  -0.0357  -0.0242  -5.00    1.0
2024/05/10 08:49:56.000   28.470663305  -16.378622498   808.4122   2   7   0.0186   0.0379   0.0734   0.0151  -0.0357  -0.0242  -4.00    1.1
2024/05/10 08:49:57.000   28.470663302  -16.378622500   808.4125   2   7   0.0186   0.0379   0.0734   0.0150  -0.0357  -0.0242  -3.00    1.1
2024/05/10 08:49:58.000   28.470663299  -16.378622502   808.4130   2   7   0.0186   0.0379   0.0734   0.0150  -0.0357  -0.0242  -2.00    1.0
2024/05/10 08:49:59.000   28.470663296  -16.378622506   808.4138   2   7   0.0186   0.0379   0.0734   0.0150  -0.0357  -0.0242  -1.00    1.3
2024/05/10 08:50:00.000   28.470663292  -16.378622509   808.4139   2   7   0.0186   0.0379   0.0734   0.0150  -0.0357  -0.0242   0.00    1.2
2024/05/10 08:50:01.000   28.470663291  -16.378622507   808.4128   2   7   0.0186   0.0379   0.0734   0.0150  -0.0357  -0.0242   1.00    1.0
2024/05/10 08:50:02.000   28.470663292  -16.378622504   808.4125   2   7   0.0186   0.0379   0.0734   0.0150  -0.0357  -0.0242   2.00    1.0
2024/05/10 08:50:03.000   28.470663293  -16.378622501   808.4120   2   7   0.0186   0.0379   0.0734   0.0150  -0.0357  -0.0242   3.00    1.0
2024/05/10 08:50:04.000   28.470663293  -16.378622498   808.4115   2   7   0.0186   0.0379   0.0734   0.0150  -0.0357  -0.0242   4.00    1.0
2024/05/10 08:50:05.000   28.470663295  -16.378622496   808.4107   2   7   0.0186   0.0379   0.0734   0.0150  -0.0357  -0.0242   5.00    1.0
2024/05/10 08:50:06.000   28.470663296  -16.378622493   808.4099   2   7   0.0186   0.0379   0.0734   0.0150  -0.0357  -0.0242   6.00    1.2
2024/05/10 08:50:07.000   28.470663297  -16.378622491   808.4089   2   7   0.0186   0.0379   0.0734   0.0150  -0.0357  -0.0242   7.00    1.1
2024/05/10 08:50:08.000   28.470663298  -16.378622489   808.4080   2   7   0.0186   0.0379   0.0734   0.0150  -0.0357  -0.0242   8.00    1.0
2024/05/10 08:50:09.000   28.470663298  -16.378622487   808.4073   2   7   0.0186   0.0379   0.0734   0.0150  -0.0357  -0.0242   9.00    1.0
2024/05/10 08:50:10.000   28.470663299  -16.378622485   808.4066   2   7   0.0186   0.0379   0.0734   0.0150  -0.0357  -0.0242  10.00    1.1
2024/05/10 08:50:11.000   28.470663299  -16.378622484   808.4059   2   7   0.0186   0.0379   0.0734   0.0150  -0.0357  -0.0242  11.00    1.0
2024/05/10 08:50:12.000   28.470663300  -16.378622483   808.4051   2   7   0.0186   0.0379   0.0734   0.0150  -0.0357  -0.0242  12.00    1.1
2024/05/10 08:50:13.000   28.470663301  -16.378622482   808.4045   2   7   0.0186   0.0379   0.0734   0.0150  -0.0357  -0.0242  13.00    1.1
2024/05/10 08:50:14.000   28.470663301  -16.378622482   808.4040   2   7   0.0186   0.0379   0.0734   0.0150  -0.0357  -0.0242  14.00    1.0
2024/05/10 08:50:15.000   28.470663302  -16.378622481   808.4035   2   7   0.0186   0.0379   0.0734   0.0150  -0.0357  -0.0242 -15.00    1.0
2024/05/10 08:50:16.000   28.470663302  -16.378622481   808.4032   2   7   0.0186   0.0379   0.0734   0.0150  -0.0357  -0.0242 -14.00    1.0
2024/05/10 08:50:17.000   28.470663303  -16.378622481   808.4026   2   7   0.0186   0.0379   0.0734   0.0150  -0.0357  -0.0242 -13.00    1.1
2024/05/10 08:50:18.000   28.470663304  -16.378622480   808.4019   2   7   0.0186   0.0379   0.0734   0.0150  -0.0357  -0.0242 -12.00    1.0
2024/05/10 08:50:19.000   28.470663305  -16.378622479   808.4011   2   7   0.0186   0.0379   0.0734   0.0150  -0.0357  -0.0242 -11.00    1.1
2024/05/10 08:50:20.000   28.470663305  -16.378622480   808.4004   2   7   0.0186   0.0379   0.0734   0.0150  -0.0357  -0.0241 -10.00    1.1
2024/05/10 08:50:21.000   28.470663306  -16.378622480   808.3993   2   7   0.0186   0.0379   0.0734   0.0150  -0.0357  -0.0241  -9.00    1.0
2024/05/10 08:50:22.000   28.470663308  -16.378622479   808.3983   2   7   0.0186   0.0379   0.0734   0.0150  -0.0357  -0.0241  -8.00    1.1
2024/05/10 08:50:23.000   28.470663309  -16.378622480   808.3974   2   7   0.0186   0.0379   0.0734   0.0150  -0.0357  -0.0241  -7.00    1.1
2024/05/10 08:50:24.000   28.470663310  -16.378622480   808.3960   2   7   0.0186   0.0379   0.0734   0.0150  -0.0357  -0.0241  -6.00    1.1
2024/05/10 08:50:25.000   28.470663312  -16.378622479   808.3935   2   7   0.0186   0.0379   0.0734   0.0150  -0.0357  -0.0241  -5.00    1.1
2024/05/10 08:50:26.000   28.470663315  -16.378622478   808.3906   2   7   0.0186   0.0378   0.0734   0.0150  -0.0357  -0.0241  -4.00    1.1
2024/05/10 08:50:27.000   28.470663318  -16.378622478   808.3878   2   7   0.0186   0.0378   0.0733   0.0150  -0.0356  -0.0241  -3.00    1.1
2024/05/10 08:50:28.000   28.470663323  -16.378622475   808.3844   2   7   0.0186   0.0378   0.0733   0.0150  -0.0356  -0.0241  -2.00    1.1
2024/05/10 08:50:29.000   28.470663327  -16.378622474   808.3803   2   7   0.0186   0.0378   0.0733   0.0150  -0.0356  -0.0241  -1.00    1.0
2024/05/10 08:50:30.000   28.470663332  -16.378622473   808.3758   2   7   0.0186   0.0378   0.0733   0.0150  -0.0356  -0.0241   0.00    1.2
2024/05/10 08:50:31.000   28.470663337  -16.378622466   808.3711   2   7   0.0186   0.0378   0.0733   0.0150  -0.0356  -0.0241   1.00    1.2
2024/05/10 08:50:32.000   28.470663341  -16.378622460   808.3677   2   7   0.0186   0.0378   0.0733   0.0150  -0.0356  -0.0241   2.00    1.2
2024/05/10 08:50:33.000   28.470663344  -16.378622456   808.3647   2   7   0.0186   0.0378   0.0733   0.0150  -0.0356  -0.0241   3.00    1.0
2024/05/10 08:50:34.000   28.470663348  -16.378622454   808.3624   2   7   0.0186   0.0378   0.0733   0.0150  -0.0356  -0.0241   4.00    1.0
2024/05/10 08:50:35.000   28.470663350  -16.378622452   808.3605   2   7   0.0186   0.0378   0.0733   0.0150  -0.0356  -0.0241   5.00    1.1
2024/05/10 08:50:36.000   28.470663353  -16.378622450   808.3591   2   7   0.0186   0.0378   0.0733   0.0150  -0.0356  -0.0241   6.00    1.1
2024/05/10 08:50:37.000   28.470663354  -16.378622450   808.3582   2   7   0.0186   0.0378   0.0733   0.0150  -0.0356  -0.0241   7.00    1.2
2024/05/10 08:50:38.000   28.470663355  -16.378622449   808.3575   2   7   0.0186   0.0378   0.0733   0.0150  -0.0356  -0.0241   8.00    1.2
2024/05/10 08:50:39.000   28.470663356  -16.378622449   808.3568   2   7   0.0186   0.0378   0.0733   0.0150  -0.0356  -0.0241   9.00    1.1
2024/05/10 08:50:40.000   28.470663356  -16.378622448   808.3560   2   7   0.0186   0.0378   0.0733   0.0150  -0.0356  -0.0241  10.00    1.0
2024/05/10 08:50:41.000   28.470663357  -16.378622447   808.3554   2   7   0.0186   0.0378   0.0733   0.0150  -0.0356  -0.0241  11.00    1.0
2024/05/10 08:50:42.000   28.470663357  -16.378622446   808.3548   2   7   0.0186   0.0378   0.0733   0.0150  -0.0356  -0.0241  12.00    1.1
2024/05/10 08:50:43.000   28.470663358  -16.378622446   808.3542   2   7   0.0186   0.0378   0.0732   0.0150  -0.0356  -0.0241  13.00    1.1
2024/05/10 08:50:44.000   28.470663359  -16.378622446   808.3538   2   7   0.0186   0.0378   0.0732   0.0150  -0.0356  -0.0241  14.00    1.2
2024/05/10 08:50:45.000   28.470663359  -16.378622447   808.3533   2   7   0.0186   0.0378   0.0732   0.0150  -0.0356  -0.0241 -15.00    1.2
