% program   : RTKPOST-EX 2.5.0
% inp file  : C:\Users\SallyHenry\Desktop\Sally Internship\GNSS gravi\DATA\Survey Rover Obs\MI01.24o
% inp file  : C:\Users\SallyHenry\Desktop\Sally Internship\GNSS gravi\DATA\BaseStations\TN02\TN0200ESP_R_20241310000_01D_30S_MO.rnx
% inp file  : C:\Users\SallyHenry\Desktop\Sally Internship\GNSS gravi\DATA\BaseStations\TN02\TN0200ESP_R_20241310000_01D_MN.rnx
% inp file  : C:\Users\SallyHenry\Desktop\Sally Internship\GNSS gravi\DATA\aux_files\Survey\IGS0OPSFIN_20241310000_01D_15M_ORB.SP3
% inp file  : C:\Users\SallyHenry\Desktop\Sally Internship\GNSS gravi\DATA\aux_files\Survey\IGS0OPSFIN_20241310000_01D_30S_CLK.CLK
% obs start : 2024/05/10 09:14:36.0 GPST (week2313 465276.0s)
% obs end   : 2024/05/10 09:29:35.0 GPST (week2313 466175.0s)
% pos mode  : Static
% freqs     : L1+L2/E5b
% solution  : Combined-No Phase Reset
% elev mask : 15.0 deg
% dynamics  : on
% tidecorr  : solid
% ionos opt : Estimate TEC
% tropo opt : Estimate ZTD+Grad
% ephemeris : Precise
% navi sys  : GPS GLONASS Galileo QZSS BDS
% amb res   : Fix and Hold
% amb glo   : Fix and Hold
% amb bds   : on
% val thres : 3.0
% antenna1  :                       ( 0.0000  0.0000  1.8000)
% antenna2  :                       ( 0.0000  0.0000  0.0771)
% ref pos   :  28.418257450  -16.550784480    54.4145
%
% (lat/lon/height=WGS84/ellipsoidal,Q=1:fix,2:float,3:sbas,4:dgps,5:single,6:ppp,ns=# of satellites)
%  GPST                  latitude(deg) longitude(deg)  height(m)   Q  ns   sdn(m)   sde(m)   sdu(m)  sdne(m)  sdeu(m)  sdun(m) age(s)  ratio
2024/05/10 09:14:36.000   28.458339067  -16.393914053   954.9417   2   7   0.0170   0.0430   0.1015   0.0201  -0.0507  -0.0259 -24.00    0.0
2024/05/10 09:14:38.000   28.458339068  -16.393914047   954.9407   2   7   0.0170   0.0430   0.1015   0.0201  -0.0507  -0.0259 -22.00    0.0
2024/05/10 09:14:39.000   28.458339070  -16.393914042   954.9398   2   7   0.0170   0.0430   0.1015   0.0201  -0.0507  -0.0259 -21.00    0.0
2024/05/10 09:14:40.000   28.458339071  -16.393914037   954.9389   2   7   0.0170   0.0430   0.1015   0.0200  -0.0507  -0.0259 -20.00    0.0
2024/05/10 09:14:41.000   28.458339071  -16.393914033   954.9382   2   7   0.0170   0.0430   0.1015   0.0200  -0.0507  -0.0259 -19.00    0.0
2024/05/10 09:14:42.000   28.458339073  -16.393914028   954.9373   2   7   0.0170   0.0430   0.1015   0.0200  -0.0507  -0.0259 -18.00    0.0
2024/05/10 09:14:43.000   28.458339074  -16.393914023   954.9365   2   7   0.0170   0.0430   0.1015   0.0200  -0.0507  -0.0259 -17.00    0.0
2024/05/10 09:14:44.000   28.458339074  -16.393914019   954.9357   2   7   0.0170   0.0430   0.1015   0.0200  -0.0507  -0.0259 -16.00    0.0
2024/05/10 09:14:45.000   28.458339075  -16.393914016   954.9351   2   7   0.0170   0.0430   0.1015   0.0200  -0.0506  -0.0259 -15.00    0.0
2024/05/10 09:14:46.000   28.458339076  -16.393914012   954.9343   2   7   0.0170   0.0430   0.1015   0.0200  -0.0506  -0.0259 -14.00    0.0
2024/05/10 09:14:47.000   28.458339077  -16.393914008   954.9335   2   7   0.0170   0.0430   0.1015   0.0200  -0.0506  -0.0259 -13.00    0.0
2024/05/10 09:14:48.000   28.458339078  -16.393914003   954.9324   2   7   0.0170   0.0430   0.1015   0.0200  -0.0506  -0.0258 -12.00    0.0
2024/05/10 09:14:49.000   28.458339079  -16.393913998   954.9314   2   7   0.0170   0.0429   0.1015   0.0200  -0.0506  -0.0258 -11.00    0.0
2024/05/10 09:14:50.000   28.458339080  -16.393913993   954.9303   2   7   0.0170   0.0429   0.1015   0.0200  -0.0506  -0.0258 -10.00    0.0
2024/05/10 09:14:51.000   28.458339081  -16.393913988   954.9294   2   7   0.0170   0.0429   0.1015   0.0200  -0.0506  -0.0258  -9.00    0.0
2024/05/10 09:14:52.000   28.458339082  -16.393913981   954.9281   2   7   0.0170   0.0429   0.1015   0.0200  -0.0506  -0.0258  -8.00    0.0
2024/05/10 09:14:53.000   28.458339083  -16.393913974   954.9267   2   7   0.0170   0.0429   0.1015   0.0200  -0.0506  -0.0258  -7.00    0.0
2024/05/10 09:14:54.000   28.458339085  -16.393913965   954.9246   2   7   0.0170   0.0429   0.1016   0.0200  -0.0506  -0.0258  -6.00    0.0
2024/05/10 09:14:55.000   28.458339086  -16.393913957   954.9224   2   7   0.0170   0.0429   0.1016   0.0200  -0.0506  -0.0258  -5.00    0.0
2024/05/10 09:14:56.000   28.458339088  -16.393913947   954.9204   2   7   0.0170   0.0429   0.1017   0.0200  -0.0506  -0.0258  -4.00    0.0
2024/05/10 09:14:57.000   28.458339090  -16.393913938   954.9181   2   7   0.0170   0.0430   0.1017   0.0200  -0.0506  -0.0258  -3.00    0.0
2024/05/10 09:14:58.000   28.458339092  -16.393913928   954.9154   2   7   0.0171   0.0430   0.1018   0.0200  -0.0507  -0.0259  -2.00    0.0
2024/05/10 09:14:59.000   28.458339094  -16.393913915   954.9125   2   7   0.0171   0.0430   0.1019   0.0200  -0.0507  -0.0259  -1.00    0.0
2024/05/10 09:15:00.000   28.458339098  -16.393913901   954.9094   2   7   0.0171   0.0430   0.1020   0.0200  -0.0507  -0.0259   0.00    0.0
2024/05/10 09:15:01.000   28.458339099  -16.393913890   954.9074   2   7   0.0171   0.0431   0.1021   0.0200  -0.0508  -0.0259   1.00    0.0
2024/05/10 09:15:02.000   28.458339102  -16.393913874   954.9042   2   7   0.0171   0.0431   0.1023   0.0200  -0.0508  -0.0259   2.00    0.0
2024/05/10 09:15:03.000   28.458339104  -16.393913862   954.9019   2   7   0.0172   0.0431   0.1024   0.0201  -0.0508  -0.0259   3.00    0.0
2024/05/10 09:15:04.000   28.458339106  -16.393913853   954.9002   2   7   0.0172   0.0432   0.1025   0.0201  -0.0509  -0.0260   4.00    0.0
2024/05/10 09:15:05.000   28.458339108  -16.393913844   954.8987   2   7   0.0172   0.0432   0.1026   0.0201  -0.0509  -0.0260   5.00    0.0
2024/05/10 09:15:06.000   28.458339109  -16.393913835   954.8967   2   7   0.0172   0.0432   0.1026   0.0201  -0.0509  -0.0260   6.00    0.0
2024/05/10 09:15:07.000   28.458339111  -16.393913827   954.8953   2   7   0.0172   0.0432   0.1027   0.0201  -0.0509  -0.0260   7.00    0.0
2024/05/10 09:15:08.000   28.458339112  -16.393913820   954.8941   2   7   0.0172   0.0432   0.1027   0.0201  -0.0509  -0.0260   8.00    0.0
2024/05/10 09:15:09.000   28.458339113  -16.393913814   954.8931   2   7   0.0172   0.0432   0.1028   0.0201  -0.0509  -0.0260   9.00    0.0
2024/05/10 09:15:10.000   28.458339114  -16.393913810   954.8921   2   7   0.0172   0.0432   0.1028   0.0201  -0.0509  -0.0260  10.00    0.0
2024/05/10 09:15:11.000   28.458339115  -16.393913806   954.8914   2   7   0.0172   0.0432   0.1028   0.0201  -0.0509  -0.0260  11.00    0.0
2024/05/10 09:15:12.000   28.458339116  -16.393913803   954.8910   2   7   0.0172   0.0432   0.1028   0.0201  -0.0509  -0.0260  12.00    0.0
2024/05/10 09:15:13.000   28.458339116  -16.393913800   954.8906   2   7   0.0172   0.0432   0.1028   0.0201  -0.0509  -0.0260  13.00    0.0
2024/05/10 09:15:14.000   28.458339117  -16.393913796   954.8898   2   7   0.0172   0.0432   0.1029   0.0201  -0.0509  -0.0260  14.00    0.0
2024/05/10 09:15:15.000   28.458339118  -16.393913793   954.8892   2   7   0.0172   0.0432   0.1029   0.0201  -0.0509  -0.0260 -15.00    0.0
2024/05/10 09:15:16.000   28.458339119  -16.393913790   954.8887   2   7   0.0172   0.0432   0.1029   0.0200  -0.0509  -0.0260 -14.00    0.0
2024/05/10 09:15:17.000   28.458339119  -16.393913787   954.8882   2   7   0.0172   0.0432   0.1029   0.0200  -0.0509  -0.0260 -13.00    0.0
2024/05/10 09:15:18.000   28.458339120  -16.393913783   954.8876   2   7   0.0172   0.0432   0.1029   0.0200  -0.0509  -0.0260 -12.00    0.0
2024/05/10 09:15:19.000   28.458339121  -16.393913780   954.8872   2   7   0.0172   0.0432   0.1029   0.0200  -0.0509  -0.0259 -11.00    0.0
2024/05/10 09:15:20.000   28.458339121  -16.393913777   954.8868   2   7   0.0172   0.0431   0.1029   0.0200  -0.0509  -0.0259 -10.00    0.0
2024/05/10 09:15:21.000   28.458339122  -16.393913776   954.8865   2   7   0.0172   0.0431   0.1029   0.0200  -0.0509  -0.0259  -9.00    0.0
2024/05/10 09:15:22.000   28.458339122  -16.393913773   954.8859   2   7   0.0172   0.0431   0.1029   0.0200  -0.0509  -0.0259  -8.00    0.0
2024/05/10 09:15:23.000   28.458339123  -16.393913770   954.8855   2   7   0.0172   0.0431   0.1030   0.0200  -0.0509  -0.0259  -7.00    0.0
2024/05/10 09:15:24.000   28.458339123  -16.393913767   954.8851   2   7   0.0172   0.0431   0.1030   0.0200  -0.0509  -0.0259  -6.00    0.0
2024/05/10 09:15:25.000   28.458339123  -16.393913764   954.8843   2   7   0.0172   0.0432   0.1030   0.0200  -0.0509  -0.0259  -5.00    0.0
2024/05/10 09:15:26.000   28.458339124  -16.393913761   954.8833   2   7   0.0173   0.0432   0.1031   0.0200  -0.0509  -0.0260  -4.00    0.0
2024/05/10 09:15:27.000   28.458339124  -16.393913759   954.8822   2   7   0.0173   0.0432   0.1032   0.0200  -0.0509  -0.0260  -3.00    0.0
2024/05/10 09:15:28.000   28.458339124  -16.393913757   954.8813   2   7   0.0173   0.0432   0.1033   0.0200  -0.0509  -0.0260  -2.00    0.0
2024/05/10 09:15:29.000   28.458339124  -16.393913754   954.8789   2   7   0.0173   0.0432   0.1034   0.0201  -0.0510  -0.0260  -1.00    0.0
2024/05/10 09:15:30.000   28.458339122  -16.393913751   954.8765   2   7   0.0173   0.0433   0.1035   0.0201  -0.0510  -0.0260   0.00    0.0
2024/05/10 09:15:31.001   28.458339120  -16.393913749   954.8746   2   7   0.0173   0.0433   0.1036   0.0201  -0.0511  -0.0260   1.00    0.0
2024/05/10 09:15:32.000   28.458339120  -16.393913746   954.8723   2   7   0.0174   0.0433   0.1038   0.0201  -0.0511  -0.0261   2.00    0.0
2024/05/10 09:15:33.000   28.458339118  -16.393913748   954.8716   2   7   0.0174   0.0434   0.1039   0.0201  -0.0511  -0.0261   3.00    0.0
2024/05/10 09:15:34.000   28.458339118  -16.393913749   954.8713   2   7   0.0174   0.0434   0.1040   0.0201  -0.0512  -0.0261   4.00    0.0
2024/05/10 09:15:35.000   28.458339116  -16.393913751   954.8707   2   7   0.0174   0.0434   0.1041   0.0201  -0.0512  -0.0261   5.00    0.0
2024/05/10 09:15:36.000   28.458339115  -16.393913754   954.8701   2   7   0.0174   0.0434   0.1041   0.0201  -0.0512  -0.0261   6.00    0.0
2024/05/10 09:15:37.000   28.458339114  -16.393913755   954.8698   2   7   0.0174   0.0434   0.1042   0.0201  -0.0512  -0.0261   7.00    0.0
2024/05/10 09:15:38.000   28.458339113  -16.393913757   954.8699   2   7   0.0174   0.0434   0.1042   0.0201  -0.0512  -0.0261   8.00    0.0
2024/05/10 09:15:39.000   28.458339113  -16.393913758   954.8698   2   7   0.0174   0.0434   0.1042   0.0201  -0.0512  -0.0261   9.00    0.0
2024/05/10 09:15:40.000   28.458339112  -16.393913759   954.8697   2   7   0.0174   0.0434   0.1043   0.0201  -0.0512  -0.0261  10.00    0.0
2024/05/10 09:15:41.000   28.458339111  -16.393913762   954.8699   2   7   0.0174   0.0434   0.1043   0.0201  -0.0512  -0.0261  11.00    0.0
2024/05/10 09:15:42.000   28.458339111  -16.393913764   954.8702   2   7   0.0174   0.0434   0.1043   0.0201  -0.0512  -0.0261  12.00    0.0
2024/05/10 09:15:43.000   28.458339110  -16.393913766   954.8704   2   7   0.0174   0.0434   0.1043   0.0201  -0.0512  -0.0261  13.00    0.0
2024/05/10 09:15:44.000   28.458339110  -16.393913767   954.8706   2   7   0.0174   0.0434   0.1043   0.0201  -0.0512  -0.0261  14.00    0.0
2024/05/10 09:15:45.000   28.458339109  -16.393913768   954.8708   2   7   0.0174   0.0434   0.1043   0.0201  -0.0512  -0.0261 -15.00    0.0
2024/05/10 09:15:46.000   28.458339109  -16.393913768   954.8708   2   7   0.0174   0.0434   0.1043   0.0201  -0.0512  -0.0261 -14.00    0.0
2024/05/10 09:15:47.000   28.458339108  -16.393913770   954.8710   2   7   0.0174   0.0434   0.1043   0.0201  -0.0512  -0.0261 -13.00    0.0
2024/05/10 09:15:48.000   28.458339107  -16.393913773   954.8713   2   7   0.0174   0.0434   0.1043   0.0201  -0.0512  -0.0261 -12.00    0.0
2024/05/10 09:15:49.000   28.458339105  -16.393913777   954.8719   2   7   0.0174   0.0434   0.1043   0.0201  -0.0512  -0.0261 -11.00    0.0
2024/05/10 09:15:50.000   28.458339105  -16.393913779   954.8723   2   7   0.0174   0.0434   0.1044   0.0201  -0.0512  -0.0261 -10.00    0.0
2024/05/10 09:15:51.000   28.458339104  -16.393913782   954.8728   2   7   0.0175   0.0434   0.1044   0.0201  -0.0512  -0.0261  -9.00    0.0
2024/05/10 09:15:52.000   28.458339102  -16.393913785   954.8732   2   7   0.0175   0.0434   0.1044   0.0201  -0.0512  -0.0261  -8.00    0.0
2024/05/10 09:15:53.000   28.458339101  -16.393913787   954.8737   2   7   0.0175   0.0434   0.1044   0.0201  -0.0512  -0.0261  -7.00    0.0
2024/05/10 09:15:54.000   28.458339100  -16.393913791   954.8743   2   7   0.0175   0.0434   0.1044   0.0201  -0.0512  -0.0261  -6.00    0.0
2024/05/10 09:15:55.000   28.458339099  -16.393913794   954.8744   2   7   0.0175   0.0434   0.1045   0.0201  -0.0512  -0.0261  -5.00    0.0
2024/05/10 09:15:56.000   28.458339098  -16.393913797   954.8748   2   7   0.0175   0.0434   0.1045   0.0201  -0.0512  -0.0261  -4.00    0.0
2024/05/10 09:15:57.000   28.458339098  -16.393913803   954.8754   2   7   0.0175   0.0434   0.1046   0.0201  -0.0512  -0.0261  -3.00    0.0
2024/05/10 09:15:58.000   28.458339097  -16.393913809   954.8764   2   7   0.0175   0.0434   0.1047   0.0201  -0.0513  -0.0261  -2.00    0.0
2024/05/10 09:15:59.000   28.458339097  -16.393913814   954.8764   2   7   0.0175   0.0435   0.1048   0.0201  -0.0513  -0.0261  -1.00    0.0
2024/05/10 09:16:00.000   28.458339098  -16.393913819   954.8763   2   7   0.0175   0.0435   0.1049   0.0201  -0.0513  -0.0262   0.00    0.0
2024/05/10 09:16:01.000   28.458339099  -16.393913821   954.8759   2   7   0.0176   0.0435   0.1050   0.0201  -0.0514  -0.0262   1.00    0.0
2024/05/10 09:16:02.000   28.458339101  -16.393913822   954.8763   2   7   0.0176   0.0436   0.1052   0.0202  -0.0514  -0.0262   2.00    0.0
2024/05/10 09:16:03.000   28.458339103  -16.393913821   954.8763   2   7   0.0176   0.0436   0.1053   0.0202  -0.0515  -0.0262   3.00    0.0
2024/05/10 09:16:04.000   28.458339105  -16.393913822   954.8776   2   7   0.0176   0.0436   0.1055   0.0202  -0.0515  -0.0262   4.00    0.0
2024/05/10 09:16:05.000   28.458339107  -16.393913825   954.8787   2   7   0.0176   0.0437   0.1056   0.0202  -0.0515  -0.0263   5.00    0.0
2024/05/10 09:16:06.000   28.458339108  -16.393913828   954.8801   2   7   0.0176   0.0437   0.1057   0.0202  -0.0516  -0.0263   6.00    0.0
2024/05/10 09:16:07.000   28.458339109  -16.393913829   954.8812   2   7   0.0177   0.0437   0.1057   0.0202  -0.0516  -0.0263   7.00    0.0
2024/05/10 09:16:08.000   28.458339110  -16.393913833   954.8827   2   7   0.0177   0.0437   0.1058   0.0202  -0.0516  -0.0263   8.00    0.0
2024/05/10 09:16:09.000   28.458339111  -16.393913835   954.8840   2   7   0.0177   0.0437   0.1059   0.0202  -0.0516  -0.0263   9.00    0.0
2024/05/10 09:16:10.000   28.458339111  -16.393913838   954.8857   2   7   0.0177   0.0437   0.1059   0.0202  -0.0516  -0.0263  10.00    0.0
2024/05/10 09:16:11.000   28.458339112  -16.393913842   954.8874   2   7   0.0177   0.0437   0.1059   0.0202  -0.0516  -0.0263  11.00    0.0
2024/05/10 09:16:12.000   28.458339112  -16.393913844   954.8887   2   7   0.0177   0.0437   0.1060   0.0202  -0.0516  -0.0263  12.00    0.0
2024/05/10 09:16:13.000   28.458339112  -16.393913847   954.8900   2   7   0.0177   0.0437   0.1060   0.0202  -0.0516  -0.0263  13.00    0.0
2024/05/10 09:16:14.000   28.458339112  -16.393913850   954.8912   2   7   0.0177   0.0437   0.1060   0.0202  -0.0516  -0.0263  14.00    0.0
2024/05/10 09:16:15.000   28.458339112  -16.393913851   954.8920   2   7   0.0177   0.0437   0.1060   0.0202  -0.0516  -0.0263 -15.00    0.0
2024/05/10 09:16:16.000   28.458339112  -16.393913854   954.8931   2   7   0.0177   0.0437   0.1061   0.0202  -0.0516  -0.0263 -14.00    0.0
2024/05/10 09:16:17.000   28.458339112  -16.393913856   954.8944   2   7   0.0177   0.0437   0.1061   0.0202  -0.0516  -0.0263 -13.00    0.0
2024/05/10 09:16:18.000   28.458339112  -16.393913860   954.8960   2   7   0.0177   0.0437   0.1061   0.0202  -0.0516  -0.0263 -12.00    0.0
2024/05/10 09:16:19.000   28.458339111  -16.393913865   954.8976   2   7   0.0177   0.0437   0.1061   0.0202  -0.0516  -0.0263 -11.00    0.0
2024/05/10 09:16:20.000   28.458339111  -16.393913871   954.8999   2   7   0.0177   0.0437   0.1061   0.0202  -0.0516  -0.0263 -10.00    0.0
2024/05/10 09:16:21.000   28.458339110  -16.393913876   954.9022   2   7   0.0177   0.0437   0.1062   0.0202  -0.0516  -0.0263  -9.00    0.0
2024/05/10 09:16:22.000   28.458339109  -16.393913884   954.9049   2   7   0.0177   0.0437   0.1062   0.0202  -0.0516  -0.0263  -8.00    0.0
2024/05/10 09:16:23.000   28.458339109  -16.393913892   954.9080   2   7   0.0177   0.0437   0.1062   0.0202  -0.0516  -0.0263  -7.00    0.0
2024/05/10 09:16:24.000   28.458339108  -16.393913901   954.9116   2   7   0.0177   0.0437   0.1063   0.0202  -0.0516  -0.0263  -6.00    0.0
2024/05/10 09:16:25.000   28.458339108  -16.393913909   954.9152   2   7   0.0177   0.0437   0.1063   0.0202  -0.0516  -0.0263  -5.00    0.0
2024/05/10 09:16:26.000   28.458339107  -16.393913921   954.9197   2   7   0.0177   0.0437   0.1064   0.0202  -0.0517  -0.0263  -4.00    0.0
2024/05/10 09:16:27.000   28.458339106  -16.393913933   954.9247   2   7   0.0177   0.0437   0.1065   0.0202  -0.0517  -0.0263  -3.00    0.0
2024/05/10 09:16:28.000   28.458339104  -16.393913946   954.9303   2   7   0.0177   0.0437   0.1066   0.0202  -0.0517  -0.0263  -2.00    0.0
2024/05/10 09:16:29.000   28.458339103  -16.393913962   954.9370   2   7   0.0177   0.0437   0.1067   0.0202  -0.0517  -0.0263  -1.00    0.0
2024/05/10 09:16:30.000   28.458339102  -16.393913979   954.9442   2   7   0.0178   0.0438   0.1069   0.0202  -0.0518  -0.0263   0.00    0.0
2024/05/10 09:16:31.000   28.458339103  -16.393913982   954.9472   2   7   0.0178   0.0438   0.1070   0.0202  -0.0518  -0.0264   1.00    0.0
2024/05/10 09:16:32.000   28.458339103  -16.393913991   954.9504   2   7   0.0178   0.0438   0.1071   0.0202  -0.0519  -0.0264   2.00    0.0
2024/05/10 09:16:33.000   28.458339101  -16.393913998   954.9535   2   7   0.0178   0.0439   0.1072   0.0202  -0.0519  -0.0264   3.00    0.0
2024/05/10 09:16:34.000   28.458339101  -16.393914002   954.9557   2   7   0.0178   0.0439   0.1073   0.0202  -0.0519  -0.0264   4.00    0.0
2024/05/10 09:16:35.000   28.458339102  -16.393914004   954.9581   2   7   0.0179   0.0439   0.1074   0.0202  -0.0519  -0.0264   5.00    0.0
2024/05/10 09:16:36.000   28.458339103  -16.393914008   954.9605   2   7   0.0179   0.0439   0.1074   0.0202  -0.0519  -0.0264   6.00    0.0
2024/05/10 09:16:37.000   28.458339103  -16.393914010   954.9626   2   7   0.0179   0.0439   0.1075   0.0202  -0.0520  -0.0264   7.00    0.0
2024/05/10 09:16:38.000   28.458339104  -16.393914012   954.9639   2   7   0.0179   0.0439   0.1075   0.0203  -0.0520  -0.0264   8.00    0.0
2024/05/10 09:16:39.000   28.458339104  -16.393914013   954.9651   2   7   0.0179   0.0439   0.1076   0.0203  -0.0520  -0.0264   9.00    0.0
2024/05/10 09:16:40.000   28.458339105  -16.393914012   954.9658   2   7   0.0179   0.0439   0.1076   0.0202  -0.0520  -0.0264  10.00    0.0
2024/05/10 09:16:41.000   28.458339106  -16.393914012   954.9664   2   7   0.0179   0.0439   0.1076   0.0202  -0.0520  -0.0264  11.00    0.0
2024/05/10 09:16:42.000   28.458339107  -16.393914011   954.9667   2   7   0.0179   0.0439   0.1076   0.0202  -0.0520  -0.0264  12.00    0.0
2024/05/10 09:16:43.000   28.458339108  -16.393914009   954.9669   2   7   0.0179   0.0439   0.1076   0.0202  -0.0520  -0.0264  13.00    0.0
2024/05/10 09:16:44.000   28.458339108  -16.393914008   954.9674   2   7   0.0179   0.0439   0.1076   0.0202  -0.0520  -0.0264  14.00    0.0
2024/05/10 09:16:45.000   28.458339109  -16.393914008   954.9678   2   7   0.0179   0.0439   0.1077   0.0202  -0.0520  -0.0264 -15.00    0.0
2024/05/10 09:16:46.000   28.458339110  -16.393914006   954.9680   2   7   0.0179   0.0439   0.1077   0.0202  -0.0520  -0.0264 -14.00    0.0
2024/05/10 09:16:47.000   28.458339111  -16.393914004   954.9680   2   7   0.0179   0.0439   0.1077   0.0202  -0.0520  -0.0264 -13.00    0.0
2024/05/10 09:16:48.000   28.458339112  -16.393914002   954.9681   2   7   0.0179   0.0439   0.1077   0.0202  -0.0519  -0.0264 -12.00    0.0
2024/05/10 09:16:49.000   28.458339113  -16.393914000   954.9679   2   7   0.0179   0.0439   0.1077   0.0202  -0.0519  -0.0264 -11.00    0.0
2024/05/10 09:16:50.000   28.458339113  -16.393913999   954.9680   2   7   0.0179   0.0439   0.1077   0.0202  -0.0519  -0.0264 -10.00    0.0
2024/05/10 09:16:51.000   28.458339114  -16.393913997   954.9680   2   7   0.0179   0.0439   0.1077   0.0202  -0.0519  -0.0264  -9.00    0.0
2024/05/10 09:16:52.000   28.458339115  -16.393913997   954.9683   2   7   0.0179   0.0439   0.1077   0.0202  -0.0519  -0.0264  -8.00    0.0
2024/05/10 09:16:53.000   28.458339116  -16.393913996   954.9687   2   7   0.0179   0.0439   0.1077   0.0202  -0.0519  -0.0264  -7.00    0.0
2024/05/10 09:16:54.000   28.458339117  -16.393913996   954.9696   2   7   0.0179   0.0439   0.1077   0.0202  -0.0519  -0.0264  -6.00    0.0
2024/05/10 09:16:55.000   28.458339118  -16.393913995   954.9703   2   7   0.0179   0.0439   0.1078   0.0202  -0.0519  -0.0264  -5.00    0.0
2024/05/10 09:16:56.000   28.458339120  -16.393913993   954.9711   2   7   0.0179   0.0439   0.1078   0.0202  -0.0520  -0.0264  -4.00    0.0
2024/05/10 09:16:57.000   28.458339121  -16.393913995   954.9721   2   7   0.0179   0.0439   0.1079   0.0202  -0.0520  -0.0264  -3.00    0.0
2024/05/10 09:16:58.000   28.458339121  -16.393913996   954.9737   2   7   0.0179   0.0440   0.1079   0.0202  -0.0520  -0.0264  -2.00    0.0
2024/05/10 09:16:59.000   28.458339122  -16.393913999   954.9758   2   7   0.0180   0.0440   0.1080   0.0202  -0.0520  -0.0264  -1.00    0.0
2024/05/10 09:17:00.000   28.458339123  -16.393914004   954.9788   2   7   0.0180   0.0440   0.1081   0.0203  -0.0520  -0.0264   0.00    0.0
2024/05/10 09:17:01.000   28.458339122  -16.393914015   954.9838   2   7   0.0180   0.0440   0.1082   0.0203  -0.0521  -0.0265   1.00    0.0
2024/05/10 09:17:02.000   28.458339122  -16.393914023   954.9884   2   7   0.0180   0.0441   0.1084   0.0203  -0.0521  -0.0265   2.00    0.0
2024/05/10 09:17:03.000   28.458339123  -16.393914031   954.9925   2   7   0.0180   0.0441   0.1084   0.0203  -0.0521  -0.0265   3.00    0.0
2024/05/10 09:17:04.000   28.458339124  -16.393914035   954.9954   2   7   0.0181   0.0441   0.1085   0.0203  -0.0522  -0.0265   4.00    0.0
2024/05/10 09:17:05.000   28.458339124  -16.393914038   954.9981   2   7   0.0181   0.0441   0.1086   0.0203  -0.0522  -0.0265   5.00    0.0
2024/05/10 09:17:06.000   28.458339125  -16.393914041   955.0001   2   7   0.0181   0.0442   0.1087   0.0203  -0.0522  -0.0265   6.00    0.0
2024/05/10 09:17:07.000   28.458339127  -16.393914041   955.0010   2   7   0.0181   0.0442   0.1087   0.0203  -0.0522  -0.0265   7.00    1.1
2024/05/10 09:17:08.000   28.458339128  -16.393914041   955.0020   2   7   0.0181   0.0442   0.1087   0.0203  -0.0522  -0.0265   8.00    1.1
2024/05/10 09:17:09.000   28.458339128  -16.393914042   955.0030   2   7   0.0181   0.0442   0.1088   0.0203  -0.0522  -0.0265   9.00    1.1
2024/05/10 09:17:10.000   28.458339129  -16.393914042   955.0038   2   7   0.0181   0.0442   0.1088   0.0203  -0.0522  -0.0265  10.00    1.0
2024/05/10 09:17:11.000   28.458339129  -16.393914042   955.0042   2   7   0.0181   0.0442   0.1088   0.0203  -0.0522  -0.0265  11.00    1.0
2024/05/10 09:17:12.000   28.458339129  -16.393914042   955.0046   2   7   0.0181   0.0442   0.1088   0.0203  -0.0522  -0.0265  12.00    1.0
2024/05/10 09:17:13.000   28.458339129  -16.393914043   955.0051   2   7   0.0181   0.0442   0.1088   0.0203  -0.0522  -0.0265  13.00    1.2
2024/05/10 09:17:14.000   28.458339129  -16.393914045   955.0055   2   7   0.0181   0.0442   0.1088   0.0203  -0.0522  -0.0265  14.00    1.0
2024/05/10 09:17:15.000   28.458339129  -16.393914046   955.0060   2   7   0.0181   0.0442   0.1088   0.0203  -0.0522  -0.0265 -15.00    1.1
2024/05/10 09:17:16.000   28.458339128  -16.393914047   955.0064   2   7   0.0181   0.0442   0.1088   0.0203  -0.0522  -0.0265 -14.00    1.1
2024/05/10 09:17:17.000   28.458339128  -16.393914049   955.0068   2   7   0.0181   0.0442   0.1088   0.0203  -0.0522  -0.0265 -13.00    1.0
2024/05/10 09:17:18.000   28.458339128  -16.393914049   955.0069   2   7   0.0181   0.0442   0.1089   0.0203  -0.0522  -0.0265 -12.00    1.0
2024/05/10 09:17:19.000   28.458339127  -16.393914051   955.0074   2   7   0.0181   0.0442   0.1089   0.0203  -0.0522  -0.0265 -11.00    1.0
2024/05/10 09:17:20.000   28.458339127  -16.393914055   955.0079   2   7   0.0181   0.0442   0.1089   0.0203  -0.0522  -0.0265 -10.00    1.2
2024/05/10 09:17:21.000   28.458339126  -16.393914058   955.0085   2   7   0.0181   0.0442   0.1089   0.0203  -0.0522  -0.0265  -9.00    1.0
2024/05/10 09:17:22.000   28.458339125  -16.393914061   955.0091   2   7   0.0181   0.0442   0.1089   0.0203  -0.0522  -0.0265  -8.00    1.1
2024/05/10 09:17:23.000   28.458339124  -16.393914065   955.0096   2   7   0.0181   0.0442   0.1089   0.0203  -0.0522  -0.0265  -7.00    1.1
2024/05/10 09:17:24.000   28.458339124  -16.393914068   955.0103   2   7   0.0181   0.0442   0.1089   0.0203  -0.0522  -0.0265  -6.00    1.0
2024/05/10 09:17:25.000   28.458339123  -16.393914071   955.0107   2   7   0.0181   0.0442   0.1090   0.0203  -0.0522  -0.0265  -5.00    1.0
2024/05/10 09:17:26.000   28.458339123  -16.393914073   955.0114   2   7   0.0181   0.0442   0.1090   0.0203  -0.0522  -0.0266  -4.00    1.0
2024/05/10 09:17:27.000   28.458339123  -16.393914075   955.0119   2   7   0.0181   0.0442   0.1091   0.0203  -0.0523  -0.0266  -3.00    1.2
2024/05/10 09:17:28.000   28.458339124  -16.393914077   955.0121   2   7   0.0182   0.0442   0.1091   0.0203  -0.0523  -0.0266  -2.00    1.0
2024/05/10 09:17:29.000   28.458339126  -16.393914079   955.0133   2   7   0.0182   0.0442   0.1092   0.0203  -0.0523  -0.0266  -1.00    1.1
2024/05/10 09:17:30.000   28.458339129  -16.393914077   955.0136   2   7   0.0182   0.0443   0.1093   0.0203  -0.0523  -0.0266   0.00    1.1
2024/05/10 09:17:31.000   28.458339134  -16.393914069   955.0120   2   6   0.0182   0.0443   0.1094   0.0203  -0.0524  -0.0266   1.00    1.2
2024/05/10 09:17:32.000   28.458339137  -16.393914063   955.0102   2   6   0.0182   0.0443   0.1095   0.0203  -0.0524  -0.0267   2.00    1.2
2024/05/10 09:17:33.000   28.458339140  -16.393914060   955.0093   2   6   0.0182   0.0443   0.1095   0.0204  -0.0524  -0.0267   3.00    1.1
2024/05/10 09:17:34.000   28.458339142  -16.393914055   955.0081   2   6   0.0183   0.0444   0.1096   0.0204  -0.0524  -0.0267   4.00    1.2
2024/05/10 09:17:35.000   28.458339144  -16.393914053   955.0074   2   6   0.0183   0.0444   0.1097   0.0204  -0.0525  -0.0267   5.00    1.1
2024/05/10 09:17:36.000   28.458339145  -16.393914050   955.0063   2   6   0.0183   0.0444   0.1097   0.0204  -0.0525  -0.0267   6.00    1.2
2024/05/10 09:17:37.000   28.458339147  -16.393914045   955.0048   2   6   0.0183   0.0444   0.1098   0.0204  -0.0525  -0.0267   7.00    1.1
2024/05/10 09:17:38.000   28.458339148  -16.393914041   955.0039   2   6   0.0183   0.0444   0.1098   0.0204  -0.0525  -0.0267   8.00    1.2
2024/05/10 09:17:39.000   28.458339149  -16.393914038   955.0032   2   6   0.0183   0.0444   0.1098   0.0204  -0.0525  -0.0267   9.00    1.0
2024/05/10 09:17:40.000   28.458339151  -16.393914035   955.0027   2   6   0.0183   0.0444   0.1098   0.0204  -0.0525  -0.0267  10.00    1.2
2024/05/10 09:17:41.000   28.458339152  -16.393914032   955.0021   2   6   0.0183   0.0444   0.1098   0.0204  -0.0525  -0.0267  11.00    1.1
2024/05/10 09:17:42.000   28.458339153  -16.393914029   955.0017   2   6   0.0183   0.0444   0.1098   0.0204  -0.0525  -0.0267  12.00    1.2
2024/05/10 09:17:43.000   28.458339154  -16.393914027   955.0012   2   6   0.0183   0.0444   0.1099   0.0204  -0.0525  -0.0267  13.00    1.2
2024/05/10 09:17:44.000   28.458339155  -16.393914024   955.0007   2   6   0.0183   0.0444   0.1099   0.0204  -0.0525  -0.0267  14.00    1.2
2024/05/10 09:17:45.000   28.458339156  -16.393914021   955.0001   2   6   0.0183   0.0444   0.1099   0.0204  -0.0525  -0.0267 -15.00    1.1
2024/05/10 09:17:46.000   28.458339157  -16.393914018   954.9994   2   6   0.0183   0.0444   0.1099   0.0204  -0.0525  -0.0267 -14.00    1.2
2024/05/10 09:17:47.000   28.458339158  -16.393914014   954.9987   2   6   0.0183   0.0444   0.1099   0.0204  -0.0525  -0.0267 -13.00    1.1
2024/05/10 09:17:48.000   28.458339160  -16.393914010   954.9978   2   6   0.0183   0.0444   0.1099   0.0204  -0.0525  -0.0267 -12.00    1.2
2024/05/10 09:17:49.000   28.458339161  -16.393914007   954.9969   2   6   0.0183   0.0444   0.1099   0.0204  -0.0525  -0.0267 -11.00    1.1
2024/05/10 09:17:50.000   28.458339163  -16.393914002   954.9960   2   6   0.0183   0.0444   0.1099   0.0204  -0.0525  -0.0267 -10.00    1.2
2024/05/10 09:17:51.000   28.458339165  -16.393913996   954.9946   2   6   0.0183   0.0444   0.1099   0.0204  -0.0525  -0.0267  -9.00    1.0
2024/05/10 09:17:52.000   28.458339167  -16.393913989   954.9932   2   6   0.0183   0.0444   0.1099   0.0204  -0.0525  -0.0267  -8.00    1.2
2024/05/10 09:17:53.000   28.458339170  -16.393913981   954.9916   2   6   0.0183   0.0444   0.1099   0.0204  -0.0525  -0.0267  -7.00    1.0
2024/05/10 09:17:54.000   28.458339173  -16.393913973   954.9900   2   6   0.0183   0.0444   0.1099   0.0204  -0.0525  -0.0267  -6.00    1.2
2024/05/10 09:17:55.000   28.458339176  -16.393913964   954.9881   2   6   0.0183   0.0444   0.1100   0.0204  -0.0525  -0.0267  -5.00    1.1
2024/05/10 09:17:56.000   28.458339180  -16.393913952   954.9854   2   6   0.0183   0.0444   0.1100   0.0204  -0.0525  -0.0267  -4.00    1.2
2024/05/10 09:17:57.000   28.458339184  -16.393913940   954.9825   2   6   0.0183   0.0444   0.1100   0.0204  -0.0525  -0.0267  -3.00    1.1
2024/05/10 09:17:58.000   28.458339188  -16.393913928   954.9799   2   6   0.0183   0.0444   0.1101   0.0204  -0.0525  -0.0268  -2.00    1.2
2024/05/10 09:17:59.000   28.458339194  -16.393913915   954.9768   2   6   0.0184   0.0444   0.1102   0.0204  -0.0526  -0.0268  -1.00    1.1
2024/05/10 09:18:00.000   28.458339200  -16.393913900   954.9728   2   7   0.0184   0.0445   0.1102   0.0204  -0.0526  -0.0268   0.00    1.1
2024/05/10 09:18:01.000   28.458339204  -16.393913886   954.9687   2   6   0.0184   0.0445   0.1103   0.0204  -0.0526  -0.0268   1.00    1.0
2024/05/10 09:18:02.000   28.458339209  -16.393913871   954.9650   2   6   0.0184   0.0445   0.1104   0.0204  -0.0526  -0.0268   2.00    1.1
2024/05/10 09:18:03.000   28.458339214  -16.393913858   954.9621   2   6   0.0184   0.0445   0.1105   0.0204  -0.0527  -0.0269   3.00    1.0
2024/05/10 09:18:04.000   28.458339217  -16.393913848   954.9597   2   6   0.0184   0.0445   0.1105   0.0204  -0.0527  -0.0269   4.00    1.1
2024/05/10 09:18:05.000   28.458339220  -16.393913838   954.9578   2   6   0.0185   0.0446   0.1106   0.0204  -0.0527  -0.0269   5.00    1.0
2024/05/10 09:18:06.000   28.458339222  -16.393913833   954.9567   2   6   0.0185   0.0446   0.1106   0.0204  -0.0527  -0.0269   6.00    1.1
2024/05/10 09:18:07.000   28.458339224  -16.393913827   954.9554   2   6   0.0185   0.0446   0.1106   0.0204  -0.0527  -0.0269   7.00    1.2
2024/05/10 09:18:08.000   28.458339225  -16.393913823   954.9546   2   6   0.0185   0.0446   0.1107   0.0204  -0.0527  -0.0269   8.00    1.1
2024/05/10 09:18:09.000   28.458339226  -16.393913820   954.9542   2   6   0.0185   0.0446   0.1107   0.0204  -0.0527  -0.0269   9.00    1.1
2024/05/10 09:18:10.000   28.458339226  -16.393913818   954.9537   2   6   0.0185   0.0446   0.1107   0.0204  -0.0527  -0.0269  10.00    1.1
2024/05/10 09:18:11.000   28.458339227  -16.393913815   954.9532   2   6   0.0185   0.0446   0.1107   0.0204  -0.0527  -0.0269  11.00    1.1
2024/05/10 09:18:12.000   28.458339228  -16.393913813   954.9526   2   6   0.0185   0.0446   0.1107   0.0204  -0.0527  -0.0269  12.00    1.1
2024/05/10 09:18:13.000   28.458339228  -16.393913812   954.9524   2   6   0.0185   0.0446   0.1107   0.0204  -0.0527  -0.0269  13.00    1.0
2024/05/10 09:18:14.000   28.458339228  -16.393913810   954.9521   2   6   0.0185   0.0446   0.1107   0.0204  -0.0527  -0.0269  14.00    1.1
2024/05/10 09:18:15.000   28.458339228  -16.393913809   954.9519   2   6   0.0185   0.0446   0.1107   0.0204  -0.0527  -0.0269 -15.00    1.0
2024/05/10 09:18:16.000   28.458339229  -16.393913807   954.9517   2   6   0.0185   0.0446   0.1107   0.0204  -0.0527  -0.0269 -14.00    1.1
2024/05/10 09:18:17.000   28.458339229  -16.393913806   954.9514   2   6   0.0185   0.0446   0.1107   0.0204  -0.0527  -0.0269 -13.00    1.0
2024/05/10 09:18:18.000   28.458339230  -16.393913805   954.9511   2   6   0.0185   0.0446   0.1108   0.0204  -0.0527  -0.0269 -12.00    1.1
2024/05/10 09:18:19.000   28.458339230  -16.393913804   954.9509   2   6   0.0185   0.0446   0.1108   0.0204  -0.0527  -0.0269 -11.00    1.2
2024/05/10 09:18:20.000   28.458339230  -16.393913802   954.9506   2   6   0.0185   0.0446   0.1108   0.0204  -0.0527  -0.0269 -10.00    1.1
2024/05/10 09:18:21.000   28.458339231  -16.393913800   954.9500   2   6   0.0185   0.0446   0.1108   0.0204  -0.0527  -0.0269  -9.00    1.0
2024/05/10 09:18:22.000   28.458339231  -16.393913798   954.9495   2   6   0.0185   0.0446   0.1108   0.0204  -0.0527  -0.0269  -8.00    1.1
2024/05/10 09:18:23.000   28.458339232  -16.393913795   954.9487   2   6   0.0185   0.0446   0.1108   0.0204  -0.0527  -0.0269  -7.00    1.1
2024/05/10 09:18:24.000   28.458339232  -16.393913793   954.9479   2   6   0.0185   0.0446   0.1108   0.0204  -0.0527  -0.0269  -6.00    1.1
2024/05/10 09:18:25.000   28.458339233  -16.393913789   954.9471   2   6   0.0185   0.0446   0.1108   0.0204  -0.0527  -0.0269  -5.00    1.0
2024/05/10 09:18:26.000   28.458339235  -16.393913786   954.9463   2   6   0.0185   0.0446   0.1108   0.0204  -0.0527  -0.0269  -4.00    1.1
2024/05/10 09:18:27.000   28.458339238  -16.393913780   954.9449   2   6   0.0185   0.0446   0.1109   0.0204  -0.0527  -0.0269  -3.00    1.1
2024/05/10 09:18:28.000   28.458339242  -16.393913773   954.9437   2   6   0.0185   0.0446   0.1109   0.0204  -0.0527  -0.0269  -2.00    1.1
2024/05/10 09:18:29.000   28.458339246  -16.393913764   954.9420   2   6   0.0185   0.0446   0.1110   0.0204  -0.0528  -0.0269  -1.00    1.0
2024/05/10 09:18:30.000   28.458339251  -16.393913751   954.9390   2   7   0.0185   0.0446   0.1110   0.0204  -0.0528  -0.0270   0.00    1.1
2024/05/10 09:18:31.000   28.458339257  -16.393913736   954.9356   2   7   0.0186   0.0447   0.1111   0.0204  -0.0528  -0.0270   1.00    1.0
2024/05/10 09:18:32.000   28.458339263  -16.393913721   954.9328   2   7   0.0186   0.0447   0.1112   0.0204  -0.0528  -0.0270   2.00    1.0
2024/05/10 09:18:33.000   28.458339268  -16.393913708   954.9306   2   7   0.0186   0.0447   0.1113   0.0204  -0.0528  -0.0270   3.00    1.1
2024/05/10 09:18:34.000   28.458339273  -16.393913693   954.9279   2   7   0.0186   0.0447   0.1113   0.0204  -0.0529  -0.0270   4.00    1.1
2024/05/10 09:18:35.000   28.458339278  -16.393913678   954.9255   2   7   0.0186   0.0447   0.1114   0.0204  -0.0529  -0.0270   5.00    1.0
2024/05/10 09:18:36.000   28.458339282  -16.393913668   954.9236   2   7   0.0186   0.0447   0.1114   0.0204  -0.0529  -0.0270   6.00    1.1
2024/05/10 09:18:37.000   28.458339285  -16.393913659   954.9220   2   7   0.0186   0.0447   0.1114   0.0204  -0.0529  -0.0270   7.00    1.0
2024/05/10 09:18:38.000   28.458339287  -16.393913652   954.9206   2   7   0.0186   0.0447   0.1115   0.0205  -0.0529  -0.0271   8.00    1.1
2024/05/10 09:18:39.000   28.458339289  -16.393913645   954.9194   2   7   0.0186   0.0447   0.1115   0.0205  -0.0529  -0.0271   9.00    1.0
2024/05/10 09:18:40.000   28.458339291  -16.393913639   954.9183   2   7   0.0186   0.0447   0.1115   0.0205  -0.0529  -0.0271  10.00    1.0
2024/05/10 09:18:41.000   28.458339292  -16.393913635   954.9174   2   7   0.0186   0.0447   0.1115   0.0205  -0.0529  -0.0271  11.00    1.1
2024/05/10 09:18:42.000   28.458339293  -16.393913631   954.9167   2   7   0.0186   0.0447   0.1115   0.0204  -0.0529  -0.0271  12.00    1.0
2024/05/10 09:18:43.000   28.458339294  -16.393913626   954.9161   2   7   0.0186   0.0447   0.1115   0.0204  -0.0529  -0.0271  13.00    1.1
2024/05/10 09:18:44.000   28.458339294  -16.393913624   954.9157   2   7   0.0186   0.0447   0.1115   0.0204  -0.0529  -0.0271  14.00    1.1
2024/05/10 09:18:45.000   28.458339295  -16.393913622   954.9153   2   7   0.0186   0.0447   0.1115   0.0204  -0.0529  -0.0271 -15.00    1.0
2024/05/10 09:18:46.000   28.458339296  -16.393913619   954.9148   2   7   0.0186   0.0447   0.1115   0.0204  -0.0529  -0.0271 -14.00    1.0
2024/05/10 09:18:47.000   28.458339296  -16.393913616   954.9143   2   7   0.0186   0.0447   0.1115   0.0204  -0.0529  -0.0271 -13.00    1.0
2024/05/10 09:18:48.000   28.458339296  -16.393913614   954.9139   2   7   0.0186   0.0447   0.1115   0.0204  -0.0529  -0.0270 -12.00    1.1
2024/05/10 09:18:49.000   28.458339297  -16.393913612   954.9136   2   7   0.0186   0.0447   0.1115   0.0204  -0.0529  -0.0270 -11.00    1.0
2024/05/10 09:18:50.000   28.458339298  -16.393913609   954.9132   2   7   0.0187   0.0447   0.1115   0.0204  -0.0529  -0.0270 -10.00    1.1
2024/05/10 09:18:51.000   28.458339299  -16.393913605   954.9126   2   7   0.0187   0.0447   0.1116   0.0204  -0.0529  -0.0270  -9.00    1.1
2024/05/10 09:18:52.000   28.458339299  -16.393913601   954.9121   2   7   0.0187   0.0447   0.1116   0.0204  -0.0529  -0.0270  -8.00    1.0
2024/05/10 09:18:53.000   28.458339300  -16.393913598   954.9116   2   7   0.0187   0.0447   0.1116   0.0204  -0.0529  -0.0270  -7.00    1.0
2024/05/10 09:18:54.000   28.458339301  -16.393913593   954.9109   2   7   0.0187   0.0447   0.1116   0.0204  -0.0529  -0.0271  -6.00    1.0
2024/05/10 09:18:55.000   28.458339303  -16.393913586   954.9098   2   7   0.0187   0.0447   0.1116   0.0204  -0.0529  -0.0271  -5.00    1.0
2024/05/10 09:18:56.000   28.458339304  -16.393913579   954.9091   2   7   0.0187   0.0447   0.1116   0.0204  -0.0529  -0.0271  -4.00    1.0
2024/05/10 09:18:57.000   28.458339306  -16.393913573   954.9083   2   7   0.0187   0.0447   0.1116   0.0204  -0.0529  -0.0271  -3.00    1.1
2024/05/10 09:18:58.000   28.458339308  -16.393913564   954.9074   2   7   0.0187   0.0447   0.1117   0.0204  -0.0529  -0.0271  -2.00    1.1
2024/05/10 09:18:59.000   28.458339310  -16.393913554   954.9065   2   7   0.0187   0.0448   0.1117   0.0204  -0.0529  -0.0271  -1.00    1.0
2024/05/10 09:19:00.000   28.458339313  -16.393913546   954.9065   2   7   0.0187   0.0448   0.1117   0.0205  -0.0529  -0.0271   0.00    1.0
2024/05/10 09:19:01.000   28.458339313  -16.393913547   954.9105   2   7   0.0187   0.0448   0.1118   0.0205  -0.0529  -0.0271   1.00    1.0
2024/05/10 09:19:02.000   28.458339314  -16.393913547   954.9133   2   7   0.0187   0.0448   0.1119   0.0205  -0.0530  -0.0271   2.00    1.0
2024/05/10 09:19:03.000   28.458339314  -16.393913546   954.9153   2   7   0.0187   0.0448   0.1120   0.0205  -0.0530  -0.0272   3.00    1.0
2024/05/10 09:19:04.000   28.458339315  -16.393913544   954.9171   2   7   0.0188   0.0448   0.1121   0.0205  -0.0530  -0.0272   4.00    1.1
2024/05/10 09:19:05.000   28.458339315  -16.393913543   954.9184   2   7   0.0188   0.0448   0.1122   0.0205  -0.0530  -0.0272   5.00    1.1
2024/05/10 09:19:06.000   28.458339314  -16.393913545   954.9199   2   7   0.0188   0.0449   0.1123   0.0205  -0.0530  -0.0272   6.00    1.0
2024/05/10 09:19:07.000   28.458339314  -16.393913545   954.9208   2   7   0.0188   0.0449   0.1123   0.0205  -0.0531  -0.0272   7.00    1.0
2024/05/10 09:19:08.000   28.458339314  -16.393913545   954.9214   2   7   0.0188   0.0449   0.1124   0.0205  -0.0531  -0.0272   8.00    1.0
2024/05/10 09:19:09.000   28.458339313  -16.393913545   954.9219   2   7   0.0188   0.0449   0.1124   0.0205  -0.0531  -0.0272   9.00    1.0
2024/05/10 09:19:10.000   28.458339313  -16.393913544   954.9224   2   7   0.0188   0.0449   0.1125   0.0205  -0.0531  -0.0272  10.00    1.0
2024/05/10 09:19:11.000   28.458339313  -16.393913545   954.9228   2   7   0.0188   0.0449   0.1125   0.0205  -0.0531  -0.0272  11.00    1.1
2024/05/10 09:19:12.000   28.458339313  -16.393913545   954.9230   2   7   0.0188   0.0449   0.1125   0.0205  -0.0531  -0.0272  12.00    1.1
2024/05/10 09:19:13.000   28.458339313  -16.393913544   954.9231   2   7   0.0188   0.0449   0.1126   0.0205  -0.0531  -0.0272  13.00    1.0
2024/05/10 09:19:14.000   28.458339313  -16.393913544   954.9232   2   7   0.0188   0.0449   0.1126   0.0205  -0.0531  -0.0272  14.00    1.0
2024/05/10 09:19:15.000   28.458339313  -16.393913543   954.9236   2   7   0.0188   0.0449   0.1126   0.0205  -0.0531  -0.0272 -15.00    1.0
2024/05/10 09:19:16.000   28.458339313  -16.393913543   954.9235   2   7   0.0188   0.0449   0.1126   0.0205  -0.0531  -0.0272 -14.00    1.0
2024/05/10 09:19:17.000   28.458339312  -16.393913542   954.9235   2   7   0.0188   0.0449   0.1126   0.0205  -0.0531  -0.0272 -13.00    1.0
2024/05/10 09:19:18.000   28.458339312  -16.393913542   954.9237   2   7   0.0188   0.0449   0.1126   0.0205  -0.0531  -0.0272 -12.00    1.1
2024/05/10 09:19:19.000   28.458339312  -16.393913541   954.9236   2   7   0.0188   0.0449   0.1127   0.0205  -0.0531  -0.0272 -11.00    1.1
2024/05/10 09:19:20.000   28.458339312  -16.393913540   954.9238   2   7   0.0188   0.0449   0.1127   0.0205  -0.0531  -0.0272 -10.00    1.0
2024/05/10 09:19:21.000   28.458339312  -16.393913538   954.9236   2   7   0.0188   0.0449   0.1127   0.0205  -0.0531  -0.0272  -9.00    1.0
2024/05/10 09:19:22.000   28.458339312  -16.393913537   954.9235   2   7   0.0188   0.0449   0.1127   0.0205  -0.0531  -0.0272  -8.00    1.0
2024/05/10 09:19:23.000   28.458339311  -16.393913536   954.9237   2   7   0.0188   0.0449   0.1127   0.0205  -0.0531  -0.0272  -7.00    1.0
2024/05/10 09:19:24.000   28.458339310  -16.393913534   954.9236   2   7   0.0188   0.0449   0.1128   0.0205  -0.0531  -0.0272  -6.00    1.0
2024/05/10 09:19:25.000   28.458339310  -16.393913533   954.9236   2   7   0.0188   0.0449   0.1128   0.0205  -0.0531  -0.0272  -5.00    1.1
2024/05/10 09:19:26.000   28.458339309  -16.393913529   954.9234   2   7   0.0188   0.0449   0.1128   0.0205  -0.0531  -0.0272  -4.00    1.1
2024/05/10 09:19:27.000   28.458339308  -16.393913526   954.9232   2   7   0.0188   0.0449   0.1128   0.0205  -0.0531  -0.0272  -3.00    1.0
2024/05/10 09:19:28.000   28.458339309  -16.393913520   954.9234   2   7   0.0188   0.0449   0.1129   0.0205  -0.0531  -0.0272  -2.00    1.1
2024/05/10 09:19:29.000   28.458339310  -16.393913511   954.9227   2   7   0.0188   0.0449   0.1129   0.0205  -0.0531  -0.0272  -1.00    1.0
2024/05/10 09:19:30.000   28.458339311  -16.393913499   954.9214   2   7   0.0188   0.0449   0.1130   0.0205  -0.0531  -0.0272   0.00    1.0
2024/05/10 09:19:31.000   28.458339313  -16.393913484   954.9176   2   7   0.0188   0.0449   0.1130   0.0205  -0.0532  -0.0272   1.00    1.0
2024/05/10 09:19:32.000   28.458339314  -16.393913474   954.9156   2   7   0.0189   0.0449   0.1131   0.0205  -0.0532  -0.0273   2.00    1.1
2024/05/10 09:19:33.000   28.458339314  -16.393913469   954.9144   2   7   0.0189   0.0449   0.1131   0.0205  -0.0532  -0.0273   3.00    1.0
2024/05/10 09:19:34.000   28.458339314  -16.393913462   954.9135   2   7   0.0189   0.0449   0.1131   0.0205  -0.0532  -0.0273   4.00    1.0
2024/05/10 09:19:35.000   28.458339313  -16.393913458   954.9125   2   7   0.0189   0.0449   0.1132   0.0205  -0.0532  -0.0273   5.00    1.1
2024/05/10 09:19:36.000   28.458339312  -16.393913454   954.9113   2   7   0.0189   0.0449   0.1132   0.0205  -0.0532  -0.0273   6.00    1.1
2024/05/10 09:19:37.000   28.458339311  -16.393913451   954.9103   2   7   0.0189   0.0449   0.1132   0.0205  -0.0532  -0.0273   7.00    1.0
2024/05/10 09:19:38.000   28.458339311  -16.393913449   954.9097   2   7   0.0189   0.0449   0.1132   0.0205  -0.0532  -0.0273   8.00    1.0
2024/05/10 09:19:39.000   28.458339310  -16.393913448   954.9092   2   7   0.0189   0.0449   0.1132   0.0205  -0.0532  -0.0273   9.00    1.1
2024/05/10 09:19:40.000   28.458339309  -16.393913445   954.9084   2   7   0.0189   0.0449   0.1132   0.0205  -0.0532  -0.0273  10.00    1.0
2024/05/10 09:19:41.000   28.458339309  -16.393913443   954.9076   2   7   0.0189   0.0449   0.1133   0.0205  -0.0532  -0.0273  11.00    1.0
2024/05/10 09:19:42.000   28.458339309  -16.393913442   954.9071   2   7   0.0189   0.0449   0.1133   0.0205  -0.0532  -0.0273  12.00    1.1
2024/05/10 09:19:43.000   28.458339308  -16.393913440   954.9067   2   7   0.0189   0.0449   0.1133   0.0205  -0.0532  -0.0273  13.00    1.1
2024/05/10 09:19:44.000   28.458339308  -16.393913439   954.9062   2   7   0.0189   0.0449   0.1133   0.0205  -0.0532  -0.0273  14.00    1.0
2024/05/10 09:19:45.000   28.458339308  -16.393913438   954.9059   2   7   0.0189   0.0449   0.1133   0.0205  -0.0532  -0.0273 -15.00    1.0
2024/05/10 09:19:46.000   28.458339307  -16.393913437   954.9056   2   7   0.0189   0.0449   0.1133   0.0205  -0.0532  -0.0273 -14.00    1.1
2024/05/10 09:19:47.000   28.458339307  -16.393913436   954.9055   2   7   0.0189   0.0449   0.1132   0.0205  -0.0531  -0.0273 -13.00    1.0
2024/05/10 09:19:48.000   28.458339306  -16.393913434   954.9052   2   7   0.0189   0.0449   0.1132   0.0205  -0.0531  -0.0273 -12.00    1.0
2024/05/10 09:19:49.000   28.458339305  -16.393913433   954.9049   2   7   0.0189   0.0449   0.1132   0.0205  -0.0531  -0.0273 -11.00    1.1
2024/05/10 09:19:50.000   28.458339304  -16.393913432   954.9046   2   7   0.0189   0.0449   0.1132   0.0205  -0.0531  -0.0273 -10.00    1.1
2024/05/10 09:19:51.000   28.458339303  -16.393913430   954.9042   2   7   0.0189   0.0449   0.1132   0.0205  -0.0531  -0.0273  -9.00    1.0
2024/05/10 09:19:52.000   28.458339302  -16.393913427   954.9038   2   7   0.0189   0.0449   0.1132   0.0205  -0.0531  -0.0273  -8.00    1.0
2024/05/10 09:19:53.000   28.458339301  -16.393913424   954.9033   2   7   0.0189   0.0449   0.1132   0.0205  -0.0531  -0.0273  -7.00    1.1
2024/05/10 09:19:54.000   28.458339299  -16.393913420   954.9024   2   7   0.0189   0.0449   0.1132   0.0205  -0.0531  -0.0273  -6.00    1.0
2024/05/10 09:19:55.000   28.458339297  -16.393913416   954.9011   2   7   0.0189   0.0449   0.1131   0.0205  -0.0531  -0.0273  -5.00    1.0
2024/05/10 09:19:56.000   28.458339295  -16.393913411   954.8998   2   7   0.0189   0.0449   0.1131   0.0205  -0.0531  -0.0273  -4.00    1.1
2024/05/10 09:19:57.000   28.458339291  -16.393913407   954.8992   2   7   0.0189   0.0449   0.1131   0.0205  -0.0531  -0.0273  -3.00    1.1
2024/05/10 09:19:58.000   28.458339288  -16.393913400   954.8976   2   7   0.0189   0.0449   0.1131   0.0205  -0.0531  -0.0273  -2.00    1.0
2024/05/10 09:19:59.000   28.458339285  -16.393913392   954.8955   2   7   0.0189   0.0449   0.1131   0.0205  -0.0530  -0.0273  -1.00    1.0
2024/05/10 09:20:00.000   28.458339282  -16.393913380   954.8929   2   7   0.0189   0.0449   0.1131   0.0205  -0.0530  -0.0273   0.00    1.0
2024/05/10 09:20:01.000   28.458339281  -16.393913367   954.8910   2   7   0.0189   0.0449   0.1131   0.0205  -0.0530  -0.0273   1.00    1.0
2024/05/10 09:20:02.000   28.458339281  -16.393913354   954.8891   2   7   0.0189   0.0449   0.1131   0.0205  -0.0530  -0.0273   2.00    1.0
2024/05/10 09:20:03.000   28.458339281  -16.393913345   954.8875   2   7   0.0190   0.0449   0.1131   0.0205  -0.0531  -0.0273   3.00    1.1
2024/05/10 09:20:04.000   28.458339282  -16.393913335   954.8866   2   7   0.0190   0.0450   0.1132   0.0205  -0.0531  -0.0273   4.00    1.1
2024/05/10 09:20:05.000   28.458339283  -16.393913326   954.8860   2   7   0.0190   0.0450   0.1132   0.0205  -0.0531  -0.0273   5.00    1.0
2024/05/10 09:20:06.000   28.458339284  -16.393913318   954.8854   2   7   0.0190   0.0450   0.1132   0.0205  -0.0531  -0.0273   6.00    1.0
2024/05/10 09:20:07.000   28.458339285  -16.393913313   954.8849   2   7   0.0190   0.0450   0.1132   0.0205  -0.0531  -0.0273   7.00    1.0
2024/05/10 09:20:08.000   28.458339287  -16.393913307   954.8844   2   7   0.0190   0.0450   0.1132   0.0205  -0.0531  -0.0273   8.00    1.0
2024/05/10 09:20:09.000   28.458339288  -16.393913303   954.8840   2   7   0.0190   0.0450   0.1132   0.0205  -0.0531  -0.0273   9.00    1.0
2024/05/10 09:20:10.000   28.458339289  -16.393913300   954.8836   2   7   0.0190   0.0450   0.1133   0.0205  -0.0531  -0.0273  10.00    1.1
2024/05/10 09:20:11.000   28.458339290  -16.393913296   954.8831   2   7   0.0190   0.0450   0.1133   0.0205  -0.0531  -0.0273  11.00    1.2
2024/05/10 09:20:12.000   28.458339291  -16.393913294   954.8825   2   7   0.0190   0.0450   0.1133   0.0205  -0.0531  -0.0273  12.00    1.0
2024/05/10 09:20:13.000   28.458339291  -16.393913291   954.8821   2   7   0.0190   0.0450   0.1133   0.0205  -0.0531  -0.0273  13.00    1.0
2024/05/10 09:20:14.000   28.458339292  -16.393913289   954.8818   2   7   0.0190   0.0450   0.1133   0.0205  -0.0530  -0.0273  14.00    1.0
2024/05/10 09:20:15.000   28.458339292  -16.393913288   954.8815   2   7   0.0190   0.0450   0.1133   0.0205  -0.0530  -0.0273 -15.00    1.0
2024/05/10 09:20:16.000   28.458339293  -16.393913286   954.8813   2   7   0.0190   0.0450   0.1133   0.0205  -0.0530  -0.0273 -14.00    1.0
2024/05/10 09:20:17.000   28.458339293  -16.393913284   954.8808   2   7   0.0190   0.0450   0.1133   0.0205  -0.0530  -0.0273 -13.00    1.1
2024/05/10 09:20:18.000   28.458339294  -16.393913282   954.8803   2   7   0.0190   0.0449   0.1133   0.0205  -0.0530  -0.0273 -12.00    1.1
2024/05/10 09:20:19.000   28.458339295  -16.393913279   954.8798   2   7   0.0190   0.0449   0.1133   0.0205  -0.0530  -0.0273 -11.00    1.0
2024/05/10 09:20:20.000   28.458339296  -16.393913277   954.8793   2   7   0.0190   0.0449   0.1133   0.0205  -0.0530  -0.0273 -10.00    1.0
2024/05/10 09:20:21.000   28.458339297  -16.393913273   954.8785   2   7   0.0190   0.0449   0.1132   0.0205  -0.0530  -0.0273  -9.00    1.0
2024/05/10 09:20:22.000   28.458339298  -16.393913271   954.8780   2   7   0.0190   0.0449   0.1132   0.0205  -0.0530  -0.0273  -8.00    1.0
2024/05/10 09:20:23.000   28.458339299  -16.393913268   954.8774   2   7   0.0190   0.0449   0.1132   0.0205  -0.0530  -0.0273  -7.00    1.0
2024/05/10 09:20:24.000   28.458339300  -16.393913263   954.8764   2   7   0.0190   0.0449   0.1132   0.0205  -0.0530  -0.0273  -6.00    1.1
2024/05/10 09:20:25.000   28.458339301  -16.393913258   954.8754   2   7   0.0190   0.0449   0.1132   0.0205  -0.0530  -0.0273  -5.00    1.1
2024/05/10 09:20:26.000   28.458339303  -16.393913253   954.8743   2   7   0.0190   0.0449   0.1132   0.0205  -0.0530  -0.0273  -4.00    1.1
2024/05/10 09:20:27.000   28.458339305  -16.393913248   954.8722   2   7   0.0190   0.0449   0.1132   0.0205  -0.0530  -0.0273  -3.00    1.0
2024/05/10 09:20:28.000   28.458339306  -16.393913242   954.8703   2   7   0.0190   0.0449   0.1132   0.0205  -0.0530  -0.0273  -2.00    1.0
2024/05/10 09:20:29.000   28.458339307  -16.393913236   954.8684   2   7   0.0190   0.0449   0.1131   0.0205  -0.0530  -0.0273  -1.00    1.0
2024/05/10 09:20:30.000   28.458339307  -16.393913229   954.8665   2   7   0.0190   0.0449   0.1131   0.0205  -0.0530  -0.0273   0.00    1.0
2024/05/10 09:20:31.000   28.458339306  -16.393913224   954.8650   2   7   0.0190   0.0449   0.1131   0.0205  -0.0530  -0.0273   1.00    1.1
2024/05/10 09:20:32.000   28.458339305  -16.393913223   954.8635   2   7   0.0190   0.0449   0.1132   0.0205  -0.0530  -0.0273   2.00    1.1
2024/05/10 09:20:33.000   28.458339303  -16.393913226   954.8629   2   7   0.0190   0.0449   0.1132   0.0205  -0.0530  -0.0273   3.00    1.1
2024/05/10 09:20:34.000   28.458339302  -16.393913229   954.8635   2   7   0.0190   0.0449   0.1132   0.0205  -0.0530  -0.0273   4.00    1.0
2024/05/10 09:20:35.000   28.458339300  -16.393913233   954.8643   2   7   0.0190   0.0449   0.1133   0.0205  -0.0530  -0.0273   5.00    1.0
2024/05/10 09:20:36.000   28.458339297  -16.393913237   954.8647   2   7   0.0190   0.0449   0.1133   0.0205  -0.0530  -0.0273   6.00    1.0
2024/05/10 09:20:37.000   28.458339294  -16.393913240   954.8650   2   7   0.0190   0.0450   0.1133   0.0205  -0.0530  -0.0273   7.00    1.0
2024/05/10 09:20:38.000   28.458339291  -16.393913242   954.8655   2   7   0.0190   0.0450   0.1133   0.0205  -0.0530  -0.0273   8.00    1.1
2024/05/10 09:20:39.000   28.458339289  -16.393913244   954.8659   2   7   0.0190   0.0450   0.1133   0.0205  -0.0530  -0.0273   9.00    1.1
2024/05/10 09:20:40.000   28.458339287  -16.393913246   954.8659   2   7   0.0190   0.0450   0.1134   0.0205  -0.0530  -0.0273  10.00    1.1
2024/05/10 09:20:41.000   28.458339286  -16.393913247   954.8658   2   7   0.0190   0.0450   0.1134   0.0205  -0.0530  -0.0273  11.00    1.0
2024/05/10 09:20:42.000   28.458339285  -16.393913248   954.8657   2   7   0.0190   0.0449   0.1134   0.0205  -0.0530  -0.0273  12.00    1.0
2024/05/10 09:20:43.000   28.458339284  -16.393913247   954.8656   2   7   0.0190   0.0449   0.1134   0.0205  -0.0530  -0.0273  13.00    1.0
2024/05/10 09:20:44.000   28.458339283  -16.393913248   954.8656   2   7   0.0190   0.0449   0.1134   0.0205  -0.0530  -0.0273  14.00    1.0
2024/05/10 09:20:45.000   28.458339283  -16.393913248   954.8655   2   7   0.0190   0.0449   0.1134   0.0205  -0.0530  -0.0273 -15.00    1.1
2024/05/10 09:20:46.000   28.458339282  -16.393913249   954.8652   2   7   0.0190   0.0449   0.1134   0.0205  -0.0530  -0.0273 -14.00    1.1
2024/05/10 09:20:47.000   28.458339281  -16.393913248   954.8647   2   7   0.0190   0.0449   0.1134   0.0205  -0.0530  -0.0273 -13.00    1.0
2024/05/10 09:20:48.000   28.458339281  -16.393913247   954.8642   2   7   0.0190   0.0449   0.1134   0.0205  -0.0529  -0.0273 -12.00    1.0
2024/05/10 09:20:49.000   28.458339280  -16.393913246   954.8637   2   7   0.0190   0.0449   0.1134   0.0205  -0.0529  -0.0273 -11.00    1.0
2024/05/10 09:20:50.000   28.458339280  -16.393913246   954.8632   2   7   0.0190   0.0449   0.1134   0.0205  -0.0529  -0.0273 -10.00    1.0
2024/05/10 09:20:51.000   28.458339280  -16.393913245   954.8622   2   7   0.0190   0.0449   0.1134   0.0205  -0.0529  -0.0273  -9.00    1.0
2024/05/10 09:20:52.000   28.458339279  -16.393913242   954.8610   2   7   0.0190   0.0449   0.1134   0.0205  -0.0529  -0.0273  -8.00    1.1
2024/05/10 09:20:53.000   28.458339278  -16.393913242   954.8601   2   7   0.0190   0.0449   0.1134   0.0205  -0.0529  -0.0273  -7.00    1.1
2024/05/10 09:20:54.000   28.458339277  -16.393913240   954.8593   2   7   0.0190   0.0449   0.1133   0.0205  -0.0529  -0.0273  -6.00    1.0
2024/05/10 09:20:55.000   28.458339276  -16.393913240   954.8582   2   7   0.0190   0.0449   0.1133   0.0205  -0.0529  -0.0273  -5.00    1.0
2024/05/10 09:20:56.000   28.458339274  -16.393913239   954.8565   2   7   0.0190   0.0449   0.1133   0.0205  -0.0529  -0.0273  -4.00    1.0
2024/05/10 09:20:57.000   28.458339273  -16.393913236   954.8538   2   7   0.0190   0.0449   0.1133   0.0205  -0.0529  -0.0273  -3.00    1.0
2024/05/10 09:20:58.000   28.458339271  -16.393913231   954.8504   2   7   0.0190   0.0449   0.1133   0.0205  -0.0529  -0.0273  -2.00    1.0
2024/05/10 09:20:59.000   28.458339270  -16.393913222   954.8468   2   7   0.0190   0.0449   0.1132   0.0205  -0.0529  -0.0273  -1.00    1.1
2024/05/10 09:21:00.000   28.458339270  -16.393913209   954.8424   2   7   0.0190   0.0449   0.1132   0.0205  -0.0528  -0.0273   0.00    1.1
2024/05/10 09:21:01.000   28.458339271  -16.393913199   954.8385   2   7   0.0190   0.0449   0.1132   0.0205  -0.0528  -0.0273   1.00    1.1
2024/05/10 09:21:02.000   28.458339270  -16.393913190   954.8352   2   7   0.0190   0.0449   0.1131   0.0205  -0.0528  -0.0273   2.00    1.0
2024/05/10 09:21:03.000   28.458339270  -16.393913181   954.8323   2   7   0.0190   0.0449   0.1131   0.0205  -0.0528  -0.0273   3.00    1.0
2024/05/10 09:21:04.000   28.458339270  -16.393913173   954.8295   2   7   0.0190   0.0449   0.1131   0.0205  -0.0528  -0.0273   4.00    1.0
2024/05/10 09:21:05.000   28.458339270  -16.393913165   954.8267   2   7   0.0191   0.0449   0.1130   0.0205  -0.0528  -0.0273   5.00    1.0
2024/05/10 09:21:06.000   28.458339271  -16.393913159   954.8243   2   7   0.0191   0.0449   0.1130   0.0205  -0.0528  -0.0273   6.00    1.1
2024/05/10 09:21:07.000   28.458339272  -16.393913152   954.8217   2   7   0.0191   0.0449   0.1130   0.0205  -0.0528  -0.0273   7.00    1.1
2024/05/10 09:21:08.000   28.458339273  -16.393913146   954.8193   2   7   0.0191   0.0449   0.1130   0.0205  -0.0527  -0.0273   8.00    1.1
2024/05/10 09:21:09.000   28.458339274  -16.393913141   954.8175   2   7   0.0191   0.0449   0.1130   0.0205  -0.0527  -0.0273   9.00    1.0
2024/05/10 09:21:10.000   28.458339274  -16.393913137   954.8159   2   7   0.0191   0.0449   0.1130   0.0205  -0.0527  -0.0273  10.00    1.0
2024/05/10 09:21:11.000   28.458339275  -16.393913134   954.8145   2   7   0.0191   0.0449   0.1129   0.0205  -0.0527  -0.0273  11.00    1.0
2024/05/10 09:21:12.000   28.458339276  -16.393913131   954.8134   2   7   0.0191   0.0449   0.1129   0.0205  -0.0527  -0.0273  12.00    1.0
2024/05/10 09:21:13.000   28.458339278  -16.393913127   954.8121   2   7   0.0191   0.0449   0.1129   0.0205  -0.0527  -0.0273  13.00    1.1
2024/05/10 09:21:14.000   28.458339279  -16.393913124   954.8110   2   7   0.0191   0.0449   0.1129   0.0205  -0.0527  -0.0273  14.00    1.1
2024/05/10 09:21:15.000   28.458339279  -16.393913122   954.8103   2   7   0.0191   0.0449   0.1129   0.0205  -0.0527  -0.0273 -15.00    1.1
2024/05/10 09:21:16.000   28.458339280  -16.393913120   954.8094   2   7   0.0191   0.0449   0.1129   0.0205  -0.0527  -0.0273 -14.00    1.0
2024/05/10 09:21:17.000   28.458339281  -16.393913118   954.8085   2   7   0.0191   0.0449   0.1129   0.0205  -0.0527  -0.0273 -13.00    1.0
2024/05/10 09:21:18.000   28.458339282  -16.393913116   954.8075   2   7   0.0191   0.0449   0.1128   0.0205  -0.0527  -0.0273 -12.00    1.0
2024/05/10 09:21:19.000   28.458339283  -16.393913113   954.8066   2   7   0.0191   0.0449   0.1128   0.0205  -0.0526  -0.0273 -11.00    1.0
2024/05/10 09:21:20.000   28.458339283  -16.393913111   954.8056   2   7   0.0191   0.0449   0.1128   0.0205  -0.0526  -0.0273 -10.00    1.1
2024/05/10 09:21:21.000   28.458339284  -16.393913111   954.8052   2   7   0.0191   0.0449   0.1128   0.0205  -0.0526  -0.0273  -9.00    1.1
2024/05/10 09:21:22.000   28.458339285  -16.393913109   954.8039   2   7   0.0191   0.0448   0.1127   0.0205  -0.0526  -0.0273  -8.00    1.1
2024/05/10 09:21:23.000   28.458339286  -16.393913106   954.8019   2   7   0.0191   0.0448   0.1127   0.0205  -0.0526  -0.0272  -7.00    1.0
2024/05/10 09:21:24.000   28.458339286  -16.393913105   954.8002   2   7   0.0191   0.0448   0.1126   0.0205  -0.0526  -0.0272  -6.00    1.0
2024/05/10 09:21:25.000   28.458339287  -16.393913102   954.7985   2   7   0.0191   0.0448   0.1126   0.0205  -0.0525  -0.0272  -5.00    1.0
2024/05/10 09:21:26.000   28.458339287  -16.393913099   954.7961   2   7   0.0190   0.0448   0.1125   0.0205  -0.0525  -0.0272  -4.00    1.0
2024/05/10 09:21:27.000   28.458339287  -16.393913097   954.7937   2   7   0.0190   0.0448   0.1124   0.0205  -0.0525  -0.0272  -3.00    1.1
