% program   : RTKPOST-EX 2.5.0
% inp file  : C:\Users\SallyHenry\Desktop\Sally Internship\GNSS gravi\DATA\Survey Rover Obs\MI02.24o
% inp file  : C:\Users\SallyHenry\Desktop\Sally Internship\GNSS gravi\DATA\BaseStations\TN02\TN0200ESP_R_20241310000_01D_30S_MO.rnx
% inp file  : C:\Users\SallyHenry\Desktop\Sally Internship\GNSS gravi\DATA\BaseStations\TN02\TN0200ESP_R_20241310000_01D_MN.rnx
% inp file  : C:\Users\SallyHenry\Desktop\Sally Internship\GNSS gravi\DATA\aux_files\Survey\IGS0OPSFIN_20241310000_01D_15M_ORB.SP3
% inp file  : C:\Users\SallyHenry\Desktop\Sally Internship\GNSS gravi\DATA\aux_files\Survey\IGS0OPSFIN_20241310000_01D_30S_CLK.CLK
% obs start : 2024/05/10 09:45:40.0 GPST (week2313 467140.0s)
% obs end   : 2024/05/10 10:00:40.0 GPST (week2313 468040.0s)
% pos mode  : Static
% freqs     : L1+L2/E5b
% solution  : Combined-No Phase Reset
% elev mask : 15.0 deg
% dynamics  : on
% tidecorr  : solid
% ionos opt : Estimate TEC
% tropo opt : Estimate ZTD+Grad
% ephemeris : Precise
% navi sys  : GPS GLONASS Galileo QZSS BDS
% amb res   : Fix and Hold
% amb glo   : Fix and Hold
% amb bds   : on
% val thres : 3.0
% antenna1  :                       ( 0.0000  0.0000  1.8000)
% antenna2  :                       ( 0.0000  0.0000  0.0771)
% ref pos   :  28.418257450  -16.550784480    54.4145
%
% (lat/lon/height=WGS84/ellipsoidal,Q=1:fix,2:float,3:sbas,4:dgps,5:single,6:ppp,ns=# of satellites)
%  GPST                  latitude(deg) longitude(deg)  height(m)   Q  ns   sdn(m)   sde(m)   sdu(m)  sdne(m)  sdeu(m)  sdun(m) age(s)  ratio
2024/05/10 09:45:40.000   28.460504241  -16.419612777   812.3805   2   6   0.0181   0.0656   0.1287   0.0269  -0.0781  -0.0328 -20.00    0.0
2024/05/10 09:45:41.000   28.460504240  -16.419612777   812.3810   2   6   0.0181   0.0656   0.1286   0.0269  -0.0780  -0.0327 -19.00    0.0
2024/05/10 09:45:42.000   28.460504240  -16.419612779   812.3817   2   6   0.0181   0.0655   0.1286   0.0269  -0.0780  -0.0327 -18.00    0.0
2024/05/10 09:45:43.000   28.460504240  -16.419612777   812.3816   2   6   0.0181   0.0655   0.1285   0.0268  -0.0779  -0.0327 -17.00    0.0
2024/05/10 09:45:44.000   28.460504239  -16.419612777   812.3819   2   6   0.0181   0.0654   0.1285   0.0268  -0.0778  -0.0327 -16.00    0.0
2024/05/10 09:45:45.000   28.460504239  -16.419612775   812.3818   2   6   0.0181   0.0654   0.1284   0.0268  -0.0778  -0.0326 -15.00    0.0
2024/05/10 09:45:46.000   28.460504238  -16.419612777   812.3822   2   6   0.0181   0.0653   0.1283   0.0268  -0.0777  -0.0326 -14.00    0.0
2024/05/10 09:45:47.000   28.460504238  -16.419612776   812.3822   2   6   0.0181   0.0653   0.1283   0.0267  -0.0776  -0.0326 -13.00    0.0
2024/05/10 09:45:48.000   28.460504238  -16.419612772   812.3819   2   6   0.0181   0.0652   0.1282   0.0267  -0.0776  -0.0325 -12.00    0.0
2024/05/10 09:45:49.000   28.460504237  -16.419612770   812.3817   2   6   0.0180   0.0652   0.1282   0.0267  -0.0775  -0.0325 -11.00    0.0
2024/05/10 09:45:50.000   28.460504237  -16.419612766   812.3811   2   6   0.0180   0.0651   0.1281   0.0267  -0.0774  -0.0325 -10.00    0.0
2024/05/10 09:45:51.000   28.460504237  -16.419612764   812.3805   2   6   0.0180   0.0651   0.1281   0.0267  -0.0774  -0.0325  -9.00    0.0
2024/05/10 09:45:52.000   28.460504236  -16.419612762   812.3803   2   6   0.0180   0.0650   0.1280   0.0266  -0.0773  -0.0324  -8.00    0.0
2024/05/10 09:45:53.000   28.460504236  -16.419612757   812.3796   2   6   0.0180   0.0650   0.1280   0.0266  -0.0773  -0.0324  -7.00    0.0
2024/05/10 09:45:54.000   28.460504235  -16.419612755   812.3796   2   6   0.0180   0.0650   0.1279   0.0266  -0.0772  -0.0324  -6.00    0.0
2024/05/10 09:45:55.000   28.460504233  -16.419612753   812.3796   2   6   0.0180   0.0649   0.1279   0.0266  -0.0771  -0.0324  -5.00    0.0
2024/05/10 09:45:56.000   28.460504232  -16.419612752   812.3791   2   6   0.0180   0.0649   0.1279   0.0266  -0.0771  -0.0323  -4.00    0.0
2024/05/10 09:45:57.000   28.460504230  -16.419612749   812.3787   2   6   0.0180   0.0648   0.1278   0.0265  -0.0770  -0.0323  -3.00    0.0
2024/05/10 09:45:58.000   28.460504228  -16.419612747   812.3781   2   6   0.0181   0.0648   0.1278   0.0265  -0.0770  -0.0323  -2.00    0.0
2024/05/10 09:45:59.000   28.460504226  -16.419612746   812.3775   2   6   0.0181   0.0648   0.1278   0.0265  -0.0769  -0.0323  -1.00    0.0
2024/05/10 09:46:00.000   28.460504223  -16.419612747   812.3772   2   6   0.0181   0.0647   0.1278   0.0265  -0.0769  -0.0322   0.00    0.0
2024/05/10 09:46:01.000   28.460504221  -16.419612745   812.3775   2   6   0.0181   0.0647   0.1279   0.0265  -0.0768  -0.0322   1.00    0.0
2024/05/10 09:46:02.000   28.460504219  -16.419612741   812.3775   2   6   0.0181   0.0647   0.1279   0.0264  -0.0768  -0.0322   2.00    0.0
2024/05/10 09:46:03.000   28.460504216  -16.419612740   812.3777   2   6   0.0181   0.0646   0.1279   0.0264  -0.0767  -0.0322   3.00    0.0
2024/05/10 09:46:04.000   28.460504214  -16.419612739   812.3778   2   6   0.0181   0.0646   0.1279   0.0264  -0.0766  -0.0321   4.00    0.0
2024/05/10 09:46:05.000   28.460504213  -16.419612738   812.3782   2   6   0.0181   0.0646   0.1279   0.0264  -0.0766  -0.0321   5.00    0.0
2024/05/10 09:46:06.000   28.460504212  -16.419612738   812.3786   2   6   0.0181   0.0645   0.1279   0.0264  -0.0765  -0.0321   6.00    0.0
2024/05/10 09:46:07.000   28.460504211  -16.419612739   812.3792   2   6   0.0181   0.0645   0.1278   0.0264  -0.0765  -0.0321   7.00    0.0
2024/05/10 09:46:08.000   28.460504211  -16.419612739   812.3795   2   6   0.0181   0.0645   0.1278   0.0263  -0.0764  -0.0321   8.00    0.0
2024/05/10 09:46:09.000   28.460504210  -16.419612740   812.3799   2   6   0.0181   0.0644   0.1278   0.0263  -0.0764  -0.0320   9.00    0.0
2024/05/10 09:46:10.000   28.460504209  -16.419612741   812.3804   2   6   0.0181   0.0644   0.1277   0.0263  -0.0763  -0.0320  10.00    0.0
2024/05/10 09:46:11.000   28.460504209  -16.419612740   812.3804   2   6   0.0181   0.0643   0.1277   0.0263  -0.0763  -0.0320  11.00    0.0
2024/05/10 09:46:12.000   28.460504209  -16.419612739   812.3803   2   6   0.0181   0.0643   0.1277   0.0263  -0.0762  -0.0320  12.00    0.0
2024/05/10 09:46:13.000   28.460504209  -16.419612739   812.3803   2   6   0.0181   0.0643   0.1276   0.0262  -0.0762  -0.0319  13.00    0.0
2024/05/10 09:46:14.000   28.460504209  -16.419612739   812.3803   2   6   0.0181   0.0642   0.1276   0.0262  -0.0761  -0.0319  14.00    0.0
2024/05/10 09:46:15.000   28.460504209  -16.419612737   812.3802   2   6   0.0181   0.0642   0.1275   0.0262  -0.0761  -0.0319 -15.00    0.0
2024/05/10 09:46:16.000   28.460504208  -16.419612738   812.3804   2   6   0.0181   0.0641   0.1275   0.0262  -0.0760  -0.0319 -14.00    0.0
2024/05/10 09:46:17.000   28.460504208  -16.419612740   812.3807   2   6   0.0181   0.0641   0.1274   0.0262  -0.0759  -0.0318 -13.00    0.0
2024/05/10 09:46:18.000   28.460504208  -16.419612737   812.3806   2   6   0.0181   0.0640   0.1274   0.0261  -0.0759  -0.0318 -12.00    0.0
2024/05/10 09:46:19.000   28.460504208  -16.419612735   812.3806   2   6   0.0181   0.0640   0.1274   0.0261  -0.0758  -0.0318 -11.00    0.0
2024/05/10 09:46:20.000   28.460504208  -16.419612735   812.3807   2   6   0.0181   0.0640   0.1273   0.0261  -0.0758  -0.0318 -10.00    0.0
2024/05/10 09:46:21.000   28.460504208  -16.419612733   812.3809   2   6   0.0181   0.0639   0.1273   0.0261  -0.0757  -0.0318  -9.00    0.0
2024/05/10 09:46:22.000   28.460504208  -16.419612731   812.3810   2   6   0.0181   0.0639   0.1272   0.0261  -0.0757  -0.0317  -8.00    0.0
2024/05/10 09:46:23.000   28.460504208  -16.419612732   812.3815   2   6   0.0181   0.0638   0.1272   0.0260  -0.0756  -0.0317  -7.00    0.0
2024/05/10 09:46:24.000   28.460504208  -16.419612731   812.3819   2   6   0.0181   0.0638   0.1272   0.0260  -0.0756  -0.0317  -6.00    0.0
2024/05/10 09:46:25.000   28.460504208  -16.419612729   812.3826   2   6   0.0181   0.0638   0.1272   0.0260  -0.0755  -0.0317  -5.00    0.0
2024/05/10 09:46:26.000   28.460504208  -16.419612726   812.3832   2   6   0.0181   0.0637   0.1271   0.0260  -0.0755  -0.0316  -4.00    0.0
2024/05/10 09:46:27.000   28.460504208  -16.419612726   812.3841   2   6   0.0181   0.0637   0.1271   0.0260  -0.0754  -0.0316  -3.00    0.0
2024/05/10 09:46:28.000   28.460504207  -16.419612724   812.3856   2   6   0.0181   0.0637   0.1271   0.0260  -0.0754  -0.0316  -2.00    0.0
2024/05/10 09:46:29.000   28.460504207  -16.419612722   812.3879   2   6   0.0181   0.0636   0.1272   0.0259  -0.0753  -0.0316  -1.00    0.0
2024/05/10 09:46:30.000   28.460504207  -16.419612717   812.3897   2   6   0.0181   0.0636   0.1272   0.0259  -0.0753  -0.0316   0.00    0.0
2024/05/10 09:46:31.000   28.460504207  -16.419612712   812.3905   2   6   0.0181   0.0636   0.1272   0.0259  -0.0752  -0.0315   1.00    0.0
2024/05/10 09:46:32.000   28.460504207  -16.419612709   812.3918   2   6   0.0182   0.0636   0.1272   0.0259  -0.0752  -0.0315   2.00    0.0
2024/05/10 09:46:33.000   28.460504206  -16.419612703   812.3935   2   6   0.0182   0.0636   0.1273   0.0259  -0.0752  -0.0315   3.00    0.0
2024/05/10 09:46:34.000   28.460504205  -16.419612700   812.3948   2   6   0.0182   0.0635   0.1273   0.0259  -0.0751  -0.0315   4.00    0.0
2024/05/10 09:46:35.000   28.460504204  -16.419612696   812.3955   2   6   0.0182   0.0635   0.1273   0.0259  -0.0751  -0.0315   5.00    0.0
2024/05/10 09:46:36.000   28.460504203  -16.419612694   812.3959   2   6   0.0182   0.0635   0.1273   0.0258  -0.0750  -0.0315   6.00    0.0
2024/05/10 09:46:37.000   28.460504202  -16.419612691   812.3964   2   6   0.0182   0.0634   0.1273   0.0258  -0.0750  -0.0314   7.00    0.0
2024/05/10 09:46:38.000   28.460504202  -16.419612691   812.3970   2   6   0.0182   0.0634   0.1273   0.0258  -0.0749  -0.0314   8.00    0.0
2024/05/10 09:46:39.000   28.460504201  -16.419612691   812.3974   2   6   0.0182   0.0634   0.1272   0.0258  -0.0749  -0.0314   9.00    0.0
2024/05/10 09:46:40.000   28.460504200  -16.419612691   812.3976   2   6   0.0182   0.0633   0.1272   0.0258  -0.0748  -0.0314  10.00    0.0
2024/05/10 09:46:41.000   28.460504199  -16.419612692   812.3980   2   6   0.0182   0.0633   0.1272   0.0258  -0.0748  -0.0314  11.00    0.0
2024/05/10 09:46:42.000   28.460504198  -16.419612693   812.3984   2   6   0.0182   0.0633   0.1271   0.0257  -0.0747  -0.0313  12.00    0.0
2024/05/10 09:46:43.000   28.460504197  -16.419612695   812.3989   2   6   0.0182   0.0632   0.1271   0.0257  -0.0747  -0.0313  13.00    0.0
2024/05/10 09:46:44.000   28.460504197  -16.419612696   812.3992   2   6   0.0182   0.0632   0.1271   0.0257  -0.0747  -0.0313  14.00    0.0
2024/05/10 09:46:45.000   28.460504196  -16.419612696   812.3993   2   6   0.0182   0.0632   0.1271   0.0257  -0.0746  -0.0313 -15.00    0.0
2024/05/10 09:46:46.000   28.460504195  -16.419612699   812.3998   2   6   0.0182   0.0631   0.1270   0.0257  -0.0746  -0.0313 -14.00    0.0
2024/05/10 09:46:47.000   28.460504194  -16.419612700   812.4000   2   6   0.0182   0.0631   0.1270   0.0257  -0.0745  -0.0312 -13.00    0.0
2024/05/10 09:46:48.000   28.460504194  -16.419612701   812.4004   2   6   0.0182   0.0630   0.1270   0.0256  -0.0745  -0.0312 -12.00    0.0
2024/05/10 09:46:49.000   28.460504193  -16.419612702   812.4006   2   6   0.0182   0.0630   0.1269   0.0256  -0.0744  -0.0312 -11.00    0.0
2024/05/10 09:46:50.000   28.460504192  -16.419612702   812.4008   2   6   0.0182   0.0630   0.1269   0.0256  -0.0744  -0.0312 -10.00    0.0
2024/05/10 09:46:51.000   28.460504191  -16.419612702   812.4011   2   6   0.0182   0.0629   0.1269   0.0256  -0.0743  -0.0312  -9.00    0.0
2024/05/10 09:46:52.000   28.460504190  -16.419612701   812.4014   2   6   0.0182   0.0629   0.1268   0.0256  -0.0743  -0.0312  -8.00    0.0
2024/05/10 09:46:53.000   28.460504190  -16.419612699   812.4014   2   6   0.0182   0.0629   0.1268   0.0256  -0.0743  -0.0311  -7.00    0.0
2024/05/10 09:46:54.000   28.460504189  -16.419612699   812.4021   2   6   0.0182   0.0629   0.1268   0.0256  -0.0742  -0.0311  -6.00    0.0
2024/05/10 09:46:55.000   28.460504188  -16.419612699   812.4027   2   6   0.0182   0.0628   0.1268   0.0255  -0.0742  -0.0311  -5.00    0.0
2024/05/10 09:46:56.000   28.460504187  -16.419612698   812.4037   2   6   0.0182   0.0628   0.1268   0.0255  -0.0741  -0.0311  -4.00    0.0
2024/05/10 09:46:57.000   28.460504185  -16.419612697   812.4046   2   6   0.0182   0.0628   0.1268   0.0255  -0.0741  -0.0311  -3.00    0.0
2024/05/10 09:46:58.000   28.460504184  -16.419612695   812.4050   2   6   0.0182   0.0627   0.1268   0.0255  -0.0740  -0.0310  -2.00    0.0
2024/05/10 09:46:59.000   28.460504183  -16.419612691   812.4062   2   6   0.0182   0.0627   0.1268   0.0255  -0.0740  -0.0310  -1.00    0.0
2024/05/10 09:47:00.000   28.460504180  -16.419612687   812.4073   2   6   0.0182   0.0627   0.1269   0.0255  -0.0740  -0.0310   0.00    0.0
2024/05/10 09:47:01.000   28.460504178  -16.419612684   812.4090   2   6   0.0182   0.0627   0.1269   0.0255  -0.0739  -0.0310   1.00    0.0
2024/05/10 09:47:02.000   28.460504175  -16.419612682   812.4101   2   6   0.0182   0.0627   0.1269   0.0254  -0.0739  -0.0310   2.00    0.0
2024/05/10 09:47:03.000   28.460504173  -16.419612682   812.4109   2   6   0.0183   0.0626   0.1270   0.0254  -0.0739  -0.0310   3.00    0.0
2024/05/10 09:47:04.000   28.460504170  -16.419612680   812.4118   2   6   0.0183   0.0626   0.1270   0.0254  -0.0738  -0.0309   4.00    0.0
2024/05/10 09:47:05.000   28.460504168  -16.419612679   812.4128   2   6   0.0183   0.0626   0.1270   0.0254  -0.0738  -0.0309   5.00    0.0
2024/05/10 09:47:06.000   28.460504167  -16.419612675   812.4128   2   6   0.0183   0.0626   0.1270   0.0254  -0.0737  -0.0309   6.00    0.0
2024/05/10 09:47:07.000   28.460504166  -16.419612676   812.4133   2   6   0.0183   0.0625   0.1270   0.0254  -0.0737  -0.0309   7.00    0.0
2024/05/10 09:47:08.000   28.460504165  -16.419612674   812.4133   2   6   0.0183   0.0625   0.1270   0.0254  -0.0737  -0.0309   8.00    0.0
2024/05/10 09:47:09.000   28.460504164  -16.419612674   812.4137   2   6   0.0183   0.0625   0.1270   0.0253  -0.0736  -0.0309   9.00    0.0
2024/05/10 09:47:10.000   28.460504162  -16.419612674   812.4141   2   6   0.0183   0.0625   0.1270   0.0253  -0.0736  -0.0309  10.00    0.0
2024/05/10 09:47:11.000   28.460504161  -16.419612674   812.4143   2   6   0.0183   0.0624   0.1270   0.0253  -0.0735  -0.0308  11.00    0.0
2024/05/10 09:47:12.000   28.460504160  -16.419612675   812.4145   2   6   0.0183   0.0624   0.1269   0.0253  -0.0735  -0.0308  12.00    0.0
2024/05/10 09:47:13.000   28.460504160  -16.419612675   812.4144   2   6   0.0183   0.0624   0.1269   0.0253  -0.0735  -0.0308  13.00    0.0
2024/05/10 09:47:14.000   28.460504159  -16.419612675   812.4144   2   6   0.0183   0.0623   0.1269   0.0253  -0.0734  -0.0308  14.00    0.0
2024/05/10 09:47:15.000   28.460504158  -16.419612674   812.4142   2   6   0.0183   0.0623   0.1269   0.0253  -0.0734  -0.0308 -15.00    0.0
2024/05/10 09:47:16.000   28.460504158  -16.419612672   812.4140   2   6   0.0183   0.0623   0.1268   0.0253  -0.0734  -0.0308 -14.00    0.0
2024/05/10 09:47:17.000   28.460504157  -16.419612672   812.4142   2   6   0.0183   0.0622   0.1268   0.0252  -0.0733  -0.0307 -13.00    0.0
2024/05/10 09:47:18.000   28.460504157  -16.419612671   812.4142   2   6   0.0183   0.0622   0.1268   0.0252  -0.0733  -0.0307 -12.00    0.0
2024/05/10 09:47:19.000   28.460504157  -16.419612668   812.4138   2   6   0.0183   0.0622   0.1268   0.0252  -0.0732  -0.0307 -11.00    0.0
2024/05/10 09:47:20.000   28.460504156  -16.419612666   812.4135   2   6   0.0183   0.0622   0.1267   0.0252  -0.0732  -0.0307 -10.00    0.0
2024/05/10 09:47:21.000   28.460504156  -16.419612663   812.4131   2   6   0.0183   0.0621   0.1267   0.0252  -0.0732  -0.0307  -9.00    0.0
2024/05/10 09:47:22.000   28.460504155  -16.419612662   812.4131   2   6   0.0183   0.0621   0.1267   0.0252  -0.0731  -0.0307  -8.00    0.0
2024/05/10 09:47:23.000   28.460504154  -16.419612661   812.4132   2   6   0.0183   0.0621   0.1267   0.0252  -0.0731  -0.0306  -7.00    0.0
2024/05/10 09:47:24.000   28.460504153  -16.419612658   812.4130   2   6   0.0183   0.0620   0.1267   0.0251  -0.0731  -0.0306  -6.00    0.0
2024/05/10 09:47:25.000   28.460504152  -16.419612655   812.4130   2   6   0.0183   0.0620   0.1267   0.0251  -0.0730  -0.0306  -5.00    0.0
2024/05/10 09:47:26.000   28.460504150  -16.419612651   812.4130   2   6   0.0183   0.0620   0.1267   0.0251  -0.0730  -0.0306  -4.00    0.0
2024/05/10 09:47:27.000   28.460504148  -16.419612649   812.4131   2   6   0.0183   0.0620   0.1267   0.0251  -0.0730  -0.0306  -3.00    0.0
2024/05/10 09:47:28.000   28.460504146  -16.419612646   812.4132   2   6   0.0183   0.0619   0.1267   0.0251  -0.0729  -0.0306  -2.00    0.0
2024/05/10 09:47:29.000   28.460504143  -16.419612641   812.4140   2   6   0.0183   0.0619   0.1268   0.0251  -0.0729  -0.0306  -1.00    0.0
2024/05/10 09:47:30.000   28.460504141  -16.419612638   812.4148   2   6   0.0183   0.0619   0.1268   0.0251  -0.0729  -0.0305   0.00    0.0
2024/05/10 09:47:31.000   28.460504139  -16.419612633   812.4153   2   6   0.0183   0.0619   0.1268   0.0251  -0.0728  -0.0305   1.00    0.0
2024/05/10 09:47:32.000   28.460504135  -16.419612627   812.4155   2   6   0.0183   0.0619   0.1269   0.0250  -0.0728  -0.0305   2.00    0.0
2024/05/10 09:47:33.000   28.460504132  -16.419612621   812.4157   2   6   0.0184   0.0619   0.1269   0.0250  -0.0728  -0.0305   3.00    0.0
2024/05/10 09:47:34.000   28.460504130  -16.419612615   812.4155   2   6   0.0184   0.0618   0.1270   0.0250  -0.0727  -0.0305   4.00    0.0
2024/05/10 09:47:35.000   28.460504128  -16.419612610   812.4152   2   6   0.0184   0.0618   0.1270   0.0250  -0.0727  -0.0305   5.00    0.0
2024/05/10 09:47:36.000   28.460504127  -16.419612605   812.4152   2   6   0.0184   0.0618   0.1270   0.0250  -0.0727  -0.0305   6.00    0.0
2024/05/10 09:47:37.000   28.460504126  -16.419612601   812.4153   2   6   0.0184   0.0618   0.1270   0.0250  -0.0726  -0.0304   7.00    0.0
2024/05/10 09:47:38.000   28.460504126  -16.419612597   812.4153   2   6   0.0184   0.0617   0.1270   0.0250  -0.0726  -0.0304   8.00    0.0
2024/05/10 09:47:39.000   28.460504125  -16.419612594   812.4153   2   6   0.0184   0.0617   0.1270   0.0250  -0.0726  -0.0304   9.00    0.0
2024/05/10 09:47:40.000   28.460504125  -16.419612591   812.4152   2   6   0.0184   0.0617   0.1270   0.0249  -0.0725  -0.0304  10.00    0.0
2024/05/10 09:47:41.000   28.460504125  -16.419612586   812.4150   2   6   0.0184   0.0617   0.1270   0.0249  -0.0725  -0.0304  11.00    0.0
2024/05/10 09:47:42.000   28.460504124  -16.419612585   812.4153   2   6   0.0184   0.0616   0.1270   0.0249  -0.0725  -0.0304  12.00    0.0
2024/05/10 09:47:43.000   28.460504124  -16.419612584   812.4155   2   6   0.0184   0.0616   0.1269   0.0249  -0.0724  -0.0304  13.00    0.0
2024/05/10 09:47:44.000   28.460504125  -16.419612582   812.4156   2   6   0.0184   0.0616   0.1269   0.0249  -0.0724  -0.0304  14.00    0.0
2024/05/10 09:47:45.000   28.460504125  -16.419612580   812.4158   2   6   0.0184   0.0616   0.1269   0.0249  -0.0724  -0.0303 -15.00    0.0
2024/05/10 09:47:46.000   28.460504125  -16.419612576   812.4156   2   6   0.0184   0.0615   0.1269   0.0249  -0.0723  -0.0303 -14.00    0.0
2024/05/10 09:47:47.000   28.460504126  -16.419612573   812.4156   2   6   0.0184   0.0615   0.1269   0.0249  -0.0723  -0.0303 -13.00    0.0
2024/05/10 09:47:48.000   28.460504126  -16.419612570   812.4155   2   6   0.0184   0.0615   0.1269   0.0249  -0.0723  -0.0303 -12.00    0.0
2024/05/10 09:47:49.000   28.460504127  -16.419612568   812.4157   2   6   0.0184   0.0615   0.1268   0.0248  -0.0722  -0.0303 -11.00    0.0
2024/05/10 09:47:50.000   28.460504127  -16.419612564   812.4158   2   6   0.0184   0.0614   0.1268   0.0248  -0.0722  -0.0303 -10.00    0.0
2024/05/10 09:47:51.000   28.460504128  -16.419612561   812.4161   2   6   0.0184   0.0614   0.1268   0.0248  -0.0722  -0.0303  -9.00    0.0
2024/05/10 09:47:52.000   28.460504128  -16.419612557   812.4162   2   6   0.0184   0.0614   0.1268   0.0248  -0.0721  -0.0302  -8.00    0.0
2024/05/10 09:47:53.000   28.460504128  -16.419612555   812.4166   2   6   0.0184   0.0614   0.1268   0.0248  -0.0721  -0.0302  -7.00    0.0
2024/05/10 09:47:54.000   28.460504129  -16.419612551   812.4167   2   6   0.0184   0.0613   0.1268   0.0248  -0.0721  -0.0302  -6.00    0.0
2024/05/10 09:47:55.000   28.460504129  -16.419612546   812.4170   2   6   0.0184   0.0613   0.1268   0.0248  -0.0721  -0.0302  -5.00    0.0
2024/05/10 09:47:56.000   28.460504128  -16.419612545   812.4176   2   6   0.0184   0.0613   0.1268   0.0248  -0.0720  -0.0302  -4.00    0.0
2024/05/10 09:47:57.000   28.460504127  -16.419612542   812.4177   2   6   0.0184   0.0613   0.1268   0.0248  -0.0720  -0.0302  -3.00    0.0
2024/05/10 09:47:58.000   28.460504126  -16.419612540   812.4176   2   6   0.0184   0.0613   0.1269   0.0247  -0.0720  -0.0302  -2.00    0.0
2024/05/10 09:47:59.000   28.460504124  -16.419612538   812.4171   2   6   0.0184   0.0613   0.1269   0.0247  -0.0719  -0.0302  -1.00    0.0
2024/05/10 09:48:00.000   28.460504122  -16.419612539   812.4171   2   6   0.0184   0.0612   0.1269   0.0247  -0.0719  -0.0301   0.00    0.0
2024/05/10 09:48:01.000   28.460504119  -16.419612539   812.4172   2   6   0.0184   0.0612   0.1270   0.0247  -0.0719  -0.0301   1.00    0.0
2024/05/10 09:48:02.000   28.460504116  -16.419612538   812.4172   2   6   0.0185   0.0612   0.1271   0.0247  -0.0718  -0.0301   2.00    0.0
2024/05/10 09:48:03.000   28.460504114  -16.419612538   812.4177   2   6   0.0185   0.0612   0.1271   0.0247  -0.0718  -0.0301   3.00    0.0
2024/05/10 09:48:04.000   28.460504112  -16.419612536   812.4175   2   6   0.0185   0.0612   0.1271   0.0247  -0.0718  -0.0301   4.00    0.0
2024/05/10 09:48:05.000   28.460504110  -16.419612536   812.4176   2   6   0.0185   0.0612   0.1272   0.0247  -0.0718  -0.0301   5.00    0.0
2024/05/10 09:48:06.000   28.460504107  -16.419612536   812.4172   2   6   0.0185   0.0611   0.1272   0.0247  -0.0717  -0.0301   6.00    0.0
2024/05/10 09:48:07.000   28.460504105  -16.419612537   812.4172   2   6   0.0185   0.0611   0.1272   0.0246  -0.0717  -0.0301   7.00    0.0
2024/05/10 09:48:08.000   28.460504103  -16.419612536   812.4172   2   6   0.0185   0.0611   0.1272   0.0246  -0.0717  -0.0301   8.00    0.0
2024/05/10 09:48:09.000   28.460504100  -16.419612538   812.4173   2   6   0.0185   0.0611   0.1272   0.0246  -0.0717  -0.0300   9.00    0.0
2024/05/10 09:48:10.000   28.460504099  -16.419612538   812.4168   2   6   0.0185   0.0611   0.1272   0.0246  -0.0716  -0.0300  10.00    0.0
2024/05/10 09:48:11.000   28.460504097  -16.419612539   812.4165   2   6   0.0185   0.0610   0.1272   0.0246  -0.0716  -0.0300  11.00    0.0
2024/05/10 09:48:12.000   28.460504096  -16.419612539   812.4160   2   6   0.0185   0.0610   0.1272   0.0246  -0.0716  -0.0300  12.00    0.0
2024/05/10 09:48:13.000   28.460504095  -16.419612540   812.4158   2   6   0.0185   0.0610   0.1272   0.0246  -0.0715  -0.0300  13.00    0.0
2024/05/10 09:48:14.000   28.460504094  -16.419612541   812.4157   2   6   0.0185   0.0610   0.1272   0.0246  -0.0715  -0.0300  14.00    0.0
2024/05/10 09:48:15.000   28.460504093  -16.419612542   812.4155   2   6   0.0185   0.0609   0.1271   0.0246  -0.0715  -0.0300 -15.00    0.0
2024/05/10 09:48:16.000   28.460504092  -16.419612543   812.4155   2   6   0.0185   0.0609   0.1271   0.0246  -0.0715  -0.0300 -14.00    0.0
2024/05/10 09:48:17.000   28.460504091  -16.419612544   812.4153   2   6   0.0185   0.0609   0.1271   0.0245  -0.0714  -0.0299 -13.00    0.0
2024/05/10 09:48:18.000   28.460504091  -16.419612545   812.4151   2   6   0.0185   0.0609   0.1271   0.0245  -0.0714  -0.0299 -12.00    0.0
2024/05/10 09:48:19.000   28.460504089  -16.419612546   812.4150   2   6   0.0185   0.0609   0.1271   0.0245  -0.0714  -0.0299 -11.00    0.0
2024/05/10 09:48:20.000   28.460504088  -16.419612547   812.4147   2   6   0.0185   0.0608   0.1271   0.0245  -0.0714  -0.0299 -10.00    0.0
2024/05/10 09:48:21.000   28.460504087  -16.419612548   812.4143   2   6   0.0185   0.0608   0.1271   0.0245  -0.0713  -0.0299  -9.00    0.0
2024/05/10 09:48:22.000   28.460504086  -16.419612549   812.4140   2   6   0.0185   0.0608   0.1271   0.0245  -0.0713  -0.0299  -8.00    0.0
2024/05/10 09:48:23.000   28.460504085  -16.419612550   812.4137   2   6   0.0185   0.0608   0.1271   0.0245  -0.0713  -0.0299  -7.00    0.0
2024/05/10 09:48:24.000   28.460504084  -16.419612549   812.4133   2   6   0.0185   0.0607   0.1271   0.0245  -0.0712  -0.0299  -6.00    0.0
2024/05/10 09:48:25.000   28.460504083  -16.419612548   812.4125   2   6   0.0185   0.0607   0.1271   0.0245  -0.0712  -0.0299  -5.00    0.0
2024/05/10 09:48:26.000   28.460504081  -16.419612547   812.4122   2   6   0.0185   0.0607   0.1271   0.0245  -0.0712  -0.0298  -4.00    0.0
2024/05/10 09:48:27.000   28.460504080  -16.419612545   812.4117   2   6   0.0185   0.0607   0.1271   0.0244  -0.0712  -0.0298  -3.00    0.0
2024/05/10 09:48:28.000   28.460504079  -16.419612543   812.4114   2   6   0.0185   0.0607   0.1272   0.0244  -0.0711  -0.0298  -2.00    0.0
2024/05/10 09:48:29.000   28.460504078  -16.419612541   812.4115   2   6   0.0185   0.0607   0.1272   0.0244  -0.0711  -0.0298  -1.00    0.0
2024/05/10 09:48:30.000   28.460504077  -16.419612538   812.4104   2   6   0.0185   0.0607   0.1273   0.0244  -0.0711  -0.0298   0.00    0.0
2024/05/10 09:48:31.000   28.460504074  -16.419612536   812.4095   2   6   0.0186   0.0606   0.1273   0.0244  -0.0711  -0.0298   1.00    0.0
2024/05/10 09:48:32.000   28.460504073  -16.419612530   812.4083   2   6   0.0186   0.0606   0.1274   0.0244  -0.0711  -0.0298   2.00    0.0
2024/05/10 09:48:33.000   28.460504071  -16.419612526   812.4077   2   6   0.0186   0.0606   0.1274   0.0244  -0.0710  -0.0298   3.00    0.0
2024/05/10 09:48:34.000   28.460504071  -16.419612523   812.4070   2   6   0.0186   0.0606   0.1275   0.0244  -0.0710  -0.0298   4.00    0.0
2024/05/10 09:48:35.000   28.460504069  -16.419612522   812.4070   2   6   0.0186   0.0606   0.1275   0.0244  -0.0710  -0.0298   5.00    0.0
2024/05/10 09:48:36.000   28.460504068  -16.419612520   812.4068   2   6   0.0186   0.0606   0.1275   0.0244  -0.0710  -0.0297   6.00    0.0
2024/05/10 09:48:37.000   28.460504067  -16.419612518   812.4064   2   6   0.0186   0.0605   0.1275   0.0243  -0.0709  -0.0297   7.00    0.0
2024/05/10 09:48:38.000   28.460504067  -16.419612516   812.4060   2   6   0.0186   0.0605   0.1276   0.0243  -0.0709  -0.0297   8.00    0.0
2024/05/10 09:48:39.000   28.460504066  -16.419612516   812.4060   2   6   0.0186   0.0605   0.1276   0.0243  -0.0709  -0.0297   9.00    0.0
2024/05/10 09:48:40.000   28.460504065  -16.419612516   812.4062   2   6   0.0186   0.0605   0.1276   0.0243  -0.0709  -0.0297  10.00    0.0
2024/05/10 09:48:41.000   28.460504064  -16.419612515   812.4061   2   6   0.0186   0.0605   0.1276   0.0243  -0.0708  -0.0297  11.00    0.0
2024/05/10 09:48:42.000   28.460504064  -16.419612515   812.4061   2   6   0.0186   0.0605   0.1275   0.0243  -0.0708  -0.0297  12.00    0.0
2024/05/10 09:48:43.000   28.460504063  -16.419612516   812.4062   2   6   0.0186   0.0604   0.1275   0.0243  -0.0708  -0.0297  13.00    0.0
2024/05/10 09:48:44.000   28.460504062  -16.419612515   812.4060   2   6   0.0186   0.0604   0.1275   0.0243  -0.0708  -0.0297  14.00    0.0
2024/05/10 09:48:45.000   28.460504062  -16.419612515   812.4061   2   6   0.0186   0.0604   0.1275   0.0243  -0.0707  -0.0297 -15.00    0.0
2024/05/10 09:48:46.000   28.460504061  -16.419612514   812.4061   2   6   0.0186   0.0604   0.1275   0.0243  -0.0707  -0.0296 -14.00    0.0
2024/05/10 09:48:47.000   28.460504061  -16.419612512   812.4061   2   6   0.0186   0.0604   0.1275   0.0243  -0.0707  -0.0296 -13.00    0.0
2024/05/10 09:48:48.000   28.460504061  -16.419612513   812.4063   2   6   0.0186   0.0603   0.1275   0.0242  -0.0707  -0.0296 -12.00    0.0
2024/05/10 09:48:49.000   28.460504061  -16.419612511   812.4064   2   6   0.0186   0.0603   0.1275   0.0242  -0.0707  -0.0296 -11.00    0.0
2024/05/10 09:48:50.000   28.460504060  -16.419612509   812.4064   2   6   0.0186   0.0603   0.1275   0.0242  -0.0706  -0.0296 -10.00    0.0
2024/05/10 09:48:51.000   28.460504060  -16.419612507   812.4066   2   6   0.0186   0.0603   0.1275   0.0242  -0.0706  -0.0296  -9.00    0.0
2024/05/10 09:48:52.000   28.460504060  -16.419612505   812.4068   2   6   0.0186   0.0603   0.1275   0.0242  -0.0706  -0.0296  -8.00    0.0
2024/05/10 09:48:53.000   28.460504059  -16.419612501   812.4068   2   6   0.0186   0.0602   0.1275   0.0242  -0.0706  -0.0296  -7.00    0.0
2024/05/10 09:48:54.000   28.460504058  -16.419612500   812.4072   2   6   0.0186   0.0602   0.1275   0.0242  -0.0705  -0.0296  -6.00    0.0
2024/05/10 09:48:55.000   28.460504058  -16.419612496   812.4073   2   6   0.0186   0.0602   0.1275   0.0242  -0.0705  -0.0296  -5.00    0.0
2024/05/10 09:48:56.000   28.460504056  -16.419612489   812.4071   2   6   0.0186   0.0602   0.1275   0.0242  -0.0705  -0.0295  -4.00    0.0
2024/05/10 09:48:57.000   28.460504055  -16.419612482   812.4069   2   6   0.0186   0.0602   0.1275   0.0242  -0.0705  -0.0295  -3.00    0.0
2024/05/10 09:48:58.000   28.460504054  -16.419612474   812.4072   2   6   0.0186   0.0602   0.1276   0.0242  -0.0705  -0.0295  -2.00    0.0
2024/05/10 09:48:59.000   28.460504053  -16.419612466   812.4071   2   6   0.0187   0.0602   0.1276   0.0241  -0.0704  -0.0295  -1.00    0.0
2024/05/10 09:49:00.000   28.460504051  -16.419612457   812.4066   2   6   0.0187   0.0601   0.1277   0.0241  -0.0704  -0.0295   0.00    0.0
2024/05/10 09:49:01.000   28.460504049  -16.419612449   812.4061   2   6   0.0187   0.0601   0.1277   0.0241  -0.0704  -0.0295   1.00    0.0
2024/05/10 09:49:02.000   28.460504047  -16.419612443   812.4057   2   6   0.0187   0.0601   0.1278   0.0241  -0.0704  -0.0295   2.00    0.0
2024/05/10 09:49:03.000   28.460504045  -16.419612436   812.4059   2   6   0.0187   0.0601   0.1279   0.0241  -0.0704  -0.0295   3.00    0.0
2024/05/10 09:49:04.000   28.460504042  -16.419612431   812.4055   2   6   0.0187   0.0601   0.1279   0.0241  -0.0703  -0.0295   4.00    0.0
2024/05/10 09:49:05.000   28.460504041  -16.419612427   812.4054   2   6   0.0187   0.0601   0.1279   0.0241  -0.0703  -0.0295   5.00    0.0
2024/05/10 09:49:06.000   28.460504040  -16.419612420   812.4048   2   6   0.0187   0.0601   0.1280   0.0241  -0.0703  -0.0295   6.00    0.0
2024/05/10 09:49:07.000   28.460504040  -16.419612415   812.4045   2   6   0.0187   0.0600   0.1280   0.0241  -0.0703  -0.0294   7.00    0.0
2024/05/10 09:49:08.000   28.460504039  -16.419612411   812.4043   2   6   0.0187   0.0600   0.1280   0.0241  -0.0703  -0.0294   8.00    0.0
2024/05/10 09:49:09.000   28.460504039  -16.419612406   812.4039   2   6   0.0187   0.0600   0.1280   0.0241  -0.0702  -0.0294   9.00    0.0
2024/05/10 09:49:10.000   28.460504039  -16.419612402   812.4040   2   6   0.0187   0.0600   0.1280   0.0241  -0.0702  -0.0294  10.00    0.0
2024/05/10 09:49:11.000   28.460504039  -16.419612399   812.4039   2   6   0.0187   0.0600   0.1280   0.0240  -0.0702  -0.0294  11.00    0.0
2024/05/10 09:49:12.000   28.460504039  -16.419612398   812.4041   2   6   0.0187   0.0600   0.1280   0.0240  -0.0702  -0.0294  12.00    0.0
2024/05/10 09:49:13.000   28.460504040  -16.419612396   812.4044   2   6   0.0187   0.0599   0.1280   0.0240  -0.0701  -0.0294  13.00    0.0
2024/05/10 09:49:14.000   28.460504040  -16.419612393   812.4043   2   6   0.0187   0.0599   0.1280   0.0240  -0.0701  -0.0294  14.00    0.0
2024/05/10 09:49:15.000   28.460504041  -16.419612390   812.4041   2   6   0.0187   0.0599   0.1280   0.0240  -0.0701  -0.0294 -15.00    0.0
2024/05/10 09:49:16.000   28.460504042  -16.419612388   812.4042   2   6   0.0187   0.0599   0.1280   0.0240  -0.0701  -0.0294 -14.00    0.0
2024/05/10 09:49:17.000   28.460504042  -16.419612387   812.4043   2   6   0.0187   0.0599   0.1280   0.0240  -0.0701  -0.0294 -13.00    0.0
2024/05/10 09:49:18.000   28.460504043  -16.419612384   812.4043   2   6   0.0187   0.0599   0.1280   0.0240  -0.0700  -0.0293 -12.00    0.0
2024/05/10 09:49:19.000   28.460504044  -16.419612381   812.4044   2   6   0.0187   0.0598   0.1279   0.0240  -0.0700  -0.0293 -11.00    0.0
2024/05/10 09:49:20.000   28.460504044  -16.419612380   812.4048   2   6   0.0187   0.0598   0.1279   0.0240  -0.0700  -0.0293 -10.00    0.0
2024/05/10 09:49:21.000   28.460504045  -16.419612378   812.4050   2   6   0.0187   0.0598   0.1279   0.0240  -0.0700  -0.0293  -9.00    0.0
2024/05/10 09:49:22.000   28.460504045  -16.419612376   812.4052   2   6   0.0187   0.0598   0.1279   0.0240  -0.0700  -0.0293  -8.00    0.0
2024/05/10 09:49:23.000   28.460504045  -16.419612376   812.4057   2   6   0.0187   0.0598   0.1279   0.0240  -0.0699  -0.0293  -7.00    0.0
2024/05/10 09:49:24.000   28.460504046  -16.419612373   812.4057   2   6   0.0187   0.0598   0.1280   0.0239  -0.0699  -0.0293  -6.00    0.0
2024/05/10 09:49:25.000   28.460504047  -16.419612371   812.4055   2   6   0.0187   0.0597   0.1280   0.0239  -0.0699  -0.0293  -5.00    0.0
2024/05/10 09:49:26.000   28.460504048  -16.419612369   812.4050   2   6   0.0187   0.0597   0.1280   0.0239  -0.0699  -0.0293  -4.00    0.0
2024/05/10 09:49:27.000   28.460504048  -16.419612367   812.4042   2   6   0.0187   0.0597   0.1280   0.0239  -0.0699  -0.0293  -3.00    0.0
2024/05/10 09:49:28.000   28.460504048  -16.419612364   812.4037   2   6   0.0188   0.0597   0.1281   0.0239  -0.0699  -0.0293  -2.00    0.0
2024/05/10 09:49:29.000   28.460504048  -16.419612364   812.4029   2   6   0.0188   0.0597   0.1281   0.0239  -0.0698  -0.0293  -1.00    0.0
2024/05/10 09:49:30.000   28.460504048  -16.419612362   812.4014   2   6   0.0188   0.0597   0.1282   0.0239  -0.0698  -0.0292   0.00    0.0
2024/05/10 09:49:31.000   28.460504047  -16.419612366   812.4012   2   6   0.0188   0.0597   0.1282   0.0239  -0.0698  -0.0292   1.00    0.0
2024/05/10 09:49:32.000   28.460504046  -16.419612366   812.3999   2   6   0.0188   0.0597   0.1283   0.0239  -0.0698  -0.0292   2.00    0.0
2024/05/10 09:49:33.000   28.460504044  -16.419612370   812.3990   2   6   0.0188   0.0596   0.1284   0.0239  -0.0698  -0.0292   3.00    0.0
2024/05/10 09:49:34.000   28.460504042  -16.419612373   812.3978   2   6   0.0188   0.0596   0.1284   0.0239  -0.0698  -0.0292   4.00    0.0
2024/05/10 09:49:35.000   28.460504040  -16.419612375   812.3964   2   6   0.0188   0.0596   0.1284   0.0239  -0.0697  -0.0292   5.00    0.0
2024/05/10 09:49:36.000   28.460504039  -16.419612376   812.3950   2   6   0.0188   0.0596   0.1285   0.0239  -0.0697  -0.0292   6.00    0.0
2024/05/10 09:49:37.000   28.460504037  -16.419612378   812.3936   2   6   0.0188   0.0596   0.1285   0.0238  -0.0697  -0.0292   7.00    0.0
2024/05/10 09:49:38.000   28.460504036  -16.419612378   812.3928   2   6   0.0188   0.0596   0.1285   0.0238  -0.0697  -0.0292   8.00    0.0
2024/05/10 09:49:39.000   28.460504036  -16.419612379   812.3920   2   6   0.0188   0.0596   0.1285   0.0238  -0.0697  -0.0292   9.00    0.0
2024/05/10 09:49:40.000   28.460504035  -16.419612379   812.3912   2   6   0.0188   0.0596   0.1285   0.0238  -0.0697  -0.0292  10.00    0.0
2024/05/10 09:49:41.000   28.460504035  -16.419612377   812.3906   2   6   0.0188   0.0595   0.1285   0.0238  -0.0696  -0.0292  11.00    0.0
2024/05/10 09:49:42.000   28.460504035  -16.419612378   812.3904   2   6   0.0188   0.0595   0.1285   0.0238  -0.0696  -0.0291  12.00    0.0
2024/05/10 09:49:43.000   28.460504035  -16.419612377   812.3898   2   6   0.0188   0.0595   0.1285   0.0238  -0.0696  -0.0291  13.00    0.0
2024/05/10 09:49:44.000   28.460504035  -16.419612377   812.3896   2   6   0.0188   0.0595   0.1285   0.0238  -0.0696  -0.0291  14.00    0.0
2024/05/10 09:49:45.000   28.460504035  -16.419612376   812.3893   2   6   0.0188   0.0595   0.1285   0.0238  -0.0696  -0.0291 -15.00    0.0
2024/05/10 09:49:46.000   28.460504035  -16.419612375   812.3889   2   6   0.0188   0.0595   0.1285   0.0238  -0.0695  -0.0291 -14.00    0.0
2024/05/10 09:49:47.000   28.460504035  -16.419612374   812.3886   2   6   0.0188   0.0594   0.1285   0.0238  -0.0695  -0.0291 -13.00    0.0
2024/05/10 09:49:48.000   28.460504035  -16.419612373   812.3883   2   6   0.0188   0.0594   0.1285   0.0238  -0.0695  -0.0291 -12.00    0.0
2024/05/10 09:49:49.000   28.460504035  -16.419612373   812.3881   2   6   0.0188   0.0594   0.1285   0.0238  -0.0695  -0.0291 -11.00    0.0
2024/05/10 09:49:50.000   28.460504035  -16.419612371   812.3877   2   6   0.0188   0.0594   0.1285   0.0238  -0.0695  -0.0291 -10.00    0.0
2024/05/10 09:49:51.000   28.460504034  -16.419612372   812.3875   2   6   0.0188   0.0594   0.1285   0.0237  -0.0695  -0.0291  -9.00    0.0
2024/05/10 09:49:52.000   28.460504034  -16.419612370   812.3870   2   6   0.0188   0.0594   0.1285   0.0237  -0.0694  -0.0291  -8.00    0.0
2024/05/10 09:49:53.000   28.460504034  -16.419612368   812.3864   2   6   0.0188   0.0594   0.1285   0.0237  -0.0694  -0.0291  -7.00    0.0
2024/05/10 09:49:54.000   28.460504034  -16.419612368   812.3855   2   6   0.0188   0.0593   0.1285   0.0237  -0.0694  -0.0291  -6.00    0.0
2024/05/10 09:49:55.000   28.460504034  -16.419612368   812.3847   2   6   0.0188   0.0593   0.1285   0.0237  -0.0694  -0.0290  -5.00    0.0
2024/05/10 09:49:56.000   28.460504034  -16.419612367   812.3841   2   6   0.0188   0.0593   0.1285   0.0237  -0.0694  -0.0290  -4.00    0.0
2024/05/10 09:49:57.000   28.460504033  -16.419612365   812.3833   2   6   0.0188   0.0593   0.1285   0.0237  -0.0694  -0.0290  -3.00    0.0
2024/05/10 09:49:58.000   28.460504032  -16.419612366   812.3824   2   6   0.0189   0.0593   0.1286   0.0237  -0.0693  -0.0290  -2.00    0.0
2024/05/10 09:49:59.000   28.460504031  -16.419612366   812.3813   2   6   0.0189   0.0593   0.1286   0.0237  -0.0693  -0.0290  -1.00    0.0
2024/05/10 09:50:00.000   28.460504030  -16.419612365   812.3799   2   6   0.0189   0.0593   0.1287   0.0237  -0.0693  -0.0290   0.00    0.0
2024/05/10 09:50:01.000   28.460504029  -16.419612364   812.3784   2   6   0.0189   0.0593   0.1288   0.0237  -0.0693  -0.0290   1.00    0.0
2024/05/10 09:50:02.000   28.460504028  -16.419612364   812.3775   2   6   0.0189   0.0593   0.1288   0.0237  -0.0693  -0.0290   2.00    1.3
2024/05/10 09:50:03.000   28.460504027  -16.419612362   812.3761   2   6   0.0189   0.0592   0.1289   0.0237  -0.0693  -0.0290   3.00    1.3
2024/05/10 09:50:04.000   28.460504027  -16.419612361   812.3751   2   6   0.0189   0.0592   0.1289   0.0237  -0.0693  -0.0290   4.00    1.3
2024/05/10 09:50:05.000   28.460504027  -16.419612360   812.3741   2   6   0.0189   0.0592   0.1290   0.0236  -0.0693  -0.0290   5.00    1.3
2024/05/10 09:50:06.000   28.460504027  -16.419612358   812.3736   2   6   0.0189   0.0592   0.1290   0.0236  -0.0692  -0.0290   6.00    1.3
2024/05/10 09:50:07.000   28.460504028  -16.419612357   812.3737   2   6   0.0189   0.0592   0.1290   0.0236  -0.0692  -0.0290   7.00    1.1
2024/05/10 09:50:08.000   28.460504029  -16.419612354   812.3733   2   6   0.0189   0.0592   0.1290   0.0236  -0.0692  -0.0290   8.00    1.3
2024/05/10 09:50:09.000   28.460504029  -16.419612351   812.3729   2   6   0.0189   0.0592   0.1290   0.0236  -0.0692  -0.0289   9.00    1.4
2024/05/10 09:50:10.000   28.460504029  -16.419612349   812.3728   2   6   0.0189   0.0592   0.1290   0.0236  -0.0692  -0.0289  10.00    1.3
2024/05/10 09:50:11.000   28.460504030  -16.419612347   812.3724   2   6   0.0189   0.0591   0.1290   0.0236  -0.0692  -0.0289  11.00    1.3
2024/05/10 09:50:12.000   28.460504031  -16.419612344   812.3720   2   6   0.0189   0.0591   0.1290   0.0236  -0.0691  -0.0289  12.00    1.3
2024/05/10 09:50:13.000   28.460504031  -16.419612342   812.3719   2   6   0.0189   0.0591   0.1290   0.0236  -0.0691  -0.0289  13.00    1.2
2024/05/10 09:50:14.000   28.460504032  -16.419612339   812.3717   2   6   0.0189   0.0591   0.1290   0.0236  -0.0691  -0.0289  14.00    1.2
2024/05/10 09:50:15.000   28.460504032  -16.419612337   812.3715   2   6   0.0189   0.0591   0.1290   0.0236  -0.0691  -0.0289 -15.00    1.3
2024/05/10 09:50:16.000   28.460504033  -16.419612334   812.3712   2   6   0.0189   0.0591   0.1290   0.0236  -0.0691  -0.0289 -14.00    1.2
2024/05/10 09:50:17.000   28.460504033  -16.419612332   812.3708   2   6   0.0189   0.0591   0.1290   0.0236  -0.0691  -0.0289 -13.00    1.3
2024/05/10 09:50:18.000   28.460504033  -16.419612329   812.3703   2   6   0.0189   0.0590   0.1290   0.0236  -0.0691  -0.0289 -12.00    1.2
2024/05/10 09:50:19.000   28.460504034  -16.419612328   812.3700   2   6   0.0189   0.0590   0.1290   0.0236  -0.0690  -0.0289 -11.00    1.1
2024/05/10 09:50:20.000   28.460504034  -16.419612327   812.3696   2   6   0.0189   0.0590   0.1290   0.0235  -0.0690  -0.0289 -10.00    1.2
2024/05/10 09:50:21.000   28.460504035  -16.419612326   812.3692   2   6   0.0189   0.0590   0.1290   0.0235  -0.0690  -0.0289  -9.00    1.4
2024/05/10 09:50:22.000   28.460504036  -16.419612325   812.3688   2   6   0.0189   0.0590   0.1290   0.0235  -0.0690  -0.0289  -8.00    1.2
2024/05/10 09:50:23.000   28.460504037  -16.419612322   812.3682   2   6   0.0189   0.0590   0.1290   0.0235  -0.0690  -0.0288  -7.00    1.2
2024/05/10 09:50:24.000   28.460504037  -16.419612321   812.3682   2   6   0.0189   0.0590   0.1290   0.0235  -0.0690  -0.0288  -6.00    1.2
2024/05/10 09:50:25.000   28.460504039  -16.419612319   812.3680   2   6   0.0189   0.0590   0.1290   0.0235  -0.0690  -0.0288  -5.00    1.1
2024/05/10 09:50:26.000   28.460504040  -16.419612317   812.3677   2   6   0.0189   0.0589   0.1291   0.0235  -0.0689  -0.0288  -4.00    1.2
2024/05/10 09:50:27.000   28.460504042  -16.419612315   812.3674   2   6   0.0189   0.0589   0.1291   0.0235  -0.0689  -0.0288  -3.00    1.3
2024/05/10 09:50:28.000   28.460504044  -16.419612313   812.3661   2   6   0.0189   0.0589   0.1291   0.0235  -0.0689  -0.0288  -2.00    1.1
2024/05/10 09:50:29.000   28.460504046  -16.419612312   812.3650   2   6   0.0189   0.0589   0.1292   0.0235  -0.0689  -0.0288  -1.00    1.2
2024/05/10 09:50:30.000   28.460504047  -16.419612310   812.3641   2   6   0.0190   0.0589   0.1292   0.0235  -0.0689  -0.0288   0.00    1.1
2024/05/10 09:50:31.000   28.460504050  -16.419612305   812.3621   2   6   0.0190   0.0589   0.1293   0.0235  -0.0689  -0.0288   1.00    1.0
2024/05/10 09:50:32.000   28.460504051  -16.419612302   812.3620   2   6   0.0190   0.0589   0.1293   0.0235  -0.0689  -0.0288   2.00    1.1
2024/05/10 09:50:33.000   28.460504051  -16.419612297   812.3612   2   6   0.0190   0.0589   0.1294   0.0235  -0.0689  -0.0288   3.00    1.4
2024/05/10 09:50:34.000   28.460504053  -16.419612293   812.3604   2   6   0.0190   0.0589   0.1294   0.0235  -0.0688  -0.0288   4.00    1.0
2024/05/10 09:50:35.000   28.460504054  -16.419612291   812.3597   2   6   0.0190   0.0588   0.1295   0.0235  -0.0688  -0.0288   5.00    1.0
2024/05/10 09:50:36.000   28.460504055  -16.419612290   812.3593   2   6   0.0190   0.0588   0.1295   0.0235  -0.0688  -0.0288   6.00    1.0
2024/05/10 09:50:37.000   28.460504057  -16.419612289   812.3592   2   6   0.0190   0.0588   0.1295   0.0234  -0.0688  -0.0288   7.00    1.0
2024/05/10 09:50:38.000   28.460504058  -16.419612287   812.3589   2   6   0.0190   0.0588   0.1295   0.0234  -0.0688  -0.0287   8.00    1.0
2024/05/10 09:50:39.000   28.460504059  -16.419612283   812.3586   2   6   0.0190   0.0588   0.1295   0.0234  -0.0688  -0.0287   9.00    1.2
2024/05/10 09:50:40.000   28.460504060  -16.419612281   812.3583   2   6   0.0190   0.0588   0.1296   0.0234  -0.0688  -0.0287  10.00    1.0
2024/05/10 09:50:41.000   28.460504061  -16.419612278   812.3579   2   6   0.0190   0.0588   0.1296   0.0234  -0.0688  -0.0287  11.00    1.1
2024/05/10 09:50:42.000   28.460504061  -16.419612278   812.3580   2   6   0.0190   0.0588   0.1296   0.0234  -0.0687  -0.0287  12.00    1.0
2024/05/10 09:50:43.000   28.460504062  -16.419612275   812.3577   2   6   0.0190   0.0588   0.1296   0.0234  -0.0687  -0.0287  13.00    1.1
2024/05/10 09:50:44.000   28.460504062  -16.419612274   812.3576   2   6   0.0190   0.0587   0.1296   0.0234  -0.0687  -0.0287  14.00    1.0
2024/05/10 09:50:45.000   28.460504063  -16.419612272   812.3573   2   6   0.0190   0.0587   0.1295   0.0234  -0.0687  -0.0287 -15.00    1.4
2024/05/10 09:50:46.000   28.460504064  -16.419612270   812.3570   2   6   0.0190   0.0587   0.1295   0.0234  -0.0687  -0.0287 -14.00    1.0
2024/05/10 09:50:47.000   28.460504065  -16.419612269   812.3569   2   6   0.0190   0.0587   0.1295   0.0234  -0.0687  -0.0287 -13.00    1.0
2024/05/10 09:50:48.000   28.460504066  -16.419612267   812.3566   2   6   0.0190   0.0587   0.1295   0.0234  -0.0687  -0.0287 -12.00    1.0
2024/05/10 09:50:49.000   28.460504067  -16.419612265   812.3562   2   6   0.0190   0.0587   0.1295   0.0234  -0.0686  -0.0287 -11.00    1.0
2024/05/10 09:50:50.000   28.460504068  -16.419612263   812.3557   2   6   0.0190   0.0587   0.1295   0.0234  -0.0686  -0.0287 -10.00    1.0
2024/05/10 09:50:51.000   28.460504069  -16.419612261   812.3551   2   6   0.0190   0.0587   0.1295   0.0234  -0.0686  -0.0287  -9.00    1.2
2024/05/10 09:50:52.000   28.460504071  -16.419612258   812.3542   2   6   0.0190   0.0586   0.1295   0.0234  -0.0686  -0.0287  -8.00    1.0
2024/05/10 09:50:53.000   28.460504073  -16.419612255   812.3534   2   6   0.0190   0.0586   0.1295   0.0234  -0.0686  -0.0286  -7.00    1.0
2024/05/10 09:50:54.000   28.460504075  -16.419612251   812.3526   2   6   0.0190   0.0586   0.1295   0.0233  -0.0686  -0.0286  -6.00    1.0
2024/05/10 09:50:55.000   28.460504078  -16.419612250   812.3519   2   6   0.0190   0.0586   0.1296   0.0233  -0.0686  -0.0286  -5.00    1.1
2024/05/10 09:50:56.000   28.460504082  -16.419612246   812.3505   2   6   0.0190   0.0586   0.1296   0.0233  -0.0686  -0.0286  -4.00    1.0
2024/05/10 09:50:57.000   28.460504086  -16.419612245   812.3488   2   6   0.0190   0.0586   0.1296   0.0233  -0.0686  -0.0286  -3.00    1.4
2024/05/10 09:50:58.000   28.460504091  -16.419612242   812.3472   2   6   0.0190   0.0586   0.1296   0.0233  -0.0685  -0.0286  -2.00    1.1
2024/05/10 09:50:59.000   28.460504098  -16.419612238   812.3454   2   6   0.0190   0.0586   0.1297   0.0233  -0.0685  -0.0286  -1.00    1.2
2024/05/10 09:51:00.000   28.460504104  -16.419612236   812.3433   2   6   0.0190   0.0586   0.1297   0.0233  -0.0685  -0.0286   0.00    1.1
2024/05/10 09:51:01.000   28.460504110  -16.419612236   812.3420   2   6   0.0190   0.0585   0.1298   0.0233  -0.0685  -0.0286   1.00    1.0
2024/05/10 09:51:02.000   28.460504116  -16.419612234   812.3403   2   6   0.0190   0.0585   0.1298   0.0233  -0.0685  -0.0286   2.00    1.1
2024/05/10 09:51:03.000   28.460504122  -16.419612231   812.3390   2   6   0.0190   0.0585   0.1299   0.0233  -0.0685  -0.0286   3.00    1.1
2024/05/10 09:51:04.000   28.460504126  -16.419612228   812.3378   2   6   0.0190   0.0585   0.1299   0.0233  -0.0685  -0.0286   4.00    1.2
2024/05/10 09:51:05.000   28.460504130  -16.419612226   812.3364   2   6   0.0190   0.0585   0.1299   0.0233  -0.0685  -0.0286   5.00    1.1
2024/05/10 09:51:06.000   28.460504134  -16.419612221   812.3349   2   6   0.0190   0.0585   0.1300   0.0233  -0.0685  -0.0286   6.00    1.2
2024/05/10 09:51:07.000   28.460504137  -16.419612219   812.3341   2   6   0.0190   0.0585   0.1300   0.0233  -0.0685  -0.0286   7.00    1.3
2024/05/10 09:51:08.000   28.460504139  -16.419612218   812.3333   2   6   0.0190   0.0585   0.1300   0.0233  -0.0685  -0.0286   8.00    1.2
2024/05/10 09:51:09.000   28.460504141  -16.419612216   812.3324   2   6   0.0190   0.0585   0.1300   0.0233  -0.0684  -0.0285   9.00    1.1
2024/05/10 09:51:10.000   28.460504143  -16.419612215   812.3317   2   6   0.0190   0.0585   0.1300   0.0233  -0.0684  -0.0285  10.00    1.2
2024/05/10 09:51:11.000   28.460504144  -16.419612212   812.3310   2   6   0.0190   0.0584   0.1300   0.0233  -0.0684  -0.0285  11.00    1.3
2024/05/10 09:51:12.000   28.460504146  -16.419612210   812.3305   2   6   0.0190   0.0584   0.1300   0.0233  -0.0684  -0.0285  12.00    1.2
2024/05/10 09:51:13.000   28.460504147  -16.419612209   812.3302   2   6   0.0190   0.0584   0.1300   0.0232  -0.0684  -0.0285  13.00    1.0
2024/05/10 09:51:14.000   28.460504148  -16.419612208   812.3298   2   6   0.0190   0.0584   0.1300   0.0232  -0.0684  -0.0285  14.00    1.2
2024/05/10 09:51:15.000   28.460504148  -16.419612207   812.3294   2   6   0.0190   0.0584   0.1300   0.0232  -0.0684  -0.0285 -15.00    1.0
2024/05/10 09:51:16.000   28.460504149  -16.419612205   812.3288   2   6   0.0190   0.0584   0.1300   0.0232  -0.0684  -0.0285 -14.00    1.2
2024/05/10 09:51:17.000   28.460504150  -16.419612203   812.3283   2   6   0.0190   0.0584   0.1300   0.0232  -0.0683  -0.0285 -13.00    1.1
2024/05/10 09:51:18.000   28.460504151  -16.419612202   812.3279   2   6   0.0190   0.0584   0.1300   0.0232  -0.0683  -0.0285 -12.00    1.2
2024/05/10 09:51:19.000   28.460504153  -16.419612201   812.3274   2   6   0.0190   0.0584   0.1300   0.0232  -0.0683  -0.0285 -11.00    1.3
2024/05/10 09:51:20.000   28.460504154  -16.419612199   812.3266   2   6   0.0190   0.0583   0.1300   0.0232  -0.0683  -0.0285 -10.00    1.2
2024/05/10 09:51:21.000   28.460504156  -16.419612199   812.3259   2   6   0.0190   0.0583   0.1300   0.0232  -0.0683  -0.0285  -9.00    1.1
2024/05/10 09:51:22.000   28.460504158  -16.419612198   812.3249   2   6   0.0190   0.0583   0.1300   0.0232  -0.0683  -0.0285  -8.00    1.2
2024/05/10 09:51:23.000   28.460504159  -16.419612199   812.3237   2   6   0.0190   0.0583   0.1300   0.0232  -0.0683  -0.0285  -7.00    1.4
2024/05/10 09:51:24.000   28.460504161  -16.419612200   812.3227   2   6   0.0190   0.0583   0.1300   0.0232  -0.0683  -0.0285  -6.00    1.2
2024/05/10 09:51:25.000   28.460504163  -16.419612202   812.3216   2   6   0.0190   0.0583   0.1300   0.0232  -0.0683  -0.0285  -5.00    1.0
2024/05/10 09:51:26.000   28.460504167  -16.419612204   812.3200   2   6   0.0190   0.0583   0.1300   0.0232  -0.0682  -0.0284  -4.00    1.2
2024/05/10 09:51:27.000   28.460504171  -16.419612206   812.3184   2   6   0.0190   0.0583   0.1300   0.0232  -0.0682  -0.0284  -3.00    1.1
2024/05/10 09:51:28.000   28.460504176  -16.419612209   812.3167   2   6   0.0190   0.0583   0.1301   0.0232  -0.0682  -0.0284  -2.00    1.2
2024/05/10 09:51:29.000   28.460504181  -16.419612214   812.3146   2   6   0.0190   0.0583   0.1301   0.0232  -0.0682  -0.0284  -1.00    1.1
2024/05/10 09:51:30.000   28.460504187  -16.419612215   812.3127   2   6   0.0190   0.0582   0.1301   0.0232  -0.0682  -0.0284   0.00    1.2
2024/05/10 09:51:31.000   28.460504194  -16.419612217   812.3118   2   6   0.0190   0.0582   0.1302   0.0232  -0.0682  -0.0284   1.00    1.2
2024/05/10 09:51:32.000   28.460504199  -16.419612220   812.3104   2   6   0.0190   0.0582   0.1302   0.0232  -0.0682  -0.0284   2.00    1.2
2024/05/10 09:51:33.000   28.460504204  -16.419612224   812.3090   2   6   0.0191   0.0582   0.1303   0.0231  -0.0682  -0.0284   3.00    1.2
2024/05/10 09:51:34.000   28.460504208  -16.419612227   812.3074   2   6   0.0191   0.0582   0.1303   0.0231  -0.0682  -0.0284   4.00    1.2
2024/05/10 09:51:35.000   28.460504211  -16.419612229   812.3062   2   6   0.0191   0.0582   0.1303   0.0231  -0.0682  -0.0284   5.00    1.3
2024/05/10 09:51:36.000   28.460504214  -16.419612230   812.3051   2   6   0.0191   0.0582   0.1303   0.0231  -0.0682  -0.0284   6.00    1.2
2024/05/10 09:51:37.000   28.460504216  -16.419612232   812.3043   2   6   0.0191   0.0582   0.1303   0.0231  -0.0682  -0.0284   7.00    1.0
2024/05/10 09:51:38.000   28.460504217  -16.419612236   812.3036   2   6   0.0191   0.0582   0.1304   0.0231  -0.0682  -0.0284   8.00    1.1
2024/05/10 09:51:39.000   28.460504219  -16.419612237   812.3030   2   6   0.0191   0.0582   0.1304   0.0231  -0.0681  -0.0284   9.00    1.0
2024/05/10 09:51:40.000   28.460504220  -16.419612237   812.3026   2   6   0.0191   0.0581   0.1304   0.0231  -0.0681  -0.0284  10.00    1.1
2024/05/10 09:51:41.000   28.460504221  -16.419612238   812.3022   2   6   0.0191   0.0581   0.1304   0.0231  -0.0681  -0.0284  11.00    1.1
2024/05/10 09:51:42.000   28.460504222  -16.419612238   812.3019   2   6   0.0191   0.0581   0.1304   0.0231  -0.0681  -0.0284  12.00    1.1
2024/05/10 09:51:43.000   28.460504223  -16.419612239   812.3015   2   6   0.0191   0.0581   0.1304   0.0231  -0.0681  -0.0283  13.00    1.1
2024/05/10 09:51:44.000   28.460504224  -16.419612239   812.3011   2   6   0.0191   0.0581   0.1304   0.0231  -0.0681  -0.0283  14.00    1.1
2024/05/10 09:51:45.000   28.460504225  -16.419612239   812.3006   2   6   0.0191   0.0581   0.1304   0.0231  -0.0681  -0.0283 -15.00    1.2
2024/05/10 09:51:46.000   28.460504225  -16.419612242   812.3006   2   6   0.0191   0.0581   0.1304   0.0231  -0.0681  -0.0283 -14.00    1.1
2024/05/10 09:51:47.000   28.460504226  -16.419612242   812.3003   2   6   0.0191   0.0581   0.1304   0.0231  -0.0681  -0.0283 -13.00    1.2
2024/05/10 09:51:48.000   28.460504227  -16.419612243   812.3001   2   6   0.0191   0.0581   0.1303   0.0231  -0.0680  -0.0283 -12.00    1.1
2024/05/10 09:51:49.000   28.460504228  -16.419612244   812.2998   2   6   0.0191   0.0581   0.1303   0.0231  -0.0680  -0.0283 -11.00    1.0
2024/05/10 09:51:50.000   28.460504229  -16.419612245   812.2995   2   6   0.0191   0.0580   0.1303   0.0231  -0.0680  -0.0283 -10.00    1.1
2024/05/10 09:51:51.000   28.460504231  -16.419612247   812.2991   2   6   0.0190   0.0580   0.1303   0.0231  -0.0680  -0.0283  -9.00    1.0
2024/05/10 09:51:52.000   28.460504233  -16.419612249   812.2987   2   6   0.0190   0.0580   0.1303   0.0231  -0.0680  -0.0283  -8.00    1.1
2024/05/10 09:51:53.000   28.460504234  -16.419612252   812.2977   2   6   0.0190   0.0580   0.1303   0.0231  -0.0680  -0.0283  -7.00    1.0
2024/05/10 09:51:54.000   28.460504236  -16.419612255   812.2968   2   6   0.0190   0.0580   0.1303   0.0231  -0.0680  -0.0283  -6.00    1.1
2024/05/10 09:51:55.000   28.460504238  -16.419612258   812.2958   2   6   0.0190   0.0580   0.1303   0.0230  -0.0680  -0.0283  -5.00    1.0
2024/05/10 09:51:56.000   28.460504240  -16.419612262   812.2943   2   6   0.0190   0.0580   0.1304   0.0230  -0.0680  -0.0283  -4.00    1.1
2024/05/10 09:51:57.000   28.460504242  -16.419612267   812.2933   2   6   0.0190   0.0580   0.1304   0.0230  -0.0680  -0.0283  -3.00    1.2
2024/05/10 09:51:58.000   28.460504246  -16.419612269   812.2916   2   6   0.0190   0.0580   0.1304   0.0230  -0.0680  -0.0283  -2.00    1.0
2024/05/10 09:51:59.000   28.460504249  -16.419612276   812.2895   2   6   0.0190   0.0580   0.1304   0.0230  -0.0680  -0.0283  -1.00    1.1
2024/05/10 09:52:00.000   28.460504251  -16.419612280   812.2869   2   6   0.0190   0.0579   0.1304   0.0230  -0.0680  -0.0283   0.00    1.0
2024/05/10 09:52:01.000   28.460504254  -16.419612282   812.2841   2   6   0.0190   0.0579   0.1305   0.0230  -0.0679  -0.0283   1.00    1.1
2024/05/10 09:52:02.000   28.460504256  -16.419612285   812.2810   2   6   0.0190   0.0579   0.1305   0.0230  -0.0679  -0.0282   2.00    1.0
2024/05/10 09:52:03.000   28.460504258  -16.419612286   812.2781   2   6   0.0190   0.0579   0.1305   0.0230  -0.0679  -0.0282   3.00    1.0
2024/05/10 09:52:04.000   28.460504260  -16.419612288   812.2759   2   6   0.0190   0.0579   0.1306   0.0230  -0.0679  -0.0282   4.00    1.0
2024/05/10 09:52:05.000   28.460504261  -16.419612289   812.2741   2   6   0.0190   0.0579   0.1306   0.0230  -0.0679  -0.0282   5.00    1.1
2024/05/10 09:52:06.000   28.460504262  -16.419612290   812.2727   2   6   0.0190   0.0579   0.1306   0.0230  -0.0679  -0.0282   6.00    1.0
2024/05/10 09:52:07.000   28.460504263  -16.419612292   812.2716   2   6   0.0190   0.0579   0.1306   0.0230  -0.0679  -0.0282   7.00    1.0
2024/05/10 09:52:08.000   28.460504263  -16.419612294   812.2707   2   6   0.0190   0.0579   0.1306   0.0230  -0.0679  -0.0282   8.00    1.0
2024/05/10 09:52:09.000   28.460504263  -16.419612296   812.2699   2   6   0.0190   0.0579   0.1306   0.0230  -0.0679  -0.0282   9.00    1.2
2024/05/10 09:52:10.000   28.460504263  -16.419612297   812.2692   2   6   0.0190   0.0579   0.1306   0.0230  -0.0679  -0.0282  10.00    1.0
2024/05/10 09:52:11.000   28.460504263  -16.419612299   812.2685   2   6   0.0190   0.0578   0.1306   0.0230  -0.0679  -0.0282  11.00    1.1
2024/05/10 09:52:12.000   28.460504263  -16.419612301   812.2679   2   6   0.0190   0.0578   0.1306   0.0230  -0.0679  -0.0282  12.00    1.1
2024/05/10 09:52:13.000   28.460504263  -16.419612302   812.2674   2   6   0.0190   0.0578   0.1306   0.0230  -0.0679  -0.0282  13.00    1.1
2024/05/10 09:52:14.000   28.460504262  -16.419612305   812.2672   2   6   0.0190   0.0578   0.1306   0.0230  -0.0678  -0.0282  14.00    1.1
2024/05/10 09:52:15.000   28.460504262  -16.419612307   812.2670   2   6   0.0190   0.0578   0.1306   0.0230  -0.0678  -0.0282 -15.00    1.0
2024/05/10 09:52:16.000   28.460504262  -16.419612309   812.2667   2   6   0.0190   0.0578   0.1306   0.0230  -0.0678  -0.0282 -14.00    1.1
2024/05/10 09:52:17.000   28.460504261  -16.419612311   812.2664   2   6   0.0190   0.0578   0.1306   0.0230  -0.0678  -0.0282 -13.00    1.1
2024/05/10 09:52:18.000   28.460504261  -16.419612314   812.2661   2   6   0.0190   0.0578   0.1306   0.0230  -0.0678  -0.0282 -12.00    1.1
2024/05/10 09:52:19.000   28.460504261  -16.419612316   812.2656   2   6   0.0190   0.0578   0.1306   0.0229  -0.0678  -0.0282 -11.00    1.0
2024/05/10 09:52:20.000   28.460504261  -16.419612317   812.2648   2   6   0.0190   0.0578   0.1306   0.0229  -0.0678  -0.0282 -10.00    1.1
2024/05/10 09:52:21.000   28.460504261  -16.419612318   812.2640   2   6   0.0190   0.0578   0.1306   0.0229  -0.0678  -0.0281  -9.00    1.3
2024/05/10 09:52:22.000   28.460504261  -16.419612321   812.2635   2   6   0.0190   0.0577   0.1306   0.0229  -0.0678  -0.0281  -8.00    1.1
2024/05/10 09:52:23.000   28.460504260  -16.419612323   812.2625   2   6   0.0190   0.0577   0.1306   0.0229  -0.0678  -0.0281  -7.00    1.1
2024/05/10 09:52:24.000   28.460504260  -16.419612325   812.2611   2   6   0.0190   0.0577   0.1306   0.0229  -0.0678  -0.0281  -6.00    1.1
2024/05/10 09:52:25.000   28.460504260  -16.419612327   812.2593   2   6   0.0190   0.0577   0.1306   0.0229  -0.0677  -0.0281  -5.00    1.1
2024/05/10 09:52:26.000   28.460504259  -16.419612331   812.2572   2   6   0.0190   0.0577   0.1306   0.0229  -0.0677  -0.0281  -4.00    1.1
2024/05/10 09:52:27.000   28.460504259  -16.419612335   812.2550   2   6   0.0190   0.0577   0.1306   0.0229  -0.0677  -0.0281  -3.00    1.0
2024/05/10 09:52:28.000   28.460504261  -16.419612337   812.2526   2   6   0.0190   0.0577   0.1306   0.0229  -0.0677  -0.0281  -2.00    1.1
2024/05/10 09:52:29.000   28.460504263  -16.419612341   812.2501   2   6   0.0190   0.0577   0.1306   0.0229  -0.0677  -0.0281  -1.00    1.1
2024/05/10 09:52:30.000   28.460504265  -16.419612344   812.2475   2   6   0.0190   0.0577   0.1306   0.0229  -0.0677  -0.0281   0.00    1.0
