% program   : RTKPOST-EX 2.5.0
% inp file  : C:\Users\SallyHenry\Desktop\Sally Internship\GNSS gravi\DATA\Survey Rover Obs\MI03.24o
% inp file  : C:\Users\SallyHenry\Desktop\Sally Internship\GNSS gravi\DATA\BaseStations\TN02\TN0200ESP_R_20241310000_01D_30S_MO.rnx
% inp file  : C:\Users\SallyHenry\Desktop\Sally Internship\GNSS gravi\DATA\BaseStations\TN02\TN0200ESP_R_20241310000_01D_MN.rnx
% inp file  : C:\Users\SallyHenry\Desktop\Sally Internship\GNSS gravi\DATA\aux_files\Survey\IGS0OPSFIN_20241310000_01D_15M_ORB.SP3
% inp file  : C:\Users\SallyHenry\Desktop\Sally Internship\GNSS gravi\DATA\aux_files\Survey\IGS0OPSFIN_20241310000_01D_30S_CLK.CLK
% obs start : 2024/05/10 10:11:40.0 GPST (week2313 468700.0s)
% obs end   : 2024/05/10 10:26:40.0 GPST (week2313 469600.0s)
% pos mode  : Static
% freqs     : L1+L2/E5b
% solution  : Combined-No Phase Reset
% elev mask : 15.0 deg
% dynamics  : on
% tidecorr  : solid
% ionos opt : Estimate TEC
% tropo opt : Estimate ZTD+Grad
% ephemeris : Precise
% navi sys  : GPS GLONASS Galileo QZSS BDS
% amb res   : Fix and Hold
% amb glo   : Fix and Hold
% amb bds   : on
% val thres : 3.0
% antenna1  :                       ( 0.0000  0.0000  1.8000)
% antenna2  :                       ( 0.0000  0.0000  0.0771)
% ref pos   :  28.418257450  -16.550784480    54.4145
%
% (lat/lon/height=WGS84/ellipsoidal,Q=1:fix,2:float,3:sbas,4:dgps,5:single,6:ppp,ns=# of satellites)
%  GPST                  latitude(deg) longitude(deg)  height(m)   Q  ns   sdn(m)   sde(m)   sdu(m)  sdne(m)  sdeu(m)  sdun(m) age(s)  ratio
2024/05/10 10:11:40.000   28.447945136  -16.419759003   949.1745   2   7   0.0172   0.0615   0.0731   0.0190  -0.0599  -0.0225 -20.00    0.0
2024/05/10 10:11:41.000   28.447945136  -16.419759005   949.1746   2   7   0.0172   0.0615   0.0731   0.0189  -0.0599  -0.0225 -19.00    0.0
2024/05/10 10:11:42.000   28.447945136  -16.419759008   949.1748   2   7   0.0172   0.0615   0.0731   0.0189  -0.0598  -0.0225 -18.00    0.0
2024/05/10 10:11:43.000   28.447945136  -16.419759011   949.1750   2   7   0.0172   0.0614   0.0730   0.0189  -0.0598  -0.0225 -17.00    0.0
2024/05/10 10:11:44.000   28.447945135  -16.419759013   949.1751   2   7   0.0172   0.0614   0.0730   0.0189  -0.0597  -0.0225 -16.00    0.0
2024/05/10 10:11:45.000   28.447945135  -16.419759018   949.1754   2   7   0.0172   0.0613   0.0730   0.0189  -0.0597  -0.0225 -15.00    0.0
2024/05/10 10:11:46.000   28.447945135  -16.419759020   949.1756   2   7   0.0172   0.0613   0.0729   0.0189  -0.0596  -0.0224 -14.00    0.0
2024/05/10 10:11:47.000   28.447945136  -16.419759022   949.1756   2   7   0.0172   0.0612   0.0729   0.0189  -0.0596  -0.0224 -13.00    0.0
2024/05/10 10:11:48.000   28.447945136  -16.419759023   949.1756   2   7   0.0172   0.0612   0.0729   0.0188  -0.0596  -0.0224 -12.00    0.0
2024/05/10 10:11:49.000   28.447945136  -16.419759023   949.1754   2   7   0.0172   0.0611   0.0729   0.0188  -0.0595  -0.0224 -11.00    0.0
2024/05/10 10:11:50.000   28.447945136  -16.419759024   949.1753   2   7   0.0172   0.0611   0.0728   0.0188  -0.0595  -0.0224 -10.00    0.0
2024/05/10 10:11:51.000   28.447945136  -16.419759027   949.1754   2   7   0.0172   0.0610   0.0728   0.0188  -0.0594  -0.0224  -9.00    0.0
2024/05/10 10:11:52.000   28.447945136  -16.419759028   949.1754   2   7   0.0172   0.0610   0.0728   0.0188  -0.0594  -0.0224  -8.00    0.0
2024/05/10 10:11:53.000   28.447945137  -16.419759027   949.1751   2   7   0.0172   0.0610   0.0728   0.0188  -0.0593  -0.0224  -7.00    0.0
2024/05/10 10:11:54.000   28.447945137  -16.419759029   949.1749   2   7   0.0172   0.0609   0.0727   0.0187  -0.0593  -0.0224  -6.00    0.0
2024/05/10 10:11:55.000   28.447945138  -16.419759028   949.1747   2   7   0.0172   0.0609   0.0727   0.0187  -0.0593  -0.0223  -5.00    0.0
2024/05/10 10:11:56.000   28.447945138  -16.419759029   949.1746   2   7   0.0172   0.0608   0.0727   0.0187  -0.0592  -0.0223  -4.00    0.0
2024/05/10 10:11:57.000   28.447945138  -16.419759028   949.1742   2   7   0.0172   0.0608   0.0727   0.0187  -0.0592  -0.0223  -3.00    0.0
2024/05/10 10:11:58.000   28.447945139  -16.419759025   949.1738   2   7   0.0172   0.0607   0.0727   0.0187  -0.0591  -0.0223  -2.00    0.0
2024/05/10 10:11:59.000   28.447945141  -16.419759022   949.1735   2   7   0.0172   0.0607   0.0727   0.0187  -0.0591  -0.0223  -1.00    0.0
2024/05/10 10:12:00.000   28.447945142  -16.419759023   949.1736   2   7   0.0172   0.0607   0.0727   0.0187  -0.0590  -0.0223   0.00    0.0
2024/05/10 10:12:01.000   28.447945141  -16.419759022   949.1741   2   7   0.0173   0.0606   0.0727   0.0186  -0.0590  -0.0223   1.00    0.0
2024/05/10 10:12:02.000   28.447945141  -16.419759021   949.1745   2   7   0.0173   0.0606   0.0727   0.0186  -0.0590  -0.0223   2.00    0.0
2024/05/10 10:12:03.000   28.447945142  -16.419759021   949.1747   2   7   0.0173   0.0606   0.0727   0.0186  -0.0589  -0.0223   3.00    0.0
2024/05/10 10:12:04.000   28.447945142  -16.419759022   949.1749   2   7   0.0173   0.0605   0.0727   0.0186  -0.0589  -0.0223   4.00    0.0
2024/05/10 10:12:05.000   28.447945142  -16.419759025   949.1751   2   7   0.0173   0.0605   0.0727   0.0186  -0.0588  -0.0222   5.00    0.0
2024/05/10 10:12:06.000   28.447945142  -16.419759027   949.1752   2   7   0.0173   0.0604   0.0727   0.0186  -0.0588  -0.0222   6.00    0.0
2024/05/10 10:12:07.000   28.447945142  -16.419759030   949.1756   2   7   0.0173   0.0604   0.0727   0.0185  -0.0588  -0.0222   7.00    0.0
2024/05/10 10:12:08.000   28.447945142  -16.419759034   949.1758   2   7   0.0173   0.0604   0.0726   0.0185  -0.0587  -0.0222   8.00    0.0
2024/05/10 10:12:09.000   28.447945143  -16.419759035   949.1758   2   7   0.0173   0.0603   0.0726   0.0185  -0.0587  -0.0222   9.00    0.0
2024/05/10 10:12:10.000   28.447945143  -16.419759037   949.1759   2   7   0.0174   0.0603   0.0726   0.0185  -0.0586  -0.0222  10.00    0.0
2024/05/10 10:12:11.000   28.447945143  -16.419759039   949.1761   2   7   0.0174   0.0602   0.0726   0.0185  -0.0586  -0.0222  11.00    0.0
2024/05/10 10:12:12.000   28.447945143  -16.419759041   949.1762   2   7   0.0174   0.0602   0.0726   0.0185  -0.0586  -0.0222  12.00    0.0
2024/05/10 10:12:13.000   28.447945143  -16.419759042   949.1763   2   7   0.0174   0.0602   0.0725   0.0185  -0.0585  -0.0222  13.00    0.0
2024/05/10 10:12:14.000   28.447945143  -16.419759042   949.1762   2   7   0.0174   0.0601   0.0725   0.0184  -0.0585  -0.0222  14.00    0.0
2024/05/10 10:12:15.000   28.447945144  -16.419759043   949.1762   2   7   0.0174   0.0601   0.0725   0.0184  -0.0584  -0.0222 -15.00    0.0
2024/05/10 10:12:16.000   28.447945144  -16.419759045   949.1764   2   7   0.0174   0.0601   0.0725   0.0184  -0.0584  -0.0221 -14.00    0.0
2024/05/10 10:12:17.000   28.447945144  -16.419759047   949.1765   2   7   0.0174   0.0600   0.0724   0.0184  -0.0584  -0.0221 -13.00    0.0
2024/05/10 10:12:18.000   28.447945145  -16.419759049   949.1767   2   7   0.0174   0.0600   0.0724   0.0184  -0.0583  -0.0221 -12.00    0.0
2024/05/10 10:12:19.000   28.447945145  -16.419759052   949.1769   2   7   0.0174   0.0599   0.0724   0.0184  -0.0583  -0.0221 -11.00    0.0
2024/05/10 10:12:20.000   28.447945145  -16.419759055   949.1770   2   7   0.0174   0.0599   0.0724   0.0184  -0.0583  -0.0221 -10.00    0.0
2024/05/10 10:12:21.000   28.447945145  -16.419759056   949.1770   2   7   0.0174   0.0599   0.0723   0.0184  -0.0582  -0.0221  -9.00    0.0
2024/05/10 10:12:22.000   28.447945146  -16.419759058   949.1771   2   7   0.0174   0.0598   0.0723   0.0183  -0.0582  -0.0221  -8.00    0.0
2024/05/10 10:12:23.000   28.447945147  -16.419759059   949.1770   2   7   0.0174   0.0598   0.0723   0.0183  -0.0582  -0.0221  -7.00    0.0
2024/05/10 10:12:24.000   28.447945147  -16.419759061   949.1770   2   7   0.0174   0.0598   0.0723   0.0183  -0.0581  -0.0221  -6.00    0.0
2024/05/10 10:12:25.000   28.447945147  -16.419759064   949.1772   2   7   0.0174   0.0597   0.0723   0.0183  -0.0581  -0.0221  -5.00    0.0
2024/05/10 10:12:26.000   28.447945148  -16.419759064   949.1770   2   7   0.0174   0.0597   0.0723   0.0183  -0.0580  -0.0220  -4.00    0.0
2024/05/10 10:12:27.000   28.447945149  -16.419759066   949.1772   2   7   0.0174   0.0597   0.0723   0.0183  -0.0580  -0.0220  -3.00    0.0
2024/05/10 10:12:28.000   28.447945150  -16.419759067   949.1771   2   7   0.0174   0.0596   0.0723   0.0183  -0.0580  -0.0220  -2.00    0.0
2024/05/10 10:12:29.000   28.447945150  -16.419759072   949.1775   2   7   0.0174   0.0596   0.0723   0.0183  -0.0579  -0.0220  -1.00    0.0
2024/05/10 10:12:30.000   28.447945151  -16.419759074   949.1773   2   7   0.0174   0.0596   0.0723   0.0182  -0.0579  -0.0220   0.00    0.0
2024/05/10 10:12:31.000   28.447945152  -16.419759074   949.1773   2   7   0.0175   0.0595   0.0723   0.0182  -0.0579  -0.0220   1.00    0.0
2024/05/10 10:12:32.000   28.447945153  -16.419759077   949.1775   2   7   0.0175   0.0595   0.0723   0.0182  -0.0578  -0.0220   2.00    0.0
2024/05/10 10:12:33.000   28.447945154  -16.419759078   949.1770   2   7   0.0175   0.0595   0.0723   0.0182  -0.0578  -0.0220   3.00    0.0
2024/05/10 10:12:34.000   28.447945155  -16.419759081   949.1769   2   7   0.0175   0.0594   0.0723   0.0182  -0.0578  -0.0220   4.00    0.0
2024/05/10 10:12:35.000   28.447945156  -16.419759082   949.1768   2   7   0.0175   0.0594   0.0723   0.0182  -0.0577  -0.0220   5.00    0.0
2024/05/10 10:12:36.000   28.447945156  -16.419759084   949.1767   2   7   0.0175   0.0594   0.0723   0.0182  -0.0577  -0.0220   6.00    0.0
2024/05/10 10:12:37.000   28.447945157  -16.419759086   949.1766   2   7   0.0175   0.0593   0.0723   0.0182  -0.0577  -0.0220   7.00    0.0
2024/05/10 10:12:38.000   28.447945158  -16.419759091   949.1769   2   7   0.0175   0.0593   0.0723   0.0181  -0.0576  -0.0220   8.00    0.0
2024/05/10 10:12:39.000   28.447945158  -16.419759092   949.1769   2   7   0.0176   0.0593   0.0723   0.0181  -0.0576  -0.0220   9.00    0.0
2024/05/10 10:12:40.000   28.447945159  -16.419759094   949.1770   2   7   0.0176   0.0592   0.0722   0.0181  -0.0576  -0.0219  10.00    0.0
2024/05/10 10:12:41.000   28.447945160  -16.419759095   949.1769   2   7   0.0176   0.0592   0.0722   0.0181  -0.0575  -0.0219  11.00    0.0
2024/05/10 10:12:42.000   28.447945160  -16.419759096   949.1770   2   7   0.0176   0.0592   0.0722   0.0181  -0.0575  -0.0219  12.00    0.0
2024/05/10 10:12:43.000   28.447945161  -16.419759097   949.1770   2   7   0.0176   0.0591   0.0722   0.0181  -0.0575  -0.0219  13.00    0.0
2024/05/10 10:12:44.000   28.447945161  -16.419759098   949.1769   2   7   0.0176   0.0591   0.0722   0.0181  -0.0574  -0.0219  14.00    0.0
2024/05/10 10:12:45.000   28.447945162  -16.419759099   949.1769   2   7   0.0176   0.0591   0.0722   0.0181  -0.0574  -0.0219 -15.00    0.0
2024/05/10 10:12:46.000   28.447945162  -16.419759102   949.1770   2   7   0.0176   0.0590   0.0721   0.0180  -0.0574  -0.0219 -14.00    0.0
2024/05/10 10:12:47.000   28.447945163  -16.419759104   949.1770   2   7   0.0176   0.0590   0.0721   0.0180  -0.0573  -0.0219 -13.00    0.0
2024/05/10 10:12:48.000   28.447945163  -16.419759107   949.1772   2   7   0.0176   0.0590   0.0721   0.0180  -0.0573  -0.0219 -12.00    0.0
2024/05/10 10:12:49.000   28.447945164  -16.419759108   949.1771   2   7   0.0176   0.0589   0.0721   0.0180  -0.0573  -0.0219 -11.00    0.0
2024/05/10 10:12:50.000   28.447945164  -16.419759112   949.1772   2   7   0.0176   0.0589   0.0721   0.0180  -0.0572  -0.0219 -10.00    0.0
2024/05/10 10:12:51.000   28.447945165  -16.419759114   949.1770   2   7   0.0176   0.0589   0.0720   0.0180  -0.0572  -0.0219  -9.00    0.0
2024/05/10 10:12:52.000   28.447945166  -16.419759114   949.1768   2   7   0.0176   0.0588   0.0720   0.0180  -0.0572  -0.0219  -8.00    0.0
2024/05/10 10:12:53.000   28.447945166  -16.419759116   949.1766   2   7   0.0176   0.0588   0.0720   0.0180  -0.0572  -0.0218  -7.00    0.0
2024/05/10 10:12:54.000   28.447945167  -16.419759117   949.1764   2   7   0.0176   0.0588   0.0720   0.0180  -0.0571  -0.0218  -6.00    0.0
2024/05/10 10:12:55.000   28.447945168  -16.419759116   949.1762   2   7   0.0176   0.0588   0.0720   0.0180  -0.0571  -0.0218  -5.00    0.0
2024/05/10 10:12:56.000   28.447945170  -16.419759115   949.1760   2   7   0.0176   0.0587   0.0720   0.0179  -0.0571  -0.0218  -4.00    0.0
2024/05/10 10:12:57.000   28.447945171  -16.419759114   949.1756   2   7   0.0176   0.0587   0.0720   0.0179  -0.0570  -0.0218  -3.00    0.0
2024/05/10 10:12:58.000   28.447945172  -16.419759111   949.1751   2   7   0.0176   0.0587   0.0720   0.0179  -0.0570  -0.0218  -2.00    0.0
2024/05/10 10:12:59.000   28.447945172  -16.419759109   949.1749   2   7   0.0176   0.0586   0.0720   0.0179  -0.0570  -0.0218  -1.00    0.0
2024/05/10 10:13:00.000   28.447945173  -16.419759107   949.1744   2   7   0.0177   0.0586   0.0720   0.0179  -0.0569  -0.0218   0.00    0.0
2024/05/10 10:13:01.000   28.447945172  -16.419759105   949.1742   2   7   0.0177   0.0586   0.0720   0.0179  -0.0569  -0.0218   1.00    0.0
2024/05/10 10:13:02.000   28.447945173  -16.419759104   949.1736   2   7   0.0177   0.0586   0.0720   0.0179  -0.0569  -0.0218   2.00    0.0
2024/05/10 10:13:03.000   28.447945175  -16.419759100   949.1728   2   7   0.0177   0.0585   0.0721   0.0179  -0.0569  -0.0218   3.00    0.0
2024/05/10 10:13:04.000   28.447945176  -16.419759099   949.1722   2   7   0.0177   0.0585   0.0721   0.0178  -0.0568  -0.0218   4.00    0.0
2024/05/10 10:13:05.000   28.447945176  -16.419759098   949.1715   2   7   0.0177   0.0585   0.0721   0.0178  -0.0568  -0.0218   5.00    0.0
2024/05/10 10:13:06.000   28.447945177  -16.419759094   949.1708   2   7   0.0177   0.0585   0.0721   0.0178  -0.0568  -0.0218   6.00    0.0
2024/05/10 10:13:07.000   28.447945178  -16.419759094   949.1704   2   7   0.0178   0.0584   0.0721   0.0178  -0.0567  -0.0218   7.00    0.0
2024/05/10 10:13:08.000   28.447945179  -16.419759094   949.1700   2   7   0.0178   0.0584   0.0721   0.0178  -0.0567  -0.0218   8.00    0.0
2024/05/10 10:13:09.000   28.447945180  -16.419759091   949.1695   2   7   0.0178   0.0584   0.0720   0.0178  -0.0567  -0.0217   9.00    0.0
2024/05/10 10:13:10.000   28.447945181  -16.419759090   949.1690   2   7   0.0178   0.0583   0.0720   0.0178  -0.0567  -0.0217  10.00    0.0
2024/05/10 10:13:11.000   28.447945182  -16.419759087   949.1684   2   7   0.0178   0.0583   0.0720   0.0178  -0.0566  -0.0217  11.00    0.0
2024/05/10 10:13:12.000   28.447945183  -16.419759084   949.1679   2   7   0.0178   0.0583   0.0720   0.0178  -0.0566  -0.0217  12.00    0.0
2024/05/10 10:13:13.000   28.447945184  -16.419759083   949.1675   2   7   0.0178   0.0583   0.0720   0.0178  -0.0566  -0.0217  13.00    0.0
2024/05/10 10:13:14.000   28.447945185  -16.419759081   949.1672   2   7   0.0178   0.0582   0.0720   0.0177  -0.0565  -0.0217  14.00    0.0
2024/05/10 10:13:15.000   28.447945186  -16.419759079   949.1668   2   7   0.0178   0.0582   0.0720   0.0177  -0.0565  -0.0217 -15.00    0.0
2024/05/10 10:13:16.000   28.447945187  -16.419759078   949.1666   2   7   0.0178   0.0582   0.0719   0.0177  -0.0565  -0.0217 -14.00    0.0
2024/05/10 10:13:17.000   28.447945188  -16.419759076   949.1661   2   7   0.0178   0.0581   0.0719   0.0177  -0.0565  -0.0217 -13.00    0.0
2024/05/10 10:13:18.000   28.447945189  -16.419759073   949.1657   2   7   0.0178   0.0581   0.0719   0.0177  -0.0564  -0.0217 -12.00    0.0
2024/05/10 10:13:19.000   28.447945190  -16.419759071   949.1652   2   7   0.0178   0.0581   0.0719   0.0177  -0.0564  -0.0217 -11.00    0.0
2024/05/10 10:13:20.000   28.447945192  -16.419759069   949.1648   2   7   0.0178   0.0581   0.0719   0.0177  -0.0564  -0.0217 -10.00    0.0
2024/05/10 10:13:21.000   28.447945193  -16.419759069   949.1647   2   7   0.0178   0.0580   0.0719   0.0177  -0.0563  -0.0217  -9.00    0.0
2024/05/10 10:13:22.000   28.447945194  -16.419759068   949.1646   2   7   0.0178   0.0580   0.0719   0.0177  -0.0563  -0.0217  -8.00    0.0
2024/05/10 10:13:23.000   28.447945195  -16.419759066   949.1645   2   7   0.0178   0.0580   0.0718   0.0177  -0.0563  -0.0217  -7.00    0.0
2024/05/10 10:13:24.000   28.447945196  -16.419759065   949.1646   2   7   0.0178   0.0580   0.0718   0.0177  -0.0563  -0.0217  -6.00    0.0
2024/05/10 10:13:25.000   28.447945197  -16.419759060   949.1644   2   7   0.0178   0.0579   0.0718   0.0176  -0.0562  -0.0216  -5.00    0.0
2024/05/10 10:13:26.000   28.447945198  -16.419759058   949.1642   2   7   0.0178   0.0579   0.0718   0.0176  -0.0562  -0.0216  -4.00    0.0
2024/05/10 10:13:27.000   28.447945199  -16.419759055   949.1640   2   7   0.0178   0.0579   0.0718   0.0176  -0.0562  -0.0216  -3.00    0.0
2024/05/10 10:13:28.000   28.447945201  -16.419759051   949.1640   2   7   0.0178   0.0579   0.0718   0.0176  -0.0562  -0.0216  -2.00    0.0
2024/05/10 10:13:29.000   28.447945203  -16.419759046   949.1641   2   7   0.0178   0.0578   0.0719   0.0176  -0.0561  -0.0216  -1.00    0.0
2024/05/10 10:13:30.000   28.447945206  -16.419759042   949.1643   2   7   0.0179   0.0578   0.0719   0.0176  -0.0561  -0.0216   0.00    0.0
2024/05/10 10:13:31.000   28.447945208  -16.419759040   949.1651   2   8   0.0179   0.0578   0.0719   0.0176  -0.0561  -0.0216   1.00    0.0
2024/05/10 10:13:32.000   28.447945212  -16.419759035   949.1657   2   8   0.0179   0.0578   0.0719   0.0176  -0.0560  -0.0216   2.00    0.0
2024/05/10 10:13:33.000   28.447945213  -16.419759030   949.1655   2   8   0.0179   0.0577   0.0719   0.0176  -0.0560  -0.0216   3.00    0.0
2024/05/10 10:13:34.000   28.447945215  -16.419759025   949.1650   2   8   0.0179   0.0577   0.0719   0.0175  -0.0560  -0.0216   4.00    0.0
2024/05/10 10:13:35.000   28.447945217  -16.419759020   949.1647   2   8   0.0179   0.0577   0.0719   0.0175  -0.0559  -0.0216   5.00    0.0
2024/05/10 10:13:36.000   28.447945218  -16.419759014   949.1643   2   8   0.0180   0.0576   0.0719   0.0175  -0.0559  -0.0216   6.00    0.0
2024/05/10 10:13:37.000   28.447945220  -16.419759010   949.1637   2   8   0.0180   0.0576   0.0719   0.0175  -0.0559  -0.0216   7.00    0.0
2024/05/10 10:13:38.000   28.447945221  -16.419759005   949.1633   2   8   0.0180   0.0576   0.0719   0.0175  -0.0558  -0.0216   8.00    0.0
2024/05/10 10:13:39.000   28.447945223  -16.419758999   949.1627   2   8   0.0180   0.0575   0.0719   0.0175  -0.0558  -0.0216   9.00    0.0
2024/05/10 10:13:40.000   28.447945225  -16.419758995   949.1624   2   8   0.0180   0.0575   0.0719   0.0175  -0.0558  -0.0216  10.00    0.0
2024/05/10 10:13:41.000   28.447945226  -16.419758990   949.1619   2   8   0.0180   0.0575   0.0718   0.0175  -0.0558  -0.0215  11.00    0.0
2024/05/10 10:13:42.000   28.447945227  -16.419758986   949.1615   2   8   0.0180   0.0574   0.0718   0.0175  -0.0557  -0.0215  12.00    0.0
2024/05/10 10:13:43.000   28.447945229  -16.419758980   949.1609   2   8   0.0180   0.0574   0.0718   0.0174  -0.0557  -0.0215  13.00    0.0
2024/05/10 10:13:44.000   28.447945230  -16.419758973   949.1602   2   8   0.0180   0.0574   0.0718   0.0174  -0.0557  -0.0215  14.00    0.0
2024/05/10 10:13:45.000   28.447945231  -16.419758967   949.1596   2   8   0.0180   0.0573   0.0718   0.0174  -0.0556  -0.0215 -15.00    0.0
2024/05/10 10:13:46.000   28.447945233  -16.419758962   949.1591   2   8   0.0180   0.0573   0.0718   0.0174  -0.0556  -0.0215 -14.00    0.0
2024/05/10 10:13:47.000   28.447945234  -16.419758957   949.1586   2   8   0.0180   0.0573   0.0717   0.0174  -0.0556  -0.0215 -13.00    0.0
2024/05/10 10:13:48.000   28.447945235  -16.419758950   949.1580   2   8   0.0180   0.0573   0.0717   0.0174  -0.0555  -0.0215 -12.00    0.0
2024/05/10 10:13:49.000   28.447945237  -16.419758943   949.1574   2   8   0.0180   0.0572   0.0717   0.0174  -0.0555  -0.0215 -11.00    0.0
2024/05/10 10:13:50.000   28.447945237  -16.419758937   949.1569   2   8   0.0180   0.0572   0.0717   0.0174  -0.0555  -0.0215 -10.00    0.0
2024/05/10 10:13:51.000   28.447945239  -16.419758929   949.1562   2   8   0.0180   0.0572   0.0717   0.0174  -0.0555  -0.0215  -9.00    0.0
2024/05/10 10:13:52.000   28.447945239  -16.419758923   949.1557   2   8   0.0180   0.0571   0.0717   0.0174  -0.0554  -0.0215  -8.00    0.0
2024/05/10 10:13:53.000   28.447945241  -16.419758916   949.1551   2   8   0.0180   0.0571   0.0716   0.0173  -0.0554  -0.0215  -7.00    0.0
2024/05/10 10:13:54.000   28.447945242  -16.419758911   949.1545   2   8   0.0180   0.0571   0.0716   0.0173  -0.0554  -0.0215  -6.00    0.0
2024/05/10 10:13:55.000   28.447945243  -16.419758905   949.1541   2   8   0.0180   0.0570   0.0716   0.0173  -0.0553  -0.0215  -5.00    0.0
2024/05/10 10:13:56.000   28.447945244  -16.419758901   949.1542   2   8   0.0180   0.0570   0.0716   0.0173  -0.0553  -0.0214  -4.00    0.0
2024/05/10 10:13:57.000   28.447945245  -16.419758897   949.1542   2   8   0.0180   0.0570   0.0716   0.0173  -0.0553  -0.0214  -3.00    0.0
2024/05/10 10:13:58.000   28.447945246  -16.419758891   949.1546   2   8   0.0180   0.0570   0.0716   0.0173  -0.0552  -0.0214  -2.00    0.0
2024/05/10 10:13:59.000   28.447945246  -16.419758886   949.1548   2   8   0.0180   0.0569   0.0716   0.0173  -0.0552  -0.0214  -1.00    1.1
2024/05/10 10:14:00.000   28.447945247  -16.419758880   949.1551   2   8   0.0181   0.0569   0.0717   0.0173  -0.0552  -0.0214   0.00    1.1
2024/05/10 10:14:01.000   28.447945248  -16.419758879   949.1558   2   7   0.0181   0.0569   0.0717   0.0173  -0.0552  -0.0214   1.00    1.0
2024/05/10 10:14:02.000   28.447945249  -16.419758873   949.1565   2   7   0.0181   0.0569   0.0717   0.0173  -0.0552  -0.0214   2.00    1.1
2024/05/10 10:14:03.000   28.447945250  -16.419758868   949.1570   2   7   0.0181   0.0569   0.0717   0.0173  -0.0551  -0.0214   3.00    1.0
2024/05/10 10:14:04.000   28.447945251  -16.419758864   949.1572   2   7   0.0181   0.0568   0.0717   0.0172  -0.0551  -0.0214   4.00    1.1
2024/05/10 10:14:05.000   28.447945253  -16.419758858   949.1571   2   7   0.0181   0.0568   0.0717   0.0172  -0.0551  -0.0214   5.00    1.0
2024/05/10 10:14:06.000   28.447945254  -16.419758853   949.1571   2   7   0.0181   0.0568   0.0717   0.0172  -0.0551  -0.0214   6.00    1.0
2024/05/10 10:14:07.000   28.447945255  -16.419758846   949.1569   2   7   0.0182   0.0568   0.0717   0.0172  -0.0550  -0.0214   7.00    1.1
2024/05/10 10:14:08.000   28.447945257  -16.419758840   949.1569   2   7   0.0182   0.0568   0.0717   0.0172  -0.0550  -0.0214   8.00    1.1
2024/05/10 10:14:09.000   28.447945258  -16.419758834   949.1569   2   7   0.0182   0.0567   0.0717   0.0172  -0.0550  -0.0214   9.00    1.1
2024/05/10 10:14:10.000   28.447945259  -16.419758828   949.1566   2   7   0.0182   0.0567   0.0717   0.0172  -0.0550  -0.0214  10.00    1.1
2024/05/10 10:14:11.000   28.447945260  -16.419758823   949.1563   2   7   0.0182   0.0567   0.0717   0.0172  -0.0550  -0.0214  11.00    1.2
2024/05/10 10:14:12.000   28.447945261  -16.419758816   949.1559   2   7   0.0182   0.0567   0.0717   0.0172  -0.0549  -0.0214  12.00    1.0
2024/05/10 10:14:13.000   28.447945262  -16.419758810   949.1555   2   7   0.0182   0.0567   0.0717   0.0172  -0.0549  -0.0214  13.00    1.0
2024/05/10 10:14:14.000   28.447945263  -16.419758804   949.1552   2   7   0.0182   0.0566   0.0717   0.0172  -0.0549  -0.0214  14.00    1.1
2024/05/10 10:14:15.000   28.447945264  -16.419758797   949.1547   2   7   0.0182   0.0566   0.0717   0.0172  -0.0549  -0.0214 -15.00    1.1
2024/05/10 10:14:16.000   28.447945265  -16.419758790   949.1542   2   7   0.0182   0.0566   0.0717   0.0172  -0.0549  -0.0214 -14.00    1.1
2024/05/10 10:14:17.000   28.447945266  -16.419758784   949.1538   2   7   0.0182   0.0566   0.0717   0.0171  -0.0548  -0.0214 -13.00    1.1
2024/05/10 10:14:18.000   28.447945267  -16.419758777   949.1533   2   7   0.0182   0.0566   0.0716   0.0171  -0.0548  -0.0214 -12.00    1.1
2024/05/10 10:14:19.000   28.447945268  -16.419758771   949.1530   2   7   0.0182   0.0565   0.0716   0.0171  -0.0548  -0.0213 -11.00    1.0
2024/05/10 10:14:20.000   28.447945269  -16.419758765   949.1529   2   7   0.0182   0.0565   0.0716   0.0171  -0.0548  -0.0213 -10.00    1.0
2024/05/10 10:14:21.000   28.447945270  -16.419758760   949.1528   2   7   0.0182   0.0565   0.0716   0.0171  -0.0548  -0.0213  -9.00    1.1
2024/05/10 10:14:22.000   28.447945271  -16.419758754   949.1529   2   7   0.0182   0.0565   0.0716   0.0171  -0.0547  -0.0213  -8.00    1.1
2024/05/10 10:14:23.000   28.447945271  -16.419758748   949.1529   2   7   0.0182   0.0565   0.0716   0.0171  -0.0547  -0.0213  -7.00    1.0
2024/05/10 10:14:24.000   28.447945272  -16.419758742   949.1530   2   7   0.0182   0.0564   0.0716   0.0171  -0.0547  -0.0213  -6.00    1.1
2024/05/10 10:14:25.000   28.447945273  -16.419758736   949.1534   2   7   0.0182   0.0564   0.0716   0.0171  -0.0547  -0.0213  -5.00    1.1
2024/05/10 10:14:26.000   28.447945274  -16.419758729   949.1539   2   7   0.0182   0.0564   0.0716   0.0171  -0.0547  -0.0213  -4.00    1.0
2024/05/10 10:14:27.000   28.447945275  -16.419758723   949.1545   2   7   0.0182   0.0564   0.0716   0.0171  -0.0546  -0.0213  -3.00    1.0
2024/05/10 10:14:28.000   28.447945275  -16.419758717   949.1551   2   7   0.0182   0.0564   0.0716   0.0171  -0.0546  -0.0213  -2.00    1.0
2024/05/10 10:14:29.000   28.447945276  -16.419758711   949.1559   2   7   0.0182   0.0564   0.0716   0.0171  -0.0546  -0.0213  -1.00    1.0
2024/05/10 10:14:30.000   28.447945277  -16.419758703   949.1569   2   8   0.0183   0.0563   0.0716   0.0171  -0.0546  -0.0213   0.00    1.0
2024/05/10 10:14:31.000   28.447945275  -16.419758700   949.1581   2   7   0.0183   0.0563   0.0717   0.0170  -0.0546  -0.0213   1.00    1.0
2024/05/10 10:14:32.000   28.447945275  -16.419758697   949.1591   2   7   0.0183   0.0563   0.0717   0.0170  -0.0545  -0.0213   2.00    1.0
2024/05/10 10:14:33.000   28.447945275  -16.419758692   949.1600   2   7   0.0183   0.0563   0.0717   0.0170  -0.0545  -0.0213   3.00    1.0
2024/05/10 10:14:34.000   28.447945275  -16.419758688   949.1607   2   7   0.0183   0.0563   0.0717   0.0170  -0.0545  -0.0213   4.00    1.0
2024/05/10 10:14:35.000   28.447945275  -16.419758684   949.1613   2   7   0.0183   0.0562   0.0717   0.0170  -0.0545  -0.0213   5.00    1.0
2024/05/10 10:14:36.000   28.447945274  -16.419758678   949.1615   2   7   0.0183   0.0562   0.0717   0.0170  -0.0545  -0.0213   6.00    1.0
2024/05/10 10:14:37.000   28.447945273  -16.419758675   949.1619   2   7   0.0183   0.0562   0.0717   0.0170  -0.0545  -0.0213   7.00    1.1
2024/05/10 10:14:38.000   28.447945273  -16.419758672   949.1622   2   7   0.0184   0.0562   0.0717   0.0170  -0.0544  -0.0213   8.00    1.1
2024/05/10 10:14:39.000   28.447945273  -16.419758668   949.1622   2   7   0.0184   0.0562   0.0717   0.0170  -0.0544  -0.0213   9.00    1.0
2024/05/10 10:14:40.000   28.447945273  -16.419758665   949.1624   2   7   0.0184   0.0562   0.0717   0.0170  -0.0544  -0.0213  10.00    1.0
2024/05/10 10:14:41.000   28.447945273  -16.419758661   949.1624   2   7   0.0184   0.0561   0.0717   0.0170  -0.0544  -0.0213  11.00    1.0
2024/05/10 10:14:42.000   28.447945273  -16.419758658   949.1626   2   7   0.0184   0.0561   0.0717   0.0170  -0.0544  -0.0213  12.00    1.0
2024/05/10 10:14:43.000   28.447945273  -16.419758655   949.1626   2   7   0.0184   0.0561   0.0717   0.0170  -0.0543  -0.0213  13.00    1.0
2024/05/10 10:14:44.000   28.447945273  -16.419758653   949.1626   2   7   0.0184   0.0561   0.0717   0.0170  -0.0543  -0.0213  14.00    1.1
2024/05/10 10:14:45.000   28.447945273  -16.419758650   949.1626   2   7   0.0184   0.0561   0.0717   0.0170  -0.0543  -0.0213 -15.00    1.1
2024/05/10 10:14:46.000   28.447945273  -16.419758649   949.1627   2   7   0.0184   0.0561   0.0717   0.0169  -0.0543  -0.0213 -14.00    1.0
2024/05/10 10:14:47.000   28.447945273  -16.419758647   949.1628   2   7   0.0184   0.0560   0.0717   0.0169  -0.0543  -0.0213 -13.00    1.0
2024/05/10 10:14:48.000   28.447945273  -16.419758646   949.1629   2   7   0.0184   0.0560   0.0717   0.0169  -0.0543  -0.0212 -12.00    1.0
2024/05/10 10:14:49.000   28.447945273  -16.419758644   949.1630   2   7   0.0184   0.0560   0.0717   0.0169  -0.0542  -0.0212 -11.00    1.0
2024/05/10 10:14:50.000   28.447945273  -16.419758642   949.1634   2   7   0.0184   0.0560   0.0716   0.0169  -0.0542  -0.0212 -10.00    1.0
2024/05/10 10:14:51.000   28.447945273  -16.419758640   949.1637   2   7   0.0184   0.0560   0.0716   0.0169  -0.0542  -0.0212  -9.00    1.1
2024/05/10 10:14:52.000   28.447945273  -16.419758638   949.1641   2   7   0.0184   0.0560   0.0716   0.0169  -0.0542  -0.0212  -8.00    1.1
2024/05/10 10:14:53.000   28.447945273  -16.419758636   949.1647   2   7   0.0184   0.0559   0.0716   0.0169  -0.0542  -0.0212  -7.00    1.0
2024/05/10 10:14:54.000   28.447945273  -16.419758634   949.1654   2   7   0.0184   0.0559   0.0716   0.0169  -0.0541  -0.0212  -6.00    1.0
2024/05/10 10:14:55.000   28.447945272  -16.419758631   949.1659   2   7   0.0184   0.0559   0.0716   0.0169  -0.0541  -0.0212  -5.00    1.0
2024/05/10 10:14:56.000   28.447945271  -16.419758630   949.1666   2   7   0.0184   0.0559   0.0716   0.0169  -0.0541  -0.0212  -4.00    1.0
2024/05/10 10:14:57.000   28.447945271  -16.419758628   949.1677   2   7   0.0184   0.0559   0.0716   0.0169  -0.0541  -0.0212  -3.00    1.0
2024/05/10 10:14:58.000   28.447945271  -16.419758627   949.1690   2   7   0.0184   0.0559   0.0716   0.0169  -0.0541  -0.0212  -2.00    1.2
2024/05/10 10:14:59.000   28.447945270  -16.419758626   949.1703   2   7   0.0184   0.0558   0.0717   0.0169  -0.0541  -0.0212  -1.00    1.0
2024/05/10 10:15:00.000   28.447945269  -16.419758624   949.1718   2   8   0.0184   0.0558   0.0717   0.0169  -0.0540  -0.0212   0.00    1.0
2024/05/10 10:15:01.000   28.447945266  -16.419758625   949.1737   2   7   0.0185   0.0558   0.0717   0.0169  -0.0540  -0.0212   1.00    1.0
2024/05/10 10:15:02.000   28.447945264  -16.419758623   949.1755   2   7   0.0185   0.0558   0.0717   0.0169  -0.0540  -0.0212   2.00    1.0
2024/05/10 10:15:03.000   28.447945263  -16.419758622   949.1768   2   7   0.0185   0.0558   0.0717   0.0168  -0.0540  -0.0212   3.00    1.0
2024/05/10 10:15:04.000   28.447945261  -16.419758621   949.1775   2   7   0.0185   0.0558   0.0717   0.0168  -0.0540  -0.0212   4.00    1.0
2024/05/10 10:15:05.000   28.447945260  -16.419758620   949.1781   2   7   0.0185   0.0558   0.0717   0.0168  -0.0540  -0.0212   5.00    1.1
2024/05/10 10:15:06.000   28.447945259  -16.419758619   949.1788   2   7   0.0185   0.0557   0.0717   0.0168  -0.0539  -0.0212   6.00    1.0
2024/05/10 10:15:07.000   28.447945258  -16.419758617   949.1793   2   7   0.0185   0.0557   0.0717   0.0168  -0.0539  -0.0212   7.00    1.0
2024/05/10 10:15:08.000   28.447945258  -16.419758615   949.1797   2   7   0.0185   0.0557   0.0717   0.0168  -0.0539  -0.0212   8.00    1.0
2024/05/10 10:15:09.000   28.447945258  -16.419758613   949.1799   2   7   0.0185   0.0557   0.0717   0.0168  -0.0539  -0.0212   9.00    1.0
2024/05/10 10:15:10.000   28.447945258  -16.419758611   949.1800   2   7   0.0185   0.0557   0.0717   0.0168  -0.0539  -0.0212  10.00    1.0
2024/05/10 10:15:11.000   28.447945258  -16.419758610   949.1801   2   7   0.0185   0.0557   0.0717   0.0168  -0.0539  -0.0212  11.00    1.0
2024/05/10 10:15:12.000   28.447945257  -16.419758608   949.1801   2   7   0.0185   0.0556   0.0717   0.0168  -0.0538  -0.0212  12.00    1.2
2024/05/10 10:15:13.000   28.447945257  -16.419758606   949.1801   2   7   0.0185   0.0556   0.0717   0.0168  -0.0538  -0.0212  13.00    1.0
2024/05/10 10:15:14.000   28.447945257  -16.419758604   949.1801   2   7   0.0185   0.0556   0.0717   0.0168  -0.0538  -0.0212  14.00    1.0
2024/05/10 10:15:15.000   28.447945257  -16.419758602   949.1801   2   7   0.0185   0.0556   0.0717   0.0168  -0.0538  -0.0212 -15.00    1.0
2024/05/10 10:15:16.000   28.447945257  -16.419758600   949.1800   2   7   0.0185   0.0556   0.0717   0.0168  -0.0538  -0.0212 -14.00    1.1
2024/05/10 10:15:17.000   28.447945257  -16.419758599   949.1800   2   7   0.0185   0.0556   0.0717   0.0168  -0.0538  -0.0212 -13.00    1.0
2024/05/10 10:15:18.000   28.447945257  -16.419758597   949.1799   2   7   0.0185   0.0556   0.0717   0.0168  -0.0538  -0.0212 -12.00    1.0
2024/05/10 10:15:19.000   28.447945257  -16.419758595   949.1798   2   7   0.0185   0.0555   0.0717   0.0168  -0.0537  -0.0212 -11.00    1.1
2024/05/10 10:15:20.000   28.447945257  -16.419758593   949.1797   2   7   0.0186   0.0555   0.0717   0.0168  -0.0537  -0.0211 -10.00    1.0
2024/05/10 10:15:21.000   28.447945257  -16.419758590   949.1797   2   7   0.0186   0.0555   0.0717   0.0167  -0.0537  -0.0211  -9.00    1.0
2024/05/10 10:15:22.000   28.447945257  -16.419758586   949.1798   2   7   0.0186   0.0555   0.0717   0.0167  -0.0537  -0.0211  -8.00    1.0
2024/05/10 10:15:23.000   28.447945257  -16.419758583   949.1798   2   7   0.0186   0.0555   0.0717   0.0167  -0.0537  -0.0211  -7.00    1.1
2024/05/10 10:15:24.000   28.447945258  -16.419758579   949.1798   2   7   0.0186   0.0555   0.0717   0.0167  -0.0537  -0.0211  -6.00    1.0
2024/05/10 10:15:25.000   28.447945258  -16.419758575   949.1800   2   7   0.0186   0.0554   0.0717   0.0167  -0.0536  -0.0211  -5.00    1.0
2024/05/10 10:15:26.000   28.447945258  -16.419758571   949.1801   2   7   0.0186   0.0554   0.0717   0.0167  -0.0536  -0.0211  -4.00    1.1
2024/05/10 10:15:27.000   28.447945258  -16.419758569   949.1804   2   7   0.0186   0.0554   0.0717   0.0167  -0.0536  -0.0211  -3.00    1.0
2024/05/10 10:15:28.000   28.447945258  -16.419758565   949.1808   2   7   0.0186   0.0554   0.0717   0.0167  -0.0536  -0.0211  -2.00    1.0
2024/05/10 10:15:29.000   28.447945258  -16.419758561   949.1809   2   7   0.0186   0.0554   0.0717   0.0167  -0.0536  -0.0211  -1.00    1.0
2024/05/10 10:15:30.000   28.447945258  -16.419758558   949.1812   2   7   0.0186   0.0554   0.0717   0.0167  -0.0536  -0.0211   0.00    1.1
2024/05/10 10:15:31.000   28.447945259  -16.419758554   949.1815   2   7   0.0186   0.0554   0.0717   0.0167  -0.0536  -0.0211   1.00    1.0
2024/05/10 10:15:32.000   28.447945259  -16.419758551   949.1818   2   7   0.0186   0.0554   0.0717   0.0167  -0.0535  -0.0211   2.00    1.0
2024/05/10 10:15:33.000   28.447945258  -16.419758547   949.1818   2   7   0.0187   0.0554   0.0718   0.0167  -0.0535  -0.0211   3.00    1.1
2024/05/10 10:15:34.000   28.447945257  -16.419758544   949.1818   2   7   0.0187   0.0553   0.0718   0.0167  -0.0535  -0.0211   4.00    1.0
2024/05/10 10:15:35.000   28.447945257  -16.419758541   949.1818   2   7   0.0187   0.0553   0.0718   0.0167  -0.0535  -0.0211   5.00    1.0
2024/05/10 10:15:36.000   28.447945256  -16.419758539   949.1821   2   7   0.0187   0.0553   0.0718   0.0167  -0.0535  -0.0211   6.00    1.0
2024/05/10 10:15:37.000   28.447945256  -16.419758536   949.1821   2   7   0.0187   0.0553   0.0718   0.0167  -0.0535  -0.0211   7.00    1.1
2024/05/10 10:15:38.000   28.447945255  -16.419758534   949.1821   2   7   0.0187   0.0553   0.0718   0.0167  -0.0535  -0.0211   8.00    1.1
2024/05/10 10:15:39.000   28.447945254  -16.419758534   949.1821   2   7   0.0187   0.0553   0.0718   0.0167  -0.0535  -0.0211   9.00    1.0
2024/05/10 10:15:40.000   28.447945254  -16.419758532   949.1820   2   7   0.0187   0.0553   0.0718   0.0167  -0.0535  -0.0211  10.00    1.1
2024/05/10 10:15:41.000   28.447945254  -16.419758530   949.1819   2   7   0.0187   0.0553   0.0718   0.0167  -0.0535  -0.0211  11.00    1.0
2024/05/10 10:15:42.000   28.447945253  -16.419758528   949.1818   2   7   0.0187   0.0553   0.0718   0.0166  -0.0535  -0.0211  12.00    1.1
2024/05/10 10:15:43.000   28.447945253  -16.419758526   949.1817   2   7   0.0187   0.0553   0.0718   0.0166  -0.0534  -0.0211  13.00    1.0
2024/05/10 10:15:44.000   28.447945253  -16.419758523   949.1815   2   7   0.0187   0.0553   0.0718   0.0166  -0.0534  -0.0211  14.00    1.1
2024/05/10 10:15:45.000   28.447945253  -16.419758521   949.1814   2   7   0.0187   0.0553   0.0718   0.0166  -0.0534  -0.0211 -15.00    1.1
2024/05/10 10:15:46.000   28.447945253  -16.419758519   949.1812   2   7   0.0187   0.0553   0.0718   0.0166  -0.0534  -0.0211 -14.00    1.1
2024/05/10 10:15:47.000   28.447945252  -16.419758517   949.1811   2   7   0.0187   0.0552   0.0718   0.0166  -0.0534  -0.0211 -13.00    1.1
2024/05/10 10:15:48.000   28.447945252  -16.419758516   949.1811   2   7   0.0187   0.0552   0.0718   0.0166  -0.0534  -0.0211 -12.00    1.0
2024/05/10 10:15:49.000   28.447945252  -16.419758515   949.1811   2   7   0.0187   0.0552   0.0718   0.0166  -0.0534  -0.0211 -11.00    1.1
2024/05/10 10:15:50.000   28.447945252  -16.419758514   949.1810   2   7   0.0187   0.0552   0.0718   0.0166  -0.0534  -0.0211 -10.00    1.0
2024/05/10 10:15:51.000   28.447945251  -16.419758512   949.1809   2   7   0.0187   0.0552   0.0718   0.0166  -0.0534  -0.0211  -9.00    1.1
2024/05/10 10:15:52.000   28.447945251  -16.419758512   949.1809   2   7   0.0187   0.0552   0.0718   0.0166  -0.0534  -0.0211  -8.00    1.1
2024/05/10 10:15:53.000   28.447945251  -16.419758512   949.1808   2   7   0.0187   0.0552   0.0718   0.0166  -0.0534  -0.0211  -7.00    1.1
2024/05/10 10:15:54.000   28.447945250  -16.419758511   949.1807   2   7   0.0187   0.0552   0.0718   0.0166  -0.0534  -0.0211  -6.00    1.1
2024/05/10 10:15:55.000   28.447945249  -16.419758511   949.1808   2   7   0.0187   0.0552   0.0718   0.0166  -0.0533  -0.0211  -5.00    1.0
2024/05/10 10:15:56.000   28.447945248  -16.419758510   949.1806   2   7   0.0187   0.0552   0.0718   0.0166  -0.0533  -0.0211  -4.00    1.1
2024/05/10 10:15:57.000   28.447945246  -16.419758510   949.1805   2   7   0.0187   0.0552   0.0718   0.0166  -0.0533  -0.0211  -3.00    1.0
2024/05/10 10:15:58.000   28.447945243  -16.419758509   949.1804   2   7   0.0187   0.0552   0.0718   0.0166  -0.0533  -0.0211  -2.00    1.1
2024/05/10 10:15:59.000   28.447945240  -16.419758509   949.1803   2   7   0.0187   0.0552   0.0718   0.0166  -0.0533  -0.0211  -1.00    1.1
2024/05/10 10:16:00.000   28.447945237  -16.419758510   949.1806   2   7   0.0188   0.0552   0.0718   0.0166  -0.0533  -0.0211   0.00    1.1
2024/05/10 10:16:01.000   28.447945236  -16.419758509   949.1806   2   7   0.0188   0.0551   0.0718   0.0166  -0.0533  -0.0211   1.00    1.0
2024/05/10 10:16:02.000   28.447945235  -16.419758508   949.1805   2   7   0.0188   0.0551   0.0718   0.0166  -0.0533  -0.0211   2.00    1.0
2024/05/10 10:16:03.000   28.447945234  -16.419758507   949.1804   2   7   0.0188   0.0551   0.0719   0.0166  -0.0533  -0.0211   3.00    1.1
2024/05/10 10:16:04.000   28.447945233  -16.419758506   949.1802   2   7   0.0188   0.0551   0.0719   0.0166  -0.0533  -0.0211   4.00    1.0
2024/05/10 10:16:05.000   28.447945232  -16.419758505   949.1800   2   7   0.0188   0.0551   0.0719   0.0166  -0.0532  -0.0211   5.00    1.1
2024/05/10 10:16:06.000   28.447945232  -16.419758503   949.1799   2   7   0.0188   0.0551   0.0719   0.0166  -0.0532  -0.0211   6.00    1.1
2024/05/10 10:16:07.000   28.447945231  -16.419758501   949.1796   2   7   0.0188   0.0551   0.0719   0.0166  -0.0532  -0.0210   7.00    1.0
2024/05/10 10:16:08.000   28.447945231  -16.419758498   949.1795   2   7   0.0188   0.0551   0.0719   0.0166  -0.0532  -0.0210   8.00    1.0
2024/05/10 10:16:09.000   28.447945231  -16.419758497   949.1793   2   7   0.0188   0.0550   0.0719   0.0165  -0.0532  -0.0210   9.00    1.0
2024/05/10 10:16:10.000   28.447945232  -16.419758493   949.1788   2   7   0.0188   0.0550   0.0719   0.0165  -0.0532  -0.0210  10.00    1.0
2024/05/10 10:16:11.000   28.447945232  -16.419758490   949.1783   2   7   0.0188   0.0550   0.0719   0.0165  -0.0532  -0.0210  11.00    1.0
2024/05/10 10:16:12.000   28.447945233  -16.419758487   949.1778   2   7   0.0188   0.0550   0.0719   0.0165  -0.0531  -0.0210  12.00    1.1
2024/05/10 10:16:13.000   28.447945233  -16.419758484   949.1774   2   7   0.0188   0.0550   0.0718   0.0165  -0.0531  -0.0210  13.00    1.1
2024/05/10 10:16:14.000   28.447945234  -16.419758483   949.1771   2   7   0.0188   0.0550   0.0718   0.0165  -0.0531  -0.0210  14.00    1.0
2024/05/10 10:16:15.000   28.447945234  -16.419758481   949.1767   2   7   0.0188   0.0550   0.0718   0.0165  -0.0531  -0.0210 -15.00    1.0
2024/05/10 10:16:16.000   28.447945234  -16.419758479   949.1764   2   7   0.0188   0.0550   0.0718   0.0165  -0.0531  -0.0210 -14.00    1.0
2024/05/10 10:16:17.000   28.447945234  -16.419758475   949.1758   2   7   0.0188   0.0550   0.0718   0.0165  -0.0531  -0.0210 -13.00    1.0
2024/05/10 10:16:18.000   28.447945234  -16.419758474   949.1756   2   7   0.0188   0.0549   0.0718   0.0165  -0.0531  -0.0210 -12.00    1.0
2024/05/10 10:16:19.000   28.447945235  -16.419758471   949.1750   2   7   0.0188   0.0549   0.0718   0.0165  -0.0531  -0.0210 -11.00    1.1
2024/05/10 10:16:20.000   28.447945235  -16.419758467   949.1743   2   7   0.0188   0.0549   0.0718   0.0165  -0.0530  -0.0210 -10.00    1.1
2024/05/10 10:16:21.000   28.447945235  -16.419758465   949.1736   2   7   0.0188   0.0549   0.0718   0.0165  -0.0530  -0.0210  -9.00    1.1
2024/05/10 10:16:22.000   28.447945235  -16.419758463   949.1728   2   7   0.0188   0.0549   0.0718   0.0165  -0.0530  -0.0210  -8.00    1.1
2024/05/10 10:16:23.000   28.447945236  -16.419758461   949.1721   2   7   0.0188   0.0549   0.0718   0.0165  -0.0530  -0.0210  -7.00    1.0
2024/05/10 10:16:24.000   28.447945236  -16.419758458   949.1714   2   7   0.0188   0.0549   0.0718   0.0165  -0.0530  -0.0210  -6.00    1.0
2024/05/10 10:16:25.000   28.447945236  -16.419758455   949.1705   2   7   0.0188   0.0549   0.0718   0.0165  -0.0530  -0.0210  -5.00    1.1
2024/05/10 10:16:26.000   28.447945235  -16.419758453   949.1698   2   7   0.0188   0.0548   0.0718   0.0165  -0.0530  -0.0210  -4.00    1.1
2024/05/10 10:16:27.000   28.447945235  -16.419758451   949.1688   2   7   0.0189   0.0548   0.0718   0.0165  -0.0530  -0.0210  -3.00    1.0
2024/05/10 10:16:28.000   28.447945234  -16.419758449   949.1678   2   7   0.0189   0.0548   0.0718   0.0165  -0.0530  -0.0210  -2.00    1.0
2024/05/10 10:16:29.000   28.447945233  -16.419758449   949.1672   2   7   0.0189   0.0548   0.0718   0.0165  -0.0529  -0.0210  -1.00    1.1
2024/05/10 10:16:30.000   28.447945234  -16.419758448   949.1662   2   7   0.0189   0.0548   0.0718   0.0165  -0.0529  -0.0210   0.00    1.0
2024/05/10 10:16:31.000   28.447945233  -16.419758447   949.1655   2   7   0.0189   0.0548   0.0718   0.0165  -0.0529  -0.0210   1.00    1.1
2024/05/10 10:16:32.000   28.447945232  -16.419758446   949.1650   2   7   0.0189   0.0548   0.0718   0.0165  -0.0529  -0.0210   2.00    1.1
2024/05/10 10:16:33.000   28.447945233  -16.419758444   949.1645   2   7   0.0189   0.0548   0.0718   0.0165  -0.0529  -0.0210   3.00    1.0
2024/05/10 10:16:34.000   28.447945233  -16.419758442   949.1640   2   7   0.0189   0.0548   0.0718   0.0164  -0.0529  -0.0210   4.00    1.0
2024/05/10 10:16:35.000   28.447945233  -16.419758440   949.1635   2   7   0.0189   0.0548   0.0718   0.0164  -0.0529  -0.0210   5.00    1.0
2024/05/10 10:16:36.000   28.447945233  -16.419758437   949.1630   2   7   0.0189   0.0547   0.0718   0.0164  -0.0529  -0.0210   6.00    1.2
2024/05/10 10:16:37.000   28.447945234  -16.419758436   949.1627   2   7   0.0189   0.0547   0.0718   0.0164  -0.0528  -0.0210   7.00    1.2
2024/05/10 10:16:38.000   28.447945234  -16.419758435   949.1625   2   7   0.0189   0.0547   0.0718   0.0164  -0.0528  -0.0210   8.00    1.0
2024/05/10 10:16:39.000   28.447945234  -16.419758432   949.1621   2   7   0.0189   0.0547   0.0718   0.0164  -0.0528  -0.0210   9.00    1.1
2024/05/10 10:16:40.000   28.447945234  -16.419758432   949.1620   2   7   0.0189   0.0547   0.0718   0.0164  -0.0528  -0.0210  10.00    1.0
2024/05/10 10:16:41.000   28.447945234  -16.419758430   949.1618   2   7   0.0189   0.0547   0.0718   0.0164  -0.0528  -0.0210  11.00    1.0
2024/05/10 10:16:42.000   28.447945234  -16.419758428   949.1617   2   7   0.0189   0.0547   0.0718   0.0164  -0.0528  -0.0210  12.00    1.0
2024/05/10 10:16:43.000   28.447945234  -16.419758426   949.1617   2   7   0.0189   0.0547   0.0718   0.0164  -0.0528  -0.0210  13.00    1.2
2024/05/10 10:16:44.000   28.447945234  -16.419758425   949.1616   2   7   0.0189   0.0547   0.0718   0.0164  -0.0528  -0.0210  14.00    1.1
2024/05/10 10:16:45.000   28.447945234  -16.419758423   949.1615   2   7   0.0189   0.0546   0.0718   0.0164  -0.0528  -0.0210 -15.00    1.0
2024/05/10 10:16:46.000   28.447945235  -16.419758420   949.1612   2   7   0.0189   0.0546   0.0718   0.0164  -0.0527  -0.0210 -14.00    1.1
2024/05/10 10:16:47.000   28.447945235  -16.419758417   949.1611   2   7   0.0189   0.0546   0.0718   0.0164  -0.0527  -0.0209 -13.00    1.1
2024/05/10 10:16:48.000   28.447945236  -16.419758414   949.1609   2   7   0.0189   0.0546   0.0718   0.0164  -0.0527  -0.0209 -12.00    1.0
2024/05/10 10:16:49.000   28.447945236  -16.419758412   949.1609   2   7   0.0189   0.0546   0.0718   0.0164  -0.0527  -0.0209 -11.00    1.0
2024/05/10 10:16:50.000   28.447945236  -16.419758410   949.1608   2   7   0.0189   0.0546   0.0718   0.0164  -0.0527  -0.0209 -10.00    1.2
2024/05/10 10:16:51.000   28.447945237  -16.419758407   949.1607   2   7   0.0189   0.0546   0.0718   0.0164  -0.0527  -0.0209  -9.00    1.1
2024/05/10 10:16:52.000   28.447945237  -16.419758404   949.1606   2   7   0.0189   0.0546   0.0718   0.0164  -0.0527  -0.0209  -8.00    1.0
2024/05/10 10:16:53.000   28.447945238  -16.419758401   949.1606   2   7   0.0189   0.0546   0.0717   0.0164  -0.0527  -0.0209  -7.00    1.1
2024/05/10 10:16:54.000   28.447945239  -16.419758399   949.1605   2   7   0.0189   0.0546   0.0717   0.0164  -0.0527  -0.0209  -6.00    1.1
2024/05/10 10:16:55.000   28.447945240  -16.419758396   949.1603   2   7   0.0189   0.0545   0.0717   0.0164  -0.0526  -0.0209  -5.00    1.0
2024/05/10 10:16:56.000   28.447945242  -16.419758394   949.1600   2   7   0.0189   0.0545   0.0717   0.0164  -0.0526  -0.0209  -4.00    1.0
2024/05/10 10:16:57.000   28.447945244  -16.419758391   949.1595   2   7   0.0189   0.0545   0.0717   0.0164  -0.0526  -0.0209  -3.00    1.1
2024/05/10 10:16:58.000   28.447945247  -16.419758390   949.1590   2   7   0.0189   0.0545   0.0717   0.0164  -0.0526  -0.0209  -2.00    1.0
2024/05/10 10:16:59.000   28.447945250  -16.419758389   949.1587   2   7   0.0190   0.0545   0.0717   0.0164  -0.0526  -0.0209  -1.00    1.1
2024/05/10 10:17:00.000   28.447945253  -16.419758387   949.1583   2   7   0.0190   0.0545   0.0717   0.0164  -0.0526  -0.0209   0.00    1.1
2024/05/10 10:17:01.000   28.447945256  -16.419758385   949.1578   2   7   0.0190   0.0545   0.0717   0.0164  -0.0526  -0.0209   1.00    1.0
2024/05/10 10:17:02.000   28.447945258  -16.419758384   949.1574   2   7   0.0190   0.0545   0.0717   0.0163  -0.0526  -0.0209   2.00    1.1
2024/05/10 10:17:03.000   28.447945260  -16.419758383   949.1566   2   7   0.0190   0.0545   0.0717   0.0163  -0.0526  -0.0209   3.00    1.0
2024/05/10 10:17:04.000   28.447945261  -16.419758382   949.1558   2   7   0.0190   0.0545   0.0717   0.0163  -0.0526  -0.0209   4.00    1.2
2024/05/10 10:17:05.000   28.447945261  -16.419758380   949.1552   2   7   0.0190   0.0545   0.0718   0.0163  -0.0525  -0.0209   5.00    1.1
2024/05/10 10:17:06.000   28.447945262  -16.419758378   949.1546   2   7   0.0190   0.0544   0.0717   0.0163  -0.0525  -0.0209   6.00    1.0
2024/05/10 10:17:07.000   28.447945263  -16.419758378   949.1541   2   7   0.0190   0.0544   0.0717   0.0163  -0.0525  -0.0209   7.00    1.1
2024/05/10 10:17:08.000   28.447945263  -16.419758376   949.1535   2   7   0.0190   0.0544   0.0717   0.0163  -0.0525  -0.0209   8.00    1.0
2024/05/10 10:17:09.000   28.447945264  -16.419758375   949.1528   2   7   0.0190   0.0544   0.0717   0.0163  -0.0525  -0.0209   9.00    1.1
2024/05/10 10:17:10.000   28.447945265  -16.419758374   949.1524   2   7   0.0190   0.0544   0.0717   0.0163  -0.0525  -0.0209  10.00    1.0
2024/05/10 10:17:11.000   28.447945266  -16.419758373   949.1519   2   7   0.0190   0.0544   0.0717   0.0163  -0.0525  -0.0209  11.00    1.1
2024/05/10 10:17:12.000   28.447945266  -16.419758373   949.1515   2   7   0.0190   0.0544   0.0717   0.0163  -0.0525  -0.0209  12.00    1.1
2024/05/10 10:17:13.000   28.447945267  -16.419758372   949.1511   2   7   0.0190   0.0544   0.0717   0.0163  -0.0525  -0.0209  13.00    1.0
2024/05/10 10:17:14.000   28.447945268  -16.419758371   949.1509   2   7   0.0190   0.0544   0.0717   0.0163  -0.0525  -0.0209  14.00    1.1
2024/05/10 10:17:15.000   28.447945268  -16.419758370   949.1506   2   7   0.0190   0.0544   0.0717   0.0163  -0.0524  -0.0209 -15.00    1.0
2024/05/10 10:17:16.000   28.447945269  -16.419758369   949.1504   2   7   0.0190   0.0544   0.0717   0.0163  -0.0524  -0.0209 -14.00    1.1
2024/05/10 10:17:17.000   28.447945269  -16.419758367   949.1500   2   7   0.0190   0.0543   0.0717   0.0163  -0.0524  -0.0209 -13.00    1.1
2024/05/10 10:17:18.000   28.447945270  -16.419758366   949.1496   2   7   0.0190   0.0543   0.0717   0.0163  -0.0524  -0.0209 -12.00    1.1
2024/05/10 10:17:19.000   28.447945270  -16.419758365   949.1493   2   7   0.0190   0.0543   0.0717   0.0163  -0.0524  -0.0209 -11.00    1.1
2024/05/10 10:17:20.000   28.447945271  -16.419758364   949.1488   2   7   0.0190   0.0543   0.0717   0.0163  -0.0524  -0.0209 -10.00    1.0
2024/05/10 10:17:21.000   28.447945272  -16.419758363   949.1484   2   7   0.0190   0.0543   0.0717   0.0163  -0.0524  -0.0209  -9.00    1.1
2024/05/10 10:17:22.000   28.447945273  -16.419758362   949.1480   2   7   0.0190   0.0543   0.0717   0.0163  -0.0524  -0.0209  -8.00    1.0
2024/05/10 10:17:23.000   28.447945273  -16.419758361   949.1477   2   7   0.0190   0.0543   0.0717   0.0163  -0.0524  -0.0209  -7.00    1.1
2024/05/10 10:17:24.000   28.447945274  -16.419758361   949.1474   2   7   0.0190   0.0543   0.0717   0.0163  -0.0524  -0.0209  -6.00    1.1
2024/05/10 10:17:25.000   28.447945275  -16.419758359   949.1469   2   7   0.0190   0.0543   0.0716   0.0163  -0.0523  -0.0209  -5.00    1.1
2024/05/10 10:17:26.000   28.447945275  -16.419758358   949.1463   2   7   0.0190   0.0543   0.0716   0.0163  -0.0523  -0.0209  -4.00    1.0
2024/05/10 10:17:27.000   28.447945277  -16.419758356   949.1458   2   7   0.0190   0.0543   0.0716   0.0163  -0.0523  -0.0209  -3.00    1.1
2024/05/10 10:17:28.000   28.447945278  -16.419758354   949.1453   2   7   0.0190   0.0542   0.0716   0.0163  -0.0523  -0.0208  -2.00    1.1
2024/05/10 10:17:29.000   28.447945280  -16.419758351   949.1445   2   7   0.0190   0.0542   0.0716   0.0163  -0.0523  -0.0208  -1.00    1.0
2024/05/10 10:17:30.000   28.447945281  -16.419758349   949.1438   2   7   0.0190   0.0542   0.0716   0.0163  -0.0523  -0.0208   0.00    1.1
2024/05/10 10:17:31.000   28.447945282  -16.419758345   949.1425   2   7   0.0190   0.0542   0.0716   0.0163  -0.0523  -0.0208   1.00    1.0
2024/05/10 10:17:32.000   28.447945283  -16.419758342   949.1411   2   7   0.0190   0.0542   0.0716   0.0162  -0.0523  -0.0208   2.00    1.1
2024/05/10 10:17:33.000   28.447945283  -16.419758339   949.1402   2   7   0.0190   0.0542   0.0716   0.0162  -0.0523  -0.0208   3.00    1.1
2024/05/10 10:17:34.000   28.447945283  -16.419758335   949.1393   2   7   0.0190   0.0542   0.0716   0.0162  -0.0522  -0.0208   4.00    1.0
2024/05/10 10:17:35.000   28.447945283  -16.419758333   949.1385   2   7   0.0190   0.0542   0.0716   0.0162  -0.0522  -0.0208   5.00    1.1
2024/05/10 10:17:36.000   28.447945284  -16.419758331   949.1378   2   7   0.0190   0.0541   0.0716   0.0162  -0.0522  -0.0208   6.00    1.0
2024/05/10 10:17:37.000   28.447945284  -16.419758328   949.1372   2   7   0.0190   0.0541   0.0716   0.0162  -0.0522  -0.0208   7.00    1.1
2024/05/10 10:17:38.000   28.447945285  -16.419758325   949.1369   2   7   0.0190   0.0541   0.0716   0.0162  -0.0522  -0.0208   8.00    1.0
2024/05/10 10:17:39.000   28.447945285  -16.419758323   949.1367   2   7   0.0190   0.0541   0.0716   0.0162  -0.0522  -0.0208   9.00    1.0
2024/05/10 10:17:40.000   28.447945286  -16.419758321   949.1365   2   7   0.0190   0.0541   0.0716   0.0162  -0.0522  -0.0208  10.00    1.0
2024/05/10 10:17:41.000   28.447945286  -16.419758319   949.1362   2   7   0.0190   0.0541   0.0716   0.0162  -0.0521  -0.0208  11.00    1.1
2024/05/10 10:17:42.000   28.447945287  -16.419758316   949.1359   2   7   0.0190   0.0541   0.0715   0.0162  -0.0521  -0.0208  12.00    1.1
2024/05/10 10:17:43.000   28.447945287  -16.419758314   949.1357   2   7   0.0190   0.0540   0.0715   0.0162  -0.0521  -0.0208  13.00    1.0
2024/05/10 10:17:44.000   28.447945287  -16.419758314   949.1356   2   7   0.0190   0.0540   0.0715   0.0162  -0.0521  -0.0208  14.00    1.1
2024/05/10 10:17:45.000   28.447945288  -16.419758312   949.1354   2   7   0.0190   0.0540   0.0715   0.0162  -0.0521  -0.0208 -15.00    1.0
2024/05/10 10:17:46.000   28.447945288  -16.419758312   949.1354   2   7   0.0190   0.0540   0.0715   0.0162  -0.0521  -0.0208 -14.00    1.0
2024/05/10 10:17:47.000   28.447945288  -16.419758308   949.1351   2   7   0.0190   0.0540   0.0715   0.0162  -0.0521  -0.0208 -13.00    1.0
2024/05/10 10:17:48.000   28.447945288  -16.419758305   949.1349   2   7   0.0190   0.0540   0.0715   0.0162  -0.0520  -0.0208 -12.00    1.1
2024/05/10 10:17:49.000   28.447945288  -16.419758303   949.1347   2   7   0.0190   0.0540   0.0715   0.0162  -0.0520  -0.0208 -11.00    1.1
2024/05/10 10:17:50.000   28.447945288  -16.419758301   949.1346   2   7   0.0190   0.0539   0.0715   0.0162  -0.0520  -0.0208 -10.00    1.0
2024/05/10 10:17:51.000   28.447945288  -16.419758297   949.1343   2   7   0.0190   0.0539   0.0715   0.0162  -0.0520  -0.0208  -9.00    1.1
2024/05/10 10:17:52.000   28.447945288  -16.419758295   949.1341   2   7   0.0190   0.0539   0.0714   0.0162  -0.0520  -0.0208  -8.00    1.0
2024/05/10 10:17:53.000   28.447945288  -16.419758293   949.1337   2   7   0.0190   0.0539   0.0714   0.0161  -0.0520  -0.0208  -7.00    1.1
2024/05/10 10:17:54.000   28.447945287  -16.419758289   949.1333   2   7   0.0190   0.0539   0.0714   0.0161  -0.0520  -0.0208  -6.00    1.0
2024/05/10 10:17:55.000   28.447945286  -16.419758287   949.1328   2   7   0.0190   0.0539   0.0714   0.0161  -0.0519  -0.0208  -5.00    1.0
2024/05/10 10:17:56.000   28.447945287  -16.419758285   949.1321   2   7   0.0190   0.0539   0.0714   0.0161  -0.0519  -0.0208  -4.00    1.1
2024/05/10 10:17:57.000   28.447945286  -16.419758282   949.1314   2   7   0.0190   0.0539   0.0714   0.0161  -0.0519  -0.0208  -3.00    1.0
2024/05/10 10:17:58.000   28.447945285  -16.419758280   949.1308   2   7   0.0190   0.0538   0.0714   0.0161  -0.0519  -0.0207  -2.00    1.1
2024/05/10 10:17:59.000   28.447945282  -16.419758278   949.1304   2   7   0.0190   0.0538   0.0714   0.0161  -0.0519  -0.0207  -1.00    1.0
2024/05/10 10:18:00.000   28.447945280  -16.419758277   949.1299   2   7   0.0190   0.0538   0.0713   0.0161  -0.0519  -0.0207   0.00    1.1
2024/05/10 10:18:01.000   28.447945281  -16.419758277   949.1296   2   7   0.0190   0.0538   0.0713   0.0161  -0.0519  -0.0207   1.00    1.0
2024/05/10 10:18:02.000   28.447945281  -16.419758275   949.1293   2   7   0.0190   0.0538   0.0713   0.0161  -0.0519  -0.0207   2.00    1.0
2024/05/10 10:18:03.000   28.447945282  -16.419758273   949.1289   2   7   0.0190   0.0538   0.0713   0.0161  -0.0519  -0.0207   3.00    1.1
2024/05/10 10:18:04.000   28.447945281  -16.419758272   949.1285   2   7   0.0190   0.0538   0.0713   0.0161  -0.0519  -0.0207   4.00    1.0
2024/05/10 10:18:05.000   28.447945280  -16.419758271   949.1280   2   7   0.0190   0.0538   0.0713   0.0161  -0.0519  -0.0207   5.00    1.1
2024/05/10 10:18:06.000   28.447945279  -16.419758271   949.1277   2   7   0.0190   0.0538   0.0713   0.0161  -0.0519  -0.0207   6.00    1.0
2024/05/10 10:18:07.000   28.447945279  -16.419758271   949.1273   2   7   0.0190   0.0538   0.0713   0.0161  -0.0519  -0.0207   7.00    1.1
2024/05/10 10:18:08.000   28.447945279  -16.419758271   949.1270   2   7   0.0190   0.0538   0.0713   0.0161  -0.0519  -0.0207   8.00    1.1
2024/05/10 10:18:09.000   28.447945279  -16.419758272   949.1268   2   7   0.0190   0.0538   0.0713   0.0161  -0.0518  -0.0207   9.00    1.0
2024/05/10 10:18:10.000   28.447945280  -16.419758272   949.1265   2   7   0.0190   0.0538   0.0713   0.0161  -0.0518  -0.0207  10.00    1.1
2024/05/10 10:18:11.000   28.447945280  -16.419758273   949.1262   2   7   0.0190   0.0538   0.0713   0.0161  -0.0518  -0.0207  11.00    1.0
2024/05/10 10:18:12.000   28.447945280  -16.419758273   949.1259   2   7   0.0190   0.0538   0.0713   0.0161  -0.0518  -0.0207  12.00    1.1
2024/05/10 10:18:13.000   28.447945280  -16.419758273   949.1257   2   7   0.0190   0.0538   0.0713   0.0161  -0.0518  -0.0207  13.00    1.0
2024/05/10 10:18:14.000   28.447945280  -16.419758273   949.1254   2   7   0.0190   0.0538   0.0713   0.0161  -0.0518  -0.0207  14.00    1.1
2024/05/10 10:18:15.000   28.447945280  -16.419758272   949.1252   2   7   0.0190   0.0538   0.0713   0.0161  -0.0518  -0.0207 -15.00    1.0
2024/05/10 10:18:16.000   28.447945281  -16.419758272   949.1250   2   7   0.0190   0.0538   0.0713   0.0161  -0.0518  -0.0207 -14.00    1.0
2024/05/10 10:18:17.000   28.447945281  -16.419758272   949.1249   2   7   0.0190   0.0538   0.0713   0.0161  -0.0518  -0.0207 -13.00    1.1
2024/05/10 10:18:18.000   28.447945281  -16.419758271   949.1246   2   7   0.0190   0.0538   0.0713   0.0161  -0.0518  -0.0207 -12.00    1.0
2024/05/10 10:18:19.000   28.447945281  -16.419758271   949.1245   2   7   0.0190   0.0538   0.0713   0.0161  -0.0518  -0.0207 -11.00    1.1
2024/05/10 10:18:20.000   28.447945282  -16.419758270   949.1243   2   7   0.0190   0.0538   0.0713   0.0161  -0.0518  -0.0207 -10.00    1.0
2024/05/10 10:18:21.000   28.447945282  -16.419758271   949.1243   2   7   0.0190   0.0538   0.0713   0.0161  -0.0518  -0.0207  -9.00    1.1
2024/05/10 10:18:22.000   28.447945282  -16.419758271   949.1241   2   7   0.0190   0.0538   0.0713   0.0161  -0.0518  -0.0207  -8.00    1.0
2024/05/10 10:18:23.000   28.447945282  -16.419758270   949.1238   2   7   0.0190   0.0538   0.0713   0.0161  -0.0518  -0.0207  -7.00    1.0
2024/05/10 10:18:24.000   28.447945282  -16.419758270   949.1238   2   7   0.0190   0.0538   0.0713   0.0161  -0.0518  -0.0207  -6.00    1.1
2024/05/10 10:18:25.000   28.447945283  -16.419758270   949.1237   2   7   0.0190   0.0538   0.0713   0.0161  -0.0518  -0.0207  -5.00    1.0
2024/05/10 10:18:26.000   28.447945283  -16.419758268   949.1234   2   7   0.0190   0.0538   0.0713   0.0161  -0.0518  -0.0207  -4.00    1.1
2024/05/10 10:18:27.000   28.447945283  -16.419758265   949.1232   2   7   0.0190   0.0538   0.0713   0.0161  -0.0518  -0.0207  -3.00    1.1
2024/05/10 10:18:28.000   28.447945283  -16.419758263   949.1230   2   7   0.0190   0.0538   0.0712   0.0161  -0.0518  -0.0207  -2.00    1.1
2024/05/10 10:18:29.000   28.447945281  -16.419758261   949.1228   2   7   0.0190   0.0538   0.0712   0.0161  -0.0518  -0.0207  -1.00    1.0
2024/05/10 10:18:30.000   28.447945280  -16.419758258   949.1224   2   7   0.0190   0.0538   0.0712   0.0161  -0.0518  -0.0207   0.00    1.0
