% program   : RTKPOST-EX 2.5.0
% inp file  : C:\Users\SallyHenry\Desktop\Sally Internship\GNSS gravi\DATA\Survey Rover Obs\MI04.24o
% inp file  : C:\Users\SallyHenry\Desktop\Sally Internship\GNSS gravi\DATA\BaseStations\TN02\TN0200ESP_R_20241310000_01D_30S_MO.rnx
% inp file  : C:\Users\SallyHenry\Desktop\Sally Internship\GNSS gravi\DATA\BaseStations\TN02\TN0200ESP_R_20241310000_01D_MN.rnx
% inp file  : C:\Users\SallyHenry\Desktop\Sally Internship\GNSS gravi\DATA\aux_files\Survey\IGS0OPSFIN_20241310000_01D_15M_ORB.SP3
% inp file  : C:\Users\SallyHenry\Desktop\Sally Internship\GNSS gravi\DATA\aux_files\Survey\IGS0OPSFIN_20241310000_01D_30S_CLK.CLK
% obs start : 2024/05/10 11:23:56.0 GPST (week2313 473036.0s)
% obs end   : 2024/05/10 11:39:01.0 GPST (week2313 473941.0s)
% pos mode  : Static
% freqs     : L1+L2/E5b
% solution  : Combined-No Phase Reset
% elev mask : 15.0 deg
% dynamics  : on
% tidecorr  : solid
% ionos opt : Estimate TEC
% tropo opt : Estimate ZTD+Grad
% ephemeris : Precise
% navi sys  : GPS GLONASS Galileo QZSS BDS
% amb res   : Fix and Hold
% amb glo   : Fix and Hold
% amb bds   : on
% val thres : 3.0
% antenna1  :                       ( 0.0000  0.0000  1.8000)
% antenna2  :                       ( 0.0000  0.0000  0.0771)
% ref pos   :  28.418257450  -16.550784480    54.4145
%
% (lat/lon/height=WGS84/ellipsoidal,Q=1:fix,2:float,3:sbas,4:dgps,5:single,6:ppp,ns=# of satellites)
%  GPST                  latitude(deg) longitude(deg)  height(m)   Q  ns   sdn(m)   sde(m)   sdu(m)  sdne(m)  sdeu(m)  sdun(m) age(s)  ratio
2024/05/10 11:23:56.000   28.439650314  -16.430834219   953.9092   2   8   0.0193   0.0254   0.0680   0.0084  -0.0231  -0.0260  -4.00    0.0
2024/05/10 11:23:57.000   28.439650311  -16.430834213   953.9091   2   8   0.0193   0.0254   0.0681   0.0084  -0.0231  -0.0260  -3.00    0.0
2024/05/10 11:23:58.000   28.439650308  -16.430834205   953.9089   2   8   0.0193   0.0254   0.0681   0.0084  -0.0231  -0.0261  -2.00    0.0
2024/05/10 11:23:59.000   28.439650305  -16.430834197   953.9083   2   8   0.0193   0.0255   0.0682   0.0084  -0.0231  -0.0261  -1.00    0.0
2024/05/10 11:24:00.000   28.439650301  -16.430834188   953.9083   2   8   0.0194   0.0255   0.0682   0.0084  -0.0231  -0.0261   0.00    0.0
2024/05/10 11:24:01.000   28.439650296  -16.430834179   953.9086   2   8   0.0194   0.0255   0.0683   0.0085  -0.0231  -0.0262   1.00    0.0
2024/05/10 11:24:02.000   28.439650290  -16.430834172   953.9088   2   8   0.0194   0.0255   0.0684   0.0085  -0.0231  -0.0262   2.00    0.0
2024/05/10 11:24:03.000   28.439650287  -16.430834164   953.9085   2   8   0.0194   0.0255   0.0684   0.0085  -0.0231  -0.0262   3.00    0.0
2024/05/10 11:24:04.000   28.439650284  -16.430834157   953.9081   2   8   0.0195   0.0256   0.0685   0.0085  -0.0232  -0.0262   4.00    0.0
2024/05/10 11:24:05.000   28.439650282  -16.430834151   953.9078   2   8   0.0195   0.0256   0.0685   0.0085  -0.0232  -0.0263   5.00    0.0
2024/05/10 11:24:06.000   28.439650278  -16.430834147   953.9079   2   8   0.0195   0.0256   0.0685   0.0085  -0.0232  -0.0263   6.00    0.0
2024/05/10 11:24:07.000   28.439650277  -16.430834143   953.9080   2   8   0.0195   0.0256   0.0685   0.0085  -0.0232  -0.0263   7.00    0.0
2024/05/10 11:24:08.000   28.439650275  -16.430834140   953.9080   2   8   0.0195   0.0256   0.0686   0.0085  -0.0232  -0.0263   8.00    0.0
2024/05/10 11:24:09.000   28.439650273  -16.430834137   953.9080   2   8   0.0195   0.0256   0.0686   0.0085  -0.0232  -0.0263   9.00    0.0
2024/05/10 11:24:10.000   28.439650271  -16.430834135   953.9080   2   8   0.0195   0.0256   0.0686   0.0085  -0.0232  -0.0263  10.00    0.0
2024/05/10 11:24:11.000   28.439650270  -16.430834134   953.9080   2   8   0.0195   0.0256   0.0686   0.0085  -0.0232  -0.0263  11.00    0.0
2024/05/10 11:24:12.000   28.439650270  -16.430834132   953.9081   2   8   0.0195   0.0256   0.0686   0.0085  -0.0232  -0.0263  12.00    0.0
2024/05/10 11:24:13.000   28.439650269  -16.430834131   953.9081   2   8   0.0195   0.0256   0.0686   0.0085  -0.0232  -0.0263  13.00    0.0
2024/05/10 11:24:14.000   28.439650268  -16.430834130   953.9081   2   8   0.0195   0.0256   0.0686   0.0085  -0.0232  -0.0263  14.00    0.0
2024/05/10 11:24:15.000   28.439650268  -16.430834129   953.9082   2   8   0.0195   0.0256   0.0686   0.0086  -0.0231  -0.0263 -15.00    0.0
2024/05/10 11:24:16.000   28.439650267  -16.430834128   953.9082   2   8   0.0195   0.0256   0.0686   0.0086  -0.0231  -0.0263 -14.00    0.0
2024/05/10 11:24:17.000   28.439650267  -16.430834128   953.9082   2   8   0.0195   0.0256   0.0686   0.0086  -0.0231  -0.0263 -13.00    0.0
2024/05/10 11:24:18.000   28.439650266  -16.430834126   953.9081   2   8   0.0195   0.0256   0.0686   0.0086  -0.0231  -0.0263 -12.00    0.0
2024/05/10 11:24:19.000   28.439650266  -16.430834125   953.9079   2   8   0.0195   0.0256   0.0686   0.0086  -0.0231  -0.0263 -11.00    0.0
2024/05/10 11:24:20.000   28.439650266  -16.430834124   953.9077   2   8   0.0195   0.0256   0.0686   0.0086  -0.0231  -0.0263 -10.00    0.0
2024/05/10 11:24:21.000   28.439650267  -16.430834123   953.9075   2   8   0.0195   0.0256   0.0686   0.0086  -0.0231  -0.0263  -9.00    0.0
2024/05/10 11:24:22.000   28.439650267  -16.430834121   953.9072   2   8   0.0195   0.0256   0.0686   0.0086  -0.0231  -0.0263  -8.00    0.0
2024/05/10 11:24:23.000   28.439650267  -16.430834119   953.9068   2   8   0.0195   0.0256   0.0687   0.0086  -0.0231  -0.0263  -7.00    0.0
2024/05/10 11:24:24.000   28.439650267  -16.430834117   953.9066   2   8   0.0196   0.0256   0.0687   0.0086  -0.0231  -0.0264  -6.00    0.0
2024/05/10 11:24:25.000   28.439650266  -16.430834115   953.9066   2   8   0.0196   0.0256   0.0687   0.0086  -0.0231  -0.0264  -5.00    0.0
2024/05/10 11:24:26.000   28.439650265  -16.430834113   953.9067   2   8   0.0196   0.0256   0.0687   0.0086  -0.0231  -0.0264  -4.00    0.0
2024/05/10 11:24:27.000   28.439650261  -16.430834111   953.9072   2   8   0.0196   0.0256   0.0688   0.0086  -0.0231  -0.0264  -3.00    0.0
2024/05/10 11:24:28.000   28.439650256  -16.430834110   953.9085   2   8   0.0196   0.0256   0.0688   0.0086  -0.0231  -0.0264  -2.00    0.0
2024/05/10 11:24:29.000   28.439650251  -16.430834104   953.9093   2   8   0.0196   0.0257   0.0689   0.0086  -0.0232  -0.0264  -1.00    0.0
2024/05/10 11:24:30.000   28.439650247  -16.430834098   953.9098   2   8   0.0197   0.0257   0.0689   0.0086  -0.0232  -0.0265   0.00    0.0
2024/05/10 11:24:31.000   28.439650244  -16.430834090   953.9105   2   8   0.0197   0.0257   0.0690   0.0087  -0.0232  -0.0265   1.00    0.0
2024/05/10 11:24:32.000   28.439650242  -16.430834083   953.9109   2   8   0.0197   0.0257   0.0691   0.0087  -0.0232  -0.0266   2.00    0.0
2024/05/10 11:24:33.000   28.439650239  -16.430834077   953.9111   2   8   0.0197   0.0257   0.0691   0.0087  -0.0232  -0.0266   3.00    0.0
2024/05/10 11:24:34.000   28.439650235  -16.430834073   953.9119   2   8   0.0197   0.0258   0.0692   0.0087  -0.0232  -0.0266   4.00    0.0
2024/05/10 11:24:35.000   28.439650233  -16.430834068   953.9123   2   8   0.0198   0.0258   0.0692   0.0087  -0.0232  -0.0266   5.00    0.0
2024/05/10 11:24:36.000   28.439650231  -16.430834063   953.9126   2   8   0.0198   0.0258   0.0692   0.0087  -0.0232  -0.0266   6.00    0.0
2024/05/10 11:24:37.000   28.439650229  -16.430834060   953.9129   2   8   0.0198   0.0258   0.0693   0.0087  -0.0232  -0.0267   7.00    0.0
2024/05/10 11:24:38.000   28.439650227  -16.430834057   953.9132   2   8   0.0198   0.0258   0.0693   0.0087  -0.0232  -0.0267   8.00    0.0
2024/05/10 11:24:39.000   28.439650226  -16.430834055   953.9136   2   8   0.0198   0.0258   0.0693   0.0088  -0.0232  -0.0267   9.00    0.0
2024/05/10 11:24:40.000   28.439650225  -16.430834053   953.9139   2   8   0.0198   0.0258   0.0693   0.0088  -0.0232  -0.0267  10.00    0.0
2024/05/10 11:24:41.000   28.439650224  -16.430834051   953.9142   2   8   0.0198   0.0258   0.0693   0.0088  -0.0232  -0.0267  11.00    0.0
2024/05/10 11:24:42.000   28.439650223  -16.430834049   953.9144   2   8   0.0198   0.0258   0.0693   0.0088  -0.0232  -0.0267  12.00    0.0
2024/05/10 11:24:43.000   28.439650223  -16.430834048   953.9146   2   8   0.0198   0.0258   0.0693   0.0088  -0.0232  -0.0267  13.00    0.0
2024/05/10 11:24:44.000   28.439650222  -16.430834047   953.9148   2   8   0.0198   0.0258   0.0693   0.0088  -0.0232  -0.0267  14.00    0.0
2024/05/10 11:24:45.000   28.439650221  -16.430834046   953.9150   2   8   0.0198   0.0258   0.0693   0.0088  -0.0232  -0.0267 -15.00    0.0
2024/05/10 11:24:46.000   28.439650220  -16.430834045   953.9152   2   8   0.0198   0.0258   0.0693   0.0088  -0.0232  -0.0267 -14.00    0.0
2024/05/10 11:24:47.000   28.439650220  -16.430834043   953.9152   2   8   0.0198   0.0258   0.0693   0.0088  -0.0232  -0.0267 -13.00    0.0
2024/05/10 11:24:48.000   28.439650219  -16.430834042   953.9155   2   8   0.0198   0.0258   0.0693   0.0088  -0.0232  -0.0267 -12.00    0.0
2024/05/10 11:24:49.000   28.439650219  -16.430834042   953.9157   2   8   0.0198   0.0258   0.0693   0.0088  -0.0232  -0.0267 -11.00    0.0
2024/05/10 11:24:50.000   28.439650218  -16.430834040   953.9159   2   8   0.0198   0.0258   0.0694   0.0088  -0.0232  -0.0267 -10.00    0.0
2024/05/10 11:24:51.000   28.439650217  -16.430834039   953.9163   2   8   0.0198   0.0258   0.0694   0.0088  -0.0232  -0.0267  -9.00    0.0
2024/05/10 11:24:52.000   28.439650216  -16.430834037   953.9167   2   8   0.0198   0.0258   0.0694   0.0088  -0.0232  -0.0267  -8.00    0.0
2024/05/10 11:24:53.000   28.439650215  -16.430834036   953.9170   2   8   0.0198   0.0258   0.0694   0.0088  -0.0232  -0.0267  -7.00    0.0
2024/05/10 11:24:54.000   28.439650214  -16.430834034   953.9173   2   8   0.0198   0.0258   0.0694   0.0088  -0.0232  -0.0267  -6.00    0.0
2024/05/10 11:24:55.000   28.439650213  -16.430834031   953.9177   2   8   0.0199   0.0258   0.0694   0.0088  -0.0232  -0.0267  -5.00    0.0
2024/05/10 11:24:56.000   28.439650213  -16.430834029   953.9179   2   8   0.0199   0.0258   0.0694   0.0088  -0.0232  -0.0267  -4.00    0.0
2024/05/10 11:24:57.000   28.439650214  -16.430834025   953.9182   2   8   0.0199   0.0258   0.0695   0.0088  -0.0232  -0.0268  -3.00    0.0
2024/05/10 11:24:58.000   28.439650213  -16.430834022   953.9185   2   8   0.0199   0.0258   0.0695   0.0088  -0.0232  -0.0268  -2.00    0.0
2024/05/10 11:24:59.000   28.439650214  -16.430834021   953.9187   2   8   0.0199   0.0259   0.0696   0.0088  -0.0232  -0.0268  -1.00    0.0
2024/05/10 11:25:00.000   28.439650213  -16.430834020   953.9195   2   8   0.0199   0.0259   0.0696   0.0089  -0.0232  -0.0268   0.00    0.0
2024/05/10 11:25:01.000   28.439650212  -16.430834017   953.9202   2   8   0.0200   0.0259   0.0697   0.0089  -0.0233  -0.0269   1.00    0.0
2024/05/10 11:25:02.000   28.439650212  -16.430834014   953.9206   2   8   0.0200   0.0259   0.0698   0.0089  -0.0233  -0.0269   2.00    0.0
2024/05/10 11:25:03.000   28.439650212  -16.430834011   953.9205   2   8   0.0200   0.0259   0.0698   0.0089  -0.0233  -0.0269   3.00    0.0
2024/05/10 11:25:04.000   28.439650212  -16.430834009   953.9205   2   8   0.0200   0.0260   0.0699   0.0089  -0.0233  -0.0270   4.00    0.0
2024/05/10 11:25:05.000   28.439650212  -16.430834008   953.9209   2   8   0.0200   0.0260   0.0699   0.0089  -0.0233  -0.0270   5.00    0.0
2024/05/10 11:25:06.000   28.439650213  -16.430834006   953.9206   2   8   0.0201   0.0260   0.0699   0.0089  -0.0233  -0.0270   6.00    0.0
2024/05/10 11:25:07.000   28.439650214  -16.430834004   953.9204   2   8   0.0201   0.0260   0.0700   0.0089  -0.0233  -0.0270   7.00    0.0
2024/05/10 11:25:08.000   28.439650214  -16.430834002   953.9200   2   8   0.0201   0.0260   0.0700   0.0090  -0.0233  -0.0270   8.00    0.0
2024/05/10 11:25:09.000   28.439650215  -16.430834000   953.9199   2   8   0.0201   0.0260   0.0700   0.0090  -0.0233  -0.0270   9.00    0.0
2024/05/10 11:25:10.000   28.439650215  -16.430833999   953.9197   2   8   0.0201   0.0260   0.0700   0.0090  -0.0233  -0.0270  10.00    0.0
2024/05/10 11:25:11.000   28.439650215  -16.430833997   953.9196   2   8   0.0201   0.0260   0.0700   0.0090  -0.0233  -0.0270  11.00    0.0
2024/05/10 11:25:12.000   28.439650216  -16.430833996   953.9193   2   8   0.0201   0.0260   0.0700   0.0090  -0.0233  -0.0270  12.00    0.0
2024/05/10 11:25:13.000   28.439650217  -16.430833995   953.9190   2   8   0.0201   0.0260   0.0700   0.0090  -0.0233  -0.0270  13.00    0.0
2024/05/10 11:25:14.000   28.439650217  -16.430833994   953.9188   2   8   0.0201   0.0260   0.0700   0.0090  -0.0233  -0.0270  14.00    0.0
2024/05/10 11:25:15.000   28.439650218  -16.430833993   953.9186   2   8   0.0201   0.0260   0.0700   0.0090  -0.0233  -0.0270 -15.00    0.0
2024/05/10 11:25:16.000   28.439650218  -16.430833992   953.9184   2   8   0.0201   0.0260   0.0700   0.0090  -0.0233  -0.0270 -14.00    0.0
2024/05/10 11:25:17.000   28.439650219  -16.430833991   953.9182   2   8   0.0201   0.0260   0.0700   0.0090  -0.0233  -0.0271 -13.00    0.0
2024/05/10 11:25:18.000   28.439650220  -16.430833991   953.9179   2   8   0.0201   0.0260   0.0701   0.0090  -0.0233  -0.0271 -12.00    0.0
2024/05/10 11:25:19.000   28.439650221  -16.430833990   953.9177   2   8   0.0201   0.0260   0.0701   0.0090  -0.0233  -0.0271 -11.00    0.0
2024/05/10 11:25:20.000   28.439650222  -16.430833989   953.9174   2   8   0.0201   0.0260   0.0701   0.0090  -0.0233  -0.0271 -10.00    0.0
2024/05/10 11:25:21.000   28.439650222  -16.430833988   953.9173   2   8   0.0201   0.0260   0.0701   0.0090  -0.0233  -0.0271  -9.00    0.0
2024/05/10 11:25:22.000   28.439650223  -16.430833988   953.9170   2   8   0.0201   0.0260   0.0701   0.0090  -0.0233  -0.0271  -8.00    0.0
2024/05/10 11:25:23.000   28.439650224  -16.430833988   953.9169   2   8   0.0201   0.0260   0.0701   0.0090  -0.0233  -0.0271  -7.00    0.0
2024/05/10 11:25:24.000   28.439650225  -16.430833988   953.9166   2   8   0.0201   0.0260   0.0701   0.0090  -0.0233  -0.0271  -6.00    0.0
2024/05/10 11:25:25.000   28.439650226  -16.430833987   953.9163   2   8   0.0201   0.0260   0.0701   0.0090  -0.0233  -0.0271  -5.00    0.0
2024/05/10 11:25:26.000   28.439650228  -16.430833986   953.9158   2   8   0.0202   0.0260   0.0702   0.0090  -0.0233  -0.0271  -4.00    0.0
2024/05/10 11:25:27.000   28.439650231  -16.430833984   953.9150   2   8   0.0202   0.0260   0.0702   0.0090  -0.0233  -0.0271  -3.00    0.0
2024/05/10 11:25:28.000   28.439650233  -16.430833982   953.9143   2   8   0.0202   0.0261   0.0702   0.0090  -0.0233  -0.0271  -2.00    0.0
2024/05/10 11:25:29.000   28.439650235  -16.430833982   953.9134   2   8   0.0202   0.0261   0.0703   0.0090  -0.0233  -0.0272  -1.00    0.0
2024/05/10 11:25:30.000   28.439650237  -16.430833980   953.9122   2   8   0.0202   0.0261   0.0703   0.0090  -0.0233  -0.0272   0.00    0.0
2024/05/10 11:25:31.000   28.439650241  -16.430833980   953.9112   2   8   0.0203   0.0261   0.0704   0.0091  -0.0233  -0.0272   1.00    0.0
2024/05/10 11:25:32.000   28.439650243  -16.430833977   953.9103   2   8   0.0203   0.0261   0.0705   0.0091  -0.0234  -0.0273   2.00    0.0
2024/05/10 11:25:33.000   28.439650244  -16.430833976   953.9101   2   8   0.0203   0.0262   0.0705   0.0091  -0.0234  -0.0273   3.00    0.0
2024/05/10 11:25:34.000   28.439650245  -16.430833974   953.9097   2   8   0.0203   0.0262   0.0706   0.0091  -0.0234  -0.0273   4.00    0.0
2024/05/10 11:25:35.000   28.439650246  -16.430833971   953.9097   2   8   0.0203   0.0262   0.0706   0.0091  -0.0234  -0.0273   5.00    0.0
2024/05/10 11:25:36.000   28.439650247  -16.430833968   953.9094   2   8   0.0203   0.0262   0.0706   0.0091  -0.0234  -0.0274   6.00    0.0
2024/05/10 11:25:37.000   28.439650247  -16.430833966   953.9093   2   8   0.0204   0.0262   0.0707   0.0091  -0.0234  -0.0274   7.00    0.0
2024/05/10 11:25:38.000   28.439650247  -16.430833964   953.9095   2   8   0.0204   0.0262   0.0707   0.0091  -0.0234  -0.0274   8.00    0.0
2024/05/10 11:25:39.000   28.439650246  -16.430833963   953.9097   2   8   0.0204   0.0262   0.0707   0.0091  -0.0234  -0.0274   9.00    0.0
2024/05/10 11:25:40.000   28.439650246  -16.430833961   953.9099   2   8   0.0204   0.0262   0.0707   0.0091  -0.0234  -0.0274  10.00    0.0
2024/05/10 11:25:41.000   28.439650246  -16.430833959   953.9101   2   8   0.0204   0.0262   0.0707   0.0091  -0.0234  -0.0274  11.00    0.0
2024/05/10 11:25:42.000   28.439650246  -16.430833957   953.9101   2   8   0.0204   0.0262   0.0707   0.0091  -0.0234  -0.0274  12.00    0.0
2024/05/10 11:25:43.000   28.439650246  -16.430833956   953.9101   2   8   0.0204   0.0262   0.0707   0.0091  -0.0234  -0.0274  13.00    0.0
2024/05/10 11:25:44.000   28.439650246  -16.430833955   953.9102   2   8   0.0204   0.0262   0.0707   0.0091  -0.0234  -0.0274  14.00    0.0
2024/05/10 11:25:45.000   28.439650246  -16.430833954   953.9101   2   8   0.0204   0.0262   0.0707   0.0092  -0.0234  -0.0274 -15.00    0.0
2024/05/10 11:25:46.000   28.439650246  -16.430833952   953.9102   2   8   0.0204   0.0262   0.0707   0.0092  -0.0234  -0.0274 -14.00    0.0
2024/05/10 11:25:47.000   28.439650246  -16.430833951   953.9102   2   8   0.0204   0.0262   0.0707   0.0092  -0.0234  -0.0274 -13.00    0.0
2024/05/10 11:25:48.000   28.439650246  -16.430833949   953.9103   2   8   0.0204   0.0262   0.0707   0.0092  -0.0234  -0.0274 -12.00    0.0
2024/05/10 11:25:49.000   28.439650245  -16.430833947   953.9104   2   8   0.0204   0.0262   0.0707   0.0092  -0.0234  -0.0274 -11.00    0.0
2024/05/10 11:25:50.000   28.439650245  -16.430833945   953.9103   2   8   0.0204   0.0262   0.0707   0.0092  -0.0234  -0.0274 -10.00    0.0
2024/05/10 11:25:51.000   28.439650246  -16.430833942   953.9103   2   8   0.0204   0.0262   0.0708   0.0092  -0.0234  -0.0274  -9.00    0.0
2024/05/10 11:25:52.000   28.439650246  -16.430833940   953.9102   2   8   0.0204   0.0262   0.0708   0.0092  -0.0234  -0.0274  -8.00    0.0
2024/05/10 11:25:53.000   28.439650246  -16.430833937   953.9101   2   8   0.0204   0.0262   0.0708   0.0092  -0.0234  -0.0274  -7.00    0.0
2024/05/10 11:25:54.000   28.439650245  -16.430833934   953.9100   2   8   0.0204   0.0262   0.0708   0.0092  -0.0234  -0.0274  -6.00    0.0
2024/05/10 11:25:55.000   28.439650244  -16.430833930   953.9098   2   8   0.0204   0.0262   0.0708   0.0092  -0.0234  -0.0274  -5.00    0.0
2024/05/10 11:25:56.000   28.439650244  -16.430833926   953.9093   2   8   0.0204   0.0262   0.0708   0.0092  -0.0234  -0.0274  -4.00    0.0
2024/05/10 11:25:57.000   28.439650245  -16.430833921   953.9083   2   8   0.0204   0.0262   0.0709   0.0092  -0.0234  -0.0275  -3.00    0.0
2024/05/10 11:25:58.000   28.439650246  -16.430833916   953.9069   2   8   0.0205   0.0263   0.0709   0.0092  -0.0234  -0.0275  -2.00    0.0
2024/05/10 11:25:59.000   28.439650248  -16.430833911   953.9051   2   8   0.0205   0.0263   0.0709   0.0092  -0.0234  -0.0275  -1.00    0.0
2024/05/10 11:26:00.000   28.439650249  -16.430833907   953.9034   2   8   0.0205   0.0263   0.0710   0.0092  -0.0234  -0.0275   0.00    0.0
2024/05/10 11:26:01.000   28.439650251  -16.430833901   953.9011   2   8   0.0205   0.0263   0.0711   0.0092  -0.0234  -0.0276   1.00    0.0
2024/05/10 11:26:02.000   28.439650253  -16.430833893   953.8988   2   8   0.0206   0.0263   0.0711   0.0093  -0.0234  -0.0276   2.00    0.0
2024/05/10 11:26:03.000   28.439650253  -16.430833887   953.8972   2   8   0.0206   0.0264   0.0712   0.0093  -0.0235  -0.0276   3.00    0.0
2024/05/10 11:26:04.000   28.439650254  -16.430833881   953.8960   2   8   0.0206   0.0264   0.0712   0.0093  -0.0235  -0.0277   4.00    0.0
2024/05/10 11:26:05.000   28.439650254  -16.430833877   953.8950   2   8   0.0206   0.0264   0.0713   0.0093  -0.0235  -0.0277   5.00    0.0
2024/05/10 11:26:06.000   28.439650254  -16.430833874   953.8944   2   8   0.0206   0.0264   0.0713   0.0093  -0.0235  -0.0277   6.00    0.0
2024/05/10 11:26:07.000   28.439650253  -16.430833871   953.8941   2   8   0.0206   0.0264   0.0713   0.0093  -0.0235  -0.0277   7.00    0.0
2024/05/10 11:26:08.000   28.439650252  -16.430833868   953.8938   2   8   0.0206   0.0264   0.0713   0.0093  -0.0235  -0.0277   8.00    0.0
2024/05/10 11:26:09.000   28.439650251  -16.430833867   953.8937   2   8   0.0206   0.0264   0.0713   0.0093  -0.0235  -0.0277   9.00    0.0
2024/05/10 11:26:10.000   28.439650250  -16.430833864   953.8935   2   8   0.0206   0.0264   0.0713   0.0093  -0.0235  -0.0277  10.00    0.0
2024/05/10 11:26:11.000   28.439650249  -16.430833862   953.8934   2   8   0.0206   0.0264   0.0714   0.0093  -0.0235  -0.0277  11.00    0.0
2024/05/10 11:26:12.000   28.439650248  -16.430833860   953.8933   2   8   0.0207   0.0264   0.0714   0.0093  -0.0235  -0.0277  12.00    0.0
2024/05/10 11:26:13.000   28.439650248  -16.430833859   953.8932   2   8   0.0207   0.0264   0.0714   0.0093  -0.0235  -0.0277  13.00    0.0
2024/05/10 11:26:14.000   28.439650247  -16.430833857   953.8931   2   8   0.0207   0.0264   0.0714   0.0093  -0.0235  -0.0277  14.00    0.0
2024/05/10 11:26:15.000   28.439650247  -16.430833855   953.8930   2   8   0.0207   0.0264   0.0714   0.0093  -0.0235  -0.0277 -15.00    0.0
2024/05/10 11:26:16.000   28.439650246  -16.430833853   953.8929   2   8   0.0207   0.0264   0.0714   0.0093  -0.0235  -0.0277 -14.00    0.0
2024/05/10 11:26:17.000   28.439650245  -16.430833851   953.8928   2   8   0.0207   0.0264   0.0714   0.0093  -0.0235  -0.0277 -13.00    0.0
2024/05/10 11:26:18.000   28.439650245  -16.430833849   953.8926   2   8   0.0207   0.0264   0.0714   0.0093  -0.0235  -0.0277 -12.00    0.0
2024/05/10 11:26:19.000   28.439650244  -16.430833846   953.8925   2   8   0.0207   0.0264   0.0714   0.0093  -0.0235  -0.0277 -11.00    0.0
2024/05/10 11:26:20.000   28.439650244  -16.430833844   953.8924   2   8   0.0207   0.0264   0.0714   0.0093  -0.0235  -0.0277 -10.00    0.0
2024/05/10 11:26:21.000   28.439650243  -16.430833841   953.8923   2   8   0.0207   0.0264   0.0714   0.0093  -0.0235  -0.0277  -9.00    0.0
2024/05/10 11:26:22.000   28.439650242  -16.430833839   953.8920   2   8   0.0207   0.0264   0.0714   0.0093  -0.0235  -0.0277  -8.00    0.0
2024/05/10 11:26:23.000   28.439650241  -16.430833836   953.8918   2   8   0.0207   0.0264   0.0714   0.0093  -0.0235  -0.0277  -7.00    0.0
2024/05/10 11:26:24.000   28.439650241  -16.430833834   953.8915   2   8   0.0207   0.0264   0.0714   0.0093  -0.0235  -0.0277  -6.00    0.0
2024/05/10 11:26:25.000   28.439650240  -16.430833830   953.8912   2   8   0.0207   0.0264   0.0714   0.0093  -0.0235  -0.0278  -5.00    0.0
2024/05/10 11:26:26.000   28.439650239  -16.430833827   953.8908   2   8   0.0207   0.0264   0.0715   0.0093  -0.0235  -0.0278  -4.00    0.0
2024/05/10 11:26:27.000   28.439650239  -16.430833822   953.8900   2   8   0.0207   0.0265   0.0715   0.0094  -0.0235  -0.0278  -3.00    0.0
2024/05/10 11:26:28.000   28.439650240  -16.430833818   953.8892   2   8   0.0207   0.0265   0.0715   0.0094  -0.0235  -0.0278  -2.00    0.0
2024/05/10 11:26:29.000   28.439650238  -16.430833815   953.8890   2   8   0.0207   0.0265   0.0716   0.0094  -0.0235  -0.0278  -1.00    0.0
2024/05/10 11:26:30.000   28.439650237  -16.430833812   953.8880   2   8   0.0208   0.0265   0.0716   0.0094  -0.0235  -0.0278   0.00    0.0
2024/05/10 11:26:31.000   28.439650236  -16.430833807   953.8872   2   8   0.0208   0.0265   0.0717   0.0094  -0.0235  -0.0279   1.00    0.0
2024/05/10 11:26:32.000   28.439650234  -16.430833805   953.8871   2   8   0.0208   0.0265   0.0717   0.0094  -0.0235  -0.0279   2.00    0.0
2024/05/10 11:26:33.000   28.439650230  -16.430833803   953.8872   2   8   0.0208   0.0266   0.0718   0.0094  -0.0236  -0.0279   3.00    0.0
2024/05/10 11:26:34.000   28.439650227  -16.430833801   953.8874   2   8   0.0209   0.0266   0.0718   0.0094  -0.0236  -0.0280   4.00    0.0
2024/05/10 11:26:35.000   28.439650224  -16.430833800   953.8873   2   8   0.0209   0.0266   0.0719   0.0095  -0.0236  -0.0280   5.00    0.0
2024/05/10 11:26:36.000   28.439650221  -16.430833798   953.8877   2   8   0.0209   0.0266   0.0719   0.0095  -0.0236  -0.0280   6.00    0.0
2024/05/10 11:26:37.000   28.439650218  -16.430833797   953.8879   2   8   0.0209   0.0266   0.0719   0.0095  -0.0236  -0.0280   7.00    0.0
2024/05/10 11:26:38.000   28.439650215  -16.430833797   953.8882   2   8   0.0209   0.0266   0.0719   0.0095  -0.0236  -0.0280   8.00    0.0
2024/05/10 11:26:39.000   28.439650213  -16.430833796   953.8885   2   8   0.0209   0.0266   0.0719   0.0095  -0.0236  -0.0280   9.00    0.0
2024/05/10 11:26:40.000   28.439650211  -16.430833795   953.8888   2   8   0.0209   0.0266   0.0719   0.0095  -0.0236  -0.0280  10.00    0.0
2024/05/10 11:26:41.000   28.439650209  -16.430833794   953.8892   2   8   0.0209   0.0266   0.0720   0.0095  -0.0236  -0.0280  11.00    0.0
2024/05/10 11:26:42.000   28.439650207  -16.430833792   953.8894   2   8   0.0209   0.0266   0.0720   0.0095  -0.0236  -0.0280  12.00    0.0
2024/05/10 11:26:43.000   28.439650205  -16.430833791   953.8897   2   8   0.0209   0.0266   0.0720   0.0095  -0.0236  -0.0280  13.00    0.0
2024/05/10 11:26:44.000   28.439650203  -16.430833790   953.8900   2   8   0.0209   0.0266   0.0720   0.0095  -0.0236  -0.0280  14.00    0.0
2024/05/10 11:26:45.000   28.439650202  -16.430833788   953.8902   2   8   0.0209   0.0266   0.0720   0.0095  -0.0236  -0.0280 -15.00    0.0
2024/05/10 11:26:46.000   28.439650200  -16.430833787   953.8904   2   8   0.0209   0.0266   0.0720   0.0095  -0.0236  -0.0280 -14.00    0.0
2024/05/10 11:26:47.000   28.439650199  -16.430833786   953.8905   2   8   0.0209   0.0266   0.0720   0.0095  -0.0236  -0.0280 -13.00    0.0
2024/05/10 11:26:48.000   28.439650197  -16.430833785   953.8908   2   8   0.0209   0.0266   0.0720   0.0095  -0.0236  -0.0280 -12.00    1.6
2024/05/10 11:26:49.000   28.439650196  -16.430833783   953.8910   2   8   0.0209   0.0266   0.0720   0.0095  -0.0236  -0.0280 -11.00    1.1
2024/05/10 11:26:50.000   28.439650194  -16.430833782   953.8913   2   8   0.0209   0.0266   0.0720   0.0095  -0.0236  -0.0280 -10.00    1.2
2024/05/10 11:26:51.000   28.439650191  -16.430833781   953.8916   2   8   0.0209   0.0266   0.0720   0.0095  -0.0236  -0.0280  -9.00    1.1
2024/05/10 11:26:52.000   28.439650189  -16.430833781   953.8920   2   8   0.0209   0.0266   0.0720   0.0095  -0.0236  -0.0280  -8.00    1.5
2024/05/10 11:26:53.000   28.439650187  -16.430833780   953.8923   2   8   0.0209   0.0266   0.0720   0.0095  -0.0236  -0.0280  -7.00    1.2
2024/05/10 11:26:54.000   28.439650184  -16.430833779   953.8928   2   8   0.0209   0.0266   0.0720   0.0095  -0.0236  -0.0280  -6.00    1.1
2024/05/10 11:26:55.000   28.439650180  -16.430833779   953.8935   2   8   0.0209   0.0266   0.0720   0.0095  -0.0236  -0.0281  -5.00    1.3
2024/05/10 11:26:56.000   28.439650175  -16.430833779   953.8942   2   8   0.0210   0.0266   0.0721   0.0095  -0.0236  -0.0281  -4.00    1.1
2024/05/10 11:26:57.000   28.439650169  -16.430833779   953.8951   2   8   0.0210   0.0266   0.0721   0.0095  -0.0236  -0.0281  -3.00    1.1
2024/05/10 11:26:58.000   28.439650162  -16.430833780   953.8963   2   8   0.0210   0.0267   0.0721   0.0095  -0.0236  -0.0281  -2.00    1.1
2024/05/10 11:26:59.000   28.439650156  -16.430833780   953.8969   2   8   0.0210   0.0267   0.0722   0.0095  -0.0236  -0.0281  -1.00    1.3
2024/05/10 11:27:00.000   28.439650151  -16.430833780   953.8972   2   8   0.0210   0.0267   0.0722   0.0095  -0.0236  -0.0281   0.00    1.5
2024/05/10 11:27:01.000   28.439650147  -16.430833782   953.8974   2   8   0.0210   0.0267   0.0723   0.0096  -0.0236  -0.0282   1.00    1.2
2024/05/10 11:27:02.000   28.439650140  -16.430833783   953.8978   2   8   0.0211   0.0267   0.0723   0.0096  -0.0236  -0.0282   2.00    1.0
2024/05/10 11:27:03.000   28.439650132  -16.430833783   953.8992   2   8   0.0211   0.0267   0.0723   0.0096  -0.0237  -0.0282   3.00    1.3
2024/05/10 11:27:04.000   28.439650124  -16.430833784   953.9007   2   8   0.0211   0.0268   0.0724   0.0096  -0.0237  -0.0282   4.00    1.1
2024/05/10 11:27:05.000   28.439650116  -16.430833785   953.9021   2   8   0.0211   0.0268   0.0724   0.0096  -0.0237  -0.0282   5.00    1.3
2024/05/10 11:27:06.000   28.439650111  -16.430833786   953.9029   2   8   0.0211   0.0268   0.0724   0.0096  -0.0237  -0.0283   6.00    1.0
2024/05/10 11:27:07.000   28.439650109  -16.430833786   953.9030   2   8   0.0211   0.0268   0.0725   0.0096  -0.0237  -0.0283   7.00    1.3
2024/05/10 11:27:08.000   28.439650109  -16.430833785   953.9027   2   8   0.0211   0.0268   0.0725   0.0096  -0.0237  -0.0283   8.00    1.4
2024/05/10 11:27:09.000   28.439650110  -16.430833784   953.9020   2   8   0.0211   0.0268   0.0725   0.0096  -0.0237  -0.0283   9.00    1.1
2024/05/10 11:27:10.000   28.439650112  -16.430833783   953.9012   2   8   0.0211   0.0268   0.0725   0.0096  -0.0237  -0.0283  10.00    1.0
2024/05/10 11:27:11.000   28.439650114  -16.430833783   953.9004   2   8   0.0211   0.0268   0.0725   0.0096  -0.0237  -0.0283  11.00    1.4
2024/05/10 11:27:12.000   28.439650116  -16.430833782   953.8995   2   8   0.0211   0.0268   0.0725   0.0096  -0.0237  -0.0283  12.00    1.2
2024/05/10 11:27:13.000   28.439650119  -16.430833781   953.8985   2   8   0.0211   0.0268   0.0725   0.0096  -0.0237  -0.0283  13.00    1.3
2024/05/10 11:27:14.000   28.439650122  -16.430833780   953.8976   2   8   0.0211   0.0268   0.0725   0.0096  -0.0237  -0.0283  14.00    1.1
2024/05/10 11:27:15.000   28.439650125  -16.430833779   953.8967   2   8   0.0212   0.0268   0.0725   0.0096  -0.0237  -0.0283 -15.00    1.2
2024/05/10 11:27:16.000   28.439650127  -16.430833779   953.8959   2   8   0.0212   0.0268   0.0725   0.0096  -0.0237  -0.0283 -14.00    1.3
2024/05/10 11:27:17.000   28.439650130  -16.430833779   953.8950   2   8   0.0212   0.0268   0.0725   0.0096  -0.0237  -0.0283 -13.00    1.2
2024/05/10 11:27:18.000   28.439650134  -16.430833779   953.8939   2   8   0.0212   0.0268   0.0725   0.0096  -0.0237  -0.0283 -12.00    1.0
2024/05/10 11:27:19.000   28.439650138  -16.430833778   953.8926   2   8   0.0212   0.0268   0.0725   0.0096  -0.0237  -0.0283 -11.00    1.4
2024/05/10 11:27:20.000   28.439650142  -16.430833777   953.8913   2   8   0.0212   0.0268   0.0725   0.0096  -0.0237  -0.0283 -10.00    1.2
2024/05/10 11:27:21.000   28.439650146  -16.430833776   953.8899   2   8   0.0212   0.0268   0.0725   0.0096  -0.0237  -0.0283  -9.00    1.3
2024/05/10 11:27:22.000   28.439650150  -16.430833775   953.8883   2   8   0.0212   0.0268   0.0725   0.0096  -0.0237  -0.0283  -8.00    1.1
2024/05/10 11:27:23.000   28.439650155  -16.430833774   953.8866   2   8   0.0212   0.0268   0.0725   0.0096  -0.0237  -0.0283  -7.00    1.2
2024/05/10 11:27:24.000   28.439650160  -16.430833773   953.8848   2   8   0.0212   0.0268   0.0726   0.0096  -0.0237  -0.0283  -6.00    1.3
2024/05/10 11:27:25.000   28.439650166  -16.430833773   953.8828   2   8   0.0212   0.0268   0.0726   0.0096  -0.0237  -0.0283  -5.00    1.2
2024/05/10 11:27:26.000   28.439650171  -16.430833774   953.8808   2   8   0.0212   0.0268   0.0726   0.0096  -0.0237  -0.0283  -4.00    1.1
2024/05/10 11:27:27.000   28.439650174  -16.430833774   953.8792   2   8   0.0212   0.0268   0.0726   0.0096  -0.0237  -0.0283  -3.00    1.4
2024/05/10 11:27:28.000   28.439650175  -16.430833775   953.8780   2   8   0.0212   0.0268   0.0726   0.0096  -0.0237  -0.0283  -2.00    1.2
2024/05/10 11:27:29.000   28.439650174  -16.430833776   953.8773   2   8   0.0212   0.0269   0.0727   0.0096  -0.0237  -0.0284  -1.00    1.3
2024/05/10 11:27:30.000   28.439650171  -16.430833778   953.8770   2   8   0.0212   0.0269   0.0727   0.0097  -0.0237  -0.0284   0.00    1.0
2024/05/10 11:27:31.000   28.439650165  -16.430833780   953.8771   2   8   0.0213   0.0269   0.0728   0.0097  -0.0237  -0.0284   1.00    1.1
2024/05/10 11:27:32.000   28.439650163  -16.430833782   953.8766   2   8   0.0213   0.0269   0.0728   0.0097  -0.0237  -0.0284   2.00    1.2
2024/05/10 11:27:33.000   28.439650160  -16.430833784   953.8764   2   8   0.0213   0.0269   0.0728   0.0097  -0.0238  -0.0285   3.00    1.3
2024/05/10 11:27:34.000   28.439650158  -16.430833785   953.8762   2   8   0.0213   0.0269   0.0729   0.0097  -0.0238  -0.0285   4.00    1.0
2024/05/10 11:27:35.000   28.439650157  -16.430833786   953.8756   2   8   0.0213   0.0269   0.0729   0.0097  -0.0238  -0.0285   5.00    1.5
2024/05/10 11:27:36.000   28.439650156  -16.430833788   953.8752   2   8   0.0213   0.0270   0.0729   0.0097  -0.0238  -0.0285   6.00    1.1
2024/05/10 11:27:37.000   28.439650155  -16.430833789   953.8748   2   8   0.0213   0.0270   0.0729   0.0097  -0.0238  -0.0285   7.00    1.3
2024/05/10 11:27:38.000   28.439650154  -16.430833789   953.8746   2   8   0.0213   0.0270   0.0730   0.0097  -0.0238  -0.0285   8.00    1.0
2024/05/10 11:27:39.000   28.439650154  -16.430833789   953.8742   2   8   0.0213   0.0270   0.0730   0.0097  -0.0238  -0.0285   9.00    1.3
2024/05/10 11:27:40.000   28.439650154  -16.430833790   953.8739   2   8   0.0214   0.0270   0.0730   0.0097  -0.0238  -0.0285  10.00    1.2
2024/05/10 11:27:41.000   28.439650154  -16.430833790   953.8734   2   8   0.0214   0.0270   0.0730   0.0097  -0.0238  -0.0285  11.00    1.1
2024/05/10 11:27:42.000   28.439650155  -16.430833791   953.8729   2   8   0.0214   0.0270   0.0730   0.0097  -0.0238  -0.0285  12.00    1.1
2024/05/10 11:27:43.000   28.439650155  -16.430833791   953.8727   2   8   0.0214   0.0270   0.0730   0.0097  -0.0238  -0.0285  13.00    1.5
2024/05/10 11:27:44.000   28.439650156  -16.430833791   953.8724   2   8   0.0214   0.0270   0.0730   0.0097  -0.0238  -0.0285  14.00    1.1
2024/05/10 11:27:45.000   28.439650156  -16.430833791   953.8722   2   8   0.0214   0.0270   0.0730   0.0097  -0.0238  -0.0285 -15.00    1.3
2024/05/10 11:27:46.000   28.439650156  -16.430833792   953.8720   2   8   0.0214   0.0270   0.0730   0.0097  -0.0238  -0.0285 -14.00    1.0
2024/05/10 11:27:47.000   28.439650156  -16.430833792   953.8718   2   8   0.0214   0.0270   0.0730   0.0097  -0.0238  -0.0285 -13.00    1.2
2024/05/10 11:27:48.000   28.439650156  -16.430833792   953.8715   2   8   0.0214   0.0270   0.0730   0.0097  -0.0238  -0.0285 -12.00    1.2
2024/05/10 11:27:49.000   28.439650157  -16.430833791   953.8711   2   8   0.0214   0.0270   0.0730   0.0097  -0.0238  -0.0285 -11.00    1.1
2024/05/10 11:27:50.000   28.439650157  -16.430833792   953.8707   2   8   0.0214   0.0270   0.0730   0.0097  -0.0238  -0.0285 -10.00    1.1
2024/05/10 11:27:51.000   28.439650157  -16.430833791   953.8704   2   8   0.0214   0.0270   0.0730   0.0097  -0.0238  -0.0285  -9.00    1.4
2024/05/10 11:27:52.000   28.439650158  -16.430833791   953.8699   2   8   0.0214   0.0270   0.0730   0.0097  -0.0238  -0.0285  -8.00    1.0
2024/05/10 11:27:53.000   28.439650158  -16.430833790   953.8693   2   8   0.0214   0.0270   0.0730   0.0097  -0.0238  -0.0285  -7.00    1.2
2024/05/10 11:27:54.000   28.439650159  -16.430833790   953.8687   2   8   0.0214   0.0270   0.0730   0.0097  -0.0238  -0.0285  -6.00    1.1
2024/05/10 11:27:55.000   28.439650160  -16.430833790   953.8679   2   8   0.0214   0.0270   0.0730   0.0097  -0.0238  -0.0285  -5.00    1.3
2024/05/10 11:27:56.000   28.439650161  -16.430833789   953.8668   2   8   0.0214   0.0270   0.0731   0.0097  -0.0238  -0.0285  -4.00    1.1
2024/05/10 11:27:57.000   28.439650162  -16.430833788   953.8655   2   8   0.0214   0.0270   0.0731   0.0097  -0.0238  -0.0285  -3.00    1.1
2024/05/10 11:27:58.000   28.439650164  -16.430833788   953.8642   2   8   0.0214   0.0270   0.0731   0.0097  -0.0238  -0.0286  -2.00    1.1
2024/05/10 11:27:59.000   28.439650165  -16.430833786   953.8627   2   8   0.0214   0.0270   0.0731   0.0097  -0.0238  -0.0286  -1.00    1.4
2024/05/10 11:28:00.000   28.439650165  -16.430833784   953.8615   2   8   0.0214   0.0270   0.0732   0.0098  -0.0238  -0.0286   0.00    1.1
2024/05/10 11:28:01.000   28.439650166  -16.430833783   953.8602   2   8   0.0215   0.0270   0.0732   0.0098  -0.0238  -0.0286   1.00    1.4
2024/05/10 11:28:02.000   28.439650166  -16.430833780   953.8587   2   8   0.0215   0.0271   0.0732   0.0098  -0.0238  -0.0286   2.00    1.0
2024/05/10 11:28:03.000   28.439650167  -16.430833778   953.8574   2   8   0.0215   0.0271   0.0733   0.0098  -0.0239  -0.0286   3.00    1.3
2024/05/10 11:28:04.000   28.439650167  -16.430833776   953.8558   2   8   0.0215   0.0271   0.0733   0.0098  -0.0239  -0.0287   4.00    1.0
2024/05/10 11:28:05.000   28.439650168  -16.430833776   953.8546   2   8   0.0215   0.0271   0.0733   0.0098  -0.0239  -0.0287   5.00    1.3
2024/05/10 11:28:06.000   28.439650168  -16.430833776   953.8536   2   8   0.0215   0.0271   0.0733   0.0098  -0.0239  -0.0287   6.00    1.2
2024/05/10 11:28:07.000   28.439650168  -16.430833775   953.8529   2   8   0.0215   0.0271   0.0734   0.0098  -0.0239  -0.0287   7.00    1.3
2024/05/10 11:28:08.000   28.439650167  -16.430833775   953.8525   2   8   0.0215   0.0271   0.0734   0.0098  -0.0239  -0.0287   8.00    1.1
2024/05/10 11:28:09.000   28.439650166  -16.430833775   953.8523   2   8   0.0215   0.0271   0.0734   0.0098  -0.0239  -0.0287   9.00    1.1
2024/05/10 11:28:10.000   28.439650165  -16.430833774   953.8523   2   8   0.0215   0.0271   0.0734   0.0098  -0.0239  -0.0287  10.00    1.0
2024/05/10 11:28:11.000   28.439650163  -16.430833774   953.8524   2   8   0.0215   0.0271   0.0734   0.0098  -0.0239  -0.0287  11.00    1.4
2024/05/10 11:28:12.000   28.439650162  -16.430833774   953.8525   2   8   0.0215   0.0271   0.0734   0.0098  -0.0239  -0.0287  12.00    1.0
2024/05/10 11:28:13.000   28.439650161  -16.430833773   953.8527   2   8   0.0215   0.0271   0.0734   0.0098  -0.0239  -0.0287  13.00    1.4
2024/05/10 11:28:14.000   28.439650160  -16.430833773   953.8528   2   8   0.0215   0.0271   0.0734   0.0098  -0.0239  -0.0287  14.00    1.2
2024/05/10 11:28:15.000   28.439650158  -16.430833772   953.8530   2   8   0.0215   0.0271   0.0734   0.0098  -0.0239  -0.0287 -15.00    1.2
2024/05/10 11:28:16.000   28.439650157  -16.430833772   953.8533   2   8   0.0215   0.0271   0.0734   0.0098  -0.0239  -0.0287 -14.00    1.1
2024/05/10 11:28:17.000   28.439650155  -16.430833772   953.8536   2   8   0.0215   0.0271   0.0734   0.0098  -0.0239  -0.0287 -13.00    1.2
2024/05/10 11:28:18.000   28.439650153  -16.430833772   953.8539   2   8   0.0215   0.0271   0.0734   0.0098  -0.0239  -0.0287 -12.00    1.1
2024/05/10 11:28:19.000   28.439650150  -16.430833772   953.8544   2   8   0.0215   0.0271   0.0734   0.0098  -0.0239  -0.0287 -11.00    1.5
2024/05/10 11:28:20.000   28.439650148  -16.430833772   953.8548   2   8   0.0215   0.0271   0.0734   0.0098  -0.0239  -0.0287 -10.00    1.0
2024/05/10 11:28:21.000   28.439650146  -16.430833773   953.8553   2   8   0.0215   0.0271   0.0734   0.0098  -0.0239  -0.0287  -9.00    1.4
2024/05/10 11:28:22.000   28.439650143  -16.430833773   953.8557   2   8   0.0216   0.0271   0.0734   0.0098  -0.0239  -0.0287  -8.00    1.1
2024/05/10 11:28:23.000   28.439650140  -16.430833773   953.8562   2   8   0.0216   0.0271   0.0734   0.0098  -0.0239  -0.0287  -7.00    1.2
2024/05/10 11:28:24.000   28.439650136  -16.430833773   953.8569   2   8   0.0216   0.0271   0.0734   0.0098  -0.0239  -0.0287  -6.00    1.1
2024/05/10 11:28:25.000   28.439650131  -16.430833774   953.8579   2   8   0.0216   0.0271   0.0734   0.0098  -0.0239  -0.0287  -5.00    1.2
2024/05/10 11:28:26.000   28.439650125  -16.430833775   953.8590   2   8   0.0216   0.0271   0.0734   0.0098  -0.0239  -0.0287  -4.00    1.1
2024/05/10 11:28:27.000   28.439650119  -16.430833777   953.8602   2   8   0.0216   0.0271   0.0735   0.0098  -0.0239  -0.0287  -3.00    1.5
2024/05/10 11:28:28.000   28.439650113  -16.430833781   953.8614   2   8   0.0216   0.0272   0.0735   0.0098  -0.0239  -0.0287  -2.00    1.1
2024/05/10 11:28:29.000   28.439650108  -16.430833782   953.8622   2   8   0.0216   0.0272   0.0735   0.0098  -0.0239  -0.0287  -1.00    1.4
2024/05/10 11:28:30.000   28.439650100  -16.430833784   953.8637   2   8   0.0216   0.0272   0.0735   0.0098  -0.0239  -0.0287   0.00    1.0
2024/05/10 11:28:31.000   28.439650091  -16.430833788   953.8655   2   8   0.0216   0.0272   0.0736   0.0098  -0.0239  -0.0288   1.00    1.4
2024/05/10 11:28:32.000   28.439650084  -16.430833794   953.8667   2   8   0.0216   0.0272   0.0736   0.0098  -0.0240  -0.0288   2.00    1.2
2024/05/10 11:28:33.000   28.439650079  -16.430833798   953.8674   2   8   0.0216   0.0272   0.0736   0.0098  -0.0240  -0.0288   3.00    1.1
2024/05/10 11:28:34.000   28.439650076  -16.430833799   953.8680   2   8   0.0217   0.0272   0.0736   0.0098  -0.0240  -0.0288   4.00    1.1
2024/05/10 11:28:35.000   28.439650073  -16.430833800   953.8679   2   8   0.0217   0.0272   0.0737   0.0098  -0.0240  -0.0288   5.00    1.5
2024/05/10 11:28:36.000   28.439650072  -16.430833802   953.8682   2   8   0.0217   0.0272   0.0737   0.0099  -0.0240  -0.0288   6.00    1.1
2024/05/10 11:28:37.000   28.439650071  -16.430833803   953.8684   2   8   0.0217   0.0272   0.0737   0.0099  -0.0240  -0.0288   7.00    1.4
2024/05/10 11:28:38.000   28.439650070  -16.430833804   953.8687   2   8   0.0217   0.0272   0.0737   0.0099  -0.0240  -0.0288   8.00    1.2
2024/05/10 11:28:39.000   28.439650069  -16.430833806   953.8688   2   8   0.0217   0.0272   0.0737   0.0099  -0.0240  -0.0288   9.00    1.2
2024/05/10 11:28:40.000   28.439650069  -16.430833807   953.8688   2   8   0.0217   0.0272   0.0737   0.0099  -0.0240  -0.0288  10.00    1.2
2024/05/10 11:28:41.000   28.439650069  -16.430833807   953.8688   2   8   0.0217   0.0272   0.0737   0.0099  -0.0240  -0.0288  11.00    1.1
2024/05/10 11:28:42.000   28.439650069  -16.430833809   953.8687   2   8   0.0217   0.0273   0.0737   0.0099  -0.0240  -0.0288  12.00    1.1
2024/05/10 11:28:43.000   28.439650069  -16.430833809   953.8687   2   8   0.0217   0.0273   0.0737   0.0099  -0.0240  -0.0288  13.00    1.5
2024/05/10 11:28:44.000   28.439650069  -16.430833809   953.8686   2   8   0.0217   0.0273   0.0737   0.0099  -0.0240  -0.0288  14.00    1.2
2024/05/10 11:28:45.000   28.439650069  -16.430833810   953.8687   2   8   0.0217   0.0273   0.0737   0.0099  -0.0240  -0.0288 -15.00    1.4
2024/05/10 11:28:46.000   28.439650069  -16.430833810   953.8687   2   8   0.0217   0.0272   0.0737   0.0099  -0.0240  -0.0288 -14.00    1.2
2024/05/10 11:28:47.000   28.439650069  -16.430833811   953.8685   2   8   0.0217   0.0272   0.0737   0.0099  -0.0240  -0.0288 -13.00    1.2
2024/05/10 11:28:48.000   28.439650070  -16.430833811   953.8684   2   8   0.0217   0.0272   0.0737   0.0099  -0.0240  -0.0288 -12.00    1.2
2024/05/10 11:28:49.000   28.439650070  -16.430833812   953.8682   2   8   0.0217   0.0272   0.0737   0.0099  -0.0240  -0.0288 -11.00    1.1
2024/05/10 11:28:50.000   28.439650071  -16.430833813   953.8679   2   8   0.0217   0.0272   0.0737   0.0098  -0.0240  -0.0288 -10.00    1.1
2024/05/10 11:28:51.000   28.439650072  -16.430833814   953.8676   2   8   0.0217   0.0272   0.0737   0.0098  -0.0240  -0.0288  -9.00    1.5
2024/05/10 11:28:52.000   28.439650072  -16.430833814   953.8672   2   8   0.0217   0.0272   0.0737   0.0098  -0.0240  -0.0288  -8.00    1.2
2024/05/10 11:28:53.000   28.439650072  -16.430833816   953.8670   2   8   0.0217   0.0273   0.0737   0.0098  -0.0240  -0.0288  -7.00    1.4
2024/05/10 11:28:54.000   28.439650072  -16.430833818   953.8667   2   8   0.0217   0.0273   0.0737   0.0098  -0.0240  -0.0288  -6.00    1.2
2024/05/10 11:28:55.000   28.439650071  -16.430833821   953.8665   2   8   0.0217   0.0273   0.0737   0.0098  -0.0240  -0.0288  -5.00    1.1
2024/05/10 11:28:56.000   28.439650070  -16.430833824   953.8664   2   8   0.0217   0.0273   0.0738   0.0099  -0.0240  -0.0288  -4.00    1.2
2024/05/10 11:28:57.000   28.439650067  -16.430833830   953.8665   2   8   0.0217   0.0273   0.0738   0.0099  -0.0240  -0.0288  -3.00    1.0
2024/05/10 11:28:58.000   28.439650064  -16.430833836   953.8666   2   8   0.0217   0.0273   0.0738   0.0099  -0.0240  -0.0288  -2.00    1.0
2024/05/10 11:28:59.000   28.439650059  -16.430833843   953.8669   2   8   0.0217   0.0273   0.0738   0.0099  -0.0240  -0.0288  -1.00    1.5
2024/05/10 11:29:00.000   28.439650054  -16.430833851   953.8674   2   8   0.0217   0.0273   0.0738   0.0099  -0.0240  -0.0288   0.00    1.2
2024/05/10 11:29:01.000   28.439650051  -16.430833855   953.8675   2   8   0.0217   0.0273   0.0738   0.0099  -0.0240  -0.0289   1.00    1.2
2024/05/10 11:29:02.000   28.439650047  -16.430833859   953.8682   2   8   0.0218   0.0273   0.0739   0.0099  -0.0241  -0.0289   2.00    1.1
2024/05/10 11:29:03.000   28.439650043  -16.430833864   953.8685   2   8   0.0218   0.0273   0.0739   0.0099  -0.0241  -0.0289   3.00    1.3
2024/05/10 11:29:04.000   28.439650040  -16.430833868   953.8687   2   8   0.0218   0.0273   0.0739   0.0099  -0.0241  -0.0289   4.00    1.2
2024/05/10 11:29:05.000   28.439650038  -16.430833872   953.8688   2   8   0.0218   0.0273   0.0739   0.0099  -0.0241  -0.0289   5.00    1.2
2024/05/10 11:29:06.000   28.439650036  -16.430833875   953.8687   2   8   0.0218   0.0273   0.0739   0.0099  -0.0241  -0.0289   6.00    1.2
2024/05/10 11:29:07.000   28.439650035  -16.430833877   953.8686   2   8   0.0218   0.0273   0.0739   0.0099  -0.0241  -0.0289   7.00    1.5
2024/05/10 11:29:08.000   28.439650032  -16.430833879   953.8687   2   8   0.0218   0.0273   0.0740   0.0099  -0.0241  -0.0289   8.00    1.3
2024/05/10 11:29:09.000   28.439650030  -16.430833882   953.8690   2   8   0.0218   0.0273   0.0740   0.0099  -0.0241  -0.0289   9.00    1.4
2024/05/10 11:29:10.000   28.439650028  -16.430833882   953.8690   2   8   0.0218   0.0273   0.0740   0.0099  -0.0241  -0.0289  10.00    1.3
2024/05/10 11:29:11.000   28.439650027  -16.430833883   953.8691   2   8   0.0218   0.0273   0.0740   0.0099  -0.0241  -0.0289  11.00    1.3
2024/05/10 11:29:12.000   28.439650026  -16.430833884   953.8691   2   8   0.0218   0.0274   0.0740   0.0099  -0.0241  -0.0289  12.00    1.2
2024/05/10 11:29:13.000   28.439650025  -16.430833884   953.8691   2   8   0.0218   0.0274   0.0740   0.0099  -0.0241  -0.0289  13.00    1.1
2024/05/10 11:29:14.000   28.439650024  -16.430833884   953.8692   2   8   0.0218   0.0274   0.0740   0.0099  -0.0241  -0.0289  14.00    1.1
2024/05/10 11:29:15.000   28.439650024  -16.430833884   953.8692   2   8   0.0218   0.0273   0.0740   0.0099  -0.0241  -0.0289 -15.00    1.5
2024/05/10 11:29:16.000   28.439650024  -16.430833885   953.8691   2   8   0.0218   0.0273   0.0740   0.0099  -0.0241  -0.0289 -14.00    1.2
2024/05/10 11:29:17.000   28.439650023  -16.430833885   953.8690   2   8   0.0218   0.0273   0.0740   0.0099  -0.0241  -0.0289 -13.00    1.4
2024/05/10 11:29:18.000   28.439650023  -16.430833885   953.8689   2   8   0.0218   0.0273   0.0740   0.0099  -0.0241  -0.0289 -12.00    1.2
2024/05/10 11:29:19.000   28.439650023  -16.430833885   953.8689   2   8   0.0218   0.0273   0.0740   0.0099  -0.0241  -0.0289 -11.00    1.2
2024/05/10 11:29:20.000   28.439650023  -16.430833885   953.8688   2   8   0.0218   0.0273   0.0740   0.0099  -0.0241  -0.0289 -10.00    1.2
2024/05/10 11:29:21.000   28.439650022  -16.430833886   953.8688   2   8   0.0218   0.0273   0.0740   0.0099  -0.0241  -0.0289  -9.00    1.0
2024/05/10 11:29:22.000   28.439650022  -16.430833886   953.8686   2   8   0.0218   0.0273   0.0740   0.0099  -0.0241  -0.0289  -8.00    1.1
2024/05/10 11:29:23.000   28.439650022  -16.430833886   953.8684   2   8   0.0218   0.0273   0.0740   0.0099  -0.0241  -0.0289  -7.00    1.5
2024/05/10 11:29:24.000   28.439650021  -16.430833886   953.8683   2   8   0.0218   0.0273   0.0740   0.0099  -0.0241  -0.0289  -6.00    1.3
2024/05/10 11:29:25.000   28.439650021  -16.430833888   953.8681   2   8   0.0218   0.0273   0.0740   0.0099  -0.0241  -0.0289  -5.00    1.4
2024/05/10 11:29:26.000   28.439650021  -16.430833889   953.8681   2   8   0.0218   0.0274   0.0740   0.0099  -0.0241  -0.0289  -4.00    1.1
2024/05/10 11:29:27.000   28.439650020  -16.430833891   953.8680   2   8   0.0218   0.0274   0.0740   0.0099  -0.0241  -0.0289  -3.00    1.1
2024/05/10 11:29:28.000   28.439650020  -16.430833892   953.8678   2   8   0.0218   0.0274   0.0740   0.0099  -0.0241  -0.0289  -2.00    1.2
2024/05/10 11:29:29.000   28.439650019  -16.430833892   953.8677   2   8   0.0218   0.0274   0.0740   0.0099  -0.0241  -0.0289  -1.00    1.0
2024/05/10 11:29:30.000   28.439650019  -16.430833893   953.8678   2   8   0.0218   0.0274   0.0740   0.0099  -0.0241  -0.0289   0.00    1.1
2024/05/10 11:29:31.000   28.439650019  -16.430833895   953.8677   2   8   0.0218   0.0274   0.0740   0.0099  -0.0241  -0.0289   1.00    1.3
2024/05/10 11:29:32.000   28.439650019  -16.430833896   953.8676   2   8   0.0218   0.0274   0.0741   0.0099  -0.0242  -0.0289   2.00    1.2
2024/05/10 11:29:33.000   28.439650018  -16.430833898   953.8677   2   8   0.0218   0.0274   0.0741   0.0099  -0.0242  -0.0289   3.00    1.4
2024/05/10 11:29:34.000   28.439650017  -16.430833899   953.8680   2   8   0.0219   0.0274   0.0741   0.0099  -0.0242  -0.0289   4.00    1.3
2024/05/10 11:29:35.000   28.439650016  -16.430833901   953.8684   2   8   0.0219   0.0274   0.0741   0.0099  -0.0242  -0.0289   5.00    1.2
2024/05/10 11:29:36.000   28.439650015  -16.430833902   953.8688   2   8   0.0219   0.0274   0.0741   0.0099  -0.0242  -0.0289   6.00    1.3
2024/05/10 11:29:37.000   28.439650015  -16.430833901   953.8690   2   8   0.0219   0.0274   0.0741   0.0099  -0.0242  -0.0289   7.00    1.2
2024/05/10 11:29:38.000   28.439650015  -16.430833902   953.8693   2   8   0.0219   0.0274   0.0741   0.0099  -0.0242  -0.0289   8.00    1.2
2024/05/10 11:29:39.000   28.439650015  -16.430833903   953.8693   2   8   0.0219   0.0274   0.0741   0.0099  -0.0242  -0.0289   9.00    1.3
2024/05/10 11:29:40.000   28.439650015  -16.430833904   953.8694   2   8   0.0219   0.0274   0.0741   0.0099  -0.0242  -0.0289  10.00    1.4
2024/05/10 11:29:41.000   28.439650015  -16.430833905   953.8695   2   8   0.0219   0.0274   0.0741   0.0099  -0.0242  -0.0289  11.00    1.5
2024/05/10 11:29:42.000   28.439650015  -16.430833905   953.8696   2   8   0.0219   0.0274   0.0741   0.0099  -0.0242  -0.0289  12.00    1.2
2024/05/10 11:29:43.000   28.439650015  -16.430833906   953.8697   2   8   0.0219   0.0274   0.0741   0.0099  -0.0242  -0.0289  13.00    1.1
2024/05/10 11:29:44.000   28.439650015  -16.430833907   953.8698   2   8   0.0219   0.0274   0.0741   0.0099  -0.0242  -0.0289  14.00    1.3
2024/05/10 11:29:45.000   28.439650014  -16.430833908   953.8698   2   8   0.0219   0.0274   0.0741   0.0099  -0.0242  -0.0289 -15.00    1.1
2024/05/10 11:29:46.000   28.439650014  -16.430833909   953.8700   2   8   0.0219   0.0274   0.0741   0.0099  -0.0242  -0.0289 -14.00    1.2
2024/05/10 11:29:47.000   28.439650014  -16.430833910   953.8701   2   8   0.0219   0.0274   0.0741   0.0099  -0.0242  -0.0289 -13.00    1.4
2024/05/10 11:29:48.000   28.439650014  -16.430833911   953.8704   2   8   0.0219   0.0274   0.0741   0.0099  -0.0242  -0.0289 -12.00    1.4
2024/05/10 11:29:49.000   28.439650013  -16.430833913   953.8706   2   8   0.0219   0.0274   0.0741   0.0099  -0.0242  -0.0289 -11.00    1.4
2024/05/10 11:29:50.000   28.439650013  -16.430833915   953.8711   2   8   0.0219   0.0274   0.0741   0.0099  -0.0242  -0.0289 -10.00    1.2
2024/05/10 11:29:51.000   28.439650012  -16.430833917   953.8715   2   8   0.0219   0.0274   0.0741   0.0099  -0.0242  -0.0289  -9.00    1.0
2024/05/10 11:29:52.000   28.439650012  -16.430833919   953.8719   2   8   0.0219   0.0274   0.0741   0.0099  -0.0242  -0.0289  -8.00    1.3
2024/05/10 11:29:53.000   28.439650011  -16.430833923   953.8723   2   8   0.0219   0.0274   0.0741   0.0098  -0.0242  -0.0289  -7.00    1.1
2024/05/10 11:29:54.000   28.439650011  -16.430833929   953.8727   2   8   0.0219   0.0274   0.0741   0.0098  -0.0242  -0.0289  -6.00    1.1
2024/05/10 11:29:55.000   28.439650013  -16.430833935   953.8732   2   8   0.0219   0.0274   0.0741   0.0098  -0.0242  -0.0289  -5.00    1.4
2024/05/10 11:29:56.000   28.439650015  -16.430833941   953.8738   2   8   0.0219   0.0274   0.0741   0.0098  -0.0242  -0.0289  -4.00    1.3
2024/05/10 11:29:57.000   28.439650016  -16.430833948   953.8744   2   8   0.0219   0.0274   0.0741   0.0098  -0.0242  -0.0289  -3.00    1.4
2024/05/10 11:29:58.000   28.439650018  -16.430833955   953.8752   2   8   0.0219   0.0274   0.0741   0.0098  -0.0242  -0.0289  -2.00    1.1
2024/05/10 11:29:59.000   28.439650021  -16.430833964   953.8758   2   8   0.0219   0.0274   0.0741   0.0098  -0.0242  -0.0289  -1.00    1.0
2024/05/10 11:30:00.000   28.439650026  -16.430833970   953.8760   2   8   0.0219   0.0274   0.0741   0.0098  -0.0242  -0.0289   0.00    1.3
2024/05/10 11:30:01.000   28.439650031  -16.430833976   953.8764   2   8   0.0219   0.0274   0.0741   0.0098  -0.0242  -0.0289   1.00    1.3
2024/05/10 11:30:02.000   28.439650035  -16.430833983   953.8769   2   8   0.0219   0.0274   0.0741   0.0098  -0.0242  -0.0289   2.00    1.1
2024/05/10 11:30:03.000   28.439650040  -16.430833990   953.8772   2   8   0.0219   0.0274   0.0742   0.0098  -0.0243  -0.0289   3.00    1.2
2024/05/10 11:30:04.000   28.439650044  -16.430833997   953.8777   2   8   0.0219   0.0274   0.0742   0.0098  -0.0243  -0.0289   4.00    1.2
2024/05/10 11:30:05.000   28.439650046  -16.430834002   953.8781   2   8   0.0219   0.0274   0.0742   0.0098  -0.0243  -0.0289   5.00    1.3
2024/05/10 11:30:06.000   28.439650048  -16.430834005   953.8782   2   8   0.0219   0.0275   0.0742   0.0098  -0.0243  -0.0289   6.00    1.2
2024/05/10 11:30:07.000   28.439650049  -16.430834009   953.8787   2   8   0.0219   0.0275   0.0742   0.0098  -0.0243  -0.0289   7.00    1.1
2024/05/10 11:30:08.000   28.439650050  -16.430834012   953.8791   2   8   0.0219   0.0275   0.0742   0.0098  -0.0243  -0.0289   8.00    1.3
2024/05/10 11:30:09.000   28.439650050  -16.430834014   953.8795   2   8   0.0219   0.0275   0.0742   0.0098  -0.0243  -0.0289   9.00    1.1
2024/05/10 11:30:10.000   28.439650051  -16.430834016   953.8800   2   8   0.0219   0.0275   0.0742   0.0098  -0.0243  -0.0289  10.00    1.1
2024/05/10 11:30:11.000   28.439650051  -16.430834018   953.8805   2   8   0.0219   0.0275   0.0742   0.0098  -0.0243  -0.0289  11.00    1.3
2024/05/10 11:30:12.000   28.439650051  -16.430834019   953.8808   2   8   0.0219   0.0275   0.0742   0.0098  -0.0243  -0.0289  12.00    1.2
2024/05/10 11:30:13.000   28.439650051  -16.430834020   953.8811   2   8   0.0219   0.0275   0.0742   0.0098  -0.0243  -0.0289  13.00    1.3
2024/05/10 11:30:14.000   28.439650051  -16.430834021   953.8813   2   8   0.0219   0.0275   0.0742   0.0098  -0.0243  -0.0289  14.00    1.1
2024/05/10 11:30:15.000   28.439650051  -16.430834022   953.8815   2   8   0.0219   0.0275   0.0742   0.0098  -0.0243  -0.0289 -15.00    1.1
2024/05/10 11:30:16.000   28.439650051  -16.430834023   953.8818   2   8   0.0219   0.0275   0.0742   0.0098  -0.0243  -0.0289 -14.00    1.3
2024/05/10 11:30:17.000   28.439650050  -16.430834023   953.8821   2   8   0.0219   0.0275   0.0742   0.0098  -0.0243  -0.0289 -13.00    1.0
2024/05/10 11:30:18.000   28.439650049  -16.430834024   953.8826   2   8   0.0219   0.0274   0.0742   0.0098  -0.0243  -0.0289 -12.00    1.1
2024/05/10 11:30:19.000   28.439650049  -16.430834026   953.8830   2   8   0.0219   0.0274   0.0742   0.0098  -0.0243  -0.0289 -11.00    1.2
2024/05/10 11:30:20.000   28.439650048  -16.430834028   953.8836   2   8   0.0219   0.0274   0.0742   0.0098  -0.0243  -0.0289 -10.00    1.2
2024/05/10 11:30:21.000   28.439650047  -16.430834030   953.8844   2   8   0.0219   0.0274   0.0742   0.0098  -0.0243  -0.0289  -9.00    1.3
2024/05/10 11:30:22.000   28.439650045  -16.430834033   953.8852   2   8   0.0219   0.0274   0.0742   0.0098  -0.0243  -0.0288  -8.00    1.1
2024/05/10 11:30:23.000   28.439650045  -16.430834036   953.8860   2   8   0.0219   0.0274   0.0742   0.0098  -0.0243  -0.0288  -7.00    1.2
2024/05/10 11:30:24.000   28.439650045  -16.430834040   953.8867   2   8   0.0219   0.0274   0.0742   0.0098  -0.0243  -0.0288  -6.00    1.4
2024/05/10 11:30:25.000   28.439650047  -16.430834045   953.8873   2   8   0.0219   0.0274   0.0742   0.0098  -0.0243  -0.0288  -5.00    1.1
2024/05/10 11:30:26.000   28.439650050  -16.430834051   953.8876   2   8   0.0219   0.0274   0.0742   0.0098  -0.0243  -0.0288  -4.00    1.1
2024/05/10 11:30:27.000   28.439650054  -16.430834059   953.8877   2   8   0.0219   0.0274   0.0742   0.0098  -0.0243  -0.0288  -3.00    1.1
2024/05/10 11:30:28.000   28.439650059  -16.430834067   953.8876   2   8   0.0219   0.0274   0.0742   0.0098  -0.0243  -0.0288  -2.00    1.1
2024/05/10 11:30:29.000   28.439650065  -16.430834076   953.8873   2   8   0.0219   0.0274   0.0741   0.0098  -0.0243  -0.0288  -1.00    1.4
2024/05/10 11:30:30.000   28.439650070  -16.430834085   953.8874   2   8   0.0219   0.0274   0.0741   0.0098  -0.0243  -0.0288   0.00    1.1
2024/05/10 11:30:31.000   28.439650076  -16.430834095   953.8875   2   8   0.0219   0.0274   0.0741   0.0098  -0.0243  -0.0288   1.00    1.1
2024/05/10 11:30:32.000   28.439650081  -16.430834104   953.8872   2   8   0.0219   0.0274   0.0742   0.0098  -0.0243  -0.0288   2.00    1.4
2024/05/10 11:30:33.000   28.439650085  -16.430834112   953.8869   2   8   0.0219   0.0274   0.0742   0.0098  -0.0243  -0.0288   3.00    1.2
2024/05/10 11:30:34.000   28.439650090  -16.430834119   953.8869   2   8   0.0219   0.0274   0.0742   0.0098  -0.0243  -0.0288   4.00    1.0
2024/05/10 11:30:35.000   28.439650095  -16.430834124   953.8866   2   8   0.0219   0.0275   0.0742   0.0098  -0.0243  -0.0288   5.00    1.1
2024/05/10 11:30:36.000   28.439650099  -16.430834128   953.8862   2   8   0.0219   0.0275   0.0742   0.0098  -0.0243  -0.0288   6.00    1.0
2024/05/10 11:30:37.000   28.439650102  -16.430834131   953.8859   2   8   0.0219   0.0275   0.0742   0.0098  -0.0243  -0.0288   7.00    1.2
2024/05/10 11:30:38.000   28.439650106  -16.430834134   953.8856   2   8   0.0219   0.0275   0.0742   0.0098  -0.0244  -0.0288   8.00    1.1
2024/05/10 11:30:39.000   28.439650109  -16.430834135   953.8852   2   8   0.0219   0.0275   0.0742   0.0098  -0.0244  -0.0288   9.00    1.3
2024/05/10 11:30:40.000   28.439650112  -16.430834136   953.8849   2   8   0.0219   0.0275   0.0742   0.0097  -0.0244  -0.0288  10.00    1.4
2024/05/10 11:30:41.000   28.439650114  -16.430834137   953.8846   2   8   0.0219   0.0275   0.0742   0.0097  -0.0244  -0.0288  11.00    1.1
2024/05/10 11:30:42.000   28.439650117  -16.430834138   953.8844   2   8   0.0219   0.0275   0.0742   0.0097  -0.0244  -0.0288  12.00    1.0
2024/05/10 11:30:43.000   28.439650118  -16.430834138   953.8842   2   8   0.0219   0.0275   0.0742   0.0097  -0.0244  -0.0288  13.00    1.0
2024/05/10 11:30:44.000   28.439650120  -16.430834139   953.8839   2   8   0.0219   0.0274   0.0742   0.0097  -0.0244  -0.0288  14.00    1.0
2024/05/10 11:30:45.000   28.439650122  -16.430834140   953.8838   2   8   0.0219   0.0274   0.0742   0.0097  -0.0244  -0.0288 -15.00    1.2
2024/05/10 11:30:46.000   28.439650123  -16.430834140   953.8837   2   8   0.0219   0.0274   0.0742   0.0097  -0.0244  -0.0288 -14.00    1.1
