% program   : RTKPOST-EX 2.5.0
% inp file  : C:\Users\SallyHenry\Desktop\Sally Internship\GNSS gravi\DATA\Survey Rover Obs\MI05.24o
% inp file  : C:\Users\SallyHenry\Desktop\Sally Internship\GNSS gravi\DATA\BaseStations\TN02\TN0200ESP_R_20241310000_01D_30S_MO.rnx
% inp file  : C:\Users\SallyHenry\Desktop\Sally Internship\GNSS gravi\DATA\BaseStations\TN02\TN0200ESP_R_20241310000_01D_MN.rnx
% inp file  : C:\Users\SallyHenry\Desktop\Sally Internship\GNSS gravi\DATA\aux_files\Survey\IGS0OPSFIN_20241310000_01D_15M_ORB.SP3
% inp file  : C:\Users\SallyHenry\Desktop\Sally Internship\GNSS gravi\DATA\aux_files\Survey\IGS0OPSFIN_20241310000_01D_30S_CLK.CLK
% obs start : 2024/05/10 11:53:33.0 GPST (week2313 474813.0s)
% obs end   : 2024/05/10 12:08:32.0 GPST (week2313 475712.0s)
% pos mode  : Static
% freqs     : L1+L2/E5b
% solution  : Combined-No Phase Reset
% elev mask : 15.0 deg
% dynamics  : on
% tidecorr  : solid
% ionos opt : Estimate TEC
% tropo opt : Estimate ZTD+Grad
% ephemeris : Precise
% navi sys  : GPS GLONASS Galileo QZSS BDS
% amb res   : Fix and Hold
% amb glo   : Fix and Hold
% amb bds   : on
% val thres : 3.0
% antenna1  :                       ( 0.0000  0.0000  1.8000)
% antenna2  :                       ( 0.0000  0.0000  0.0771)
% ref pos   :  28.418257450  -16.550784480    54.4145
%
% (lat/lon/height=WGS84/ellipsoidal,Q=1:fix,2:float,3:sbas,4:dgps,5:single,6:ppp,ns=# of satellites)
%  GPST                  latitude(deg) longitude(deg)  height(m)   Q  ns   sdn(m)   sde(m)   sdu(m)  sdne(m)  sdeu(m)  sdun(m) age(s)  ratio
2024/05/10 11:53:33.000   28.450497376  -16.441625957   650.2708   2   8   0.0239   0.0252   0.0966   0.0136  -0.0239  -0.0408 -27.00    0.0
2024/05/10 11:53:34.000   28.450497377  -16.441625956   650.2677   2   8   0.0239   0.0252   0.0967   0.0136  -0.0240  -0.0408 -26.00    0.0
2024/05/10 11:53:35.000   28.450497377  -16.441625956   650.2656   2   8   0.0239   0.0252   0.0968   0.0136  -0.0240  -0.0408 -25.00    0.0
2024/05/10 11:53:36.000   28.450497377  -16.441625956   650.2635   2   8   0.0239   0.0252   0.0968   0.0137  -0.0240  -0.0408 -24.00    0.0
2024/05/10 11:53:37.000   28.450497379  -16.441625955   650.2612   2   8   0.0240   0.0252   0.0969   0.0137  -0.0240  -0.0409 -23.00    0.0
2024/05/10 11:53:38.000   28.450497380  -16.441625955   650.2592   2   8   0.0240   0.0252   0.0969   0.0137  -0.0240  -0.0409 -22.00    0.0
2024/05/10 11:53:39.000   28.450497381  -16.441625955   650.2575   2   8   0.0240   0.0252   0.0969   0.0137  -0.0240  -0.0409 -21.00    0.0
2024/05/10 11:53:40.000   28.450497382  -16.441625954   650.2561   2   8   0.0240   0.0252   0.0970   0.0137  -0.0240  -0.0409 -20.00    0.0
2024/05/10 11:53:41.000   28.450497382  -16.441625954   650.2550   2   8   0.0240   0.0252   0.0970   0.0137  -0.0240  -0.0409 -19.00    0.0
2024/05/10 11:53:42.000   28.450497382  -16.441625954   650.2540   2   8   0.0240   0.0252   0.0970   0.0136  -0.0240  -0.0409 -18.00    0.0
2024/05/10 11:53:43.000   28.450497383  -16.441625953   650.2530   2   8   0.0240   0.0252   0.0970   0.0136  -0.0240  -0.0409 -17.00    0.0
2024/05/10 11:53:44.000   28.450497384  -16.441625953   650.2518   2   8   0.0240   0.0252   0.0970   0.0136  -0.0240  -0.0409 -16.00    0.0
2024/05/10 11:53:45.000   28.450497385  -16.441625952   650.2508   2   8   0.0240   0.0252   0.0970   0.0136  -0.0240  -0.0409 -15.00    0.0
2024/05/10 11:53:46.000   28.450497385  -16.441625952   650.2498   2   8   0.0240   0.0252   0.0970   0.0136  -0.0240  -0.0409 -14.00    0.0
2024/05/10 11:53:47.000   28.450497386  -16.441625952   650.2489   2   8   0.0240   0.0252   0.0970   0.0136  -0.0240  -0.0409 -13.00    0.0
2024/05/10 11:53:48.000   28.450497386  -16.441625951   650.2478   2   8   0.0240   0.0252   0.0970   0.0136  -0.0240  -0.0409 -12.00    0.0
2024/05/10 11:53:49.000   28.450497387  -16.441625950   650.2465   2   8   0.0240   0.0252   0.0970   0.0136  -0.0240  -0.0409 -11.00    0.0
2024/05/10 11:53:50.000   28.450497387  -16.441625950   650.2453   2   8   0.0240   0.0252   0.0971   0.0136  -0.0240  -0.0409 -10.00    0.0
2024/05/10 11:53:51.000   28.450497388  -16.441625949   650.2438   2   8   0.0240   0.0252   0.0971   0.0136  -0.0240  -0.0409  -9.00    0.0
2024/05/10 11:53:52.000   28.450497389  -16.441625947   650.2420   2   8   0.0240   0.0252   0.0971   0.0136  -0.0240  -0.0409  -8.00    0.0
2024/05/10 11:53:53.000   28.450497389  -16.441625946   650.2403   2   8   0.0240   0.0252   0.0971   0.0136  -0.0240  -0.0409  -7.00    0.0
2024/05/10 11:53:54.000   28.450497389  -16.441625944   650.2388   2   8   0.0240   0.0252   0.0972   0.0136  -0.0240  -0.0409  -6.00    0.0
2024/05/10 11:53:55.000   28.450497389  -16.441625943   650.2372   2   8   0.0240   0.0253   0.0972   0.0136  -0.0240  -0.0409  -5.00    0.0
2024/05/10 11:53:56.000   28.450497388  -16.441625941   650.2356   2   8   0.0240   0.0253   0.0973   0.0136  -0.0240  -0.0409  -4.00    0.0
2024/05/10 11:53:57.000   28.450497386  -16.441625938   650.2342   2   8   0.0240   0.0253   0.0974   0.0136  -0.0240  -0.0410  -3.00    0.0
2024/05/10 11:53:58.000   28.450497383  -16.441625938   650.2331   2   8   0.0240   0.0253   0.0974   0.0136  -0.0240  -0.0410  -2.00    0.0
2024/05/10 11:53:59.000   28.450497380  -16.441625937   650.2317   2   8   0.0241   0.0253   0.0975   0.0137  -0.0240  -0.0410  -1.00    0.0
2024/05/10 11:54:00.000   28.450497374  -16.441625937   650.2310   2   8   0.0241   0.0253   0.0977   0.0137  -0.0241  -0.0411   0.00    0.0
2024/05/10 11:54:01.000   28.450497365  -16.441625938   650.2324   2   8   0.0241   0.0254   0.0978   0.0137  -0.0241  -0.0411   1.00    0.0
2024/05/10 11:54:02.000   28.450497362  -16.441625935   650.2315   2   8   0.0242   0.0254   0.0979   0.0137  -0.0241  -0.0412   2.00    0.0
2024/05/10 11:54:03.000   28.450497361  -16.441625932   650.2297   2   8   0.0242   0.0254   0.0980   0.0137  -0.0242  -0.0412   3.00    0.0
2024/05/10 11:54:04.000   28.450497360  -16.441625930   650.2284   2   8   0.0242   0.0254   0.0981   0.0137  -0.0242  -0.0412   4.00    0.0
2024/05/10 11:54:05.000   28.450497360  -16.441625928   650.2270   2   8   0.0242   0.0255   0.0981   0.0137  -0.0242  -0.0413   5.00    0.0
2024/05/10 11:54:06.000   28.450497361  -16.441625926   650.2258   2   8   0.0242   0.0255   0.0982   0.0137  -0.0242  -0.0413   6.00    0.0
2024/05/10 11:54:07.000   28.450497360  -16.441625923   650.2250   2   8   0.0242   0.0255   0.0983   0.0137  -0.0242  -0.0413   7.00    0.0
2024/05/10 11:54:08.000   28.450497360  -16.441625921   650.2240   2   8   0.0242   0.0255   0.0983   0.0137  -0.0242  -0.0413   8.00    0.0
2024/05/10 11:54:09.000   28.450497360  -16.441625920   650.2234   2   8   0.0242   0.0255   0.0983   0.0137  -0.0242  -0.0413   9.00    0.0
2024/05/10 11:54:10.000   28.450497360  -16.441625918   650.2227   2   8   0.0243   0.0255   0.0984   0.0137  -0.0242  -0.0413  10.00    0.0
2024/05/10 11:54:11.000   28.450497360  -16.441625917   650.2218   2   8   0.0243   0.0255   0.0984   0.0137  -0.0242  -0.0413  11.00    0.0
2024/05/10 11:54:12.000   28.450497360  -16.441625916   650.2211   2   8   0.0243   0.0255   0.0984   0.0137  -0.0242  -0.0413  12.00    0.0
2024/05/10 11:54:13.000   28.450497359  -16.441625916   650.2209   2   8   0.0243   0.0255   0.0984   0.0137  -0.0242  -0.0413  13.00    0.0
2024/05/10 11:54:14.000   28.450497359  -16.441625915   650.2206   2   8   0.0243   0.0255   0.0984   0.0137  -0.0242  -0.0413  14.00    0.0
2024/05/10 11:54:15.000   28.450497359  -16.441625915   650.2202   2   8   0.0243   0.0255   0.0984   0.0137  -0.0242  -0.0413 -15.00    0.0
2024/05/10 11:54:16.000   28.450497359  -16.441625915   650.2200   2   8   0.0243   0.0255   0.0984   0.0137  -0.0242  -0.0413 -14.00    0.0
2024/05/10 11:54:17.000   28.450497358  -16.441625915   650.2199   2   8   0.0243   0.0255   0.0984   0.0137  -0.0242  -0.0413 -13.00    0.0
2024/05/10 11:54:18.000   28.450497357  -16.441625914   650.2199   2   8   0.0243   0.0255   0.0985   0.0137  -0.0242  -0.0413 -12.00    0.0
2024/05/10 11:54:19.000   28.450497357  -16.441625913   650.2197   2   8   0.0243   0.0255   0.0985   0.0137  -0.0242  -0.0413 -11.00    0.0
2024/05/10 11:54:20.000   28.450497356  -16.441625913   650.2196   2   8   0.0243   0.0255   0.0985   0.0137  -0.0242  -0.0413 -10.00    0.0
2024/05/10 11:54:21.000   28.450497356  -16.441625912   650.2193   2   8   0.0243   0.0255   0.0985   0.0137  -0.0242  -0.0413  -9.00    0.0
2024/05/10 11:54:22.000   28.450497355  -16.441625911   650.2190   2   8   0.0243   0.0255   0.0985   0.0137  -0.0242  -0.0414  -8.00    0.0
2024/05/10 11:54:23.000   28.450497354  -16.441625910   650.2187   2   8   0.0243   0.0255   0.0986   0.0137  -0.0242  -0.0414  -7.00    0.0
2024/05/10 11:54:24.000   28.450497353  -16.441625910   650.2185   2   8   0.0243   0.0255   0.0986   0.0137  -0.0242  -0.0414  -6.00    0.0
2024/05/10 11:54:25.000   28.450497350  -16.441625909   650.2184   2   8   0.0243   0.0255   0.0987   0.0137  -0.0242  -0.0414  -5.00    0.0
2024/05/10 11:54:26.000   28.450497348  -16.441625907   650.2184   2   8   0.0243   0.0255   0.0987   0.0137  -0.0242  -0.0414  -4.00    0.0
2024/05/10 11:54:27.000   28.450497345  -16.441625905   650.2181   2   8   0.0243   0.0255   0.0988   0.0137  -0.0242  -0.0414  -3.00    0.0
2024/05/10 11:54:28.000   28.450497343  -16.441625902   650.2177   2   8   0.0243   0.0255   0.0989   0.0137  -0.0243  -0.0415  -2.00    0.0
2024/05/10 11:54:29.000   28.450497337  -16.441625901   650.2182   2   8   0.0244   0.0256   0.0990   0.0137  -0.0243  -0.0415  -1.00    0.0
2024/05/10 11:54:30.000   28.450497332  -16.441625900   650.2188   2   8   0.0244   0.0256   0.0991   0.0137  -0.0243  -0.0415   0.00    0.0
2024/05/10 11:54:31.000   28.450497329  -16.441625898   650.2185   2   8   0.0244   0.0256   0.0992   0.0138  -0.0243  -0.0416   1.00    0.0
2024/05/10 11:54:32.000   28.450497325  -16.441625892   650.2189   2   8   0.0244   0.0256   0.0993   0.0138  -0.0244  -0.0416   2.00    0.0
2024/05/10 11:54:33.000   28.450497320  -16.441625891   650.2196   2   8   0.0245   0.0257   0.0994   0.0138  -0.0244  -0.0417   3.00    0.0
2024/05/10 11:54:34.000   28.450497316  -16.441625890   650.2199   2   8   0.0245   0.0257   0.0995   0.0138  -0.0244  -0.0417   4.00    0.0
2024/05/10 11:54:35.000   28.450497312  -16.441625890   650.2204   2   8   0.0245   0.0257   0.0996   0.0138  -0.0244  -0.0417   5.00    0.0
2024/05/10 11:54:36.000   28.450497309  -16.441625890   650.2205   2   8   0.0245   0.0257   0.0996   0.0138  -0.0244  -0.0417   6.00    0.0
2024/05/10 11:54:37.000   28.450497305  -16.441625888   650.2210   2   8   0.0245   0.0257   0.0997   0.0138  -0.0244  -0.0417   7.00    0.0
2024/05/10 11:54:38.000   28.450497302  -16.441625888   650.2215   2   8   0.0245   0.0257   0.0997   0.0138  -0.0244  -0.0418   8.00    0.0
2024/05/10 11:54:39.000   28.450497300  -16.441625888   650.2220   2   8   0.0245   0.0257   0.0997   0.0138  -0.0244  -0.0418   9.00    0.0
2024/05/10 11:54:40.000   28.450497297  -16.441625887   650.2225   2   8   0.0245   0.0257   0.0998   0.0138  -0.0244  -0.0418  10.00    0.0
2024/05/10 11:54:41.000   28.450497294  -16.441625887   650.2230   2   8   0.0245   0.0257   0.0998   0.0138  -0.0244  -0.0418  11.00    0.0
2024/05/10 11:54:42.000   28.450497293  -16.441625888   650.2234   2   8   0.0245   0.0257   0.0998   0.0138  -0.0244  -0.0418  12.00    0.0
2024/05/10 11:54:43.000   28.450497290  -16.441625888   650.2241   2   8   0.0245   0.0257   0.0998   0.0138  -0.0244  -0.0418  13.00    0.0
2024/05/10 11:54:44.000   28.450497289  -16.441625888   650.2244   2   8   0.0245   0.0257   0.0998   0.0138  -0.0244  -0.0418  14.00    0.0
2024/05/10 11:54:45.000   28.450497287  -16.441625888   650.2249   2   8   0.0245   0.0257   0.0998   0.0138  -0.0244  -0.0418 -15.00    0.0
2024/05/10 11:54:46.000   28.450497285  -16.441625889   650.2255   2   8   0.0245   0.0257   0.0999   0.0138  -0.0244  -0.0418 -14.00    0.0
2024/05/10 11:54:47.000   28.450497283  -16.441625889   650.2259   2   8   0.0245   0.0257   0.0999   0.0138  -0.0244  -0.0418 -13.00    0.0
2024/05/10 11:54:48.000   28.450497280  -16.441625889   650.2267   2   8   0.0245   0.0257   0.0999   0.0138  -0.0244  -0.0418 -12.00    0.0
2024/05/10 11:54:49.000   28.450497278  -16.441625889   650.2273   2   8   0.0245   0.0257   0.0999   0.0138  -0.0244  -0.0418 -11.00    0.0
2024/05/10 11:54:50.000   28.450497275  -16.441625890   650.2279   2   8   0.0245   0.0257   0.0999   0.0138  -0.0244  -0.0418 -10.00    0.0
2024/05/10 11:54:51.000   28.450497271  -16.441625891   650.2289   2   8   0.0245   0.0257   0.0999   0.0138  -0.0244  -0.0418  -9.00    0.0
2024/05/10 11:54:52.000   28.450497268  -16.441625892   650.2299   2   8   0.0246   0.0257   0.1000   0.0138  -0.0244  -0.0418  -8.00    0.0
2024/05/10 11:54:53.000   28.450497263  -16.441625893   650.2313   2   8   0.0246   0.0257   0.1000   0.0138  -0.0244  -0.0418  -7.00    0.0
2024/05/10 11:54:54.000   28.450497258  -16.441625895   650.2330   2   8   0.0246   0.0257   0.1000   0.0138  -0.0244  -0.0418  -6.00    0.0
2024/05/10 11:54:55.000   28.450497253  -16.441625898   650.2348   2   8   0.0246   0.0257   0.1001   0.0138  -0.0244  -0.0418  -5.00    0.0
2024/05/10 11:54:56.000   28.450497247  -16.441625901   650.2366   2   8   0.0246   0.0257   0.1001   0.0138  -0.0244  -0.0419  -4.00    0.0
2024/05/10 11:54:57.000   28.450497241  -16.441625905   650.2380   2   8   0.0246   0.0258   0.1002   0.0138  -0.0244  -0.0419  -3.00    0.0
2024/05/10 11:54:58.000   28.450497236  -16.441625908   650.2389   2   8   0.0246   0.0258   0.1003   0.0138  -0.0245  -0.0419  -2.00    0.0
2024/05/10 11:54:59.000   28.450497232  -16.441625910   650.2396   2   8   0.0246   0.0258   0.1004   0.0138  -0.0245  -0.0419  -1.00    0.0
2024/05/10 11:55:00.000   28.450497230  -16.441625911   650.2401   2   8   0.0247   0.0258   0.1005   0.0138  -0.0245  -0.0420   0.00    0.0
2024/05/10 11:55:01.000   28.450497229  -16.441625911   650.2409   2   8   0.0247   0.0258   0.1006   0.0138  -0.0245  -0.0420   1.00    0.0
2024/05/10 11:55:02.000   28.450497229  -16.441625911   650.2410   2   8   0.0247   0.0259   0.1007   0.0138  -0.0246  -0.0421   2.00    0.0
2024/05/10 11:55:03.000   28.450497231  -16.441625910   650.2407   2   8   0.0247   0.0259   0.1008   0.0138  -0.0246  -0.0421   3.00    0.0
2024/05/10 11:55:04.000   28.450497231  -16.441625910   650.2411   2   8   0.0248   0.0259   0.1009   0.0139  -0.0246  -0.0421   4.00    0.0
2024/05/10 11:55:05.000   28.450497232  -16.441625908   650.2408   2   8   0.0248   0.0259   0.1009   0.0139  -0.0246  -0.0421   5.00    0.0
2024/05/10 11:55:06.000   28.450497233  -16.441625908   650.2406   2   8   0.0248   0.0259   0.1010   0.0139  -0.0246  -0.0422   6.00    0.0
2024/05/10 11:55:07.000   28.450497234  -16.441625908   650.2402   2   8   0.0248   0.0259   0.1010   0.0139  -0.0246  -0.0422   7.00    0.0
2024/05/10 11:55:08.000   28.450497234  -16.441625908   650.2401   2   8   0.0248   0.0259   0.1011   0.0139  -0.0246  -0.0422   8.00    0.0
2024/05/10 11:55:09.000   28.450497235  -16.441625908   650.2400   2   8   0.0248   0.0259   0.1011   0.0139  -0.0246  -0.0422   9.00    0.0
2024/05/10 11:55:10.000   28.450497235  -16.441625908   650.2398   2   8   0.0248   0.0260   0.1011   0.0139  -0.0246  -0.0422  10.00    0.0
2024/05/10 11:55:11.000   28.450497235  -16.441625907   650.2396   2   8   0.0248   0.0260   0.1012   0.0139  -0.0246  -0.0422  11.00    0.0
2024/05/10 11:55:12.000   28.450497236  -16.441625907   650.2393   2   8   0.0248   0.0260   0.1012   0.0139  -0.0246  -0.0422  12.00    0.0
2024/05/10 11:55:13.000   28.450497235  -16.441625907   650.2393   2   8   0.0248   0.0260   0.1012   0.0139  -0.0246  -0.0422  13.00    0.0
2024/05/10 11:55:14.000   28.450497235  -16.441625907   650.2391   2   8   0.0248   0.0260   0.1012   0.0139  -0.0246  -0.0422  14.00    0.0
2024/05/10 11:55:15.000   28.450497235  -16.441625907   650.2390   2   8   0.0248   0.0260   0.1012   0.0139  -0.0246  -0.0422 -15.00    0.0
2024/05/10 11:55:16.000   28.450497235  -16.441625907   650.2390   2   8   0.0248   0.0259   0.1012   0.0139  -0.0246  -0.0422 -14.00    0.0
2024/05/10 11:55:17.000   28.450497235  -16.441625908   650.2389   2   8   0.0248   0.0259   0.1012   0.0139  -0.0246  -0.0422 -13.00    0.0
2024/05/10 11:55:18.000   28.450497235  -16.441625908   650.2389   2   8   0.0248   0.0259   0.1012   0.0138  -0.0246  -0.0422 -12.00    0.0
2024/05/10 11:55:19.000   28.450497235  -16.441625908   650.2386   2   8   0.0248   0.0259   0.1012   0.0138  -0.0246  -0.0422 -11.00    0.0
2024/05/10 11:55:20.000   28.450497235  -16.441625907   650.2384   2   8   0.0248   0.0259   0.1013   0.0138  -0.0246  -0.0422 -10.00    0.0
2024/05/10 11:55:21.000   28.450497234  -16.441625908   650.2386   2   8   0.0248   0.0259   0.1013   0.0138  -0.0246  -0.0422  -9.00    0.0
2024/05/10 11:55:22.000   28.450497233  -16.441625909   650.2384   2   8   0.0248   0.0260   0.1013   0.0138  -0.0246  -0.0422  -8.00    0.0
2024/05/10 11:55:23.000   28.450497233  -16.441625910   650.2380   2   8   0.0248   0.0260   0.1013   0.0138  -0.0246  -0.0422  -7.00    0.0
2024/05/10 11:55:24.000   28.450497233  -16.441625910   650.2375   2   8   0.0248   0.0260   0.1014   0.0138  -0.0246  -0.0422  -6.00    0.0
2024/05/10 11:55:25.000   28.450497231  -16.441625910   650.2373   2   8   0.0248   0.0260   0.1014   0.0138  -0.0246  -0.0423  -5.00    0.0
2024/05/10 11:55:26.000   28.450497230  -16.441625910   650.2370   2   8   0.0249   0.0260   0.1015   0.0138  -0.0246  -0.0423  -4.00    0.0
2024/05/10 11:55:27.000   28.450497229  -16.441625909   650.2362   2   8   0.0249   0.0260   0.1015   0.0138  -0.0247  -0.0423  -3.00    0.0
2024/05/10 11:55:28.000   28.450497227  -16.441625910   650.2354   2   8   0.0249   0.0260   0.1016   0.0139  -0.0247  -0.0423  -2.00    0.0
2024/05/10 11:55:29.000   28.450497225  -16.441625910   650.2339   2   8   0.0249   0.0260   0.1017   0.0139  -0.0247  -0.0424  -1.00    0.0
2024/05/10 11:55:30.000   28.450497223  -16.441625911   650.2327   2   8   0.0249   0.0260   0.1018   0.0139  -0.0247  -0.0424   0.00    0.0
2024/05/10 11:55:31.000   28.450497223  -16.441625912   650.2311   2   8   0.0250   0.0261   0.1019   0.0139  -0.0247  -0.0424   1.00    0.0
2024/05/10 11:55:32.000   28.450497219  -16.441625914   650.2311   2   8   0.0250   0.0261   0.1020   0.0139  -0.0248  -0.0425   2.00    0.0
2024/05/10 11:55:33.000   28.450497216  -16.441625915   650.2307   2   8   0.0250   0.0261   0.1021   0.0139  -0.0248  -0.0425   3.00    0.0
2024/05/10 11:55:34.000   28.450497212  -16.441625916   650.2303   2   8   0.0250   0.0261   0.1021   0.0139  -0.0248  -0.0425   4.00    0.0
2024/05/10 11:55:35.000   28.450497209  -16.441625919   650.2297   2   8   0.0250   0.0261   0.1022   0.0139  -0.0248  -0.0425   5.00    0.0
2024/05/10 11:55:36.000   28.450497206  -16.441625921   650.2293   2   8   0.0250   0.0261   0.1023   0.0139  -0.0248  -0.0426   6.00    0.0
2024/05/10 11:55:37.000   28.450497202  -16.441625923   650.2290   2   8   0.0251   0.0262   0.1023   0.0139  -0.0248  -0.0426   7.00    0.0
2024/05/10 11:55:38.000   28.450497198  -16.441625926   650.2293   2   8   0.0251   0.0262   0.1023   0.0139  -0.0248  -0.0426   8.00    0.0
2024/05/10 11:55:39.000   28.450497194  -16.441625929   650.2296   2   8   0.0251   0.0262   0.1024   0.0139  -0.0248  -0.0426   9.00    0.0
2024/05/10 11:55:40.000   28.450497191  -16.441625932   650.2300   2   8   0.0251   0.0262   0.1024   0.0139  -0.0248  -0.0426  10.00    0.0
2024/05/10 11:55:41.000   28.450497187  -16.441625934   650.2304   2   8   0.0251   0.0262   0.1024   0.0139  -0.0248  -0.0426  11.00    0.0
2024/05/10 11:55:42.000   28.450497185  -16.441625936   650.2307   2   8   0.0251   0.0262   0.1024   0.0139  -0.0248  -0.0426  12.00    0.0
2024/05/10 11:55:43.000   28.450497183  -16.441625938   650.2308   2   8   0.0251   0.0262   0.1024   0.0139  -0.0248  -0.0426  13.00    0.0
2024/05/10 11:55:44.000   28.450497181  -16.441625940   650.2311   2   8   0.0251   0.0262   0.1025   0.0139  -0.0248  -0.0426  14.00    0.0
2024/05/10 11:55:45.000   28.450497180  -16.441625941   650.2313   2   8   0.0251   0.0262   0.1025   0.0139  -0.0248  -0.0426 -15.00    0.0
2024/05/10 11:55:46.000   28.450497179  -16.441625942   650.2313   2   8   0.0251   0.0262   0.1025   0.0139  -0.0248  -0.0426 -14.00    0.0
2024/05/10 11:55:47.000   28.450497178  -16.441625944   650.2315   2   8   0.0251   0.0262   0.1025   0.0139  -0.0248  -0.0426 -13.00    0.0
2024/05/10 11:55:48.000   28.450497176  -16.441625946   650.2317   2   8   0.0251   0.0262   0.1025   0.0139  -0.0248  -0.0426 -12.00    0.0
2024/05/10 11:55:49.000   28.450497175  -16.441625948   650.2320   2   8   0.0251   0.0262   0.1025   0.0139  -0.0248  -0.0426 -11.00    0.0
2024/05/10 11:55:50.000   28.450497174  -16.441625950   650.2321   2   8   0.0251   0.0262   0.1025   0.0139  -0.0248  -0.0426 -10.00    0.0
2024/05/10 11:55:51.000   28.450497172  -16.441625952   650.2322   2   8   0.0251   0.0262   0.1025   0.0139  -0.0248  -0.0426  -9.00    0.0
2024/05/10 11:55:52.000   28.450497170  -16.441625954   650.2323   2   8   0.0251   0.0262   0.1026   0.0139  -0.0248  -0.0426  -8.00    0.0
2024/05/10 11:55:53.000   28.450497168  -16.441625957   650.2326   2   8   0.0251   0.0262   0.1026   0.0139  -0.0248  -0.0426  -7.00    0.0
2024/05/10 11:55:54.000   28.450497165  -16.441625959   650.2328   2   8   0.0251   0.0262   0.1026   0.0139  -0.0248  -0.0426  -6.00    0.0
2024/05/10 11:55:55.000   28.450497162  -16.441625962   650.2327   2   8   0.0251   0.0262   0.1026   0.0139  -0.0248  -0.0426  -5.00    0.0
2024/05/10 11:55:56.000   28.450497161  -16.441625964   650.2319   2   8   0.0251   0.0262   0.1027   0.0139  -0.0248  -0.0427  -4.00    0.0
2024/05/10 11:55:57.000   28.450497158  -16.441625966   650.2316   2   8   0.0251   0.0262   0.1027   0.0139  -0.0248  -0.0427  -3.00    0.0
2024/05/10 11:55:58.000   28.450497155  -16.441625968   650.2309   2   8   0.0251   0.0262   0.1028   0.0139  -0.0248  -0.0427  -2.00    0.0
2024/05/10 11:55:59.000   28.450497152  -16.441625971   650.2299   2   8   0.0252   0.0262   0.1029   0.0139  -0.0249  -0.0427  -1.00    0.0
2024/05/10 11:56:00.000   28.450497150  -16.441625976   650.2289   2   8   0.0252   0.0263   0.1030   0.0139  -0.0249  -0.0428   0.00    0.0
2024/05/10 11:56:01.000   28.450497151  -16.441625980   650.2263   2   8   0.0252   0.0263   0.1031   0.0139  -0.0249  -0.0428   1.00    0.0
2024/05/10 11:56:02.000   28.450497152  -16.441625982   650.2242   2   8   0.0252   0.0263   0.1032   0.0140  -0.0249  -0.0428   2.00    0.0
2024/05/10 11:56:03.000   28.450497150  -16.441625985   650.2230   2   8   0.0252   0.0263   0.1033   0.0140  -0.0249  -0.0429   3.00    0.0
2024/05/10 11:56:04.000   28.450497147  -16.441625987   650.2220   2   8   0.0253   0.0263   0.1033   0.0140  -0.0250  -0.0429   4.00    0.0
2024/05/10 11:56:05.000   28.450497146  -16.441625988   650.2211   2   8   0.0253   0.0263   0.1034   0.0140  -0.0250  -0.0429   5.00    0.0
2024/05/10 11:56:06.000   28.450497145  -16.441625989   650.2206   2   8   0.0253   0.0263   0.1034   0.0140  -0.0250  -0.0429   6.00    0.0
2024/05/10 11:56:07.000   28.450497145  -16.441625990   650.2200   2   8   0.0253   0.0264   0.1035   0.0140  -0.0250  -0.0429   7.00    0.0
2024/05/10 11:56:08.000   28.450497145  -16.441625992   650.2196   2   8   0.0253   0.0264   0.1035   0.0140  -0.0250  -0.0429   8.00    0.0
2024/05/10 11:56:09.000   28.450497144  -16.441625993   650.2193   2   8   0.0253   0.0264   0.1035   0.0140  -0.0250  -0.0429   9.00    0.0
2024/05/10 11:56:10.000   28.450497144  -16.441625993   650.2191   2   8   0.0253   0.0264   0.1036   0.0140  -0.0250  -0.0430  10.00    0.0
2024/05/10 11:56:11.000   28.450497144  -16.441625994   650.2192   2   8   0.0253   0.0264   0.1036   0.0140  -0.0250  -0.0430  11.00    0.0
2024/05/10 11:56:12.000   28.450497144  -16.441625994   650.2190   2   8   0.0253   0.0264   0.1036   0.0140  -0.0250  -0.0430  12.00    0.0
2024/05/10 11:56:13.000   28.450497144  -16.441625994   650.2191   2   8   0.0253   0.0264   0.1036   0.0140  -0.0250  -0.0430  13.00    0.0
2024/05/10 11:56:14.000   28.450497143  -16.441625995   650.2194   2   8   0.0253   0.0264   0.1036   0.0140  -0.0250  -0.0430  14.00    0.0
2024/05/10 11:56:15.000   28.450497143  -16.441625996   650.2195   2   8   0.0253   0.0264   0.1036   0.0140  -0.0250  -0.0430 -15.00    1.1
2024/05/10 11:56:16.000   28.450497143  -16.441625996   650.2196   2   8   0.0253   0.0264   0.1036   0.0140  -0.0250  -0.0430 -14.00    1.3
2024/05/10 11:56:17.000   28.450497143  -16.441625997   650.2198   2   8   0.0253   0.0264   0.1036   0.0140  -0.0250  -0.0430 -13.00    1.1
2024/05/10 11:56:18.000   28.450497142  -16.441625997   650.2199   2   8   0.0253   0.0264   0.1036   0.0140  -0.0250  -0.0430 -12.00    1.0
2024/05/10 11:56:19.000   28.450497141  -16.441625998   650.2203   2   8   0.0253   0.0264   0.1036   0.0140  -0.0250  -0.0430 -11.00    1.0
2024/05/10 11:56:20.000   28.450497140  -16.441625998   650.2208   2   8   0.0253   0.0264   0.1036   0.0140  -0.0250  -0.0430 -10.00    1.0
2024/05/10 11:56:21.000   28.450497139  -16.441625999   650.2212   2   8   0.0253   0.0264   0.1037   0.0140  -0.0250  -0.0430  -9.00    1.1
2024/05/10 11:56:22.000   28.450497138  -16.441626000   650.2219   2   8   0.0253   0.0264   0.1037   0.0140  -0.0250  -0.0430  -8.00    1.1
2024/05/10 11:56:23.000   28.450497136  -16.441626000   650.2227   2   8   0.0253   0.0264   0.1037   0.0140  -0.0250  -0.0430  -7.00    1.1
2024/05/10 11:56:24.000   28.450497133  -16.441626001   650.2233   2   8   0.0253   0.0264   0.1037   0.0140  -0.0250  -0.0430  -6.00    1.3
2024/05/10 11:56:25.000   28.450497131  -16.441626001   650.2241   2   8   0.0253   0.0264   0.1038   0.0140  -0.0250  -0.0430  -5.00    1.0
2024/05/10 11:56:26.000   28.450497127  -16.441626001   650.2252   2   8   0.0253   0.0264   0.1038   0.0140  -0.0250  -0.0430  -4.00    1.1
2024/05/10 11:56:27.000   28.450497123  -16.441626002   650.2263   2   8   0.0254   0.0264   0.1039   0.0140  -0.0250  -0.0430  -3.00    1.0
2024/05/10 11:56:28.000   28.450497119  -16.441626001   650.2276   2   8   0.0254   0.0264   0.1039   0.0140  -0.0250  -0.0430  -2.00    1.1
2024/05/10 11:56:29.000   28.450497112  -16.441626000   650.2294   2   8   0.0254   0.0264   0.1040   0.0140  -0.0250  -0.0431  -1.00    1.1
2024/05/10 11:56:30.000   28.450497104  -16.441626002   650.2312   2   8   0.0254   0.0264   0.1041   0.0140  -0.0250  -0.0431   0.00    1.0
2024/05/10 11:56:31.000   28.450497096  -16.441626001   650.2325   2   8   0.0254   0.0265   0.1041   0.0140  -0.0251  -0.0431   1.00    1.1
2024/05/10 11:56:32.000   28.450497090  -16.441626000   650.2336   2   8   0.0254   0.0265   0.1042   0.0140  -0.0251  -0.0432   2.00    1.2
2024/05/10 11:56:33.000   28.450497087  -16.441625996   650.2338   2   8   0.0255   0.0265   0.1043   0.0140  -0.0251  -0.0432   3.00    1.0
2024/05/10 11:56:34.000   28.450497084  -16.441625993   650.2342   2   8   0.0255   0.0265   0.1044   0.0140  -0.0251  -0.0432   4.00    1.1
2024/05/10 11:56:35.000   28.450497082  -16.441625989   650.2348   2   8   0.0255   0.0265   0.1044   0.0140  -0.0251  -0.0432   5.00    1.1
2024/05/10 11:56:36.000   28.450497080  -16.441625988   650.2354   2   8   0.0255   0.0265   0.1045   0.0140  -0.0251  -0.0432   6.00    1.0
2024/05/10 11:56:37.000   28.450497079  -16.441625986   650.2359   2   8   0.0255   0.0265   0.1045   0.0140  -0.0251  -0.0432   7.00    1.1
2024/05/10 11:56:38.000   28.450497079  -16.441625985   650.2361   2   8   0.0255   0.0265   0.1045   0.0140  -0.0251  -0.0433   8.00    1.0
2024/05/10 11:56:39.000   28.450497078  -16.441625983   650.2365   2   8   0.0255   0.0265   0.1046   0.0140  -0.0251  -0.0433   9.00    1.0
2024/05/10 11:56:40.000   28.450497078  -16.441625982   650.2367   2   8   0.0255   0.0265   0.1046   0.0140  -0.0251  -0.0433  10.00    1.2
2024/05/10 11:56:41.000   28.450497078  -16.441625981   650.2369   2   8   0.0255   0.0265   0.1046   0.0140  -0.0251  -0.0433  11.00    1.0
2024/05/10 11:56:42.000   28.450497078  -16.441625981   650.2371   2   8   0.0255   0.0265   0.1046   0.0140  -0.0251  -0.0433  12.00    1.1
2024/05/10 11:56:43.000   28.450497078  -16.441625980   650.2375   2   8   0.0255   0.0265   0.1046   0.0140  -0.0251  -0.0433  13.00    1.1
2024/05/10 11:56:44.000   28.450497078  -16.441625979   650.2377   2   8   0.0255   0.0265   0.1046   0.0140  -0.0251  -0.0433  14.00    1.0
2024/05/10 11:56:45.000   28.450497077  -16.441625979   650.2379   2   8   0.0255   0.0265   0.1046   0.0140  -0.0251  -0.0433 -15.00    1.1
2024/05/10 11:56:46.000   28.450497077  -16.441625978   650.2380   2   8   0.0255   0.0265   0.1046   0.0140  -0.0251  -0.0433 -14.00    1.0
2024/05/10 11:56:47.000   28.450497077  -16.441625978   650.2382   2   8   0.0255   0.0265   0.1046   0.0140  -0.0251  -0.0433 -13.00    1.0
2024/05/10 11:56:48.000   28.450497077  -16.441625977   650.2383   2   8   0.0255   0.0265   0.1046   0.0140  -0.0251  -0.0433 -12.00    1.2
2024/05/10 11:56:49.000   28.450497076  -16.441625976   650.2386   2   8   0.0255   0.0265   0.1046   0.0140  -0.0251  -0.0433 -11.00    1.0
2024/05/10 11:56:50.000   28.450497076  -16.441625974   650.2389   2   8   0.0255   0.0265   0.1047   0.0140  -0.0251  -0.0433 -10.00    1.1
2024/05/10 11:56:51.000   28.450497075  -16.441625973   650.2396   2   8   0.0255   0.0265   0.1047   0.0140  -0.0251  -0.0433  -9.00    1.1
2024/05/10 11:56:52.000   28.450497073  -16.441625971   650.2403   2   8   0.0255   0.0265   0.1047   0.0140  -0.0251  -0.0433  -8.00    1.0
2024/05/10 11:56:53.000   28.450497072  -16.441625969   650.2408   2   8   0.0255   0.0265   0.1047   0.0140  -0.0251  -0.0433  -7.00    1.1
2024/05/10 11:56:54.000   28.450497070  -16.441625967   650.2416   2   8   0.0255   0.0265   0.1047   0.0140  -0.0251  -0.0433  -6.00    1.0
2024/05/10 11:56:55.000   28.450497068  -16.441625962   650.2427   2   8   0.0255   0.0266   0.1048   0.0140  -0.0251  -0.0433  -5.00    1.0
2024/05/10 11:56:56.000   28.450497066  -16.441625958   650.2439   2   8   0.0256   0.0266   0.1048   0.0140  -0.0251  -0.0433  -4.00    1.2
2024/05/10 11:56:57.000   28.450497063  -16.441625951   650.2452   2   8   0.0256   0.0266   0.1048   0.0140  -0.0251  -0.0433  -3.00    1.0
2024/05/10 11:56:58.000   28.450497059  -16.441625944   650.2468   2   8   0.0256   0.0266   0.1049   0.0140  -0.0251  -0.0433  -2.00    1.1
2024/05/10 11:56:59.000   28.450497053  -16.441625937   650.2493   2   8   0.0256   0.0266   0.1049   0.0140  -0.0251  -0.0434  -1.00    1.0
2024/05/10 11:57:00.000   28.450497047  -16.441625928   650.2520   2   8   0.0256   0.0266   0.1050   0.0140  -0.0252  -0.0434   0.00    1.0
2024/05/10 11:57:01.000   28.450497042  -16.441625918   650.2543   2   8   0.0256   0.0266   0.1051   0.0141  -0.0252  -0.0434   1.00    1.0
2024/05/10 11:57:02.000   28.450497038  -16.441625910   650.2563   2   8   0.0256   0.0266   0.1052   0.0141  -0.0252  -0.0434   2.00    1.0
2024/05/10 11:57:03.000   28.450497034  -16.441625903   650.2582   2   8   0.0257   0.0267   0.1052   0.0141  -0.0252  -0.0435   3.00    1.0
2024/05/10 11:57:04.000   28.450497032  -16.441625897   650.2596   2   8   0.0257   0.0267   0.1053   0.0141  -0.0252  -0.0435   4.00    1.3
2024/05/10 11:57:05.000   28.450497028  -16.441625893   650.2616   2   8   0.0257   0.0267   0.1053   0.0141  -0.0252  -0.0435   5.00    1.0
2024/05/10 11:57:06.000   28.450497025  -16.441625888   650.2634   2   8   0.0257   0.0267   0.1054   0.0141  -0.0252  -0.0435   6.00    1.1
2024/05/10 11:57:07.000   28.450497022  -16.441625886   650.2650   2   8   0.0257   0.0267   0.1054   0.0141  -0.0252  -0.0435   7.00    1.1
2024/05/10 11:57:08.000   28.450497019  -16.441625884   650.2665   2   8   0.0257   0.0267   0.1054   0.0141  -0.0252  -0.0435   8.00    1.1
2024/05/10 11:57:09.000   28.450497017  -16.441625884   650.2676   2   8   0.0257   0.0267   0.1055   0.0141  -0.0252  -0.0435   9.00    1.0
2024/05/10 11:57:10.000   28.450497015  -16.441625882   650.2686   2   8   0.0257   0.0267   0.1055   0.0141  -0.0252  -0.0435  10.00    1.0
2024/05/10 11:57:11.000   28.450497013  -16.441625881   650.2695   2   8   0.0257   0.0267   0.1055   0.0141  -0.0252  -0.0435  11.00    1.0
2024/05/10 11:57:12.000   28.450497011  -16.441625881   650.2704   2   8   0.0257   0.0267   0.1055   0.0141  -0.0252  -0.0435  12.00    1.3
2024/05/10 11:57:13.000   28.450497009  -16.441625881   650.2711   2   8   0.0257   0.0267   0.1055   0.0141  -0.0252  -0.0435  13.00    1.0
2024/05/10 11:57:14.000   28.450497007  -16.441625881   650.2717   2   8   0.0257   0.0267   0.1055   0.0141  -0.0252  -0.0435  14.00    1.1
2024/05/10 11:57:15.000   28.450497005  -16.441625881   650.2725   2   8   0.0257   0.0267   0.1055   0.0141  -0.0252  -0.0435 -15.00    1.1
2024/05/10 11:57:16.000   28.450497003  -16.441625881   650.2732   2   8   0.0257   0.0267   0.1055   0.0141  -0.0252  -0.0435 -14.00    1.1
2024/05/10 11:57:17.000   28.450497000  -16.441625881   650.2741   2   8   0.0257   0.0267   0.1055   0.0141  -0.0252  -0.0435 -13.00    1.0
2024/05/10 11:57:18.000   28.450496999  -16.441625880   650.2748   2   8   0.0257   0.0267   0.1055   0.0141  -0.0252  -0.0435 -12.00    1.0
2024/05/10 11:57:19.000   28.450496996  -16.441625881   650.2757   2   8   0.0257   0.0267   0.1055   0.0141  -0.0252  -0.0435 -11.00    1.0
2024/05/10 11:57:20.000   28.450496993  -16.441625882   650.2771   2   8   0.0257   0.0267   0.1055   0.0141  -0.0252  -0.0435 -10.00    1.3
2024/05/10 11:57:21.000   28.450496989  -16.441625883   650.2788   2   8   0.0257   0.0267   0.1055   0.0141  -0.0252  -0.0435  -9.00    1.0
2024/05/10 11:57:22.000   28.450496986  -16.441625883   650.2804   2   8   0.0257   0.0267   0.1056   0.0141  -0.0252  -0.0435  -8.00    1.1
2024/05/10 11:57:23.000   28.450496983  -16.441625883   650.2819   2   8   0.0257   0.0267   0.1056   0.0141  -0.0252  -0.0435  -7.00    1.0
2024/05/10 11:57:24.000   28.450496979  -16.441625883   650.2838   2   8   0.0257   0.0267   0.1056   0.0141  -0.0252  -0.0435  -6.00    1.1
2024/05/10 11:57:25.000   28.450496975  -16.441625882   650.2861   2   8   0.0257   0.0267   0.1056   0.0141  -0.0252  -0.0435  -5.00    1.0
2024/05/10 11:57:26.000   28.450496970  -16.441625880   650.2890   2   8   0.0257   0.0267   0.1056   0.0141  -0.0252  -0.0436  -4.00    1.0
2024/05/10 11:57:27.000   28.450496965  -16.441625878   650.2920   2   8   0.0257   0.0267   0.1057   0.0141  -0.0252  -0.0436  -3.00    1.0
2024/05/10 11:57:28.000   28.450496959  -16.441625874   650.2950   2   8   0.0258   0.0267   0.1057   0.0141  -0.0252  -0.0436  -2.00    1.3
2024/05/10 11:57:29.000   28.450496953  -16.441625871   650.2983   2   8   0.0258   0.0267   0.1058   0.0141  -0.0253  -0.0436  -1.00    1.0
2024/05/10 11:57:30.000   28.450496946  -16.441625869   650.3015   2   8   0.0258   0.0267   0.1058   0.0141  -0.0253  -0.0436   0.00    1.1
2024/05/10 11:57:31.000   28.450496940  -16.441625864   650.3041   2   8   0.0258   0.0268   0.1059   0.0141  -0.0253  -0.0436   1.00    1.1
2024/05/10 11:57:32.000   28.450496935  -16.441625859   650.3066   2   8   0.0258   0.0268   0.1060   0.0141  -0.0253  -0.0437   2.00    1.0
2024/05/10 11:57:33.000   28.450496930  -16.441625854   650.3093   2   8   0.0258   0.0268   0.1060   0.0141  -0.0253  -0.0437   3.00    1.0
2024/05/10 11:57:34.000   28.450496926  -16.441625851   650.3112   2   8   0.0258   0.0268   0.1061   0.0141  -0.0253  -0.0437   4.00    1.0
2024/05/10 11:57:35.000   28.450496922  -16.441625849   650.3127   2   8   0.0258   0.0268   0.1061   0.0141  -0.0253  -0.0437   5.00    1.0
2024/05/10 11:57:36.000   28.450496919  -16.441625848   650.3147   2   8   0.0259   0.0268   0.1061   0.0141  -0.0253  -0.0437   6.00    1.3
2024/05/10 11:57:37.000   28.450496916  -16.441625846   650.3158   2   8   0.0259   0.0268   0.1062   0.0141  -0.0253  -0.0437   7.00    1.0
2024/05/10 11:57:38.000   28.450496914  -16.441625845   650.3170   2   8   0.0259   0.0268   0.1062   0.0141  -0.0253  -0.0437   8.00    1.1
2024/05/10 11:57:39.000   28.450496912  -16.441625843   650.3177   2   8   0.0259   0.0268   0.1062   0.0141  -0.0253  -0.0437   9.00    1.0
2024/05/10 11:57:40.000   28.450496911  -16.441625843   650.3183   2   8   0.0259   0.0268   0.1062   0.0141  -0.0253  -0.0437  10.00    1.1
2024/05/10 11:57:41.000   28.450496909  -16.441625842   650.3190   2   8   0.0259   0.0268   0.1062   0.0141  -0.0253  -0.0437  11.00    1.0
2024/05/10 11:57:42.000   28.450496907  -16.441625842   650.3195   2   8   0.0259   0.0268   0.1062   0.0141  -0.0253  -0.0437  12.00    1.0
2024/05/10 11:57:43.000   28.450496905  -16.441625842   650.3201   2   8   0.0259   0.0268   0.1062   0.0141  -0.0253  -0.0437  13.00    1.0
2024/05/10 11:57:44.000   28.450496904  -16.441625842   650.3204   2   8   0.0259   0.0268   0.1062   0.0141  -0.0253  -0.0437  14.00    1.3
2024/05/10 11:57:45.000   28.450496903  -16.441625842   650.3208   2   8   0.0259   0.0268   0.1062   0.0141  -0.0253  -0.0437 -15.00    1.0
2024/05/10 11:57:46.000   28.450496901  -16.441625843   650.3214   2   8   0.0259   0.0268   0.1063   0.0141  -0.0253  -0.0437 -14.00    1.1
2024/05/10 11:57:47.000   28.450496899  -16.441625843   650.3219   2   8   0.0259   0.0268   0.1063   0.0141  -0.0253  -0.0437 -13.00    1.0
2024/05/10 11:57:48.000   28.450496898  -16.441625843   650.3222   2   8   0.0259   0.0268   0.1063   0.0141  -0.0253  -0.0437 -12.00    1.1
2024/05/10 11:57:49.000   28.450496896  -16.441625842   650.3229   2   8   0.0259   0.0268   0.1063   0.0141  -0.0253  -0.0437 -11.00    1.0
2024/05/10 11:57:50.000   28.450496893  -16.441625842   650.3236   2   8   0.0259   0.0268   0.1063   0.0141  -0.0253  -0.0437 -10.00    1.0
2024/05/10 11:57:51.000   28.450496891  -16.441625842   650.3245   2   8   0.0259   0.0268   0.1063   0.0141  -0.0253  -0.0437  -9.00    1.0
2024/05/10 11:57:52.000   28.450496888  -16.441625843   650.3257   2   8   0.0259   0.0268   0.1063   0.0141  -0.0253  -0.0437  -8.00    1.3
2024/05/10 11:57:53.000   28.450496885  -16.441625844   650.3267   2   8   0.0259   0.0268   0.1063   0.0141  -0.0253  -0.0437  -7.00    1.0
2024/05/10 11:57:54.000   28.450496881  -16.441625844   650.3278   2   8   0.0259   0.0268   0.1063   0.0141  -0.0253  -0.0437  -6.00    1.1
2024/05/10 11:57:55.000   28.450496877  -16.441625844   650.3290   2   8   0.0259   0.0268   0.1063   0.0141  -0.0253  -0.0437  -5.00    1.0
2024/05/10 11:57:56.000   28.450496873  -16.441625844   650.3298   2   8   0.0259   0.0268   0.1063   0.0141  -0.0253  -0.0437  -4.00    1.1
2024/05/10 11:57:57.000   28.450496869  -16.441625844   650.3310   2   8   0.0259   0.0268   0.1064   0.0141  -0.0253  -0.0438  -3.00    1.0
2024/05/10 11:57:58.000   28.450496863  -16.441625844   650.3330   2   8   0.0259   0.0268   0.1064   0.0141  -0.0253  -0.0438  -2.00    1.0
2024/05/10 11:57:59.000   28.450496858  -16.441625843   650.3350   2   8   0.0259   0.0268   0.1064   0.0141  -0.0253  -0.0438  -1.00    1.1
2024/05/10 11:58:00.000   28.450496855  -16.441625842   650.3365   2   8   0.0259   0.0268   0.1065   0.0141  -0.0253  -0.0438   0.00    1.2
2024/05/10 11:58:01.000   28.450496850  -16.441625843   650.3379   2   8   0.0259   0.0269   0.1065   0.0141  -0.0253  -0.0438   1.00    1.0
2024/05/10 11:58:02.000   28.450496844  -16.441625844   650.3395   2   8   0.0259   0.0269   0.1066   0.0141  -0.0254  -0.0438   2.00    1.1
2024/05/10 11:58:03.000   28.450496837  -16.441625846   650.3410   2   8   0.0260   0.0269   0.1066   0.0141  -0.0254  -0.0438   3.00    1.0
2024/05/10 11:58:04.000   28.450496829  -16.441625848   650.3424   2   8   0.0260   0.0269   0.1067   0.0141  -0.0254  -0.0439   4.00    1.0
2024/05/10 11:58:05.000   28.450496820  -16.441625852   650.3449   2   8   0.0260   0.0269   0.1067   0.0141  -0.0254  -0.0439   5.00    1.0
2024/05/10 11:58:06.000   28.450496811  -16.441625855   650.3466   2   8   0.0260   0.0269   0.1067   0.0142  -0.0254  -0.0439   6.00    1.0
2024/05/10 11:58:07.000   28.450496805  -16.441625858   650.3480   2   8   0.0260   0.0269   0.1068   0.0142  -0.0254  -0.0439   7.00    1.1
2024/05/10 11:58:08.000   28.450496800  -16.441625859   650.3490   2   8   0.0260   0.0269   0.1068   0.0142  -0.0254  -0.0439   8.00    1.2
2024/05/10 11:58:09.000   28.450496796  -16.441625861   650.3500   2   8   0.0260   0.0269   0.1068   0.0142  -0.0254  -0.0439   9.00    1.0
2024/05/10 11:58:10.000   28.450496793  -16.441625863   650.3507   2   8   0.0260   0.0269   0.1068   0.0142  -0.0254  -0.0439  10.00    1.1
2024/05/10 11:58:11.000   28.450496791  -16.441625865   650.3513   2   8   0.0260   0.0269   0.1068   0.0142  -0.0254  -0.0439  11.00    1.0
2024/05/10 11:58:12.000   28.450496789  -16.441625866   650.3517   2   8   0.0260   0.0269   0.1068   0.0142  -0.0254  -0.0439  12.00    1.0
2024/05/10 11:58:13.000   28.450496788  -16.441625867   650.3521   2   8   0.0260   0.0269   0.1068   0.0141  -0.0254  -0.0439  13.00    1.0
2024/05/10 11:58:14.000   28.450496786  -16.441625868   650.3526   2   8   0.0260   0.0269   0.1068   0.0141  -0.0254  -0.0439  14.00    1.0
2024/05/10 11:58:15.000   28.450496785  -16.441625868   650.3528   2   8   0.0260   0.0269   0.1068   0.0141  -0.0254  -0.0439 -15.00    1.1
2024/05/10 11:58:16.000   28.450496785  -16.441625868   650.3528   2   8   0.0260   0.0269   0.1068   0.0141  -0.0254  -0.0439 -14.00    1.2
2024/05/10 11:58:17.000   28.450496785  -16.441625869   650.3530   2   8   0.0260   0.0269   0.1068   0.0141  -0.0254  -0.0439 -13.00    1.0
2024/05/10 11:58:18.000   28.450496784  -16.441625870   650.3532   2   8   0.0260   0.0269   0.1068   0.0141  -0.0254  -0.0439 -12.00    1.1
2024/05/10 11:58:19.000   28.450496784  -16.441625870   650.3536   2   8   0.0260   0.0269   0.1068   0.0141  -0.0254  -0.0439 -11.00    1.0
2024/05/10 11:58:20.000   28.450496784  -16.441625870   650.3539   2   8   0.0260   0.0269   0.1068   0.0141  -0.0254  -0.0439 -10.00    1.1
2024/05/10 11:58:21.000   28.450496785  -16.441625871   650.3542   2   8   0.0260   0.0269   0.1068   0.0141  -0.0254  -0.0439  -9.00    1.0
2024/05/10 11:58:22.000   28.450496787  -16.441625870   650.3544   2   8   0.0260   0.0269   0.1068   0.0141  -0.0254  -0.0439  -8.00    1.0
2024/05/10 11:58:23.000   28.450496788  -16.441625871   650.3545   2   8   0.0260   0.0269   0.1068   0.0141  -0.0254  -0.0439  -7.00    1.1
2024/05/10 11:58:24.000   28.450496790  -16.441625870   650.3546   2   8   0.0260   0.0269   0.1068   0.0141  -0.0254  -0.0439  -6.00    1.2
2024/05/10 11:58:25.000   28.450496793  -16.441625870   650.3547   2   8   0.0260   0.0269   0.1069   0.0141  -0.0254  -0.0439  -5.00    1.0
2024/05/10 11:58:26.000   28.450496795  -16.441625870   650.3554   2   8   0.0260   0.0269   0.1069   0.0141  -0.0254  -0.0439  -4.00    1.1
2024/05/10 11:58:27.000   28.450496797  -16.441625871   650.3564   2   8   0.0260   0.0269   0.1069   0.0141  -0.0254  -0.0439  -3.00    1.0
2024/05/10 11:58:28.000   28.450496799  -16.441625872   650.3578   2   8   0.0260   0.0269   0.1069   0.0141  -0.0254  -0.0439  -2.00    1.1
2024/05/10 11:58:29.000   28.450496800  -16.441625874   650.3594   2   8   0.0260   0.0269   0.1069   0.0141  -0.0254  -0.0439  -1.00    1.0
2024/05/10 11:58:30.000   28.450496802  -16.441625876   650.3614   2   8   0.0260   0.0269   0.1070   0.0142  -0.0254  -0.0439   0.00    1.0
2024/05/10 11:58:31.000   28.450496801  -16.441625881   650.3641   2   8   0.0260   0.0269   0.1070   0.0142  -0.0254  -0.0439   1.00    1.0
2024/05/10 11:58:32.000   28.450496800  -16.441625886   650.3671   2   8   0.0260   0.0269   0.1070   0.0142  -0.0254  -0.0439   2.00    1.2
2024/05/10 11:58:33.000   28.450496800  -16.441625887   650.3694   2   8   0.0261   0.0269   0.1071   0.0142  -0.0254  -0.0440   3.00    1.0
2024/05/10 11:58:34.000   28.450496800  -16.441625887   650.3718   2   8   0.0261   0.0269   0.1071   0.0142  -0.0254  -0.0440   4.00    1.1
2024/05/10 11:58:35.000   28.450496800  -16.441625888   650.3744   2   8   0.0261   0.0270   0.1071   0.0142  -0.0254  -0.0440   5.00    1.0
2024/05/10 11:58:36.000   28.450496800  -16.441625889   650.3764   2   8   0.0261   0.0270   0.1072   0.0142  -0.0254  -0.0440   6.00    1.0
2024/05/10 11:58:37.000   28.450496800  -16.441625888   650.3778   2   8   0.0261   0.0270   0.1072   0.0142  -0.0254  -0.0440   7.00    1.0
2024/05/10 11:58:38.000   28.450496801  -16.441625888   650.3788   2   8   0.0261   0.0270   0.1072   0.0142  -0.0254  -0.0440   8.00    1.0
2024/05/10 11:58:39.000   28.450496802  -16.441625888   650.3795   2   8   0.0261   0.0270   0.1072   0.0142  -0.0254  -0.0440   9.00    1.0
2024/05/10 11:58:40.000   28.450496803  -16.441625887   650.3801   2   8   0.0261   0.0270   0.1072   0.0142  -0.0254  -0.0440  10.00    1.1
2024/05/10 11:58:41.000   28.450496803  -16.441625887   650.3805   2   8   0.0261   0.0270   0.1072   0.0142  -0.0254  -0.0440  11.00    1.1
2024/05/10 11:58:42.000   28.450496804  -16.441625886   650.3809   2   8   0.0261   0.0270   0.1072   0.0142  -0.0254  -0.0440  12.00    1.1
2024/05/10 11:58:43.000   28.450496804  -16.441625886   650.3812   2   8   0.0261   0.0270   0.1072   0.0142  -0.0254  -0.0440  13.00    1.0
2024/05/10 11:58:44.000   28.450496803  -16.441625886   650.3815   2   8   0.0261   0.0270   0.1072   0.0142  -0.0254  -0.0440  14.00    1.0
2024/05/10 11:58:45.000   28.450496804  -16.441625885   650.3816   2   8   0.0261   0.0270   0.1072   0.0142  -0.0254  -0.0440 -15.00    1.0
2024/05/10 11:58:46.000   28.450496804  -16.441625886   650.3818   2   8   0.0261   0.0270   0.1072   0.0142  -0.0254  -0.0440 -14.00    1.0
2024/05/10 11:58:47.000   28.450496804  -16.441625886   650.3820   2   8   0.0261   0.0270   0.1072   0.0142  -0.0254  -0.0440 -13.00    1.0
2024/05/10 11:58:48.000   28.450496804  -16.441625886   650.3820   2   8   0.0261   0.0269   0.1072   0.0142  -0.0254  -0.0440 -12.00    1.1
2024/05/10 11:58:49.000   28.450496804  -16.441625886   650.3821   2   8   0.0261   0.0269   0.1072   0.0142  -0.0254  -0.0440 -11.00    1.1
2024/05/10 11:58:50.000   28.450496804  -16.441625886   650.3824   2   8   0.0261   0.0269   0.1072   0.0142  -0.0254  -0.0440 -10.00    1.1
2024/05/10 11:58:51.000   28.450496803  -16.441625885   650.3830   2   8   0.0261   0.0269   0.1072   0.0142  -0.0254  -0.0440  -9.00    1.0
2024/05/10 11:58:52.000   28.450496802  -16.441625884   650.3838   2   8   0.0261   0.0269   0.1072   0.0142  -0.0254  -0.0440  -8.00    1.0
2024/05/10 11:58:53.000   28.450496801  -16.441625884   650.3843   2   8   0.0261   0.0269   0.1072   0.0142  -0.0254  -0.0440  -7.00    1.0
2024/05/10 11:58:54.000   28.450496801  -16.441625884   650.3849   2   8   0.0261   0.0269   0.1072   0.0142  -0.0254  -0.0440  -6.00    1.0
2024/05/10 11:58:55.000   28.450496800  -16.441625885   650.3864   2   8   0.0261   0.0269   0.1072   0.0142  -0.0254  -0.0440  -5.00    1.0
2024/05/10 11:58:56.000   28.450496799  -16.441625888   650.3877   2   8   0.0261   0.0269   0.1072   0.0142  -0.0254  -0.0440  -4.00    1.1
2024/05/10 11:58:57.000   28.450496796  -16.441625892   650.3899   2   8   0.0261   0.0269   0.1072   0.0142  -0.0254  -0.0440  -3.00    1.1
2024/05/10 11:58:58.000   28.450496795  -16.441625896   650.3920   2   8   0.0261   0.0269   0.1072   0.0142  -0.0254  -0.0440  -2.00    1.0
2024/05/10 11:58:59.000   28.450496797  -16.441625898   650.3936   2   8   0.0261   0.0269   0.1073   0.0142  -0.0254  -0.0440  -1.00    1.0
2024/05/10 11:59:00.000   28.450496800  -16.441625899   650.3955   2   8   0.0261   0.0270   0.1073   0.0142  -0.0254  -0.0440   0.00    1.0
2024/05/10 11:59:01.000   28.450496807  -16.441625899   650.3966   2   8   0.0261   0.0270   0.1073   0.0142  -0.0254  -0.0440   1.00    1.1
2024/05/10 11:59:02.000   28.450496815  -16.441625899   650.3974   2   8   0.0261   0.0270   0.1073   0.0142  -0.0254  -0.0440   2.00    1.0
2024/05/10 11:59:03.000   28.450496822  -16.441625900   650.3983   2   8   0.0261   0.0270   0.1074   0.0142  -0.0254  -0.0440   3.00    1.0
2024/05/10 11:59:04.000   28.450496827  -16.441625900   650.3988   2   8   0.0261   0.0270   0.1074   0.0142  -0.0254  -0.0440   4.00    1.0
2024/05/10 11:59:05.000   28.450496833  -16.441625899   650.3992   2   8   0.0261   0.0270   0.1074   0.0142  -0.0254  -0.0440   5.00    1.0
2024/05/10 11:59:06.000   28.450496839  -16.441625896   650.3991   2   8   0.0261   0.0270   0.1074   0.0142  -0.0254  -0.0440   6.00    1.0
2024/05/10 11:59:07.000   28.450496843  -16.441625894   650.3989   2   8   0.0261   0.0270   0.1074   0.0142  -0.0254  -0.0440   7.00    1.1
2024/05/10 11:59:08.000   28.450496848  -16.441625893   650.3984   2   8   0.0261   0.0270   0.1074   0.0142  -0.0254  -0.0440   8.00    1.1
2024/05/10 11:59:09.000   28.450496851  -16.441625891   650.3979   2   8   0.0261   0.0270   0.1074   0.0142  -0.0254  -0.0440   9.00    1.2
2024/05/10 11:59:10.000   28.450496855  -16.441625890   650.3972   2   8   0.0261   0.0270   0.1074   0.0142  -0.0254  -0.0440  10.00    1.0
2024/05/10 11:59:11.000   28.450496857  -16.441625890   650.3967   2   8   0.0261   0.0270   0.1074   0.0142  -0.0254  -0.0440  11.00    1.0
2024/05/10 11:59:12.000   28.450496859  -16.441625889   650.3963   2   8   0.0261   0.0270   0.1074   0.0142  -0.0254  -0.0440  12.00    1.0
2024/05/10 11:59:13.000   28.450496861  -16.441625888   650.3960   2   8   0.0261   0.0270   0.1074   0.0142  -0.0254  -0.0440  13.00    1.0
2024/05/10 11:59:14.000   28.450496863  -16.441625887   650.3956   2   8   0.0261   0.0270   0.1074   0.0142  -0.0254  -0.0440  14.00    1.0
2024/05/10 11:59:15.000   28.450496865  -16.441625886   650.3953   2   8   0.0261   0.0270   0.1074   0.0142  -0.0254  -0.0440 -15.00    1.1
2024/05/10 11:59:16.000   28.450496867  -16.441625886   650.3948   2   8   0.0261   0.0270   0.1074   0.0142  -0.0254  -0.0440 -14.00    1.1
2024/05/10 11:59:17.000   28.450496869  -16.441625886   650.3944   2   8   0.0261   0.0270   0.1074   0.0142  -0.0254  -0.0440 -13.00    1.1
2024/05/10 11:59:18.000   28.450496872  -16.441625885   650.3940   2   8   0.0261   0.0270   0.1074   0.0142  -0.0254  -0.0440 -12.00    1.1
2024/05/10 11:59:19.000   28.450496875  -16.441625885   650.3933   2   8   0.0261   0.0270   0.1074   0.0142  -0.0254  -0.0440 -11.00    1.0
2024/05/10 11:59:20.000   28.450496878  -16.441625884   650.3926   2   8   0.0261   0.0270   0.1074   0.0142  -0.0254  -0.0440 -10.00    1.0
2024/05/10 11:59:21.000   28.450496881  -16.441625883   650.3922   2   8   0.0261   0.0270   0.1074   0.0142  -0.0254  -0.0440  -9.00    1.0
2024/05/10 11:59:22.000   28.450496885  -16.441625883   650.3916   2   8   0.0261   0.0270   0.1074   0.0142  -0.0254  -0.0440  -8.00    1.1
2024/05/10 11:59:23.000   28.450496889  -16.441625882   650.3910   2   8   0.0261   0.0270   0.1074   0.0142  -0.0254  -0.0440  -7.00    1.1
2024/05/10 11:59:24.000   28.450496894  -16.441625882   650.3905   2   8   0.0261   0.0270   0.1074   0.0142  -0.0254  -0.0440  -6.00    1.1
2024/05/10 11:59:25.000   28.450496900  -16.441625882   650.3900   2   8   0.0261   0.0270   0.1074   0.0142  -0.0254  -0.0440  -5.00    1.1
2024/05/10 11:59:26.000   28.450496907  -16.441625882   650.3896   2   8   0.0261   0.0269   0.1074   0.0142  -0.0254  -0.0440  -4.00    1.0
2024/05/10 11:59:27.000   28.450496913  -16.441625881   650.3895   2   8   0.0261   0.0269   0.1074   0.0142  -0.0254  -0.0440  -3.00    1.0
2024/05/10 11:59:28.000   28.450496920  -16.441625880   650.3895   2   8   0.0261   0.0269   0.1074   0.0142  -0.0254  -0.0440  -2.00    1.0
2024/05/10 11:59:29.000   28.450496927  -16.441625880   650.3897   2   8   0.0261   0.0269   0.1074   0.0142  -0.0254  -0.0440  -1.00    1.0
2024/05/10 11:59:30.000   28.450496934  -16.441625880   650.3896   2   8   0.0261   0.0269   0.1074   0.0142  -0.0254  -0.0440   0.00    1.1
2024/05/10 11:59:31.000   28.450496941  -16.441625880   650.3895   2   8   0.0261   0.0269   0.1074   0.0142  -0.0254  -0.0440   1.00    1.1
2024/05/10 11:59:32.000   28.450496951  -16.441625878   650.3891   2   8   0.0261   0.0270   0.1074   0.0142  -0.0254  -0.0440   2.00    1.1
2024/05/10 11:59:33.000   28.450496960  -16.441625875   650.3887   2   8   0.0261   0.0270   0.1074   0.0142  -0.0254  -0.0440   3.00    1.1
2024/05/10 11:59:34.000   28.450496967  -16.441625873   650.3881   2   8   0.0262   0.0270   0.1074   0.0142  -0.0254  -0.0440   4.00    1.0
2024/05/10 11:59:35.000   28.450496973  -16.441625873   650.3877   2   8   0.0262   0.0270   0.1075   0.0142  -0.0254  -0.0440   5.00    1.0
2024/05/10 11:59:36.000   28.450496979  -16.441625874   650.3870   2   8   0.0262   0.0270   0.1075   0.0142  -0.0254  -0.0440   6.00    1.0
2024/05/10 11:59:37.000   28.450496984  -16.441625874   650.3858   2   8   0.0262   0.0270   0.1075   0.0142  -0.0254  -0.0440   7.00    1.0
2024/05/10 11:59:38.000   28.450496989  -16.441625874   650.3849   2   8   0.0262   0.0270   0.1075   0.0142  -0.0254  -0.0440   8.00    1.1
2024/05/10 11:59:39.000   28.450496993  -16.441625873   650.3843   2   8   0.0262   0.0270   0.1075   0.0142  -0.0254  -0.0440   9.00    1.0
2024/05/10 11:59:40.000   28.450496996  -16.441625873   650.3836   2   8   0.0262   0.0270   0.1075   0.0142  -0.0254  -0.0440  10.00    1.2
2024/05/10 11:59:41.000   28.450496999  -16.441625873   650.3830   2   8   0.0262   0.0270   0.1075   0.0142  -0.0254  -0.0440  11.00    1.1
2024/05/10 11:59:42.000   28.450497002  -16.441625873   650.3827   2   8   0.0262   0.0270   0.1075   0.0142  -0.0254  -0.0440  12.00    1.0
2024/05/10 11:59:43.000   28.450497004  -16.441625873   650.3821   2   8   0.0262   0.0270   0.1075   0.0142  -0.0254  -0.0440  13.00    1.0
2024/05/10 11:59:44.000   28.450497007  -16.441625873   650.3815   2   8   0.0262   0.0269   0.1075   0.0142  -0.0254  -0.0440  14.00    1.0
2024/05/10 11:59:45.000   28.450497010  -16.441625873   650.3809   2   8   0.0262   0.0269   0.1075   0.0142  -0.0254  -0.0440 -15.00    1.0
2024/05/10 11:59:46.000   28.450497012  -16.441625873   650.3804   2   8   0.0262   0.0269   0.1075   0.0142  -0.0254  -0.0440 -14.00    1.1
2024/05/10 11:59:47.000   28.450497014  -16.441625873   650.3797   2   8   0.0262   0.0269   0.1075   0.0142  -0.0254  -0.0440 -13.00    1.0
2024/05/10 11:59:48.000   28.450497017  -16.441625873   650.3789   2   8   0.0262   0.0269   0.1074   0.0142  -0.0254  -0.0440 -12.00    1.2
2024/05/10 11:59:49.000   28.450497021  -16.441625872   650.3780   2   8   0.0262   0.0269   0.1074   0.0142  -0.0254  -0.0440 -11.00    1.1
2024/05/10 11:59:50.000   28.450497025  -16.441625871   650.3769   2   8   0.0262   0.0269   0.1074   0.0142  -0.0254  -0.0440 -10.00    1.0
2024/05/10 11:59:51.000   28.450497030  -16.441625871   650.3756   2   8   0.0262   0.0269   0.1074   0.0142  -0.0254  -0.0440  -9.00    1.0
2024/05/10 11:59:52.000   28.450497034  -16.441625871   650.3742   2   8   0.0261   0.0269   0.1074   0.0142  -0.0254  -0.0440  -8.00    1.0
2024/05/10 11:59:53.000   28.450497040  -16.441625870   650.3727   2   8   0.0261   0.0269   0.1074   0.0142  -0.0254  -0.0440  -7.00    1.0
2024/05/10 11:59:54.000   28.450497047  -16.441625869   650.3710   2   8   0.0261   0.0269   0.1074   0.0142  -0.0254  -0.0440  -6.00    1.1
2024/05/10 11:59:55.000   28.450497054  -16.441625868   650.3691   2   8   0.0261   0.0269   0.1074   0.0142  -0.0254  -0.0440  -5.00    1.0
2024/05/10 11:59:56.000   28.450497061  -16.441625867   650.3669   2   8   0.0261   0.0269   0.1074   0.0142  -0.0254  -0.0440  -4.00    1.2
2024/05/10 11:59:57.000   28.450497069  -16.441625865   650.3644   2   8   0.0261   0.0269   0.1074   0.0142  -0.0254  -0.0440  -3.00    1.1
2024/05/10 11:59:58.000   28.450497079  -16.441625865   650.3613   2   8   0.0261   0.0269   0.1074   0.0142  -0.0253  -0.0440  -2.00    1.0
2024/05/10 11:59:59.000   28.450497090  -16.441625864   650.3583   2   8   0.0261   0.0269   0.1074   0.0142  -0.0253  -0.0440  -1.00    1.1
2024/05/10 12:00:00.000   28.450497100  -16.441625862   650.3550   2   8   0.0261   0.0269   0.1073   0.0142  -0.0253  -0.0440   0.00    1.0
2024/05/10 12:00:01.000   28.450497109  -16.441625861   650.3510   2   8   0.0261   0.0269   0.1073   0.0142  -0.0253  -0.0440   1.00    1.1
2024/05/10 12:00:02.000   28.450497116  -16.441625860   650.3475   2   8   0.0261   0.0269   0.1073   0.0142  -0.0253  -0.0440   2.00    1.2
2024/05/10 12:00:03.000   28.450497123  -16.441625859   650.3448   2   8   0.0261   0.0269   0.1073   0.0142  -0.0253  -0.0440   3.00    1.1
2024/05/10 12:00:04.000   28.450497128  -16.441625858   650.3421   2   8   0.0261   0.0269   0.1073   0.0142  -0.0253  -0.0440   4.00    1.1
2024/05/10 12:00:05.000   28.450497133  -16.441625857   650.3394   2   8   0.0261   0.0269   0.1073   0.0142  -0.0253  -0.0440   5.00    1.0
2024/05/10 12:00:06.000   28.450497135  -16.441625857   650.3378   2   8   0.0261   0.0269   0.1073   0.0142  -0.0253  -0.0440   6.00    1.0
2024/05/10 12:00:07.000   28.450497136  -16.441625858   650.3364   2   8   0.0261   0.0269   0.1073   0.0142  -0.0253  -0.0440   7.00    1.0
2024/05/10 12:00:08.000   28.450497138  -16.441625859   650.3351   2   8   0.0261   0.0269   0.1073   0.0142  -0.0253  -0.0440   8.00    1.1
2024/05/10 12:00:09.000   28.450497138  -16.441625859   650.3341   2   8   0.0261   0.0269   0.1073   0.0142  -0.0253  -0.0440   9.00    1.0
2024/05/10 12:00:10.000   28.450497137  -16.441625860   650.3333   2   8   0.0261   0.0269   0.1073   0.0142  -0.0253  -0.0440  10.00    1.3
2024/05/10 12:00:11.000   28.450497137  -16.441625860   650.3326   2   8   0.0261   0.0269   0.1073   0.0142  -0.0253  -0.0440  11.00    1.1
2024/05/10 12:00:12.000   28.450497137  -16.441625861   650.3320   2   8   0.0261   0.0269   0.1073   0.0142  -0.0253  -0.0440  12.00    1.2
2024/05/10 12:00:13.000   28.450497137  -16.441625861   650.3312   2   8   0.0261   0.0269   0.1073   0.0142  -0.0253  -0.0440  13.00    1.0
2024/05/10 12:00:14.000   28.450497137  -16.441625861   650.3308   2   8   0.0261   0.0269   0.1073   0.0142  -0.0253  -0.0440  14.00    1.0
2024/05/10 12:00:15.000   28.450497137  -16.441625861   650.3303   2   8   0.0261   0.0269   0.1073   0.0142  -0.0253  -0.0440 -15.00    1.0
2024/05/10 12:00:16.000   28.450497136  -16.441625861   650.3298   2   8   0.0261   0.0269   0.1073   0.0142  -0.0253  -0.0440 -14.00    1.1
2024/05/10 12:00:17.000   28.450497136  -16.441625861   650.3292   2   8   0.0261   0.0269   0.1073   0.0142  -0.0253  -0.0440 -13.00    1.0
2024/05/10 12:00:18.000   28.450497137  -16.441625861   650.3283   2   8   0.0261   0.0269   0.1073   0.0142  -0.0253  -0.0439 -12.00    1.3
2024/05/10 12:00:19.000   28.450497137  -16.441625860   650.3274   2   8   0.0261   0.0269   0.1073   0.0142  -0.0253  -0.0439 -11.00    1.1
2024/05/10 12:00:20.000   28.450497137  -16.441625860   650.3264   2   8   0.0261   0.0269   0.1073   0.0142  -0.0253  -0.0439 -10.00    1.2
2024/05/10 12:00:21.000   28.450497137  -16.441625861   650.3256   2   8   0.0261   0.0269   0.1073   0.0142  -0.0253  -0.0439  -9.00    1.0
2024/05/10 12:00:22.000   28.450497137  -16.441625861   650.3248   2   8   0.0261   0.0269   0.1073   0.0142  -0.0253  -0.0439  -8.00    1.1
2024/05/10 12:00:23.000   28.450497137  -16.441625861   650.3237   2   8   0.0261   0.0269   0.1073   0.0142  -0.0253  -0.0439  -7.00    1.0
