% program   : RTKPOST-EX 2.5.0
% inp file  : C:\Users\SallyHenry\Desktop\Sally Internship\GNSS gravi\DATA\Survey Rover Obs\MI06.24o
% inp file  : C:\Users\SallyHenry\Desktop\Sally Internship\GNSS gravi\DATA\BaseStations\TN02\TN0200ESP_R_20241310000_01D_30S_MO.rnx
% inp file  : C:\Users\SallyHenry\Desktop\Sally Internship\GNSS gravi\DATA\BaseStations\TN02\TN0200ESP_R_20241310000_01D_MN.rnx
% inp file  : C:\Users\SallyHenry\Desktop\Sally Internship\GNSS gravi\DATA\aux_files\Survey\IGS0OPSFIN_20241310000_01D_15M_ORB.SP3
% inp file  : C:\Users\SallyHenry\Desktop\Sally Internship\GNSS gravi\DATA\aux_files\Survey\IGS0OPSFIN_20241310000_01D_30S_CLK.CLK
% obs start : 2024/05/10 12:20:05.0 GPST (week2313 476405.0s)
% obs end   : 2024/05/10 12:35:05.0 GPST (week2313 477305.0s)
% pos mode  : Static
% freqs     : L1+L2/E5b
% solution  : Combined-No Phase Reset
% elev mask : 15.0 deg
% dynamics  : on
% tidecorr  : solid
% ionos opt : Estimate TEC
% tropo opt : Estimate ZTD+Grad
% ephemeris : Precise
% navi sys  : GPS GLONASS Galileo QZSS BDS
% amb res   : Fix and Hold
% amb glo   : Fix and Hold
% amb bds   : on
% val thres : 3.0
% antenna1  :                       ( 0.0000  0.0000  1.8000)
% antenna2  :                       ( 0.0000  0.0000  0.0771)
% ref pos   :  28.418257450  -16.550784480    54.4145
%
% (lat/lon/height=WGS84/ellipsoidal,Q=1:fix,2:float,3:sbas,4:dgps,5:single,6:ppp,ns=# of satellites)
%  GPST                  latitude(deg) longitude(deg)  height(m)   Q  ns   sdn(m)   sde(m)   sdu(m)  sdne(m)  sdeu(m)  sdun(m) age(s)  ratio
2024/05/10 12:20:05.000   28.438748964  -16.451380986   630.0460   1   9   0.0016   0.0012   0.0105  -0.0007  -0.0018  -0.0011   5.00  185.1
2024/05/10 12:20:06.000   28.438748964  -16.451380986   630.0457   1   9   0.0016   0.0012   0.0105  -0.0007  -0.0018  -0.0010   6.00  182.3
2024/05/10 12:20:07.000   28.438748964  -16.451380986   630.0454   1   9   0.0016   0.0012   0.0105  -0.0007  -0.0018  -0.0010   7.00  179.7
2024/05/10 12:20:08.000   28.438748964  -16.451380985   630.0452   1   9   0.0016   0.0012   0.0105  -0.0007  -0.0018  -0.0010   8.00  176.6
2024/05/10 12:20:09.000   28.438748964  -16.451380985   630.0450   1   9   0.0016   0.0012   0.0105  -0.0007  -0.0018  -0.0010   9.00  173.1
2024/05/10 12:20:10.000   28.438748964  -16.451380985   630.0448   1   9   0.0016   0.0012   0.0105  -0.0007  -0.0018  -0.0010  10.00  170.1
2024/05/10 12:20:11.000   28.438748964  -16.451380985   630.0446   1   9   0.0016   0.0012   0.0105  -0.0007  -0.0018  -0.0010  11.00  167.3
2024/05/10 12:20:12.000   28.438748965  -16.451380985   630.0445   1   9   0.0016   0.0012   0.0105  -0.0007  -0.0018  -0.0010  12.00  164.3
2024/05/10 12:20:13.000   28.438748965  -16.451380985   630.0443   1   9   0.0016   0.0012   0.0105  -0.0007  -0.0018  -0.0010  13.00  161.2
2024/05/10 12:20:14.000   28.438748965  -16.451380984   630.0442   1   9   0.0016   0.0012   0.0105  -0.0007  -0.0018  -0.0010  14.00  158.1
2024/05/10 12:20:15.000   28.438748965  -16.451380984   630.0441   1   9   0.0016   0.0012   0.0105  -0.0007  -0.0018  -0.0010  15.00  155.0
2024/05/10 12:20:16.000   28.438748965  -16.451380984   630.0440   1   9   0.0016   0.0012   0.0105  -0.0007  -0.0018  -0.0010 -14.00  152.0
2024/05/10 12:20:17.000   28.438748965  -16.451380984   630.0439   1   9   0.0016   0.0012   0.0105  -0.0007  -0.0018  -0.0010 -13.00  148.8
2024/05/10 12:20:18.000   28.438748965  -16.451380984   630.0437   1   9   0.0016   0.0012   0.0105  -0.0007  -0.0018  -0.0010 -12.00  145.6
2024/05/10 12:20:19.000   28.438748965  -16.451380984   630.0436   1   9   0.0016   0.0012   0.0105  -0.0007  -0.0018  -0.0010 -11.00  142.5
2024/05/10 12:20:20.000   28.438748965  -16.451380984   630.0435   1   9   0.0016   0.0012   0.0105  -0.0007  -0.0018  -0.0010 -10.00  139.4
2024/05/10 12:20:21.000   28.438748965  -16.451380984   630.0433   1   9   0.0016   0.0012   0.0105  -0.0007  -0.0018  -0.0010  -9.00  136.1
2024/05/10 12:20:22.000   28.438748965  -16.451380984   630.0430   1   9   0.0016   0.0012   0.0105  -0.0007  -0.0018  -0.0010  -8.00  132.6
2024/05/10 12:20:23.000   28.438748965  -16.451380984   630.0428   1   9   0.0016   0.0012   0.0105  -0.0007  -0.0018  -0.0009  -7.00  129.3
2024/05/10 12:20:24.000   28.438748965  -16.451380983   630.0425   1   9   0.0016   0.0012   0.0105  -0.0007  -0.0018  -0.0009  -6.00  125.2
2024/05/10 12:20:25.000   28.438748965  -16.451380983   630.0422   1   9   0.0016   0.0012   0.0105  -0.0007  -0.0018  -0.0009  -5.00  120.4
2024/05/10 12:20:26.000   28.438748966  -16.451380983   630.0418   1   9   0.0016   0.0012   0.0105  -0.0007  -0.0018  -0.0009  -4.00  114.3
2024/05/10 12:20:27.000   28.438748966  -16.451380983   630.0414   1   9   0.0016   0.0012   0.0105  -0.0007  -0.0018  -0.0009  -3.00  106.3
2024/05/10 12:20:28.000   28.438748966  -16.451380983   630.0410   1   9   0.0016   0.0012   0.0105  -0.0007  -0.0018  -0.0009  -2.00   87.9
2024/05/10 12:20:29.000   28.438748967  -16.451380982   630.0405   1   9   0.0016   0.0012   0.0105  -0.0007  -0.0018  -0.0009  -1.00   48.0
2024/05/10 12:20:30.000   28.438748971  -16.451380984   630.0415   1   9   0.0016   0.0012   0.0105  -0.0006  -0.0018  -0.0011   0.00  168.4
2024/05/10 12:20:31.000   28.438748971  -16.451380984   630.0409   1   9   0.0016   0.0012   0.0105  -0.0006  -0.0018  -0.0010   1.00  163.4
2024/05/10 12:20:32.000   28.438748971  -16.451380983   630.0403   1   9   0.0016   0.0012   0.0105  -0.0006  -0.0018  -0.0010   2.00  159.8
2024/05/10 12:20:33.000   28.438748972  -16.451380983   630.0399   1   9   0.0016   0.0012   0.0105  -0.0007  -0.0018  -0.0010   3.00  156.4
2024/05/10 12:20:34.000   28.438748972  -16.451380983   630.0394   1   9   0.0016   0.0012   0.0105  -0.0007  -0.0018  -0.0010   4.00  153.1
2024/05/10 12:20:35.000   28.438748972  -16.451380982   630.0391   1   9   0.0016   0.0012   0.0105  -0.0007  -0.0018  -0.0010   5.00  149.1
2024/05/10 12:20:36.000   28.438748972  -16.451380982   630.0389   1   9   0.0016   0.0012   0.0105  -0.0007  -0.0018  -0.0010   6.00  146.4
2024/05/10 12:20:37.000   28.438748972  -16.451380982   630.0387   1   9   0.0016   0.0012   0.0106  -0.0007  -0.0018  -0.0010   7.00  143.8
2024/05/10 12:20:38.000   28.438748972  -16.451380982   630.0385   1   9   0.0016   0.0012   0.0106  -0.0007  -0.0018  -0.0010   8.00  140.6
2024/05/10 12:20:39.000   28.438748973  -16.451380982   630.0383   1   9   0.0016   0.0012   0.0106  -0.0007  -0.0018  -0.0010   9.00  137.6
2024/05/10 12:20:40.000   28.438748973  -16.451380981   630.0382   1   9   0.0016   0.0012   0.0106  -0.0007  -0.0018  -0.0010  10.00  134.2
2024/05/10 12:20:41.000   28.438748973  -16.451380981   630.0381   1   9   0.0016   0.0012   0.0106  -0.0007  -0.0018  -0.0010  11.00  131.0
2024/05/10 12:20:42.000   28.438748973  -16.451380981   630.0380   1   9   0.0016   0.0012   0.0106  -0.0007  -0.0018  -0.0010  12.00  128.5
2024/05/10 12:20:43.000   28.438748973  -16.451380981   630.0379   1   9   0.0016   0.0012   0.0106  -0.0007  -0.0018  -0.0010  13.00  125.5
2024/05/10 12:20:44.000   28.438748973  -16.451380981   630.0378   1   9   0.0016   0.0012   0.0105  -0.0007  -0.0018  -0.0010  14.00  123.0
2024/05/10 12:20:45.000   28.438748973  -16.451380981   630.0378   1   9   0.0016   0.0012   0.0105  -0.0007  -0.0018  -0.0010  15.00  120.7
2024/05/10 12:20:46.000   28.438748973  -16.451380981   630.0377   1   9   0.0016   0.0012   0.0105  -0.0007  -0.0018  -0.0009 -14.00  118.2
2024/05/10 12:20:47.000   28.438748973  -16.451380981   630.0376   1   9   0.0016   0.0012   0.0105  -0.0007  -0.0018  -0.0009 -13.00  116.0
2024/05/10 12:20:48.000   28.438748973  -16.451380981   630.0375   1   9   0.0016   0.0012   0.0105  -0.0007  -0.0018  -0.0009 -12.00  113.2
2024/05/10 12:20:49.000   28.438748973  -16.451380980   630.0375   1   9   0.0016   0.0012   0.0105  -0.0007  -0.0018  -0.0009 -11.00  110.5
2024/05/10 12:20:50.000   28.438748973  -16.451380980   630.0374   1   9   0.0016   0.0012   0.0105  -0.0007  -0.0018  -0.0009 -10.00  107.7
2024/05/10 12:20:51.000   28.438748973  -16.451380980   630.0373   1   9   0.0016   0.0012   0.0105  -0.0007  -0.0018  -0.0009  -9.00  104.9
2024/05/10 12:20:52.000   28.438748973  -16.451380980   630.0372   1   9   0.0016   0.0012   0.0105  -0.0007  -0.0018  -0.0009  -8.00  102.6
2024/05/10 12:20:53.000   28.438748973  -16.451380980   630.0371   1   9   0.0016   0.0012   0.0105  -0.0007  -0.0018  -0.0009  -7.00  100.6
2024/05/10 12:20:54.000   28.438748973  -16.451380980   630.0370   1   9   0.0016   0.0012   0.0105  -0.0007  -0.0018  -0.0009  -6.00   98.0
2024/05/10 12:20:55.000   28.438748973  -16.451380980   630.0368   1   9   0.0016   0.0012   0.0105  -0.0007  -0.0018  -0.0009  -5.00   95.3
2024/05/10 12:20:56.000   28.438748973  -16.451380979   630.0366   1   9   0.0016   0.0012   0.0105  -0.0007  -0.0018  -0.0009  -4.00   91.0
2024/05/10 12:20:57.000   28.438748973  -16.451380979   630.0364   1   9   0.0016   0.0012   0.0106  -0.0007  -0.0018  -0.0009  -3.00   85.9
2024/05/10 12:20:58.000   28.438748973  -16.451380979   630.0361   1   9   0.0016   0.0012   0.0106  -0.0007  -0.0018  -0.0009  -2.00   70.5
2024/05/10 12:20:59.000   28.438748973  -16.451380979   630.0358   1   9   0.0016   0.0012   0.0106  -0.0007  -0.0018  -0.0008  -1.00   40.0
2024/05/10 12:21:00.000   28.438748980  -16.451380983   630.0385   1   9   0.0016   0.0012   0.0105  -0.0006  -0.0018  -0.0010   0.00  100.0
2024/05/10 12:21:01.000   28.438748980  -16.451380982   630.0382   1   9   0.0016   0.0012   0.0106  -0.0006  -0.0018  -0.0010   1.00   99.3
2024/05/10 12:21:02.000   28.438748980  -16.451380982   630.0378   1   9   0.0016   0.0012   0.0106  -0.0007  -0.0018  -0.0010   2.00   99.8
2024/05/10 12:21:03.000   28.438748981  -16.451380982   630.0374   1   9   0.0016   0.0012   0.0106  -0.0007  -0.0018  -0.0010   3.00  100.8
2024/05/10 12:21:04.000   28.438748981  -16.451380981   630.0372   1   9   0.0016   0.0012   0.0106  -0.0007  -0.0018  -0.0010   4.00   99.7
2024/05/10 12:21:05.000   28.438748981  -16.451380981   630.0370   1   9   0.0016   0.0012   0.0106  -0.0007  -0.0018  -0.0010   5.00   99.0
2024/05/10 12:21:06.000   28.438748981  -16.451380981   630.0368   1   9   0.0016   0.0012   0.0106  -0.0007  -0.0018  -0.0010   6.00   98.1
2024/05/10 12:21:07.000   28.438748981  -16.451380981   630.0367   1   9   0.0016   0.0012   0.0106  -0.0007  -0.0018  -0.0010   7.00   97.3
2024/05/10 12:21:08.000   28.438748981  -16.451380981   630.0366   1   9   0.0016   0.0012   0.0106  -0.0007  -0.0018  -0.0010   8.00   96.6
2024/05/10 12:21:09.000   28.438748982  -16.451380981   630.0365   1   9   0.0016   0.0012   0.0106  -0.0007  -0.0018  -0.0009   9.00   95.5
2024/05/10 12:21:10.000   28.438748982  -16.451380981   630.0364   1   9   0.0016   0.0012   0.0106  -0.0007  -0.0018  -0.0009  10.00   94.0
2024/05/10 12:21:11.000   28.438748982  -16.451380980   630.0363   1   9   0.0016   0.0012   0.0106  -0.0007  -0.0018  -0.0009  11.00   92.2
2024/05/10 12:21:12.000   28.438748982  -16.451380980   630.0362   1   9   0.0016   0.0012   0.0106  -0.0007  -0.0018  -0.0009  12.00   91.0
2024/05/10 12:21:13.000   28.438748982  -16.451380980   630.0362   1   9   0.0016   0.0012   0.0106  -0.0007  -0.0018  -0.0009  13.00   89.7
2024/05/10 12:21:14.000   28.438748982  -16.451380980   630.0361   1   9   0.0016   0.0012   0.0106  -0.0007  -0.0018  -0.0009  14.00   88.2
2024/05/10 12:21:15.000   28.438748982  -16.451380980   630.0361   1   9   0.0016   0.0012   0.0106  -0.0007  -0.0018  -0.0009  15.00   86.7
2024/05/10 12:21:16.000   28.438748982  -16.451380980   630.0360   1   9   0.0016   0.0012   0.0106  -0.0007  -0.0018  -0.0009 -14.00   85.3
2024/05/10 12:21:17.000   28.438748982  -16.451380980   630.0360   1   9   0.0016   0.0012   0.0106  -0.0007  -0.0018  -0.0009 -13.00   84.1
2024/05/10 12:21:18.000   28.438748981  -16.451380980   630.0359   1   9   0.0016   0.0012   0.0106  -0.0007  -0.0018  -0.0009 -12.00   82.9
2024/05/10 12:21:19.000   28.438748981  -16.451380980   630.0359   1   9   0.0016   0.0012   0.0106  -0.0007  -0.0018  -0.0009 -11.00   82.0
2024/05/10 12:21:20.000   28.438748981  -16.451380980   630.0358   1   9   0.0016   0.0012   0.0106  -0.0007  -0.0018  -0.0009 -10.00   81.3
2024/05/10 12:21:21.000   28.438748981  -16.451380980   630.0357   1   9   0.0016   0.0012   0.0106  -0.0007  -0.0018  -0.0009  -9.00   80.4
2024/05/10 12:21:22.000   28.438748981  -16.451380980   630.0356   1   9   0.0016   0.0012   0.0106  -0.0007  -0.0018  -0.0009  -8.00   79.4
2024/05/10 12:21:23.000   28.438748981  -16.451380979   630.0355   1   9   0.0016   0.0012   0.0106  -0.0007  -0.0018  -0.0009  -7.00   78.6
2024/05/10 12:21:24.000   28.438748981  -16.451380979   630.0354   1   9   0.0016   0.0012   0.0106  -0.0007  -0.0018  -0.0009  -6.00   78.0
2024/05/10 12:21:25.000   28.438748981  -16.451380979   630.0353   1   9   0.0016   0.0012   0.0106  -0.0007  -0.0018  -0.0008  -5.00   77.1
2024/05/10 12:21:26.000   28.438748981  -16.451380979   630.0351   1   9   0.0016   0.0012   0.0106  -0.0007  -0.0018  -0.0008  -4.00   76.4
2024/05/10 12:21:27.000   28.438748981  -16.451380979   630.0349   1   9   0.0016   0.0012   0.0106  -0.0007  -0.0018  -0.0008  -3.00   75.8
2024/05/10 12:21:28.000   28.438748981  -16.451380978   630.0347   1   9   0.0016   0.0012   0.0106  -0.0007  -0.0018  -0.0008  -2.00   62.7
2024/05/10 12:21:29.000   28.438748981  -16.451380978   630.0345   1   9   0.0016   0.0012   0.0107  -0.0007  -0.0019  -0.0008  -1.00   36.8
2024/05/10 12:21:30.000   28.438748991  -16.451380984   630.0388   1   9   0.0016   0.0012   0.0106  -0.0006  -0.0018  -0.0010   0.00   63.1
2024/05/10 12:21:31.000   28.438748991  -16.451380984   630.0385   1   9   0.0016   0.0012   0.0106  -0.0006  -0.0018  -0.0010   1.00   63.7
2024/05/10 12:21:32.000   28.438748991  -16.451380983   630.0382   1   9   0.0016   0.0012   0.0107  -0.0007  -0.0018  -0.0010   2.00   64.2
2024/05/10 12:21:33.000   28.438748991  -16.451380983   630.0379   1   9   0.0016   0.0012   0.0107  -0.0007  -0.0018  -0.0010   3.00   65.8
2024/05/10 12:21:34.000   28.438748991  -16.451380983   630.0377   1   9   0.0016   0.0012   0.0107  -0.0007  -0.0018  -0.0009   4.00   66.4
2024/05/10 12:21:35.000   28.438748991  -16.451380982   630.0375   1   9   0.0016   0.0012   0.0107  -0.0007  -0.0018  -0.0009   5.00   67.2
2024/05/10 12:21:36.001   28.438748991  -16.451380982   630.0373   1   9   0.0016   0.0012   0.0107  -0.0007  -0.0018  -0.0009   6.00   67.9
2024/05/10 12:21:37.000   28.438748991  -16.451380982   630.0372   1   9   0.0016   0.0012   0.0107  -0.0007  -0.0018  -0.0009   7.00   68.6
2024/05/10 12:21:38.000   28.438748990  -16.451380981   630.0370   1   9   0.0016   0.0012   0.0107  -0.0007  -0.0018  -0.0009   8.00   68.9
2024/05/10 12:21:39.000   28.438748990  -16.451380981   630.0369   1   9   0.0016   0.0012   0.0107  -0.0007  -0.0018  -0.0009   9.00   68.9
2024/05/10 12:21:40.000   28.438748990  -16.451380981   630.0368   1   9   0.0016   0.0012   0.0107  -0.0007  -0.0018  -0.0009  10.00   68.3
2024/05/10 12:21:41.000   28.438748990  -16.451380981   630.0367   1   9   0.0016   0.0012   0.0107  -0.0007  -0.0018  -0.0009  11.00   67.9
2024/05/10 12:21:42.000   28.438748990  -16.451380981   630.0366   1   9   0.0016   0.0012   0.0107  -0.0007  -0.0018  -0.0009  12.00   67.5
2024/05/10 12:21:43.000   28.438748990  -16.451380980   630.0366   1   9   0.0016   0.0012   0.0107  -0.0007  -0.0018  -0.0009  13.00   67.2
2024/05/10 12:21:44.000   28.438748990  -16.451380980   630.0365   1   9   0.0016   0.0012   0.0107  -0.0007  -0.0018  -0.0009  14.00   66.6
2024/05/10 12:21:45.000   28.438748990  -16.451380980   630.0364   1   9   0.0016   0.0012   0.0107  -0.0007  -0.0018  -0.0009  15.00   66.1
2024/05/10 12:21:46.000   28.438748990  -16.451380980   630.0364   1   9   0.0016   0.0012   0.0107  -0.0007  -0.0018  -0.0009 -14.00   65.3
2024/05/10 12:21:47.000   28.438748990  -16.451380980   630.0363   1   9   0.0016   0.0012   0.0107  -0.0007  -0.0018  -0.0009 -13.00   64.5
2024/05/10 12:21:48.000   28.438748990  -16.451380980   630.0363   1   9   0.0016   0.0012   0.0107  -0.0007  -0.0018  -0.0008 -12.00   64.0
2024/05/10 12:21:49.000   28.438748990  -16.451380980   630.0362   1   9   0.0016   0.0012   0.0107  -0.0007  -0.0018  -0.0008 -11.00   63.4
2024/05/10 12:21:50.000   28.438748989  -16.451380980   630.0361   1   9   0.0016   0.0012   0.0107  -0.0007  -0.0018  -0.0008 -10.00   63.0
2024/05/10 12:21:51.000   28.438748989  -16.451380979   630.0359   1   9   0.0016   0.0012   0.0107  -0.0007  -0.0018  -0.0008  -9.00   62.9
2024/05/10 12:21:52.000   28.438748989  -16.451380979   630.0358   1   9   0.0016   0.0012   0.0107  -0.0007  -0.0018  -0.0008  -8.00   63.5
2024/05/10 12:21:53.000   28.438748989  -16.451380979   630.0356   1   9   0.0016   0.0012   0.0107  -0.0007  -0.0018  -0.0008  -7.00   63.9
2024/05/10 12:21:54.000   28.438748989  -16.451380979   630.0354   1   9   0.0016   0.0012   0.0107  -0.0007  -0.0018  -0.0008  -6.00   64.3
2024/05/10 12:21:55.000   28.438748988  -16.451380978   630.0352   1   9   0.0016   0.0012   0.0107  -0.0007  -0.0018  -0.0008  -5.00   65.4
2024/05/10 12:21:56.000   28.438748988  -16.451380978   630.0349   1   9   0.0016   0.0012   0.0107  -0.0007  -0.0018  -0.0008  -4.00   66.0
2024/05/10 12:21:57.000   28.438748988  -16.451380977   630.0346   1   9   0.0016   0.0012   0.0107  -0.0007  -0.0019  -0.0008  -3.00   67.1
2024/05/10 12:21:58.000   28.438748987  -16.451380977   630.0341   1   9   0.0016   0.0012   0.0107  -0.0007  -0.0019  -0.0008  -2.00   57.4
2024/05/10 12:21:59.000   28.438748987  -16.451380976   630.0336   1   9   0.0016   0.0012   0.0107  -0.0007  -0.0019  -0.0007  -1.00   34.4
2024/05/10 12:22:00.000   28.438748996  -16.451380981   630.0377   1   9   0.0016   0.0012   0.0107  -0.0006  -0.0018  -0.0009   0.00   64.6
2024/05/10 12:22:01.000   28.438748995  -16.451380981   630.0373   1   9   0.0016   0.0012   0.0107  -0.0007  -0.0018  -0.0009   1.00   66.8
2024/05/10 12:22:02.000   28.438748994  -16.451380980   630.0368   1   9   0.0016   0.0012   0.0107  -0.0007  -0.0018  -0.0009   2.00   68.9
2024/05/10 12:22:03.000   28.438748994  -16.451380979   630.0364   1   9   0.0016   0.0012   0.0107  -0.0007  -0.0018  -0.0009   3.00   70.8
2024/05/10 12:22:04.000   28.438748993  -16.451380979   630.0361   1   9   0.0016   0.0012   0.0108  -0.0007  -0.0018  -0.0009   4.00   72.8
2024/05/10 12:22:05.000   28.438748993  -16.451380978   630.0357   1   9   0.0016   0.0012   0.0108  -0.0007  -0.0018  -0.0009   5.00   74.6
2024/05/10 12:22:06.000   28.438748992  -16.451380978   630.0354   1   9   0.0016   0.0012   0.0108  -0.0007  -0.0018  -0.0009   6.00   77.1
2024/05/10 12:22:07.000   28.438748992  -16.451380977   630.0352   1   9   0.0016   0.0012   0.0108  -0.0007  -0.0018  -0.0009   7.00   79.0
2024/05/10 12:22:08.000   28.438748992  -16.451380977   630.0350   1   9   0.0016   0.0012   0.0108  -0.0007  -0.0018  -0.0009   8.00   80.7
2024/05/10 12:22:09.000   28.438748991  -16.451380977   630.0349   1   9   0.0016   0.0012   0.0108  -0.0007  -0.0018  -0.0009   9.00   81.2
2024/05/10 12:22:10.000   28.438748991  -16.451380976   630.0348   1   9   0.0016   0.0012   0.0108  -0.0007  -0.0018  -0.0008  10.00   81.2
2024/05/10 12:22:11.000   28.438748991  -16.451380976   630.0347   1   9   0.0016   0.0012   0.0108  -0.0007  -0.0018  -0.0008  11.00   81.3
2024/05/10 12:22:12.000   28.438748991  -16.451380976   630.0346   1   9   0.0016   0.0012   0.0108  -0.0007  -0.0018  -0.0008  12.00   81.4
2024/05/10 12:22:13.000   28.438748991  -16.451380976   630.0346   1   9   0.0016   0.0012   0.0108  -0.0007  -0.0018  -0.0008  13.00   80.7
2024/05/10 12:22:14.000   28.438748991  -16.451380976   630.0345   1   9   0.0016   0.0012   0.0108  -0.0007  -0.0018  -0.0008  14.00   80.4
2024/05/10 12:22:15.000   28.438748990  -16.451380976   630.0344   1   9   0.0016   0.0012   0.0108  -0.0007  -0.0018  -0.0008  15.00   80.0
2024/05/10 12:22:16.000   28.438748990  -16.451380976   630.0344   1   9   0.0016   0.0012   0.0108  -0.0007  -0.0018  -0.0008 -14.00   79.3
2024/05/10 12:22:17.000   28.438748990  -16.451380975   630.0343   1   9   0.0016   0.0012   0.0108  -0.0007  -0.0018  -0.0008 -13.00   78.6
2024/05/10 12:22:18.000   28.438748990  -16.451380975   630.0343   1   9   0.0016   0.0012   0.0108  -0.0007  -0.0018  -0.0008 -12.00   78.2
2024/05/10 12:22:19.000   28.438748990  -16.451380975   630.0342   1   9   0.0016   0.0012   0.0108  -0.0007  -0.0018  -0.0008 -11.00   78.0
2024/05/10 12:22:20.000   28.438748990  -16.451380975   630.0341   1   9   0.0016   0.0012   0.0108  -0.0007  -0.0018  -0.0008 -10.00   78.3
2024/05/10 12:22:21.000   28.438748989  -16.451380975   630.0340   1   9   0.0016   0.0012   0.0108  -0.0007  -0.0018  -0.0008  -9.00   79.0
2024/05/10 12:22:22.000   28.438748989  -16.451380975   630.0340   1   9   0.0016   0.0012   0.0108  -0.0007  -0.0018  -0.0008  -8.00   78.6
2024/05/10 12:22:23.000   28.438748989  -16.451380975   630.0339   1   9   0.0016   0.0012   0.0108  -0.0007  -0.0018  -0.0008  -7.00   78.5
2024/05/10 12:22:24.000   28.438748989  -16.451380974   630.0338   1   9   0.0016   0.0012   0.0108  -0.0007  -0.0018  -0.0007  -6.00   79.4
2024/05/10 12:22:25.000   28.438748988  -16.451380974   630.0337   1   9   0.0016   0.0012   0.0108  -0.0007  -0.0019  -0.0007  -5.00   79.4
2024/05/10 12:22:26.000   28.438748988  -16.451380974   630.0336   1   9   0.0016   0.0012   0.0108  -0.0007  -0.0019  -0.0007  -4.00   79.8
2024/05/10 12:22:27.000   28.438748988  -16.451380974   630.0334   1   9   0.0016   0.0012   0.0108  -0.0007  -0.0019  -0.0007  -3.00   78.1
2024/05/10 12:22:28.000   28.438748987  -16.451380973   630.0333   1   9   0.0016   0.0012   0.0108  -0.0007  -0.0019  -0.0007  -2.00   64.4
2024/05/10 12:22:29.000   28.438748987  -16.451380973   630.0330   1   9   0.0016   0.0012   0.0108  -0.0007  -0.0019  -0.0007  -1.00   38.2
2024/05/10 12:22:30.000   28.438748992  -16.451380976   630.0353   1   9   0.0016   0.0012   0.0108  -0.0007  -0.0018  -0.0009   0.00  127.3
2024/05/10 12:22:31.000   28.438748991  -16.451380976   630.0352   1   9   0.0016   0.0012   0.0108  -0.0007  -0.0018  -0.0009   1.00  130.6
2024/05/10 12:22:32.000   28.438748991  -16.451380975   630.0349   1   9   0.0016   0.0012   0.0108  -0.0007  -0.0018  -0.0009   2.00  134.3
2024/05/10 12:22:33.000   28.438748991  -16.451380975   630.0347   1   9   0.0016   0.0012   0.0108  -0.0007  -0.0018  -0.0009   3.00  136.4
2024/05/10 12:22:34.000   28.438748990  -16.451380975   630.0345   1   9   0.0016   0.0012   0.0108  -0.0007  -0.0018  -0.0009   4.00  138.4
2024/05/10 12:22:35.000   28.438748990  -16.451380975   630.0344   1   9   0.0016   0.0012   0.0108  -0.0007  -0.0018  -0.0008   5.00  139.5
2024/05/10 12:22:36.000   28.438748990  -16.451380975   630.0344   1   9   0.0016   0.0012   0.0109  -0.0007  -0.0018  -0.0008   6.00  139.2
2024/05/10 12:22:37.000   28.438748990  -16.451380974   630.0343   1   9   0.0016   0.0012   0.0109  -0.0007  -0.0018  -0.0008   7.00  139.8
2024/05/10 12:22:38.000   28.438748989  -16.451380974   630.0342   1   9   0.0016   0.0012   0.0109  -0.0007  -0.0018  -0.0008   8.00  140.2
2024/05/10 12:22:39.000   28.438748989  -16.451380974   630.0342   1   9   0.0016   0.0012   0.0109  -0.0007  -0.0018  -0.0008   9.00  140.5
2024/05/10 12:22:40.000   28.438748989  -16.451380974   630.0341   1   9   0.0016   0.0012   0.0109  -0.0007  -0.0019  -0.0008  10.00  140.1
2024/05/10 12:22:41.000   28.438748989  -16.451380974   630.0341   1   9   0.0016   0.0012   0.0109  -0.0007  -0.0019  -0.0008  11.00  139.1
2024/05/10 12:22:42.000   28.438748989  -16.451380974   630.0340   1   9   0.0016   0.0012   0.0109  -0.0007  -0.0019  -0.0008  12.00  138.3
2024/05/10 12:22:43.000   28.438748989  -16.451380974   630.0340   1   9   0.0016   0.0012   0.0109  -0.0007  -0.0019  -0.0008  13.00  136.6
2024/05/10 12:22:44.000   28.438748989  -16.451380974   630.0340   1   9   0.0016   0.0012   0.0109  -0.0007  -0.0019  -0.0008  14.00  134.7
2024/05/10 12:22:45.000   28.438748989  -16.451380974   630.0340   1   9   0.0016   0.0012   0.0109  -0.0007  -0.0019  -0.0008  15.00  132.6
2024/05/10 12:22:46.000   28.438748989  -16.451380974   630.0340   1   9   0.0016   0.0012   0.0109  -0.0007  -0.0019  -0.0008 -14.00  130.4
2024/05/10 12:22:47.000   28.438748989  -16.451380973   630.0339   1   9   0.0016   0.0012   0.0108  -0.0007  -0.0019  -0.0007 -13.00  128.3
2024/05/10 12:22:48.000   28.438748988  -16.451380973   630.0339   1   9   0.0016   0.0012   0.0108  -0.0007  -0.0019  -0.0007 -12.00  126.2
2024/05/10 12:22:49.000   28.438748988  -16.451380973   630.0339   1   9   0.0016   0.0012   0.0108  -0.0007  -0.0019  -0.0007 -11.00  124.3
2024/05/10 12:22:50.000   28.438748988  -16.451380973   630.0338   1   9   0.0016   0.0012   0.0108  -0.0007  -0.0019  -0.0007 -10.00  122.1
2024/05/10 12:22:51.000   28.438748988  -16.451380973   630.0337   1   9   0.0016   0.0012   0.0108  -0.0007  -0.0019  -0.0007  -9.00  120.1
2024/05/10 12:22:52.000   28.438748988  -16.451380973   630.0337   1   9   0.0016   0.0012   0.0108  -0.0007  -0.0019  -0.0007  -8.00  117.2
2024/05/10 12:22:53.000   28.438748988  -16.451380973   630.0336   1   9   0.0016   0.0012   0.0108  -0.0007  -0.0019  -0.0007  -7.00  114.5
2024/05/10 12:22:54.000   28.438748988  -16.451380973   630.0336   1   9   0.0016   0.0012   0.0108  -0.0007  -0.0019  -0.0007  -6.00  111.9
2024/05/10 12:22:55.000   28.438748988  -16.451380973   630.0335   1   9   0.0016   0.0012   0.0108  -0.0007  -0.0019  -0.0007  -5.00  108.9
2024/05/10 12:22:56.000   28.438748988  -16.451380973   630.0335   1   9   0.0016   0.0012   0.0109  -0.0007  -0.0019  -0.0007  -4.00  104.4
2024/05/10 12:22:57.000   28.438748987  -16.451380973   630.0335   1   9   0.0016   0.0012   0.0109  -0.0007  -0.0019  -0.0006  -3.00   98.2
2024/05/10 12:22:58.000   28.438748987  -16.451380973   630.0335   1   9   0.0016   0.0012   0.0109  -0.0007  -0.0019  -0.0006  -2.00   80.0
2024/05/10 12:22:59.000   28.438748987  -16.451380973   630.0335   1   9   0.0016   0.0012   0.0109  -0.0007  -0.0019  -0.0006  -1.00   44.9
2024/05/10 12:23:00.000   28.438748991  -16.451380976   630.0359   1   9   0.0016   0.0012   0.0108  -0.0007  -0.0018  -0.0008   0.00  137.7
2024/05/10 12:23:01.000   28.438748991  -16.451380976   630.0359   1   9   0.0016   0.0012   0.0109  -0.0007  -0.0018  -0.0008   1.00  134.3
2024/05/10 12:23:02.000   28.438748991  -16.451380976   630.0359   1   9   0.0016   0.0012   0.0109  -0.0007  -0.0018  -0.0008   2.00  132.4
2024/05/10 12:23:03.000   28.438748991  -16.451380976   630.0360   1   9   0.0016   0.0012   0.0109  -0.0007  -0.0018  -0.0008   3.00  127.9
2024/05/10 12:23:04.000   28.438748991  -16.451380976   630.0361   1   9   0.0016   0.0012   0.0109  -0.0007  -0.0018  -0.0008   4.00  126.4
2024/05/10 12:23:05.000   28.438748990  -16.451380976   630.0361   1   9   0.0016   0.0012   0.0109  -0.0007  -0.0018  -0.0008   5.00  126.4
2024/05/10 12:23:06.000   28.438748990  -16.451380976   630.0361   1   9   0.0016   0.0012   0.0109  -0.0007  -0.0019  -0.0008   6.00  126.0
2024/05/10 12:23:07.000   28.438748990  -16.451380976   630.0362   1   9   0.0016   0.0012   0.0109  -0.0007  -0.0019  -0.0008   7.00  122.9
2024/05/10 12:23:08.000   28.438748990  -16.451380976   630.0362   1   9   0.0016   0.0012   0.0109  -0.0007  -0.0019  -0.0008   8.00  120.3
2024/05/10 12:23:09.000   28.438748989  -16.451380976   630.0362   1   9   0.0016   0.0012   0.0109  -0.0007  -0.0019  -0.0007   9.00  117.9
2024/05/10 12:23:10.000   28.438748989  -16.451380976   630.0362   1   9   0.0016   0.0012   0.0109  -0.0007  -0.0019  -0.0007  10.00  116.2
2024/05/10 12:23:11.000   28.438748989  -16.451380976   630.0362   1   9   0.0016   0.0012   0.0109  -0.0007  -0.0019  -0.0007  11.00  115.0
2024/05/10 12:23:12.000   28.438748989  -16.451380976   630.0362   1   9   0.0016   0.0012   0.0109  -0.0007  -0.0019  -0.0007  12.00  113.1
2024/05/10 12:23:13.000   28.438748989  -16.451380975   630.0362   1   9   0.0016   0.0012   0.0109  -0.0007  -0.0019  -0.0007  13.00  112.1
2024/05/10 12:23:14.000   28.438748989  -16.451380975   630.0361   1   9   0.0016   0.0012   0.0109  -0.0007  -0.0019  -0.0007  14.00  110.4
2024/05/10 12:23:15.000   28.438748989  -16.451380975   630.0361   1   9   0.0016   0.0012   0.0109  -0.0007  -0.0019  -0.0007  15.00  108.3
2024/05/10 12:23:16.000   28.438748988  -16.451380975   630.0361   1   9   0.0016   0.0012   0.0109  -0.0007  -0.0019  -0.0007 -14.00  106.4
2024/05/10 12:23:17.000   28.438748988  -16.451380975   630.0361   1   9   0.0016   0.0012   0.0109  -0.0007  -0.0019  -0.0007 -13.00  104.8
2024/05/10 12:23:18.000   28.438748988  -16.451380975   630.0361   1   9   0.0016   0.0012   0.0109  -0.0007  -0.0019  -0.0007 -12.00  103.1
2024/05/10 12:23:19.000   28.438748988  -16.451380975   630.0361   1   9   0.0016   0.0012   0.0109  -0.0007  -0.0019  -0.0007 -11.00  101.4
2024/05/10 12:23:20.000   28.438748988  -16.451380975   630.0361   1   9   0.0016   0.0012   0.0109  -0.0007  -0.0019  -0.0007 -10.00  100.1
2024/05/10 12:23:21.000   28.438748988  -16.451380975   630.0361   1   9   0.0016   0.0012   0.0109  -0.0007  -0.0019  -0.0006  -9.00   98.5
2024/05/10 12:23:22.000   28.438748988  -16.451380975   630.0361   1   9   0.0016   0.0012   0.0109  -0.0007  -0.0019  -0.0006  -8.00   96.9
2024/05/10 12:23:23.000   28.438748987  -16.451380975   630.0361   1   9   0.0016   0.0012   0.0109  -0.0007  -0.0019  -0.0006  -7.00   95.8
2024/05/10 12:23:24.000   28.438748987  -16.451380975   630.0362   1   9   0.0016   0.0012   0.0109  -0.0007  -0.0019  -0.0006  -6.00   95.9
2024/05/10 12:23:25.000   28.438748987  -16.451380974   630.0362   1   9   0.0016   0.0012   0.0109  -0.0007  -0.0019  -0.0006  -5.00   95.6
2024/05/10 12:23:26.000   28.438748987  -16.451380974   630.0362   1   9   0.0016   0.0012   0.0109  -0.0007  -0.0019  -0.0006  -4.00   93.5
2024/05/10 12:23:27.000   28.438748986  -16.451380974   630.0363   1   9   0.0016   0.0012   0.0110  -0.0007  -0.0019  -0.0006  -3.00   89.6
2024/05/10 12:23:28.000   28.438748986  -16.451380974   630.0364   1   9   0.0016   0.0012   0.0110  -0.0007  -0.0019  -0.0005  -2.00   73.5
2024/05/10 12:23:29.000   28.438748986  -16.451380974   630.0366   1   9   0.0016   0.0012   0.0110  -0.0007  -0.0019  -0.0005  -1.00   41.8
2024/05/10 12:23:30.000   28.438748994  -16.451380980   630.0414   1   9   0.0016   0.0012   0.0109  -0.0007  -0.0018  -0.0008   0.00   70.1
2024/05/10 12:23:31.000   28.438748994  -16.451380980   630.0414   1   9   0.0016   0.0012   0.0109  -0.0007  -0.0018  -0.0008   1.00   70.8
2024/05/10 12:23:32.000   28.438748994  -16.451380980   630.0416   1   9   0.0016   0.0012   0.0110  -0.0007  -0.0018  -0.0008   2.00   69.7
2024/05/10 12:23:33.000   28.438748994  -16.451380980   630.0417   1   9   0.0016   0.0012   0.0110  -0.0007  -0.0018  -0.0008   3.00   71.5
2024/05/10 12:23:34.000   28.438748993  -16.451380979   630.0417   1   9   0.0016   0.0012   0.0110  -0.0007  -0.0019  -0.0007   4.00   72.6
2024/05/10 12:23:35.000   28.438748993  -16.451380979   630.0417   1   9   0.0016   0.0012   0.0110  -0.0007  -0.0019  -0.0007   5.00   73.0
2024/05/10 12:23:36.000   28.438748993  -16.451380979   630.0417   1   9   0.0016   0.0012   0.0110  -0.0007  -0.0019  -0.0007   6.00   72.9
2024/05/10 12:23:37.000   28.438748993  -16.451380979   630.0417   1   9   0.0016   0.0012   0.0110  -0.0007  -0.0019  -0.0007   7.00   72.8
2024/05/10 12:23:38.000   28.438748993  -16.451380979   630.0418   1   9   0.0016   0.0012   0.0110  -0.0007  -0.0019  -0.0007   8.00   72.7
2024/05/10 12:23:39.000   28.438748993  -16.451380979   630.0418   1   9   0.0016   0.0012   0.0110  -0.0007  -0.0019  -0.0007   9.00   72.3
2024/05/10 12:23:40.000   28.438748993  -16.451380979   630.0417   1   9   0.0016   0.0012   0.0110  -0.0007  -0.0019  -0.0007  10.00   71.8
2024/05/10 12:23:41.000   28.438748993  -16.451380979   630.0417   1   9   0.0016   0.0012   0.0110  -0.0007  -0.0019  -0.0007  11.00   71.2
2024/05/10 12:23:42.000   28.438748992  -16.451380979   630.0417   1   9   0.0016   0.0012   0.0110  -0.0007  -0.0019  -0.0006  12.00   70.8
2024/05/10 12:23:43.000   28.438748992  -16.451380979   630.0417   1   9   0.0016   0.0012   0.0110  -0.0007  -0.0019  -0.0006  13.00   70.5
2024/05/10 12:23:44.000   28.438748992  -16.451380979   630.0417   1   9   0.0016   0.0012   0.0110  -0.0007  -0.0019  -0.0006  14.00   70.0
2024/05/10 12:23:45.000   28.438748992  -16.451380979   630.0417   1   9   0.0016   0.0012   0.0110  -0.0007  -0.0019  -0.0006  15.00   69.1
2024/05/10 12:23:46.000   28.438748992  -16.451380979   630.0417   1   9   0.0016   0.0012   0.0110  -0.0007  -0.0019  -0.0006 -14.00   68.1
2024/05/10 12:23:47.000   28.438748992  -16.451380979   630.0416   1   9   0.0016   0.0012   0.0110  -0.0007  -0.0019  -0.0006 -13.00   67.5
2024/05/10 12:23:48.000   28.438748992  -16.451380979   630.0416   1   9   0.0016   0.0012   0.0110  -0.0007  -0.0019  -0.0006 -12.00   67.0
2024/05/10 12:23:49.000   28.438748992  -16.451380978   630.0416   1   9   0.0016   0.0012   0.0110  -0.0007  -0.0019  -0.0006 -11.00   66.7
2024/05/10 12:23:50.000   28.438748992  -16.451380978   630.0416   1   9   0.0016   0.0012   0.0110  -0.0007  -0.0019  -0.0006 -10.00   66.9
2024/05/10 12:23:51.000   28.438748992  -16.451380978   630.0415   1   9   0.0016   0.0012   0.0110  -0.0007  -0.0019  -0.0006  -9.00   66.7
2024/05/10 12:23:52.000   28.438748991  -16.451380978   630.0415   1   9   0.0016   0.0012   0.0110  -0.0007  -0.0019  -0.0005  -8.00   66.1
2024/05/10 12:23:53.000   28.438748991  -16.451380978   630.0415   1   9   0.0016   0.0012   0.0110  -0.0007  -0.0019  -0.0005  -7.00   66.8
2024/05/10 12:23:54.000   28.438748991  -16.451380978   630.0415   1   9   0.0016   0.0012   0.0110  -0.0007  -0.0019  -0.0005  -6.00   67.8
2024/05/10 12:23:55.000   28.438748991  -16.451380978   630.0415   1   9   0.0016   0.0012   0.0110  -0.0007  -0.0019  -0.0005  -5.00   68.9
2024/05/10 12:23:56.000   28.438748990  -16.451380978   630.0413   1   9   0.0016   0.0012   0.0110  -0.0007  -0.0019  -0.0005  -4.00   72.5
2024/05/10 12:23:57.000   28.438748990  -16.451380977   630.0413   1   9   0.0016   0.0012   0.0110  -0.0007  -0.0019  -0.0005  -3.00   73.7
2024/05/10 12:23:58.000   28.438748990  -16.451380977   630.0412   1   9   0.0016   0.0012   0.0111  -0.0007  -0.0019  -0.0004  -2.00   61.4
2024/05/10 12:23:59.000   28.438748990  -16.451380977   630.0412   1   9   0.0016   0.0012   0.0111  -0.0007  -0.0019  -0.0004  -1.00   37.0
2024/05/10 12:24:00.000   28.438749000  -16.451380984   630.0466   1   9   0.0016   0.0012   0.0110  -0.0007  -0.0018  -0.0007   0.00   57.6
2024/05/10 12:24:01.000   28.438748999  -16.451380984   630.0467   1   9   0.0016   0.0012   0.0110  -0.0007  -0.0018  -0.0007   1.00   59.4
2024/05/10 12:24:02.000   28.438748999  -16.451380983   630.0467   1   9   0.0016   0.0012   0.0111  -0.0007  -0.0019  -0.0007   2.00   60.3
2024/05/10 12:24:03.000   28.438748999  -16.451380983   630.0468   1   9   0.0016   0.0012   0.0111  -0.0007  -0.0019  -0.0007   3.00   62.1
2024/05/10 12:24:04.000   28.438748998  -16.451380983   630.0468   1   9   0.0016   0.0012   0.0111  -0.0007  -0.0019  -0.0007   4.00   63.9
2024/05/10 12:24:05.000   28.438748998  -16.451380983   630.0468   1   9   0.0016   0.0012   0.0111  -0.0007  -0.0019  -0.0007   5.00   65.5
2024/05/10 12:24:06.000   28.438748997  -16.451380983   630.0468   1   9   0.0016   0.0012   0.0111  -0.0007  -0.0019  -0.0006   6.00   65.9
2024/05/10 12:24:07.000   28.438748997  -16.451380983   630.0468   1   9   0.0016   0.0012   0.0111  -0.0007  -0.0019  -0.0006   7.00   66.6
2024/05/10 12:24:08.000   28.438748996  -16.451380983   630.0468   1   9   0.0016   0.0012   0.0111  -0.0007  -0.0019  -0.0006   8.00   66.7
2024/05/10 12:24:09.000   28.438748996  -16.451380983   630.0468   1   9   0.0016   0.0012   0.0111  -0.0007  -0.0019  -0.0006   9.00   67.2
2024/05/10 12:24:10.000   28.438748996  -16.451380983   630.0467   1   9   0.0016   0.0012   0.0111  -0.0007  -0.0019  -0.0006  10.00   67.2
2024/05/10 12:24:11.000   28.438748996  -16.451380983   630.0467   1   9   0.0016   0.0012   0.0111  -0.0007  -0.0019  -0.0006  11.00   66.7
2024/05/10 12:24:12.000   28.438748995  -16.451380983   630.0467   1   9   0.0016   0.0012   0.0111  -0.0007  -0.0019  -0.0006  12.00   66.1
2024/05/10 12:24:13.000   28.438748995  -16.451380983   630.0466   1   9   0.0016   0.0012   0.0111  -0.0007  -0.0019  -0.0006  13.00   65.1
2024/05/10 12:24:14.000   28.438748995  -16.451380983   630.0466   1   9   0.0016   0.0012   0.0111  -0.0007  -0.0019  -0.0005  14.00   64.5
2024/05/10 12:24:15.000   28.438748995  -16.451380983   630.0465   1   9   0.0016   0.0012   0.0111  -0.0007  -0.0019  -0.0005  15.00   63.7
2024/05/10 12:24:16.000   28.438748995  -16.451380983   630.0465   1   9   0.0016   0.0012   0.0111  -0.0007  -0.0019  -0.0005 -14.00   62.7
2024/05/10 12:24:17.000   28.438748994  -16.451380983   630.0464   1   9   0.0016   0.0012   0.0111  -0.0007  -0.0019  -0.0005 -13.00   61.9
2024/05/10 12:24:18.000   28.438748994  -16.451380983   630.0463   1   9   0.0016   0.0012   0.0111  -0.0007  -0.0019  -0.0005 -12.00   61.4
2024/05/10 12:24:19.000   28.438748994  -16.451380983   630.0462   1   9   0.0016   0.0012   0.0111  -0.0007  -0.0019  -0.0005 -11.00   60.8
2024/05/10 12:24:20.000   28.438748994  -16.451380983   630.0461   1   9   0.0016   0.0012   0.0111  -0.0007  -0.0019  -0.0005 -10.00   60.5
2024/05/10 12:24:21.000   28.438748993  -16.451380982   630.0460   1   9   0.0016   0.0012   0.0111  -0.0007  -0.0019  -0.0005  -9.00   60.3
2024/05/10 12:24:22.000   28.438748993  -16.451380982   630.0458   1   9   0.0016   0.0012   0.0111  -0.0007  -0.0019  -0.0005  -8.00   60.1
2024/05/10 12:24:23.000   28.438748993  -16.451380982   630.0457   1   9   0.0016   0.0012   0.0111  -0.0007  -0.0019  -0.0004  -7.00   60.1
2024/05/10 12:24:24.000   28.438748992  -16.451380982   630.0455   1   9   0.0016   0.0012   0.0111  -0.0007  -0.0019  -0.0004  -6.00   60.4
2024/05/10 12:24:25.000   28.438748991  -16.451380982   630.0453   1   9   0.0016   0.0012   0.0111  -0.0007  -0.0019  -0.0004  -5.00   62.1
2024/05/10 12:24:26.000   28.438748991  -16.451380982   630.0451   1   9   0.0016   0.0012   0.0111  -0.0007  -0.0019  -0.0004  -4.00   64.5
2024/05/10 12:24:27.000   28.438748990  -16.451380982   630.0448   1   9   0.0016   0.0012   0.0111  -0.0007  -0.0019  -0.0003  -3.00   63.9
2024/05/10 12:24:28.000   28.438748989  -16.451380981   630.0446   1   9   0.0016   0.0012   0.0111  -0.0007  -0.0019  -0.0003  -2.00   54.8
2024/05/10 12:24:29.000   28.438748988  -16.451380981   630.0443   1   9   0.0016   0.0012   0.0112  -0.0007  -0.0019  -0.0002  -1.00   35.7
2024/05/10 12:24:30.000   28.438749001  -16.451380989   630.0510   1   9   0.0016   0.0012   0.0111  -0.0007  -0.0018  -0.0007   0.00   40.4
2024/05/10 12:24:31.000   28.438749000  -16.451380989   630.0508   1   9   0.0016   0.0012   0.0111  -0.0007  -0.0019  -0.0006   1.00   41.8
2024/05/10 12:24:32.000   28.438749000  -16.451380989   630.0507   1   9   0.0016   0.0012   0.0111  -0.0007  -0.0019  -0.0006   2.00   42.3
2024/05/10 12:24:33.000   28.438748999  -16.451380988   630.0505   1   9   0.0016   0.0012   0.0112  -0.0007  -0.0019  -0.0006   3.00   43.1
2024/05/10 12:24:34.000   28.438748999  -16.451380988   630.0504   1   9   0.0016   0.0012   0.0112  -0.0007  -0.0019  -0.0006   4.00   43.4
2024/05/10 12:24:35.000   28.438748998  -16.451380988   630.0503   1   9   0.0016   0.0012   0.0112  -0.0007  -0.0019  -0.0006   5.00   44.2
2024/05/10 12:24:36.000   28.438748998  -16.451380988   630.0501   1   9   0.0016   0.0012   0.0112  -0.0007  -0.0019  -0.0006   6.00   44.6
2024/05/10 12:24:37.000   28.438748998  -16.451380988   630.0500   1   9   0.0016   0.0012   0.0112  -0.0007  -0.0019  -0.0005   7.00   45.1
2024/05/10 12:24:38.000   28.438748997  -16.451380988   630.0499   1   9   0.0016   0.0012   0.0112  -0.0007  -0.0019  -0.0005   8.00   45.4
2024/05/10 12:24:39.000   28.438748997  -16.451380987   630.0498   1   9   0.0016   0.0012   0.0112  -0.0007  -0.0019  -0.0005   9.00   45.7
2024/05/10 12:24:40.000   28.438748997  -16.451380987   630.0497   1   9   0.0016   0.0012   0.0112  -0.0007  -0.0019  -0.0005  10.00   45.9
2024/05/10 12:24:41.000   28.438748997  -16.451380987   630.0496   1   9   0.0016   0.0012   0.0112  -0.0007  -0.0019  -0.0005  11.00   46.1
2024/05/10 12:24:42.000   28.438748996  -16.451380987   630.0495   1   9   0.0016   0.0012   0.0112  -0.0007  -0.0019  -0.0005  12.00   46.1
2024/05/10 12:24:43.000   28.438748996  -16.451380987   630.0495   1   9   0.0016   0.0012   0.0112  -0.0007  -0.0019  -0.0005  13.00   46.1
2024/05/10 12:24:44.000   28.438748996  -16.451380987   630.0494   1   9   0.0016   0.0012   0.0112  -0.0007  -0.0019  -0.0004  14.00   45.7
2024/05/10 12:24:45.000   28.438748996  -16.451380987   630.0493   1   9   0.0016   0.0012   0.0112  -0.0007  -0.0019  -0.0004  15.00   45.1
2024/05/10 12:24:46.000   28.438748996  -16.451380986   630.0493   1   9   0.0016   0.0012   0.0112  -0.0007  -0.0019  -0.0004 -14.00   44.7
2024/05/10 12:24:47.000   28.438748996  -16.451380986   630.0492   1   9   0.0016   0.0012   0.0112  -0.0007  -0.0019  -0.0004 -13.00   44.3
2024/05/10 12:24:48.000   28.438748995  -16.451380986   630.0492   1   9   0.0016   0.0012   0.0112  -0.0007  -0.0019  -0.0004 -12.00   43.7
2024/05/10 12:24:49.000   28.438748995  -16.451380986   630.0492   1   9   0.0016   0.0012   0.0112  -0.0007  -0.0019  -0.0004 -11.00   43.4
2024/05/10 12:24:50.000   28.438748995  -16.451380986   630.0491   1   9   0.0016   0.0012   0.0112  -0.0007  -0.0019  -0.0004 -10.00   43.1
2024/05/10 12:24:51.000   28.438748995  -16.451380986   630.0491   1   9   0.0016   0.0012   0.0112  -0.0007  -0.0019  -0.0003  -9.00   43.1
2024/05/10 12:24:52.000   28.438748994  -16.451380986   630.0491   1   9   0.0016   0.0012   0.0112  -0.0007  -0.0019  -0.0003  -8.00   43.3
2024/05/10 12:24:53.000   28.438748994  -16.451380985   630.0490   1   9   0.0016   0.0012   0.0112  -0.0007  -0.0019  -0.0003  -7.00   43.4
2024/05/10 12:24:54.000   28.438748993  -16.451380985   630.0490   1   9   0.0016   0.0012   0.0112  -0.0007  -0.0019  -0.0003  -6.00   43.8
2024/05/10 12:24:55.000   28.438748993  -16.451380985   630.0489   1   9   0.0016   0.0012   0.0112  -0.0007  -0.0019  -0.0002  -5.00   45.1
2024/05/10 12:24:56.000   28.438748992  -16.451380984   630.0488   1   9   0.0016   0.0012   0.0112  -0.0007  -0.0019  -0.0001  -4.00   46.9
2024/05/10 12:24:57.000   28.438748991  -16.451380984   630.0486   1   9   0.0016   0.0012   0.0112  -0.0007  -0.0019   0.0001  -3.00   48.2
2024/05/10 12:24:58.000   28.438748990  -16.451380983   630.0483   1   9   0.0016   0.0012   0.0112  -0.0007  -0.0019   0.0002  -2.00   44.4
2024/05/10 12:24:59.000   28.438748988  -16.451380982   630.0481   1   9   0.0017   0.0012   0.0112  -0.0007  -0.0019   0.0002  -1.00   29.4
2024/05/10 12:25:00.000   28.438749000  -16.451380990   630.0546   1   9   0.0016   0.0012   0.0112  -0.0007  -0.0019  -0.0006   0.00   45.5
2024/05/10 12:25:01.000   28.438748998  -16.451380989   630.0544   1   9   0.0016   0.0012   0.0112  -0.0007  -0.0019  -0.0006   1.00   48.3
2024/05/10 12:25:02.000   28.438748997  -16.451380988   630.0544   1   9   0.0016   0.0012   0.0112  -0.0007  -0.0019  -0.0005   2.00   51.5
2024/05/10 12:25:03.000   28.438748996  -16.451380988   630.0544   1   9   0.0016   0.0012   0.0112  -0.0007  -0.0019  -0.0005   3.00   54.6
2024/05/10 12:25:04.000   28.438748995  -16.451380987   630.0542   1   9   0.0016   0.0012   0.0113  -0.0007  -0.0019  -0.0005   4.00   57.6
2024/05/10 12:25:05.000   28.438748994  -16.451380987   630.0542   1   9   0.0016   0.0012   0.0113  -0.0007  -0.0019  -0.0005   5.00   60.5
2024/05/10 12:25:06.000   28.438748993  -16.451380986   630.0541   1   9   0.0016   0.0012   0.0113  -0.0007  -0.0019  -0.0005   6.00   62.9
2024/05/10 12:25:07.000   28.438748992  -16.451380986   630.0540   1   9   0.0016   0.0012   0.0113  -0.0007  -0.0019  -0.0004   7.00   65.7
2024/05/10 12:25:08.000   28.438748992  -16.451380986   630.0539   1   9   0.0016   0.0012   0.0113  -0.0007  -0.0019  -0.0004   8.00   67.7
2024/05/10 12:25:09.000   28.438748991  -16.451380985   630.0539   1   9   0.0016   0.0012   0.0113  -0.0007  -0.0019  -0.0004   9.00   69.2
2024/05/10 12:25:10.000   28.438748991  -16.451380985   630.0539   1   9   0.0016   0.0012   0.0113  -0.0007  -0.0019  -0.0004  10.00   70.7
2024/05/10 12:25:11.000   28.438748990  -16.451380985   630.0538   1   9   0.0016   0.0012   0.0113  -0.0007  -0.0019  -0.0004  11.00   71.7
2024/05/10 12:25:12.000   28.438748990  -16.451380985   630.0538   1   9   0.0016   0.0012   0.0113  -0.0007  -0.0019  -0.0003  12.00   73.0
2024/05/10 12:25:13.000   28.438748990  -16.451380984   630.0537   1   9   0.0016   0.0012   0.0113  -0.0007  -0.0019  -0.0003  13.00   73.6
2024/05/10 12:25:14.000   28.438748989  -16.451380984   630.0537   1   9   0.0016   0.0012   0.0113  -0.0007  -0.0019  -0.0003  14.00   73.6
2024/05/10 12:25:15.000   28.438748989  -16.451380984   630.0537   1   9   0.0016   0.0012   0.0113  -0.0007  -0.0019  -0.0003  15.00   73.2
2024/05/10 12:25:16.000   28.438748989  -16.451380984   630.0537   1   9   0.0016   0.0012   0.0113  -0.0007  -0.0019  -0.0003 -14.00   72.9
2024/05/10 12:25:17.000   28.438748989  -16.451380984   630.0537   1   9   0.0016   0.0012   0.0113  -0.0007  -0.0019  -0.0002 -13.00   72.6
2024/05/10 12:25:18.000   28.438748989  -16.451380984   630.0537   1   9   0.0016   0.0012   0.0113  -0.0007  -0.0019  -0.0002 -12.00   72.5
2024/05/10 12:25:19.000   28.438748988  -16.451380984   630.0537   1   9   0.0016   0.0012   0.0113  -0.0007  -0.0019  -0.0002 -11.00   72.2
2024/05/10 12:25:20.000   28.438748988  -16.451380984   630.0536   1   9   0.0016   0.0012   0.0113  -0.0007  -0.0019  -0.0001 -10.00   72.1
2024/05/10 12:25:21.000   28.438748988  -16.451380983   630.0536   1   9   0.0016   0.0012   0.0113  -0.0007  -0.0019  -0.0000  -9.00   72.1
2024/05/10 12:25:22.000   28.438748987  -16.451380983   630.0536   1   9   0.0016   0.0012   0.0113  -0.0007  -0.0019   0.0001  -8.00   72.7
2024/05/10 12:25:23.000   28.438748987  -16.451380983   630.0536   1   9   0.0016   0.0012   0.0113  -0.0007  -0.0019   0.0002  -7.00   73.3
2024/05/10 12:25:24.000   28.438748986  -16.451380983   630.0536   1   9   0.0016   0.0012   0.0113  -0.0007  -0.0019   0.0002  -6.00   73.7
2024/05/10 12:25:25.000   28.438748986  -16.451380983   630.0536   1   9   0.0016   0.0012   0.0113  -0.0007  -0.0019   0.0003  -5.00   73.6
2024/05/10 12:25:26.000   28.438748985  -16.451380982   630.0536   1   9   0.0016   0.0012   0.0113  -0.0007  -0.0019   0.0003  -4.00   74.0
2024/05/10 12:25:27.000   28.438748985  -16.451380982   630.0535   1   9   0.0017   0.0012   0.0113  -0.0007  -0.0019   0.0003  -3.00   70.0
2024/05/10 12:25:28.000   28.438748984  -16.451380982   630.0534   1   9   0.0017   0.0012   0.0113  -0.0007  -0.0019   0.0004  -2.00   58.3
2024/05/10 12:25:29.000   28.438748983  -16.451380981   630.0534   1   9   0.0017   0.0012   0.0113  -0.0007  -0.0019   0.0004  -1.00   35.5
2024/05/10 12:25:30.000   28.438748990  -16.451380986   630.0577   1   9   0.0016   0.0012   0.0113  -0.0007  -0.0019  -0.0005   0.00   81.2
2024/05/10 12:25:31.000   28.438748989  -16.451380986   630.0578   1   9   0.0016   0.0012   0.0113  -0.0007  -0.0019  -0.0005   1.00   82.4
2024/05/10 12:25:32.000   28.438748988  -16.451380985   630.0578   1   9   0.0016   0.0012   0.0113  -0.0007  -0.0019  -0.0004   2.00   83.5
2024/05/10 12:25:33.000   28.438748986  -16.451380985   630.0577   1   9   0.0016   0.0012   0.0113  -0.0007  -0.0019  -0.0004   3.00   86.1
2024/05/10 12:25:34.000   28.438748985  -16.451380984   630.0578   1   9   0.0016   0.0012   0.0114  -0.0007  -0.0019  -0.0004   4.00   87.1
2024/05/10 12:25:35.000   28.438748985  -16.451380984   630.0578   1   9   0.0017   0.0012   0.0114  -0.0007  -0.0019  -0.0003   5.00   87.7
2024/05/10 12:25:36.000   28.438748984  -16.451380984   630.0577   1   9   0.0017   0.0012   0.0114  -0.0007  -0.0019  -0.0003   6.00   88.3
2024/05/10 12:25:37.000   28.438748983  -16.451380984   630.0577   1   9   0.0017   0.0012   0.0114  -0.0007  -0.0019  -0.0003   7.00   87.8
2024/05/10 12:25:38.000   28.438748983  -16.451380983   630.0577   1   9   0.0017   0.0012   0.0114  -0.0007  -0.0019  -0.0002   8.00   87.1
2024/05/10 12:25:39.000   28.438748983  -16.451380983   630.0577   1   9   0.0017   0.0012   0.0114  -0.0007  -0.0019  -0.0002   9.00   86.1
2024/05/10 12:25:40.000   28.438748982  -16.451380983   630.0577   1   9   0.0017   0.0012   0.0114  -0.0007  -0.0019  -0.0001  10.00   84.8
2024/05/10 12:25:41.000   28.438748982  -16.451380983   630.0577   1   9   0.0017   0.0012   0.0114  -0.0007  -0.0019  -0.0001  11.00   83.3
2024/05/10 12:25:42.000   28.438748982  -16.451380983   630.0577   1   9   0.0017   0.0012   0.0114  -0.0007  -0.0019   0.0001  12.00   82.0
2024/05/10 12:25:43.000   28.438748981  -16.451380983   630.0577   1   9   0.0017   0.0012   0.0114  -0.0007  -0.0019   0.0001  13.00   80.6
2024/05/10 12:25:44.000   28.438748981  -16.451380983   630.0577   1   9   0.0017   0.0012   0.0114  -0.0007  -0.0019   0.0002  14.00   79.1
2024/05/10 12:25:45.000   28.438748981  -16.451380983   630.0577   1   9   0.0017   0.0012   0.0114  -0.0007  -0.0019   0.0002  15.00   77.8
2024/05/10 12:25:46.000   28.438748981  -16.451380983   630.0577   1   9   0.0017   0.0012   0.0114  -0.0007  -0.0019   0.0002 -14.00   76.2
2024/05/10 12:25:47.000   28.438748981  -16.451380982   630.0577   1   9   0.0017   0.0012   0.0114  -0.0007  -0.0019   0.0003 -13.00   74.7
2024/05/10 12:25:48.000   28.438748980  -16.451380982   630.0577   1   9   0.0017   0.0012   0.0114  -0.0007  -0.0019   0.0003 -12.00   73.3
2024/05/10 12:25:49.000   28.438748980  -16.451380982   630.0577   1   9   0.0017   0.0012   0.0114  -0.0007  -0.0019   0.0003 -11.00   72.0
2024/05/10 12:25:50.000   28.438748980  -16.451380982   630.0576   1   9   0.0017   0.0012   0.0114  -0.0007  -0.0019   0.0003 -10.00   71.1
2024/05/10 12:25:51.000   28.438748980  -16.451380982   630.0576   1   9   0.0017   0.0012   0.0114  -0.0007  -0.0019   0.0003  -9.00   70.1
2024/05/10 12:25:52.000   28.438748979  -16.451380982   630.0576   1   9   0.0017   0.0012   0.0114  -0.0007  -0.0019   0.0004  -8.00   68.9
2024/05/10 12:25:53.000   28.438748979  -16.451380982   630.0575   1   9   0.0017   0.0012   0.0114  -0.0007  -0.0019   0.0004  -7.00   67.3
2024/05/10 12:25:54.000   28.438748978  -16.451380981   630.0574   1   9   0.0017   0.0012   0.0114  -0.0007  -0.0019   0.0004  -6.00   66.5
2024/05/10 12:25:55.000   28.438748978  -16.451380981   630.0573   1   9   0.0017   0.0012   0.0114  -0.0007  -0.0019   0.0004  -5.00   65.8
2024/05/10 12:25:56.000   28.438748977  -16.451380981   630.0572   1   9   0.0017   0.0012   0.0114  -0.0007  -0.0019   0.0005  -4.00   64.0
2024/05/10 12:25:57.000   28.438748976  -16.451380980   630.0571   1   9   0.0017   0.0012   0.0114  -0.0007  -0.0019   0.0005  -3.00   59.7
2024/05/10 12:25:58.000   28.438748975  -16.451380980   630.0570   1   9   0.0017   0.0012   0.0114  -0.0007  -0.0019   0.0005  -2.00   47.8
2024/05/10 12:25:59.000   28.438748974  -16.451380979   630.0568   1   9   0.0017   0.0012   0.0115  -0.0007  -0.0019   0.0006  -1.00   28.2
2024/05/10 12:26:00.000   28.438748980  -16.451380983   630.0603   1   9   0.0016   0.0012   0.0114  -0.0007  -0.0019  -0.0003   0.00   46.9
2024/05/10 12:26:01.000   28.438748979  -16.451380983   630.0602   1   9   0.0016   0.0012   0.0114  -0.0007  -0.0019  -0.0003   1.00   46.8
2024/05/10 12:26:02.000   28.438748978  -16.451380982   630.0601   1   9   0.0016   0.0012   0.0114  -0.0007  -0.0019  -0.0002   2.00   46.4
2024/05/10 12:26:03.000   28.438748977  -16.451380982   630.0600   1   9   0.0017   0.0012   0.0114  -0.0007  -0.0019  -0.0002   3.00   45.9
2024/05/10 12:26:04.000   28.438748976  -16.451380981   630.0599   1   9   0.0017   0.0012   0.0115  -0.0007  -0.0019  -0.0001   4.00   45.5
2024/05/10 12:26:05.000   28.438748975  -16.451380981   630.0598   1   9   0.0017   0.0012   0.0115  -0.0007  -0.0019   0.0001   5.00   45.3
2024/05/10 12:26:06.000   28.438748975  -16.451380980   630.0596   1   9   0.0017   0.0012   0.0115  -0.0007  -0.0019   0.0002   6.00   45.2
2024/05/10 12:26:07.000   28.438748974  -16.451380980   630.0595   1   9   0.0017   0.0012   0.0115  -0.0007  -0.0019   0.0002   7.00   44.5
2024/05/10 12:26:08.000   28.438748974  -16.451380980   630.0594   1   9   0.0017   0.0012   0.0115  -0.0007  -0.0019   0.0003   8.00   44.2
2024/05/10 12:26:09.000   28.438748973  -16.451380979   630.0592   1   9   0.0017   0.0012   0.0115  -0.0007  -0.0019   0.0003   9.00   43.7
2024/05/10 12:26:10.000   28.438748973  -16.451380979   630.0591   1   9   0.0017   0.0012   0.0115  -0.0007  -0.0019   0.0003  10.00   42.7
2024/05/10 12:26:11.000   28.438748973  -16.451380979   630.0589   1   9   0.0017   0.0012   0.0115  -0.0007  -0.0019   0.0004  11.00   41.7
2024/05/10 12:26:12.000   28.438748972  -16.451380979   630.0588   1   9   0.0017   0.0012   0.0115  -0.0007  -0.0019   0.0004  12.00   40.7
2024/05/10 12:26:13.000   28.438748972  -16.451380979   630.0587   1   9   0.0017   0.0012   0.0115  -0.0007  -0.0019   0.0004  13.00   39.4
2024/05/10 12:26:14.000   28.438748972  -16.451380979   630.0586   1   9   0.0017   0.0012   0.0115  -0.0007  -0.0019   0.0004  14.00   38.0
2024/05/10 12:26:15.000   28.438748972  -16.451380979   630.0585   1   9   0.0017   0.0012   0.0115  -0.0007  -0.0019   0.0004  15.00   36.5
2024/05/10 12:26:16.000   28.438748972  -16.451380979   630.0585   1   9   0.0017   0.0012   0.0115  -0.0007  -0.0019   0.0004 -14.00   34.9
2024/05/10 12:26:17.000   28.438748972  -16.451380978   630.0584   1   9   0.0017   0.0012   0.0115  -0.0007  -0.0019   0.0005 -13.00   33.5
2024/05/10 12:26:18.000   28.438748971  -16.451380978   630.0583   1   9   0.0017   0.0012   0.0115  -0.0007  -0.0019   0.0005 -12.00   32.1
2024/05/10 12:26:19.000   28.438748971  -16.451380978   630.0583   1   9   0.0017   0.0012   0.0115  -0.0007  -0.0019   0.0005 -11.00   30.6
2024/05/10 12:26:20.000   28.438748971  -16.451380978   630.0582   1   9   0.0017   0.0012   0.0115  -0.0007  -0.0019   0.0005 -10.00   29.1
2024/05/10 12:26:21.000   28.438748971  -16.451380978   630.0581   1   9   0.0017   0.0012   0.0115  -0.0007  -0.0019   0.0005  -9.00   27.5
2024/05/10 12:26:22.000   28.438748970  -16.451380978   630.0580   1   9   0.0017   0.0012   0.0115  -0.0007  -0.0019   0.0005  -8.00   25.9
2024/05/10 12:26:23.000   28.438748970  -16.451380978   630.0580   1   9   0.0017   0.0012   0.0115  -0.0007  -0.0019   0.0005  -7.00   24.2
2024/05/10 12:26:24.000   28.438748970  -16.451380978   630.0579   1   9   0.0017   0.0012   0.0115  -0.0007  -0.0019   0.0006  -6.00   22.5
2024/05/10 12:26:25.000   28.438748969  -16.451380978   630.0578   1   9   0.0017   0.0012   0.0115  -0.0007  -0.0019   0.0006  -5.00   20.9
2024/05/10 12:26:26.000   28.438748969  -16.451380977   630.0577   1   9   0.0017   0.0012   0.0115  -0.0007  -0.0019   0.0006  -4.00   19.1
2024/05/10 12:26:27.000   28.438748968  -16.451380977   630.0576   1   9   0.0017   0.0012   0.0115  -0.0007  -0.0019   0.0006  -3.00   17.2
2024/05/10 12:26:28.000   28.438748968  -16.451380977   630.0576   1   9   0.0017   0.0012   0.0115  -0.0007  -0.0020   0.0006  -2.00   15.2
2024/05/10 12:26:29.000   28.438748967  -16.451380977   630.0576   1   9   0.0017   0.0012   0.0116  -0.0007  -0.0020   0.0007  -1.00   13.2
2024/05/10 12:26:30.000   28.438748973  -16.451380981   630.0612   1   9   0.0016   0.0012   0.0115  -0.0007  -0.0019   0.0003   0.00    5.9
2024/05/10 12:26:31.000   28.438748973  -16.451380981   630.0614   1   8   0.0017   0.0012   0.0115  -0.0007  -0.0019   0.0003   1.00   87.3
2024/05/10 12:26:32.000   28.438748972  -16.451380981   630.0616   1   8   0.0017   0.0012   0.0116  -0.0007  -0.0019   0.0004   2.00   87.7
2024/05/10 12:26:33.000   28.438748972  -16.451380980   630.0618   1   8   0.0017   0.0012   0.0116  -0.0007  -0.0019   0.0004   3.00   89.1
2024/05/10 12:26:34.000   28.438748971  -16.451380980   630.0619   1   8   0.0017   0.0012   0.0116  -0.0007  -0.0019   0.0004   4.00   90.9
2024/05/10 12:26:35.000   28.438748971  -16.451380980   630.0618   1   8   0.0017   0.0012   0.0116  -0.0007  -0.0019   0.0004   5.00   92.5
2024/05/10 12:26:36.000   28.438748970  -16.451380979   630.0618   1   8   0.0017   0.0012   0.0116  -0.0007  -0.0019   0.0004   6.00   93.8
2024/05/10 12:26:37.000   28.438748970  -16.451380979   630.0619   1   8   0.0017   0.0012   0.0116  -0.0007  -0.0019   0.0005   7.00   93.8
2024/05/10 12:26:38.000   28.438748970  -16.451380979   630.0620   1   8   0.0017   0.0012   0.0116  -0.0007  -0.0019   0.0005   8.00   94.3
2024/05/10 12:26:39.000   28.438748969  -16.451380979   630.0620   1   8   0.0017   0.0012   0.0116  -0.0007  -0.0019   0.0005   9.00   93.7
2024/05/10 12:26:40.000   28.438748969  -16.451380979   630.0620   1   8   0.0017   0.0012   0.0116  -0.0007  -0.0019   0.0005  10.00   93.3
2024/05/10 12:26:41.000   28.438748969  -16.451380979   630.0620   1   8   0.0017   0.0012   0.0116  -0.0007  -0.0019   0.0005  11.00   92.4
2024/05/10 12:26:42.000   28.438748969  -16.451380979   630.0621   1   8   0.0017   0.0012   0.0116  -0.0007  -0.0019   0.0005  12.00   91.1
2024/05/10 12:26:43.000   28.438748969  -16.451380979   630.0621   1   8   0.0017   0.0012   0.0116  -0.0007  -0.0019   0.0005  13.00   90.1
2024/05/10 12:26:44.000   28.438748969  -16.451380978   630.0621   1   8   0.0017   0.0012   0.0116  -0.0007  -0.0019   0.0005  14.00   88.6
2024/05/10 12:26:45.000   28.438748969  -16.451380978   630.0621   1   8   0.0017   0.0012   0.0116  -0.0007  -0.0019   0.0006  15.00   87.1
2024/05/10 12:26:46.000   28.438748968  -16.451380978   630.0621   1   8   0.0017   0.0012   0.0116  -0.0007  -0.0019   0.0006 -14.00   85.6
2024/05/10 12:26:47.000   28.438748968  -16.451380978   630.0621   1   8   0.0017   0.0012   0.0116  -0.0007  -0.0019   0.0006 -13.00   83.8
2024/05/10 12:26:48.000   28.438748968  -16.451380978   630.0621   1   8   0.0017   0.0012   0.0116  -0.0007  -0.0019   0.0006 -12.00   82.2
2024/05/10 12:26:49.000   28.438748968  -16.451380978   630.0621   1   8   0.0017   0.0012   0.0116  -0.0007  -0.0019   0.0006 -11.00   80.5
2024/05/10 12:26:50.000   28.438748968  -16.451380978   630.0621   1   8   0.0017   0.0012   0.0116  -0.0007  -0.0019   0.0006 -10.00   78.7
2024/05/10 12:26:51.000   28.438748968  -16.451380978   630.0622   1   8   0.0017   0.0012   0.0116  -0.0007  -0.0019   0.0006  -9.00   76.9
2024/05/10 12:26:52.000   28.438748968  -16.451380978   630.0622   1   8   0.0017   0.0012   0.0116  -0.0007  -0.0019   0.0006  -8.00   74.5
2024/05/10 12:26:53.000   28.438748967  -16.451380978   630.0622   1   8   0.0017   0.0012   0.0116  -0.0007  -0.0019   0.0006  -7.00   73.4
2024/05/10 12:26:54.000   28.438748967  -16.451380978   630.0623   1   8   0.0017   0.0012   0.0116  -0.0007  -0.0019   0.0006  -6.00   72.0
2024/05/10 12:26:55.000   28.438748967  -16.451380978   630.0623   1   8   0.0017   0.0012   0.0116  -0.0007  -0.0019   0.0007  -5.00   70.4
