% program   : RTKPOST-EX 2.5.0
% inp file  : C:\Users\SallyHenry\Desktop\Sally Internship\GNSS gravi\DATA\Survey Rover Obs\MI07.24o
% inp file  : C:\Users\SallyHenry\Desktop\Sally Internship\GNSS gravi\DATA\BaseStations\TN02\TN0200ESP_R_20241310000_01D_30S_MO.rnx
% inp file  : C:\Users\SallyHenry\Desktop\Sally Internship\GNSS gravi\DATA\BaseStations\TN02\TN0200ESP_R_20241310000_01D_MN.rnx
% inp file  : C:\Users\SallyHenry\Desktop\Sally Internship\GNSS gravi\DATA\aux_files\Survey\IGS0OPSFIN_20241310000_01D_15M_ORB.SP3
% inp file  : C:\Users\SallyHenry\Desktop\Sally Internship\GNSS gravi\DATA\aux_files\Survey\IGS0OPSFIN_20241310000_01D_30S_CLK.CLK
% obs start : 2024/05/10 12:51:33.0 GPST (week2313 478293.0s)
% obs end   : 2024/05/10 13:06:33.0 GPST (week2313 479193.0s)
% pos mode  : Static
% freqs     : L1+L2/E5b
% solution  : Combined-No Phase Reset
% elev mask : 15.0 deg
% dynamics  : on
% tidecorr  : solid
% ionos opt : Estimate TEC
% tropo opt : Estimate ZTD+Grad
% ephemeris : Precise
% navi sys  : GPS GLONASS Galileo QZSS BDS
% amb res   : Fix and Hold
% amb glo   : Fix and Hold
% amb bds   : on
% val thres : 3.0
% antenna1  :                       ( 0.0000  0.0000  1.8000)
% antenna2  :                       ( 0.0000  0.0000  0.0771)
% ref pos   :  28.418257450  -16.550784480    54.4145
%
% (lat/lon/height=WGS84/ellipsoidal,Q=1:fix,2:float,3:sbas,4:dgps,5:single,6:ppp,ns=# of satellites)
%  GPST                  latitude(deg) longitude(deg)  height(m)   Q  ns   sdn(m)   sde(m)   sdu(m)  sdne(m)  sdeu(m)  sdun(m) age(s)  ratio
2024/05/10 12:51:33.000   28.423218414  -16.455611796   735.6157   1   8   0.0017   0.0011   0.0144  -0.0006   0.0025  -0.0014   3.00   14.1
2024/05/10 12:51:34.000   28.423218413  -16.455611796   735.6156   1   8   0.0017   0.0011   0.0144  -0.0006   0.0025  -0.0014   4.00   13.8
2024/05/10 12:51:36.000   28.423218413  -16.455611795   735.6156   1   8   0.0017   0.0011   0.0144  -0.0006   0.0025  -0.0014   6.00   13.6
2024/05/10 12:51:37.000   28.423218413  -16.455611795   735.6155   1   8   0.0017   0.0011   0.0144  -0.0006   0.0025  -0.0014   7.00   13.3
2024/05/10 12:51:38.000   28.423218412  -16.455611795   735.6155   1   8   0.0017   0.0011   0.0144  -0.0006   0.0025  -0.0014   8.00   13.0
2024/05/10 12:51:39.000   28.423218412  -16.455611794   735.6156   1   8   0.0017   0.0011   0.0144  -0.0006   0.0025  -0.0014   9.00   12.7
2024/05/10 12:51:40.000   28.423218412  -16.455611794   735.6156   1   8   0.0017   0.0011   0.0144  -0.0006   0.0025  -0.0014  10.00   12.5
2024/05/10 12:51:41.000   28.423218411  -16.455611794   735.6157   1   8   0.0017   0.0011   0.0144  -0.0006   0.0025  -0.0014  11.00   12.2
2024/05/10 12:51:42.000   28.423218411  -16.455611794   735.6158   1   8   0.0017   0.0011   0.0144  -0.0006   0.0025  -0.0015  12.00   11.9
2024/05/10 12:51:43.000   28.423218411  -16.455611794   735.6159   1   8   0.0017   0.0011   0.0144  -0.0006   0.0025  -0.0015  13.00   11.6
2024/05/10 12:51:44.000   28.423218411  -16.455611793   735.6160   1   8   0.0017   0.0011   0.0144  -0.0006   0.0025  -0.0015  14.00   11.4
2024/05/10 12:51:45.000   28.423218410  -16.455611793   735.6161   1   8   0.0017   0.0011   0.0144  -0.0006   0.0025  -0.0015  15.00   11.1
2024/05/10 12:51:46.000   28.423218410  -16.455611793   735.6161   1   8   0.0017   0.0011   0.0144  -0.0006   0.0025  -0.0015 -14.00   10.8
2024/05/10 12:51:47.000   28.423218410  -16.455611793   735.6162   1   8   0.0017   0.0011   0.0144  -0.0006   0.0025  -0.0015 -13.00   10.5
2024/05/10 12:51:48.000   28.423218410  -16.455611793   735.6163   1   8   0.0017   0.0011   0.0144  -0.0006   0.0025  -0.0015 -12.00   10.2
2024/05/10 12:51:49.000   28.423218409  -16.455611793   735.6164   1   8   0.0017   0.0011   0.0144  -0.0006   0.0025  -0.0015 -11.00    9.9
2024/05/10 12:51:50.000   28.423218409  -16.455611792   735.6165   1   8   0.0017   0.0011   0.0144  -0.0006   0.0025  -0.0015 -10.00    9.7
2024/05/10 12:51:51.000   28.423218409  -16.455611792   735.6165   1   8   0.0017   0.0011   0.0144  -0.0006   0.0025  -0.0015  -9.00    9.3
2024/05/10 12:51:52.000   28.423218408  -16.455611792   735.6166   1   8   0.0017   0.0011   0.0144  -0.0006   0.0025  -0.0015  -8.00    9.0
2024/05/10 12:51:53.000   28.423218408  -16.455611792   735.6167   1   8   0.0017   0.0011   0.0144  -0.0006   0.0025  -0.0015  -7.00    8.7
2024/05/10 12:51:54.000   28.423218408  -16.455611791   735.6167   1   8   0.0017   0.0011   0.0144  -0.0006   0.0025  -0.0015  -6.00    8.3
2024/05/10 12:51:55.000   28.423218407  -16.455611791   735.6167   1   8   0.0017   0.0011   0.0144  -0.0006   0.0025  -0.0015  -5.00    7.9
2024/05/10 12:51:56.000   28.423218405  -16.455611790   735.6178   1   8   0.0017   0.0011   0.0144  -0.0006   0.0025  -0.0015  -4.00    6.2
2024/05/10 12:51:57.000   28.423218405  -16.455611790   735.6176   1   8   0.0017   0.0011   0.0144  -0.0007   0.0025  -0.0016  -3.00    5.4
2024/05/10 12:51:58.000   28.423218404  -16.455611789   735.6174   1   8   0.0017   0.0011   0.0145  -0.0007   0.0025  -0.0016  -2.00  233.6
2024/05/10 12:51:59.000   28.423218404  -16.455611789   735.6171   1   8   0.0017   0.0011   0.0145  -0.0007   0.0025  -0.0016  -1.00  234.8
2024/05/10 12:52:00.000   28.423218416  -16.455611798   735.6100   1   8   0.0017   0.0011   0.0144  -0.0006   0.0025  -0.0014   0.00   13.3
2024/05/10 12:52:01.000   28.423218416  -16.455611797   735.6100   1   8   0.0017   0.0011   0.0144  -0.0006   0.0025  -0.0014   1.00   13.2
2024/05/10 12:52:02.000   28.423218415  -16.455611796   735.6100   1   8   0.0017   0.0011   0.0145  -0.0006   0.0025  -0.0014   2.00   13.1
2024/05/10 12:52:03.000   28.423218415  -16.455611796   735.6101   1   8   0.0017   0.0011   0.0145  -0.0006   0.0025  -0.0015   3.00   12.9
2024/05/10 12:52:04.000   28.423218414  -16.455611796   735.6101   1   8   0.0017   0.0011   0.0145  -0.0006   0.0025  -0.0015   4.00   12.8
2024/05/10 12:52:05.000   28.423218413  -16.455611795   735.6103   1   8   0.0017   0.0011   0.0145  -0.0006   0.0025  -0.0015   5.00   12.6
2024/05/10 12:52:06.000   28.423218413  -16.455611795   735.6105   1   8   0.0017   0.0011   0.0145  -0.0006   0.0025  -0.0015   6.00   12.4
2024/05/10 12:52:07.000   28.423218412  -16.455611794   735.6107   1   8   0.0017   0.0011   0.0145  -0.0006   0.0025  -0.0015   7.00   12.3
2024/05/10 12:52:08.000   28.423218411  -16.455611794   735.6110   1   8   0.0017   0.0011   0.0145  -0.0006   0.0025  -0.0015   8.00   12.1
2024/05/10 12:52:09.000   28.423218411  -16.455611794   735.6112   1   8   0.0017   0.0011   0.0145  -0.0006   0.0025  -0.0015   9.00   11.9
2024/05/10 12:52:10.000   28.423218410  -16.455611793   735.6114   1   8   0.0017   0.0011   0.0145  -0.0006   0.0025  -0.0015  10.00   11.7
2024/05/10 12:52:11.000   28.423218410  -16.455611793   735.6116   1   8   0.0017   0.0011   0.0145  -0.0006   0.0026  -0.0015  11.00   11.4
2024/05/10 12:52:12.000   28.423218410  -16.455611793   735.6117   1   8   0.0017   0.0011   0.0145  -0.0006   0.0026  -0.0015  12.00   11.2
2024/05/10 12:52:13.000   28.423218409  -16.455611793   735.6119   1   8   0.0017   0.0011   0.0145  -0.0006   0.0026  -0.0015  13.00   10.9
2024/05/10 12:52:14.000   28.423218409  -16.455611792   735.6120   1   8   0.0017   0.0011   0.0145  -0.0006   0.0026  -0.0015  14.00   10.7
2024/05/10 12:52:15.000   28.423218409  -16.455611792   735.6122   1   8   0.0017   0.0011   0.0145  -0.0006   0.0026  -0.0015  15.00   10.4
2024/05/10 12:52:16.000   28.423218408  -16.455611792   735.6123   1   8   0.0017   0.0011   0.0145  -0.0006   0.0026  -0.0015 -14.00   10.1
2024/05/10 12:52:17.000   28.423218408  -16.455611792   735.6125   1   8   0.0017   0.0011   0.0145  -0.0006   0.0026  -0.0015 -13.00    9.9
2024/05/10 12:52:18.000   28.423218408  -16.455611791   735.6126   1   8   0.0017   0.0011   0.0145  -0.0006   0.0026  -0.0015 -12.00    9.6
2024/05/10 12:52:19.000   28.423218407  -16.455611791   735.6128   1   8   0.0017   0.0011   0.0145  -0.0006   0.0026  -0.0015 -11.00    9.4
2024/05/10 12:52:20.000   28.423218407  -16.455611791   735.6131   1   8   0.0017   0.0011   0.0145  -0.0006   0.0026  -0.0015 -10.00    9.2
2024/05/10 12:52:21.000   28.423218406  -16.455611790   735.6133   1   8   0.0017   0.0011   0.0145  -0.0006   0.0026  -0.0016  -9.00    8.9
2024/05/10 12:52:22.000   28.423218406  -16.455611790   735.6135   1   8   0.0017   0.0011   0.0145  -0.0006   0.0026  -0.0016  -8.00    8.7
2024/05/10 12:52:23.000   28.423218405  -16.455611790   735.6137   1   8   0.0017   0.0011   0.0145  -0.0007   0.0026  -0.0016  -7.00    8.3
2024/05/10 12:52:24.000   28.423218405  -16.455611789   735.6139   1   8   0.0017   0.0011   0.0145  -0.0007   0.0026  -0.0016  -6.00    7.8
2024/05/10 12:52:25.000   28.423218404  -16.455611789   735.6141   1   8   0.0017   0.0011   0.0145  -0.0007   0.0026  -0.0016  -5.00    7.1
2024/05/10 12:52:26.000   28.423218400  -16.455611786   735.6163   1   8   0.0017   0.0011   0.0145  -0.0007   0.0026  -0.0016  -4.00    6.4
2024/05/10 12:52:27.000   28.423218400  -16.455611786   735.6161   1   8   0.0017   0.0011   0.0145  -0.0007   0.0026  -0.0016  -3.00    5.6
2024/05/10 12:52:28.000   28.423218400  -16.455611786   735.6161   1   8   0.0017   0.0012   0.0145  -0.0007   0.0026  -0.0016  -2.00  243.8
2024/05/10 12:52:29.000   28.423218400  -16.455611786   735.6157   1   8   0.0017   0.0012   0.0145  -0.0007   0.0026  -0.0016  -1.00  245.9
2024/05/10 12:52:30.000   28.423218418  -16.455611798   735.6048   1   8   0.0017   0.0011   0.0145  -0.0006   0.0025  -0.0015   0.00   10.8
2024/05/10 12:52:31.000   28.423218418  -16.455611798   735.6050   1   8   0.0017   0.0011   0.0145  -0.0006   0.0026  -0.0015   1.00   10.8
2024/05/10 12:52:32.000   28.423218417  -16.455611797   735.6051   1   8   0.0017   0.0011   0.0145  -0.0006   0.0026  -0.0015   2.00   10.7
2024/05/10 12:52:33.000   28.423218417  -16.455611797   735.6053   1   8   0.0017   0.0011   0.0145  -0.0006   0.0026  -0.0015   3.00   10.7
2024/05/10 12:52:34.000   28.423218417  -16.455611797   735.6055   1   8   0.0017   0.0011   0.0146  -0.0006   0.0026  -0.0015   4.00   10.7
2024/05/10 12:52:35.000   28.423218416  -16.455611796   735.6057   1   8   0.0017   0.0011   0.0146  -0.0006   0.0026  -0.0015   5.00   10.6
2024/05/10 12:52:36.000   28.423218416  -16.455611796   735.6059   1   8   0.0017   0.0011   0.0146  -0.0006   0.0026  -0.0016   6.00   10.5
2024/05/10 12:52:37.000   28.423218416  -16.455611796   735.6061   1   8   0.0017   0.0012   0.0146  -0.0007   0.0026  -0.0016   7.00   10.4
2024/05/10 12:52:38.000   28.423218415  -16.455611795   735.6064   1   8   0.0017   0.0012   0.0146  -0.0007   0.0026  -0.0016   8.00   10.3
2024/05/10 12:52:39.000   28.423218415  -16.455611795   735.6067   1   8   0.0017   0.0012   0.0146  -0.0007   0.0026  -0.0016   9.00   10.2
2024/05/10 12:52:40.000   28.423218415  -16.455611795   735.6069   1   8   0.0017   0.0012   0.0146  -0.0007   0.0026  -0.0016  10.00   10.0
2024/05/10 12:52:41.000   28.423218414  -16.455611794   735.6071   1   8   0.0017   0.0012   0.0146  -0.0007   0.0026  -0.0016  11.00    9.9
2024/05/10 12:52:42.000   28.423218414  -16.455611794   735.6074   1   8   0.0017   0.0012   0.0146  -0.0007   0.0026  -0.0016  12.00    9.7
2024/05/10 12:52:43.000   28.423218414  -16.455611794   735.6076   1   8   0.0017   0.0012   0.0146  -0.0007   0.0026  -0.0016  13.00    9.5
2024/05/10 12:52:44.000   28.423218413  -16.455611794   735.6078   1   8   0.0017   0.0012   0.0146  -0.0007   0.0026  -0.0016  14.00    9.4
2024/05/10 12:52:45.000   28.423218413  -16.455611793   735.6080   1   8   0.0017   0.0012   0.0146  -0.0007   0.0026  -0.0016  15.00    9.2
2024/05/10 12:52:46.000   28.423218413  -16.455611793   735.6081   1   8   0.0017   0.0012   0.0146  -0.0007   0.0026  -0.0016 -14.00    9.0
2024/05/10 12:52:47.000   28.423218413  -16.455611793   735.6083   1   8   0.0017   0.0012   0.0146  -0.0007   0.0026  -0.0016 -13.00    8.8
2024/05/10 12:52:48.000   28.423218412  -16.455611793   735.6085   1   8   0.0017   0.0012   0.0146  -0.0007   0.0026  -0.0016 -12.00    8.6
2024/05/10 12:52:49.000   28.423218412  -16.455611792   735.6088   1   8   0.0017   0.0012   0.0146  -0.0007   0.0026  -0.0016 -11.00    8.4
2024/05/10 12:52:50.000   28.423218412  -16.455611792   735.6090   1   8   0.0017   0.0012   0.0145  -0.0007   0.0026  -0.0016 -10.00    8.2
2024/05/10 12:52:51.000   28.423218411  -16.455611792   735.6093   1   8   0.0017   0.0012   0.0145  -0.0007   0.0026  -0.0016  -9.00    8.0
2024/05/10 12:52:52.000   28.423218411  -16.455611791   735.6096   1   8   0.0017   0.0012   0.0145  -0.0007   0.0026  -0.0016  -8.00    7.7
2024/05/10 12:52:53.000   28.423218410  -16.455611791   735.6100   1   8   0.0017   0.0012   0.0145  -0.0007   0.0026  -0.0016  -7.00    7.4
2024/05/10 12:52:54.000   28.423218410  -16.455611791   735.6104   1   8   0.0017   0.0012   0.0146  -0.0007   0.0026  -0.0016  -6.00    7.1
2024/05/10 12:52:55.000   28.423218409  -16.455611790   735.6108   1   8   0.0017   0.0012   0.0146  -0.0007   0.0026  -0.0017  -5.00    6.7
2024/05/10 12:52:56.000   28.423218404  -16.455611787   735.6137   1   8   0.0018   0.0012   0.0146  -0.0007   0.0026  -0.0017  -4.00    6.2
2024/05/10 12:52:57.000   28.423218404  -16.455611787   735.6136   1   8   0.0018   0.0012   0.0146  -0.0007   0.0026  -0.0017  -3.00    5.4
2024/05/10 12:52:58.000   28.423218404  -16.455611786   735.6139   1   8   0.0018   0.0012   0.0146  -0.0007   0.0026  -0.0017  -2.00  272.0
2024/05/10 12:52:59.000   28.423218404  -16.455611786   735.6137   1   8   0.0018   0.0012   0.0146  -0.0007   0.0027  -0.0017  -1.00  275.0
2024/05/10 12:53:00.000   28.423218425  -16.455611802   735.6001   1   8   0.0017   0.0011   0.0145  -0.0006   0.0026  -0.0016   0.00   10.6
2024/05/10 12:53:01.000   28.423218425  -16.455611801   735.6006   1   8   0.0017   0.0012   0.0146  -0.0007   0.0026  -0.0016   1.00   10.7
2024/05/10 12:53:02.000   28.423218424  -16.455611801   735.6011   1   8   0.0017   0.0012   0.0146  -0.0007   0.0026  -0.0016   2.00   10.9
2024/05/10 12:53:03.000   28.423218423  -16.455611800   735.6016   1   8   0.0017   0.0012   0.0146  -0.0007   0.0026  -0.0016   3.00   11.0
2024/05/10 12:53:04.000   28.423218422  -16.455611799   735.6021   1   8   0.0017   0.0012   0.0146  -0.0007   0.0026  -0.0016   4.00   11.2
2024/05/10 12:53:05.000   28.423218421  -16.455611799   735.6026   1   8   0.0018   0.0012   0.0146  -0.0007   0.0026  -0.0016   5.00   11.3
2024/05/10 12:53:06.000   28.423218420  -16.455611798   735.6031   1   8   0.0018   0.0012   0.0146  -0.0007   0.0026  -0.0016   6.00   11.4
2024/05/10 12:53:07.000   28.423218420  -16.455611798   735.6036   1   8   0.0018   0.0012   0.0146  -0.0007   0.0026  -0.0016   7.00   11.4
2024/05/10 12:53:08.000   28.423218419  -16.455611797   735.6040   1   8   0.0018   0.0012   0.0146  -0.0007   0.0026  -0.0017   8.00   11.4
2024/05/10 12:53:09.000   28.423218418  -16.455611796   735.6044   1   8   0.0018   0.0012   0.0147  -0.0007   0.0026  -0.0017   9.00   11.3
2024/05/10 12:53:10.000   28.423218418  -16.455611796   735.6047   1   8   0.0018   0.0012   0.0147  -0.0007   0.0026  -0.0017  10.00   11.2
2024/05/10 12:53:11.000   28.423218417  -16.455611796   735.6050   1   8   0.0018   0.0012   0.0147  -0.0007   0.0026  -0.0017  11.00   11.0
2024/05/10 12:53:12.000   28.423218417  -16.455611795   735.6053   1   8   0.0018   0.0012   0.0146  -0.0007   0.0026  -0.0017  12.00   10.8
2024/05/10 12:53:13.000   28.423218416  -16.455611795   735.6055   1   8   0.0018   0.0012   0.0146  -0.0007   0.0027  -0.0017  13.00   10.6
2024/05/10 12:53:14.000   28.423218416  -16.455611795   735.6057   1   8   0.0018   0.0012   0.0146  -0.0007   0.0027  -0.0017  14.00   10.4
2024/05/10 12:53:15.000   28.423218415  -16.455611794   735.6060   1   8   0.0018   0.0012   0.0146  -0.0007   0.0027  -0.0017  15.00   10.2
2024/05/10 12:53:16.000   28.423218415  -16.455611794   735.6062   1   8   0.0018   0.0012   0.0146  -0.0007   0.0027  -0.0017 -14.00   10.1
2024/05/10 12:53:17.000   28.423218415  -16.455611794   735.6064   1   8   0.0018   0.0012   0.0146  -0.0007   0.0027  -0.0017 -13.00    9.9
2024/05/10 12:53:18.000   28.423218414  -16.455611793   735.6067   1   8   0.0018   0.0012   0.0146  -0.0007   0.0027  -0.0017 -12.00    9.7
2024/05/10 12:53:19.000   28.423218414  -16.455611793   735.6070   1   8   0.0018   0.0012   0.0146  -0.0007   0.0027  -0.0017 -11.00    9.5
2024/05/10 12:53:20.000   28.423218413  -16.455611793   735.6073   1   8   0.0018   0.0012   0.0146  -0.0007   0.0027  -0.0017 -10.00    9.3
2024/05/10 12:53:21.000   28.423218413  -16.455611792   735.6077   1   8   0.0018   0.0012   0.0146  -0.0007   0.0027  -0.0017  -9.00    9.1
2024/05/10 12:53:22.000   28.423218412  -16.455611792   735.6082   1   8   0.0018   0.0012   0.0146  -0.0007   0.0027  -0.0017  -8.00    8.9
2024/05/10 12:53:23.000   28.423218411  -16.455611791   735.6087   1   8   0.0018   0.0012   0.0146  -0.0007   0.0027  -0.0017  -7.00    8.7
2024/05/10 12:53:24.000   28.423218410  -16.455611790   735.6092   1   8   0.0018   0.0012   0.0146  -0.0007   0.0027  -0.0017  -6.00    8.5
2024/05/10 12:53:25.000   28.423218410  -16.455611789   735.6098   1   8   0.0018   0.0012   0.0146  -0.0007   0.0027  -0.0017  -5.00    8.1
2024/05/10 12:53:26.000   28.423218409  -16.455611789   735.6104   1   8   0.0018   0.0012   0.0146  -0.0007   0.0027  -0.0018  -4.00    7.7
2024/05/10 12:53:27.000   28.423218408  -16.455611788   735.6110   1   8   0.0018   0.0012   0.0147  -0.0007   0.0027  -0.0018  -3.00    6.8
2024/05/10 12:53:28.000   28.423218407  -16.455611787   735.6116   1   8   0.0018   0.0012   0.0147  -0.0007   0.0027  -0.0018  -2.00    5.4
2024/05/10 12:53:29.000   28.423218406  -16.455611786   735.6123   1   8   0.0018   0.0012   0.0147  -0.0007   0.0027  -0.0018  -1.00    3.6
2024/05/10 12:53:30.000   28.423218424  -16.455611800   735.5994   1   8   0.0018   0.0012   0.0146  -0.0007   0.0026  -0.0016   0.00   12.5
2024/05/10 12:53:31.000   28.423218424  -16.455611799   735.5998   1   8   0.0018   0.0012   0.0146  -0.0007   0.0026  -0.0016   1.00   12.7
2024/05/10 12:53:32.000   28.423218423  -16.455611799   735.6002   1   8   0.0018   0.0012   0.0146  -0.0007   0.0027  -0.0017   2.00   13.0
2024/05/10 12:53:33.000   28.423218422  -16.455611798   735.6007   1   8   0.0018   0.0012   0.0147  -0.0007   0.0027  -0.0017   3.00   13.2
2024/05/10 12:53:34.000   28.423218421  -16.455611797   735.6013   1   8   0.0018   0.0012   0.0147  -0.0007   0.0027  -0.0017   4.00   13.5
2024/05/10 12:53:35.000   28.423218420  -16.455611797   735.6017   1   8   0.0018   0.0012   0.0147  -0.0007   0.0027  -0.0017   5.00   13.7
2024/05/10 12:53:36.000   28.423218419  -16.455611796   735.6023   1   8   0.0018   0.0012   0.0147  -0.0007   0.0027  -0.0017   6.00   13.9
2024/05/10 12:53:37.000   28.423218419  -16.455611796   735.6027   1   8   0.0018   0.0012   0.0147  -0.0007   0.0027  -0.0017   7.00   14.0
2024/05/10 12:53:38.000   28.423218418  -16.455611795   735.6031   1   8   0.0018   0.0012   0.0147  -0.0007   0.0027  -0.0017   8.00   14.1
2024/05/10 12:53:39.000   28.423218417  -16.455611795   735.6035   1   8   0.0018   0.0012   0.0147  -0.0007   0.0027  -0.0017   9.00   14.1
2024/05/10 12:53:40.000   28.423218417  -16.455611795   735.6038   1   8   0.0018   0.0012   0.0147  -0.0007   0.0027  -0.0017  10.00   14.0
2024/05/10 12:53:41.000   28.423218416  -16.455611794   735.6041   1   8   0.0018   0.0012   0.0147  -0.0007   0.0027  -0.0018  11.00   13.9
2024/05/10 12:53:42.000   28.423218416  -16.455611794   735.6043   1   8   0.0018   0.0012   0.0147  -0.0007   0.0027  -0.0018  12.00   13.7
2024/05/10 12:53:43.000   28.423218416  -16.455611794   735.6046   1   8   0.0018   0.0012   0.0147  -0.0007   0.0027  -0.0018  13.00   13.5
2024/05/10 12:53:44.000   28.423218415  -16.455611793   735.6048   1   8   0.0018   0.0012   0.0147  -0.0007   0.0027  -0.0018  14.00   13.3
2024/05/10 12:53:45.000   28.423218415  -16.455611793   735.6050   1   8   0.0018   0.0012   0.0147  -0.0007   0.0027  -0.0018  15.00   13.1
2024/05/10 12:53:46.000   28.423218414  -16.455611793   735.6053   1   8   0.0018   0.0012   0.0147  -0.0007   0.0027  -0.0018 -14.00   12.9
2024/05/10 12:53:47.000   28.423218414  -16.455611793   735.6055   1   8   0.0018   0.0012   0.0147  -0.0007   0.0027  -0.0018 -13.00   12.6
2024/05/10 12:53:48.000   28.423218414  -16.455611792   735.6057   1   8   0.0018   0.0012   0.0147  -0.0007   0.0027  -0.0018 -12.00   12.4
2024/05/10 12:53:49.000   28.423218413  -16.455611792   735.6060   1   8   0.0018   0.0012   0.0147  -0.0007   0.0027  -0.0018 -11.00   12.1
2024/05/10 12:53:50.000   28.423218413  -16.455611792   735.6063   1   8   0.0018   0.0012   0.0147  -0.0007   0.0027  -0.0018 -10.00   11.9
2024/05/10 12:53:51.000   28.423218412  -16.455611791   735.6067   1   8   0.0018   0.0012   0.0147  -0.0007   0.0027  -0.0018  -9.00   11.5
2024/05/10 12:53:52.000   28.423218412  -16.455611791   735.6071   1   8   0.0018   0.0012   0.0147  -0.0007   0.0027  -0.0018  -8.00   11.2
2024/05/10 12:53:53.000   28.423218411  -16.455611790   735.6075   1   8   0.0018   0.0012   0.0147  -0.0007   0.0027  -0.0018  -7.00   10.9
2024/05/10 12:53:54.000   28.423218410  -16.455611790   735.6080   1   8   0.0018   0.0012   0.0147  -0.0007   0.0027  -0.0018  -6.00   10.5
2024/05/10 12:53:55.000   28.423218409  -16.455611789   735.6086   1   8   0.0018   0.0012   0.0147  -0.0007   0.0027  -0.0018  -5.00   10.0
2024/05/10 12:53:56.000   28.423218408  -16.455611789   735.6092   1   8   0.0018   0.0012   0.0147  -0.0007   0.0027  -0.0018  -4.00    9.4
2024/05/10 12:53:57.000   28.423218407  -16.455611788   735.6099   1   8   0.0018   0.0012   0.0147  -0.0007   0.0027  -0.0019  -3.00    8.0
2024/05/10 12:53:58.000   28.423218406  -16.455611787   735.6107   1   8   0.0018   0.0012   0.0148  -0.0007   0.0027  -0.0019  -2.00    6.2
2024/05/10 12:53:59.000   28.423218405  -16.455611786   735.6116   1   8   0.0018   0.0012   0.0148  -0.0007   0.0028  -0.0019  -1.00    3.9
2024/05/10 12:54:00.000   28.423218421  -16.455611798   735.6005   1   8   0.0018   0.0012   0.0147  -0.0007   0.0027  -0.0017   0.00   17.5
2024/05/10 12:54:01.000   28.423218420  -16.455611798   735.6012   1   8   0.0018   0.0012   0.0147  -0.0007   0.0027  -0.0017   1.00   17.8
2024/05/10 12:54:02.000   28.423218419  -16.455611797   735.6018   1   8   0.0018   0.0012   0.0147  -0.0007   0.0027  -0.0017   2.00   18.0
2024/05/10 12:54:03.000   28.423218418  -16.455611796   735.6026   1   8   0.0018   0.0012   0.0147  -0.0007   0.0027  -0.0018   3.00   18.4
2024/05/10 12:54:04.000   28.423218417  -16.455611795   735.6032   1   8   0.0018   0.0012   0.0148  -0.0007   0.0027  -0.0018   4.00   18.6
2024/05/10 12:54:05.000   28.423218417  -16.455611795   735.6037   1   8   0.0018   0.0012   0.0148  -0.0007   0.0027  -0.0018   5.00   18.9
2024/05/10 12:54:06.000   28.423218416  -16.455611794   735.6043   1   8   0.0018   0.0012   0.0148  -0.0007   0.0027  -0.0018   6.00   19.0
2024/05/10 12:54:07.000   28.423218415  -16.455611794   735.6048   1   8   0.0018   0.0012   0.0148  -0.0007   0.0027  -0.0018   7.00   19.1
2024/05/10 12:54:08.000   28.423218414  -16.455611793   735.6053   1   8   0.0018   0.0012   0.0148  -0.0007   0.0027  -0.0018   8.00   19.3
2024/05/10 12:54:09.000   28.423218414  -16.455611793   735.6057   1   8   0.0018   0.0012   0.0148  -0.0007   0.0027  -0.0018   9.00   19.3
2024/05/10 12:54:10.000   28.423218413  -16.455611792   735.6061   1   8   0.0018   0.0012   0.0148  -0.0007   0.0027  -0.0018  10.00   19.3
2024/05/10 12:54:11.000   28.423218413  -16.455611792   735.6065   1   8   0.0018   0.0012   0.0148  -0.0007   0.0027  -0.0018  11.00   19.2
2024/05/10 12:54:12.000   28.423218412  -16.455611792   735.6068   1   8   0.0018   0.0012   0.0148  -0.0007   0.0028  -0.0018  12.00   18.9
2024/05/10 12:54:13.000   28.423218412  -16.455611791   735.6071   1   8   0.0018   0.0012   0.0148  -0.0007   0.0028  -0.0019  13.00   18.6
2024/05/10 12:54:14.000   28.423218412  -16.455611791   735.6073   1   8   0.0018   0.0012   0.0148  -0.0007   0.0028  -0.0019  14.00   18.3
2024/05/10 12:54:15.000   28.423218411  -16.455611791   735.6076   1   8   0.0018   0.0012   0.0148  -0.0007   0.0028  -0.0019  15.00   18.0
2024/05/10 12:54:16.000   28.423218411  -16.455611791   735.6078   1   8   0.0018   0.0012   0.0148  -0.0007   0.0028  -0.0019 -14.00   17.7
2024/05/10 12:54:17.000   28.423218411  -16.455611790   735.6080   1   8   0.0018   0.0012   0.0148  -0.0007   0.0028  -0.0019 -13.00   17.4
2024/05/10 12:54:18.000   28.423218410  -16.455611790   735.6083   1   8   0.0018   0.0012   0.0148  -0.0007   0.0028  -0.0019 -12.00   17.0
2024/05/10 12:54:19.000   28.423218410  -16.455611790   735.6085   1   8   0.0018   0.0012   0.0148  -0.0007   0.0028  -0.0019 -11.00   16.7
2024/05/10 12:54:20.000   28.423218410  -16.455611790   735.6088   1   8   0.0018   0.0012   0.0148  -0.0007   0.0028  -0.0019 -10.00   16.4
2024/05/10 12:54:21.000   28.423218409  -16.455611789   735.6092   1   8   0.0018   0.0012   0.0148  -0.0007   0.0028  -0.0019  -9.00   16.0
2024/05/10 12:54:22.000   28.423218409  -16.455611789   735.6095   1   8   0.0018   0.0012   0.0148  -0.0007   0.0028  -0.0019  -8.00   15.5
2024/05/10 12:54:23.000   28.423218408  -16.455611789   735.6100   1   8   0.0018   0.0012   0.0148  -0.0007   0.0028  -0.0019  -7.00   15.0
2024/05/10 12:54:24.000   28.423218407  -16.455611788   735.6105   1   8   0.0018   0.0012   0.0148  -0.0007   0.0028  -0.0019  -6.00   14.3
2024/05/10 12:54:25.000   28.423218407  -16.455611788   735.6110   1   8   0.0018   0.0012   0.0148  -0.0007   0.0028  -0.0019  -5.00   13.2
2024/05/10 12:54:26.000   28.423218406  -16.455611787   735.6116   1   8   0.0018   0.0012   0.0148  -0.0007   0.0028  -0.0019  -4.00   11.6
2024/05/10 12:54:27.000   28.423218405  -16.455611787   735.6122   1   8   0.0018   0.0012   0.0148  -0.0008   0.0028  -0.0020  -3.00    9.8
2024/05/10 12:54:28.000   28.423218404  -16.455611786   735.6129   1   8   0.0018   0.0012   0.0148  -0.0008   0.0028  -0.0020  -2.00    7.5
2024/05/10 12:54:29.000   28.423218403  -16.455611785   735.6137   1   8   0.0018   0.0012   0.0149  -0.0008   0.0028  -0.0020  -1.00    4.6
2024/05/10 12:54:30.000   28.423218440  -16.455611814   735.5845   1   8   0.0018   0.0012   0.0145  -0.0006   0.0026  -0.0015   0.00   22.9
2024/05/10 12:54:31.000   28.423218440  -16.455611814   735.5847   1   8   0.0018   0.0012   0.0145  -0.0006   0.0026  -0.0015   1.00   22.9
2024/05/10 12:54:32.000   28.423218440  -16.455611814   735.5850   1   8   0.0018   0.0012   0.0145  -0.0006   0.0026  -0.0015   2.00   22.8
2024/05/10 12:54:33.000   28.423218439  -16.455611814   735.5853   1   8   0.0018   0.0012   0.0145  -0.0007   0.0026  -0.0015   3.00   22.7
2024/05/10 12:54:34.000   28.423218438  -16.455611814   735.5857   1   8   0.0018   0.0012   0.0145  -0.0007   0.0026  -0.0015   4.00   22.7
2024/05/10 12:54:35.000   28.423218438  -16.455611813   735.5862   1   8   0.0018   0.0012   0.0146  -0.0007   0.0026  -0.0015   5.00   22.6
2024/05/10 12:54:36.000   28.423218437  -16.455611813   735.5866   1   8   0.0018   0.0012   0.0146  -0.0007   0.0026  -0.0015   6.00   22.5
2024/05/10 12:54:37.000   28.423218437  -16.455611813   735.5870   1   8   0.0018   0.0012   0.0146  -0.0007   0.0026  -0.0016   7.00   22.4
2024/05/10 12:54:38.000   28.423218436  -16.455611812   735.5873   1   8   0.0018   0.0012   0.0146  -0.0007   0.0026  -0.0016   8.00   22.2
2024/05/10 12:54:39.000   28.423218436  -16.455611812   735.5876   1   8   0.0018   0.0012   0.0146  -0.0007   0.0026  -0.0016   9.00   22.1
2024/05/10 12:54:40.000   28.423218436  -16.455611812   735.5879   1   8   0.0018   0.0012   0.0146  -0.0007   0.0026  -0.0016  10.00   22.0
2024/05/10 12:54:41.000   28.423218435  -16.455611812   735.5882   1   8   0.0018   0.0012   0.0146  -0.0007   0.0026  -0.0016  11.00   21.8
2024/05/10 12:54:42.000   28.423218435  -16.455611811   735.5885   1   8   0.0018   0.0012   0.0146  -0.0007   0.0026  -0.0016  12.00   21.6
2024/05/10 12:54:43.000   28.423218435  -16.455611811   735.5887   1   8   0.0018   0.0012   0.0146  -0.0007   0.0026  -0.0016  13.00   21.4
2024/05/10 12:54:44.000   28.423218435  -16.455611811   735.5889   1   8   0.0018   0.0012   0.0146  -0.0007   0.0026  -0.0016  14.00   21.2
2024/05/10 12:54:45.000   28.423218434  -16.455611811   735.5891   1   8   0.0018   0.0012   0.0146  -0.0007   0.0026  -0.0016  15.00   21.0
2024/05/10 12:54:46.000   28.423218434  -16.455611811   735.5893   1   8   0.0018   0.0012   0.0146  -0.0007   0.0026  -0.0016 -14.00   20.8
2024/05/10 12:54:47.000   28.423218434  -16.455611811   735.5895   1   8   0.0018   0.0012   0.0145  -0.0007   0.0026  -0.0016 -13.00   20.6
2024/05/10 12:54:48.001   28.423218434  -16.455611810   735.5897   1   8   0.0018   0.0012   0.0145  -0.0007   0.0026  -0.0016 -12.00   20.4
2024/05/10 12:54:49.000   28.423218434  -16.455611810   735.5899   1   8   0.0018   0.0012   0.0145  -0.0007   0.0026  -0.0016 -11.00   20.2
2024/05/10 12:54:50.000   28.423218433  -16.455611810   735.5901   1   8   0.0018   0.0012   0.0145  -0.0007   0.0027  -0.0016 -10.00   20.0
2024/05/10 12:54:51.000   28.423218433  -16.455611810   735.5903   1   8   0.0018   0.0012   0.0145  -0.0007   0.0027  -0.0016  -9.00   19.8
2024/05/10 12:54:52.000   28.423218433  -16.455611810   735.5906   1   8   0.0018   0.0012   0.0145  -0.0007   0.0027  -0.0016  -8.00   19.6
2024/05/10 12:54:53.000   28.423218433  -16.455611810   735.5908   1   8   0.0018   0.0012   0.0145  -0.0007   0.0027  -0.0016  -7.00   19.5
2024/05/10 12:54:54.000   28.423218432  -16.455611809   735.5911   1   8   0.0018   0.0012   0.0145  -0.0007   0.0027  -0.0016  -6.00   19.3
2024/05/10 12:54:55.000   28.423218432  -16.455611809   735.5915   1   8   0.0018   0.0012   0.0145  -0.0007   0.0027  -0.0017  -5.00   19.2
2024/05/10 12:54:56.000   28.423218432  -16.455611809   735.5919   1   8   0.0018   0.0012   0.0146  -0.0007   0.0027  -0.0017  -4.00   19.1
2024/05/10 12:54:57.000   28.423218431  -16.455611809   735.5924   1   8   0.0018   0.0012   0.0146  -0.0007   0.0027  -0.0017  -3.00   19.0
2024/05/10 12:54:58.000   28.423218431  -16.455611808   735.5928   1   8   0.0018   0.0012   0.0146  -0.0007   0.0027  -0.0017  -2.00   19.0
2024/05/10 12:54:59.000   28.423218430  -16.455611808   735.5933   1   8   0.0018   0.0012   0.0146  -0.0007   0.0027  -0.0017  -1.00   19.0
2024/05/10 12:55:00.000   28.423218429  -16.455611807   735.5939   1   8   0.0018   0.0012   0.0146  -0.0007   0.0027  -0.0017   0.00   19.0
2024/05/10 12:55:01.000   28.423218429  -16.455611807   735.5945   1   8   0.0018   0.0012   0.0147  -0.0007   0.0027  -0.0017   1.00   19.1
2024/05/10 12:55:02.000   28.423218428  -16.455611806   735.5951   1   8   0.0018   0.0012   0.0147  -0.0007   0.0027  -0.0017   2.00   19.3
2024/05/10 12:55:03.000   28.423218427  -16.455611806   735.5956   1   8   0.0018   0.0012   0.0147  -0.0007   0.0027  -0.0018   3.00   19.4
2024/05/10 12:55:04.000   28.423218426  -16.455611806   735.5962   1   8   0.0018   0.0012   0.0147  -0.0007   0.0027  -0.0018   4.00   19.5
2024/05/10 12:55:05.000   28.423218426  -16.455611805   735.5967   1   8   0.0018   0.0012   0.0147  -0.0007   0.0027  -0.0018   5.00   19.6
2024/05/10 12:55:06.000   28.423218425  -16.455611805   735.5971   1   8   0.0018   0.0012   0.0147  -0.0007   0.0027  -0.0018   6.00   19.6
2024/05/10 12:55:07.000   28.423218424  -16.455611804   735.5976   1   8   0.0018   0.0012   0.0148  -0.0007   0.0027  -0.0018   7.00   19.6
2024/05/10 12:55:08.000   28.423218424  -16.455611804   735.5980   1   8   0.0018   0.0012   0.0148  -0.0007   0.0028  -0.0018   8.00   19.6
2024/05/10 12:55:09.000   28.423218423  -16.455611804   735.5984   1   8   0.0018   0.0012   0.0148  -0.0007   0.0028  -0.0018   9.00   19.6
2024/05/10 12:55:10.000   28.423218423  -16.455611803   735.5987   1   8   0.0018   0.0012   0.0148  -0.0007   0.0028  -0.0018  10.00   19.5
2024/05/10 12:55:11.000   28.423218422  -16.455611803   735.5990   1   8   0.0018   0.0012   0.0148  -0.0007   0.0028  -0.0018  11.00   19.4
2024/05/10 12:55:12.000   28.423218422  -16.455611803   735.5992   1   8   0.0018   0.0012   0.0148  -0.0007   0.0028  -0.0018  12.00   19.3
2024/05/10 12:55:13.000   28.423218422  -16.455611802   735.5995   1   8   0.0018   0.0012   0.0148  -0.0007   0.0028  -0.0018  13.00   19.1
2024/05/10 12:55:14.000   28.423218421  -16.455611802   735.5997   1   8   0.0018   0.0012   0.0148  -0.0007   0.0028  -0.0019  14.00   19.0
2024/05/10 12:55:15.000   28.423218421  -16.455611802   735.6000   1   8   0.0018   0.0012   0.0148  -0.0007   0.0028  -0.0019  15.00   18.9
2024/05/10 12:55:16.000   28.423218421  -16.455611802   735.6002   1   8   0.0018   0.0012   0.0148  -0.0007   0.0028  -0.0019 -14.00   18.7
2024/05/10 12:55:17.000   28.423218420  -16.455611801   735.6004   1   8   0.0018   0.0012   0.0147  -0.0007   0.0028  -0.0019 -13.00   18.6
2024/05/10 12:55:18.000   28.423218420  -16.455611801   735.6006   1   8   0.0018   0.0012   0.0147  -0.0007   0.0028  -0.0019 -12.00   18.4
2024/05/10 12:55:19.000   28.423218420  -16.455611801   735.6009   1   8   0.0018   0.0012   0.0147  -0.0007   0.0028  -0.0019 -11.00   18.3
2024/05/10 12:55:20.000   28.423218419  -16.455611801   735.6012   1   8   0.0018   0.0012   0.0147  -0.0007   0.0028  -0.0019 -10.00   18.1
2024/05/10 12:55:21.000   28.423218419  -16.455611800   735.6014   1   8   0.0018   0.0012   0.0147  -0.0007   0.0028  -0.0019  -9.00   18.0
2024/05/10 12:55:22.000   28.423218418  -16.455611800   735.6018   1   8   0.0018   0.0012   0.0147  -0.0007   0.0028  -0.0019  -8.00   17.9
2024/05/10 12:55:23.000   28.423218418  -16.455611800   735.6021   1   8   0.0019   0.0012   0.0147  -0.0008   0.0028  -0.0019  -7.00   17.8
2024/05/10 12:55:24.000   28.423218417  -16.455611799   735.6025   1   8   0.0019   0.0012   0.0148  -0.0008   0.0028  -0.0019  -6.00   17.7
2024/05/10 12:55:25.000   28.423218417  -16.455611799   735.6028   1   8   0.0019   0.0012   0.0148  -0.0008   0.0028  -0.0019  -5.00   17.7
2024/05/10 12:55:26.000   28.423218416  -16.455611799   735.6033   1   8   0.0019   0.0012   0.0148  -0.0008   0.0028  -0.0019  -4.00   17.7
2024/05/10 12:55:27.000   28.423218416  -16.455611798   735.6038   1   8   0.0019   0.0012   0.0148  -0.0008   0.0028  -0.0019  -3.00   17.7
2024/05/10 12:55:28.000   28.423218415  -16.455611797   735.6044   1   8   0.0019   0.0012   0.0148  -0.0008   0.0028  -0.0020  -2.00   17.9
2024/05/10 12:55:29.000   28.423218414  -16.455611797   735.6051   1   8   0.0019   0.0012   0.0148  -0.0008   0.0028  -0.0020  -1.00   18.0
2024/05/10 12:55:30.000   28.423218413  -16.455611796   735.6058   1   8   0.0019   0.0012   0.0149  -0.0008   0.0028  -0.0020   0.00   18.3
2024/05/10 12:55:31.000   28.423218412  -16.455611796   735.6064   1   8   0.0019   0.0012   0.0149  -0.0008   0.0028  -0.0020   1.00   18.5
2024/05/10 12:55:32.000   28.423218410  -16.455611795   735.6071   1   8   0.0019   0.0012   0.0149  -0.0008   0.0029  -0.0020   2.00   18.7
2024/05/10 12:55:33.000   28.423218410  -16.455611794   735.6077   1   8   0.0019   0.0012   0.0149  -0.0008   0.0029  -0.0021   3.00   19.0
2024/05/10 12:55:34.000   28.423218409  -16.455611794   735.6083   1   8   0.0019   0.0012   0.0150  -0.0008   0.0029  -0.0021   4.00   19.2
2024/05/10 12:55:35.000   28.423218407  -16.455611793   735.6089   1   8   0.0019   0.0012   0.0150  -0.0008   0.0029  -0.0021   5.00   19.5
2024/05/10 12:55:36.000   28.423218407  -16.455611792   735.6095   1   8   0.0019   0.0012   0.0150  -0.0008   0.0029  -0.0021   6.00   19.6
2024/05/10 12:55:37.000   28.423218406  -16.455611792   735.6101   1   8   0.0019   0.0012   0.0150  -0.0008   0.0029  -0.0021   7.00   19.7
2024/05/10 12:55:38.000   28.423218405  -16.455611791   735.6107   1   8   0.0019   0.0012   0.0150  -0.0008   0.0029  -0.0021   8.00   19.6
2024/05/10 12:55:39.000   28.423218404  -16.455611791   735.6112   1   8   0.0019   0.0012   0.0150  -0.0008   0.0029  -0.0021   9.00   19.5
2024/05/10 12:55:40.000   28.423218404  -16.455611790   735.6116   1   8   0.0019   0.0012   0.0150  -0.0008   0.0029  -0.0021  10.00   19.3
2024/05/10 12:55:41.000   28.423218403  -16.455611790   735.6120   1   8   0.0019   0.0012   0.0150  -0.0008   0.0029  -0.0022  11.00   19.2
2024/05/10 12:55:42.000   28.423218402  -16.455611790   735.6124   1   8   0.0019   0.0012   0.0150  -0.0008   0.0029  -0.0022  12.00   19.0
2024/05/10 12:55:43.000   28.423218402  -16.455611789   735.6128   1   8   0.0019   0.0012   0.0150  -0.0008   0.0029  -0.0022  13.00   18.8
2024/05/10 12:55:44.000   28.423218402  -16.455611789   735.6131   1   8   0.0019   0.0012   0.0150  -0.0008   0.0029  -0.0022  14.00   18.6
2024/05/10 12:55:45.000   28.423218401  -16.455611789   735.6134   1   8   0.0019   0.0012   0.0150  -0.0008   0.0029  -0.0022  15.00   18.3
2024/05/10 12:55:46.000   28.423218401  -16.455611789   735.6137   1   8   0.0019   0.0012   0.0150  -0.0008   0.0029  -0.0022 -14.00   18.1
2024/05/10 12:55:47.000   28.423218401  -16.455611788   735.6140   1   8   0.0019   0.0012   0.0150  -0.0008   0.0029  -0.0022 -13.00   17.8
2024/05/10 12:55:48.000   28.423218400  -16.455611788   735.6144   1   8   0.0019   0.0012   0.0150  -0.0008   0.0029  -0.0022 -12.00   17.5
2024/05/10 12:55:49.000   28.423218400  -16.455611788   735.6147   1   8   0.0019   0.0012   0.0150  -0.0008   0.0029  -0.0022 -11.00   17.1
2024/05/10 12:55:50.000   28.423218399  -16.455611787   735.6151   1   8   0.0019   0.0012   0.0150  -0.0008   0.0029  -0.0022 -10.00   16.6
2024/05/10 12:55:51.000   28.423218399  -16.455611787   735.6155   1   8   0.0019   0.0012   0.0150  -0.0008   0.0029  -0.0022  -9.00   16.2
2024/05/10 12:55:52.000   28.423218398  -16.455611787   735.6160   1   8   0.0019   0.0012   0.0150  -0.0008   0.0029  -0.0022  -8.00   15.7
2024/05/10 12:55:53.000   28.423218398  -16.455611786   735.6165   1   8   0.0019   0.0012   0.0151  -0.0008   0.0029  -0.0022  -7.00   15.1
2024/05/10 12:55:54.000   28.423218397  -16.455611786   735.6172   1   8   0.0019   0.0012   0.0151  -0.0008   0.0030  -0.0022  -6.00   14.5
2024/05/10 12:55:55.000   28.423218396  -16.455611785   735.6179   1   8   0.0019   0.0012   0.0151  -0.0008   0.0030  -0.0023  -5.00   13.7
2024/05/10 12:55:56.000   28.423218395  -16.455611785   735.6187   1   8   0.0019   0.0012   0.0151  -0.0009   0.0030  -0.0023  -4.00   12.7
2024/05/10 12:55:57.000   28.423218394  -16.455611784   735.6195   1   8   0.0019   0.0012   0.0151  -0.0009   0.0030  -0.0023  -3.00   10.9
2024/05/10 12:55:58.000   28.423218394  -16.455611784   735.6205   1   8   0.0019   0.0012   0.0151  -0.0009   0.0030  -0.0023  -2.00    8.6
2024/05/10 12:55:59.000   28.423218393  -16.455611783   735.6215   1   8   0.0019   0.0013   0.0152  -0.0009   0.0030  -0.0023  -1.00    5.4
2024/05/10 12:56:00.000   28.423218426  -16.455611809   735.5942   1   8   0.0019   0.0012   0.0147  -0.0008   0.0028  -0.0019   0.00   17.4
2024/05/10 12:56:01.000   28.423218426  -16.455611810   735.5946   1   8   0.0019   0.0012   0.0147  -0.0008   0.0028  -0.0019   1.00   17.5
2024/05/10 12:56:02.000   28.423218426  -16.455611810   735.5950   1   8   0.0019   0.0012   0.0148  -0.0008   0.0028  -0.0019   2.00   17.6
2024/05/10 12:56:03.000   28.423218425  -16.455611809   735.5955   1   8   0.0019   0.0012   0.0148  -0.0008   0.0028  -0.0019   3.00   17.7
2024/05/10 12:56:04.000   28.423218425  -16.455611809   735.5960   1   8   0.0019   0.0012   0.0148  -0.0008   0.0028  -0.0020   4.00   17.8
2024/05/10 12:56:05.000   28.423218425  -16.455611809   735.5966   1   8   0.0019   0.0012   0.0148  -0.0008   0.0028  -0.0020   5.00   17.8
2024/05/10 12:56:06.000   28.423218424  -16.455611808   735.5970   1   8   0.0019   0.0012   0.0148  -0.0008   0.0028  -0.0020   6.00   17.8
2024/05/10 12:56:07.000   28.423218424  -16.455611808   735.5975   1   8   0.0019   0.0012   0.0149  -0.0008   0.0028  -0.0020   7.00   17.8
2024/05/10 12:56:08.000   28.423218423  -16.455611808   735.5979   1   8   0.0019   0.0012   0.0149  -0.0008   0.0028  -0.0020   8.00   17.7
2024/05/10 12:56:09.000   28.423218423  -16.455611807   735.5982   1   8   0.0019   0.0012   0.0149  -0.0008   0.0028  -0.0020   9.00   17.6
2024/05/10 12:56:10.000   28.423218422  -16.455611807   735.5986   1   8   0.0019   0.0012   0.0149  -0.0008   0.0028  -0.0020  10.00   17.5
2024/05/10 12:56:11.000   28.423218422  -16.455611807   735.5989   1   8   0.0019   0.0012   0.0149  -0.0008   0.0028  -0.0020  11.00   17.4
2024/05/10 12:56:12.000   28.423218422  -16.455611807   735.5992   1   8   0.0019   0.0012   0.0149  -0.0008   0.0029  -0.0020  12.00   17.2
2024/05/10 12:56:13.000   28.423218421  -16.455611806   735.5994   1   8   0.0019   0.0012   0.0149  -0.0008   0.0029  -0.0020  13.00   17.0
2024/05/10 12:56:14.000   28.423218421  -16.455611806   735.5997   1   8   0.0019   0.0012   0.0149  -0.0008   0.0029  -0.0020  14.00   16.8
2024/05/10 12:56:15.000   28.423218421  -16.455611806   735.5999   1   8   0.0019   0.0012   0.0149  -0.0008   0.0029  -0.0021  15.00   16.6
2024/05/10 12:56:16.000   28.423218421  -16.455611806   735.6002   1   8   0.0019   0.0012   0.0149  -0.0008   0.0029  -0.0021 -14.00   16.3
2024/05/10 12:56:17.000   28.423218420  -16.455611806   735.6004   1   8   0.0019   0.0012   0.0149  -0.0008   0.0029  -0.0021 -13.00   16.1
2024/05/10 12:56:18.000   28.423218420  -16.455611805   735.6007   1   8   0.0019   0.0012   0.0149  -0.0008   0.0029  -0.0021 -12.00   15.9
2024/05/10 12:56:19.000   28.423218420  -16.455611805   735.6010   1   8   0.0019   0.0012   0.0149  -0.0008   0.0029  -0.0021 -11.00   15.6
2024/05/10 12:56:20.000   28.423218419  -16.455611805   735.6013   1   8   0.0019   0.0012   0.0149  -0.0008   0.0029  -0.0021 -10.00   15.4
2024/05/10 12:56:21.000   28.423218419  -16.455611805   735.6016   1   8   0.0019   0.0012   0.0149  -0.0008   0.0029  -0.0021  -9.00   15.2
2024/05/10 12:56:22.000   28.423218418  -16.455611805   735.6020   1   8   0.0019   0.0012   0.0149  -0.0008   0.0029  -0.0021  -8.00   15.1
2024/05/10 12:56:23.000   28.423218418  -16.455611804   735.6024   1   8   0.0019   0.0012   0.0149  -0.0008   0.0029  -0.0021  -7.00   15.0
2024/05/10 12:56:24.000   28.423218417  -16.455611804   735.6030   1   8   0.0019   0.0012   0.0149  -0.0008   0.0029  -0.0021  -6.00   14.9
2024/05/10 12:56:25.000   28.423218417  -16.455611803   735.6035   1   8   0.0019   0.0012   0.0149  -0.0008   0.0029  -0.0021  -5.00   14.9
2024/05/10 12:56:26.000   28.423218416  -16.455611803   735.6041   1   8   0.0019   0.0012   0.0149  -0.0008   0.0029  -0.0021  -4.00   14.8
2024/05/10 12:56:27.000   28.423218416  -16.455611803   735.6047   1   8   0.0019   0.0012   0.0149  -0.0008   0.0029  -0.0022  -3.00   14.9
2024/05/10 12:56:28.000   28.423218415  -16.455611802   735.6054   1   8   0.0019   0.0012   0.0149  -0.0008   0.0029  -0.0022  -2.00   15.1
2024/05/10 12:56:29.000   28.423218414  -16.455611802   735.6060   1   8   0.0020   0.0012   0.0150  -0.0008   0.0029  -0.0022  -1.00   15.2
2024/05/10 12:56:30.000   28.423218413  -16.455611801   735.6068   1   8   0.0020   0.0012   0.0150  -0.0009   0.0029  -0.0022   0.00   15.4
2024/05/10 12:56:31.000   28.423218412  -16.455611801   735.6078   1   8   0.0020   0.0012   0.0150  -0.0009   0.0029  -0.0022   1.00   15.6
2024/05/10 12:56:32.000   28.423218412  -16.455611800   735.6085   1   8   0.0020   0.0012   0.0151  -0.0009   0.0030  -0.0023   2.00   15.8
2024/05/10 12:56:33.000   28.423218411  -16.455611800   735.6094   1   8   0.0020   0.0013   0.0151  -0.0009   0.0030  -0.0023   3.00   16.0
2024/05/10 12:56:34.000   28.423218409  -16.455611799   735.6103   1   8   0.0020   0.0013   0.0151  -0.0009   0.0030  -0.0023   4.00   16.1
2024/05/10 12:56:35.000   28.423218408  -16.455611799   735.6111   1   8   0.0020   0.0013   0.0151  -0.0009   0.0030  -0.0023   5.00   16.1
2024/05/10 12:56:36.000   28.423218407  -16.455611798   735.6118   1   8   0.0020   0.0013   0.0152  -0.0009   0.0030  -0.0023   6.00   16.1
2024/05/10 12:56:37.000   28.423218406  -16.455611798   735.6125   1   8   0.0020   0.0013   0.0152  -0.0009   0.0030  -0.0023   7.00   16.0
2024/05/10 12:56:38.000   28.423218406  -16.455611797   735.6132   1   8   0.0020   0.0013   0.0152  -0.0009   0.0030  -0.0024   8.00   15.8
2024/05/10 12:56:39.000   28.423218405  -16.455611797   735.6138   1   8   0.0020   0.0013   0.0152  -0.0009   0.0030  -0.0024   9.00   15.7
2024/05/10 12:56:40.000   28.423218404  -16.455611796   735.6143   1   8   0.0020   0.0013   0.0152  -0.0009   0.0030  -0.0024  10.00   15.4
2024/05/10 12:56:41.000   28.423218403  -16.455611796   735.6148   1   8   0.0020   0.0013   0.0152  -0.0009   0.0030  -0.0024  11.00   15.0
2024/05/10 12:56:42.000   28.423218403  -16.455611796   735.6152   1   8   0.0020   0.0013   0.0152  -0.0009   0.0030  -0.0024  12.00   14.6
2024/05/10 12:56:43.000   28.423218402  -16.455611795   735.6156   1   8   0.0020   0.0013   0.0152  -0.0009   0.0030  -0.0024  13.00   14.2
2024/05/10 12:56:44.000   28.423218402  -16.455611795   735.6159   1   8   0.0020   0.0013   0.0152  -0.0009   0.0030  -0.0024  14.00   13.8
2024/05/10 12:56:45.000   28.423218401  -16.455611795   735.6162   1   8   0.0020   0.0013   0.0152  -0.0009   0.0030  -0.0024  15.00   13.3
2024/05/10 12:56:46.000   28.423218401  -16.455611794   735.6165   1   8   0.0020   0.0013   0.0152  -0.0009   0.0030  -0.0024 -14.00   12.7
2024/05/10 12:56:47.000   28.423218401  -16.455611794   735.6169   1   8   0.0020   0.0013   0.0152  -0.0009   0.0030  -0.0024 -13.00   12.2
2024/05/10 12:56:48.000   28.423218400  -16.455611794   735.6172   1   8   0.0020   0.0013   0.0152  -0.0009   0.0030  -0.0024 -12.00   11.7
2024/05/10 12:56:49.000   28.423218399  -16.455611794   735.6176   1   8   0.0020   0.0013   0.0152  -0.0009   0.0030  -0.0024 -11.00   11.3
2024/05/10 12:56:50.000   28.423218399  -16.455611793   735.6181   1   8   0.0020   0.0013   0.0152  -0.0009   0.0031  -0.0025 -10.00   10.8
2024/05/10 12:56:51.000   28.423218398  -16.455611793   735.6186   1   8   0.0020   0.0013   0.0152  -0.0009   0.0031  -0.0025  -9.00   10.4
2024/05/10 12:56:52.000   28.423218397  -16.455611792   735.6192   1   8   0.0020   0.0013   0.0152  -0.0009   0.0031  -0.0025  -8.00   10.0
2024/05/10 12:56:53.000   28.423218396  -16.455611792   735.6197   1   8   0.0020   0.0013   0.0153  -0.0009   0.0031  -0.0025  -7.00    9.6
2024/05/10 12:56:54.000   28.423218395  -16.455611791   735.6204   1   8   0.0020   0.0013   0.0153  -0.0009   0.0031  -0.0025  -6.00    9.3
2024/05/10 12:56:55.000   28.423218394  -16.455611790   735.6212   1   8   0.0020   0.0013   0.0153  -0.0009   0.0031  -0.0025  -5.00    8.9
2024/05/10 12:56:56.000   28.423218393  -16.455611790   735.6220   1   8   0.0020   0.0013   0.0153  -0.0009   0.0031  -0.0025  -4.00    8.6
2024/05/10 12:56:57.000   28.423218392  -16.455611789   735.6230   1   8   0.0020   0.0013   0.0153  -0.0009   0.0031  -0.0026  -3.00    8.3
2024/05/10 12:56:58.000   28.423218390  -16.455611788   735.6239   1   8   0.0020   0.0013   0.0154  -0.0010   0.0031  -0.0026  -2.00    8.0
2024/05/10 12:56:59.000   28.423218389  -16.455611787   735.6248   1   8   0.0021   0.0013   0.0154  -0.0010   0.0031  -0.0026  -1.00    7.5
2024/05/10 12:57:00.000   28.423218387  -16.455611786   735.6257   1   8   0.0021   0.0013   0.0154  -0.0010   0.0032  -0.0026   0.00    6.1
2024/05/10 12:57:01.000   28.423218385  -16.455611785   735.6270   1   7   0.0021   0.0013   0.0155  -0.0010   0.0032  -0.0027   1.00  683.0
2024/05/10 12:57:02.000   28.423218385  -16.455611785   735.6270   1   7   0.0021   0.0013   0.0155  -0.0010   0.0032  -0.0027   2.00  697.4
2024/05/10 12:57:03.000   28.423218384  -16.455611785   735.6269   1   7   0.0021   0.0013   0.0155  -0.0010   0.0032  -0.0027   3.00  711.8
2024/05/10 12:57:04.000   28.423218384  -16.455611785   735.6268   1   7   0.0021   0.0013   0.0155  -0.0010   0.0032  -0.0027   4.00  724.7
2024/05/10 12:57:05.000   28.423218384  -16.455611785   735.6268   1   7   0.0021   0.0013   0.0156  -0.0010   0.0032  -0.0027   5.00  734.6
2024/05/10 12:57:06.000   28.423218384  -16.455611785   735.6267   1   7   0.0021   0.0013   0.0156  -0.0010   0.0032  -0.0027   6.00  744.2
2024/05/10 12:57:07.000   28.423218384  -16.455611785   735.6267   1   7   0.0021   0.0013   0.0156  -0.0010   0.0032  -0.0027   7.00  750.5
2024/05/10 12:57:08.000   28.423218384  -16.455611785   735.6267   1   7   0.0021   0.0013   0.0156  -0.0010   0.0032  -0.0027   8.00  757.4
2024/05/10 12:57:09.000   28.423218384  -16.455611785   735.6267   1   7   0.0021   0.0013   0.0156  -0.0010   0.0032  -0.0027   9.00  762.6
2024/05/10 12:57:10.000   28.423218384  -16.455611785   735.6266   1   7   0.0021   0.0013   0.0156  -0.0010   0.0032  -0.0027  10.00  766.4
2024/05/10 12:57:11.000   28.423218384  -16.455611785   735.6266   1   7   0.0021   0.0013   0.0156  -0.0010   0.0032  -0.0027  11.00  768.4
2024/05/10 12:57:12.000   28.423218384  -16.455611785   735.6266   1   7   0.0021   0.0013   0.0156  -0.0010   0.0032  -0.0027  12.00  771.0
2024/05/10 12:57:13.000   28.423218384  -16.455611785   735.6266   1   7   0.0021   0.0013   0.0156  -0.0010   0.0032  -0.0027  13.00  772.7
2024/05/10 12:57:14.000   28.423218383  -16.455611785   735.6266   1   7   0.0021   0.0013   0.0155  -0.0010   0.0032  -0.0027  14.00  773.5
2024/05/10 12:57:15.000   28.423218383  -16.455611785   735.6266   1   7   0.0021   0.0013   0.0155  -0.0010   0.0032  -0.0027  15.00  774.1
2024/05/10 12:57:16.000   28.423218383  -16.455611785   735.6266   1   7   0.0021   0.0013   0.0155  -0.0010   0.0032  -0.0027 -14.00  774.4
2024/05/10 12:57:17.000   28.423218383  -16.455611785   735.6266   1   7   0.0021   0.0013   0.0155  -0.0010   0.0032  -0.0027 -13.00  775.3
2024/05/10 12:57:18.000   28.423218383  -16.455611785   735.6266   1   7   0.0021   0.0013   0.0155  -0.0010   0.0032  -0.0027 -12.00  777.1
2024/05/10 12:57:19.000   28.423218383  -16.455611785   735.6266   1   7   0.0021   0.0013   0.0155  -0.0010   0.0032  -0.0027 -11.00  778.6
2024/05/10 12:57:20.000   28.423218383  -16.455611785   735.6266   1   7   0.0021   0.0013   0.0155  -0.0010   0.0032  -0.0027 -10.00  780.5
2024/05/10 12:57:21.000   28.423218383  -16.455611785   735.6265   1   7   0.0021   0.0013   0.0155  -0.0010   0.0032  -0.0027  -9.00  782.6
2024/05/10 12:57:22.000   28.423218383  -16.455611785   735.6265   1   7   0.0021   0.0013   0.0155  -0.0010   0.0032  -0.0027  -8.00  784.9
2024/05/10 12:57:23.000   28.423218383  -16.455611785   735.6265   1   7   0.0021   0.0013   0.0155  -0.0010   0.0032  -0.0027  -7.00  788.0
2024/05/10 12:57:24.000   28.423218383  -16.455611785   735.6266   1   7   0.0021   0.0013   0.0155  -0.0010   0.0032  -0.0027  -6.00  791.6
2024/05/10 12:57:25.000   28.423218383  -16.455611785   735.6265   1   7   0.0021   0.0013   0.0155  -0.0010   0.0032  -0.0027  -5.00  797.2
2024/05/10 12:57:26.000   28.423218383  -16.455611785   735.6265   1   7   0.0021   0.0013   0.0155  -0.0010   0.0032  -0.0028  -4.00  804.7
2024/05/10 12:57:27.000   28.423218383  -16.455611786   735.6265   1   7   0.0021   0.0013   0.0155  -0.0010   0.0032  -0.0028  -3.00  811.2
2024/05/10 12:57:28.000   28.423218383  -16.455611786   735.6264   1   7   0.0021   0.0013   0.0155  -0.0010   0.0032  -0.0028  -2.00  822.3
2024/05/10 12:57:29.000   28.423218383  -16.455611786   735.6262   1   7   0.0021   0.0013   0.0156  -0.0010   0.0032  -0.0028  -1.00  838.5
2024/05/10 12:57:30.000   28.423218384  -16.455611787   735.6255   1   8   0.0021   0.0013   0.0155  -0.0010   0.0032  -0.0028   0.00   12.9
2024/05/10 12:57:31.000   28.423218383  -16.455611787   735.6258   1   7   0.0021   0.0013   0.0156  -0.0010   0.0032  -0.0028   1.00  872.7
2024/05/10 12:57:32.000   28.423218383  -16.455611787   735.6257   1   7   0.0021   0.0013   0.0156  -0.0010   0.0032  -0.0028   2.00  889.9
2024/05/10 12:57:33.000   28.423218383  -16.455611788   735.6256   1   7   0.0022   0.0013   0.0156  -0.0010   0.0033  -0.0028   3.00  905.7
2024/05/10 12:57:34.000   28.423218383  -16.455611788   735.6255   1   7   0.0022   0.0013   0.0157  -0.0010   0.0033  -0.0028   4.00  920.6
2024/05/10 12:57:35.000   28.423218383  -16.455611788   735.6255   1   7   0.0022   0.0013   0.0157  -0.0010   0.0033  -0.0028   5.00  931.2
2024/05/10 12:57:36.000   28.423218383  -16.455611788   735.6253   1   7   0.0022   0.0013   0.0157  -0.0010   0.0033  -0.0028   6.00  936.7
2024/05/10 12:57:37.000   28.423218383  -16.455611789   735.6253   1   7   0.0022   0.0013   0.0157  -0.0010   0.0033  -0.0029   7.00  939.6
2024/05/10 12:57:38.000   28.423218384  -16.455611789   735.6252   1   7   0.0022   0.0013   0.0157  -0.0011   0.0033  -0.0029   8.00  941.6
2024/05/10 12:57:39.000   28.423218384  -16.455611789   735.6250   1   7   0.0022   0.0013   0.0157  -0.0011   0.0033  -0.0029   9.00  943.3
2024/05/10 12:57:40.000   28.423218384  -16.455611789   735.6250   1   7   0.0022   0.0013   0.0157  -0.0011   0.0033  -0.0029  10.00  943.8
2024/05/10 12:57:41.000   28.423218384  -16.455611789   735.6249   1   7   0.0022   0.0013   0.0157  -0.0011   0.0033  -0.0029  11.00  943.6
2024/05/10 12:57:42.000   28.423218384  -16.455611789   735.6248   1   7   0.0022   0.0013   0.0157  -0.0011   0.0033  -0.0029  12.00  943.1
2024/05/10 12:57:43.000   28.423218384  -16.455611789   735.6248   1   7   0.0022   0.0013   0.0157  -0.0011   0.0033  -0.0029  13.00  942.0
2024/05/10 12:57:44.000   28.423218384  -16.455611789   735.6247   1   7   0.0022   0.0013   0.0157  -0.0011   0.0033  -0.0029  14.00  939.8
2024/05/10 12:57:45.000   28.423218384  -16.455611790   735.6247   1   7   0.0022   0.0013   0.0157  -0.0011   0.0033  -0.0029  15.00  937.6
2024/05/10 12:57:46.000   28.423218384  -16.455611790   735.6246   1   7   0.0022   0.0013   0.0156  -0.0011   0.0033  -0.0029 -14.00  935.4
2024/05/10 12:57:47.000   28.423218384  -16.455611790   735.6246   1   7   0.0022   0.0013   0.0156  -0.0011   0.0033  -0.0029 -13.00  933.0
2024/05/10 12:57:48.000   28.423218384  -16.455611790   735.6245   1   7   0.0022   0.0013   0.0156  -0.0011   0.0033  -0.0029 -12.00  930.3
2024/05/10 12:57:49.000   28.423218384  -16.455611790   735.6245   1   7   0.0022   0.0013   0.0156  -0.0011   0.0033  -0.0029 -11.00  928.8
2024/05/10 12:57:50.000   28.423218384  -16.455611790   735.6245   1   7   0.0022   0.0013   0.0156  -0.0011   0.0033  -0.0029 -10.00  927.0
2024/05/10 12:57:51.000   28.423218384  -16.455611790   735.6244   1   7   0.0022   0.0013   0.0156  -0.0011   0.0033  -0.0029  -9.00  924.9
2024/05/10 12:57:52.000   28.423218385  -16.455611790   735.6243   1   7   0.0022   0.0013   0.0156  -0.0011   0.0033  -0.0029  -8.00  922.7
2024/05/10 12:57:53.000   28.423218385  -16.455611790   735.6242   1   7   0.0022   0.0013   0.0156  -0.0011   0.0033  -0.0029  -7.00  921.3
2024/05/10 12:57:54.000   28.423218385  -16.455611790   735.6241   1   7   0.0022   0.0013   0.0156  -0.0011   0.0033  -0.0029  -6.00  919.7
2024/05/10 12:57:55.000   28.423218385  -16.455611791   735.6239   1   7   0.0022   0.0013   0.0156  -0.0011   0.0033  -0.0029  -5.00  917.1
2024/05/10 12:57:56.000   28.423218385  -16.455611791   735.6237   1   7   0.0022   0.0013   0.0156  -0.0011   0.0033  -0.0029  -4.00  916.4
2024/05/10 12:57:57.000   28.423218386  -16.455611791   735.6235   1   7   0.0022   0.0013   0.0156  -0.0011   0.0033  -0.0029  -3.00  915.2
2024/05/10 12:57:58.000   28.423218386  -16.455611791   735.6233   1   7   0.0022   0.0013   0.0157  -0.0011   0.0033  -0.0029  -2.00  916.7
2024/05/10 12:57:59.000   28.423218386  -16.455611792   735.6231   1   7   0.0022   0.0013   0.0157  -0.0011   0.0033  -0.0029  -1.00  913.6
2024/05/10 12:58:00.000   28.423218401  -16.455611803   735.6106   1   8   0.0021   0.0012   0.0144  -0.0009   0.0027  -0.0019   0.00  205.3
2024/05/10 12:58:01.000   28.423218402  -16.455611804   735.6105   1   8   0.0021   0.0012   0.0144  -0.0009   0.0027  -0.0019   1.00  202.8
2024/05/10 12:58:02.000   28.423218402  -16.455611804   735.6105   1   8   0.0021   0.0012   0.0145  -0.0009   0.0028  -0.0020   2.00  200.2
2024/05/10 12:58:03.000   28.423218403  -16.455611805   735.6104   1   8   0.0021   0.0012   0.0145  -0.0009   0.0028  -0.0020   3.00  197.2
2024/05/10 12:58:04.000   28.423218403  -16.455611805   735.6104   1   8   0.0021   0.0012   0.0145  -0.0009   0.0028  -0.0020   4.00  193.8
2024/05/10 12:58:05.000   28.423218403  -16.455611805   735.6103   1   8   0.0021   0.0012   0.0145  -0.0009   0.0028  -0.0020   5.00  189.0
2024/05/10 12:58:06.000   28.423218403  -16.455611805   735.6103   1   8   0.0021   0.0012   0.0145  -0.0009   0.0028  -0.0020   6.00  185.5
2024/05/10 12:58:07.000   28.423218404  -16.455611805   735.6103   1   8   0.0021   0.0012   0.0145  -0.0009   0.0028  -0.0020   7.00  181.4
2024/05/10 12:58:08.000   28.423218404  -16.455611805   735.6103   1   8   0.0021   0.0012   0.0146  -0.0009   0.0028  -0.0020   8.00  177.6
2024/05/10 12:58:09.000   28.423218404  -16.455611806   735.6102   1   8   0.0021   0.0012   0.0146  -0.0009   0.0028  -0.0021   9.00  174.0
2024/05/10 12:58:10.000   28.423218404  -16.455611806   735.6102   1   8   0.0021   0.0012   0.0146  -0.0009   0.0028  -0.0021  10.00  170.4
2024/05/10 12:58:11.000   28.423218404  -16.455611806   735.6101   1   8   0.0021   0.0012   0.0146  -0.0009   0.0028  -0.0021  11.00  167.3
2024/05/10 12:58:12.000   28.423218404  -16.455611806   735.6101   1   8   0.0021   0.0012   0.0146  -0.0009   0.0028  -0.0021  12.00  164.4
2024/05/10 12:58:13.000   28.423218405  -16.455611806   735.6100   1   8   0.0021   0.0012   0.0146  -0.0009   0.0028  -0.0021  13.00  161.2
2024/05/10 12:58:14.000   28.423218405  -16.455611806   735.6100   1   8   0.0021   0.0012   0.0146  -0.0009   0.0028  -0.0021  14.00  158.0
2024/05/10 12:58:15.000   28.423218405  -16.455611806   735.6100   1   8   0.0021   0.0012   0.0146  -0.0009   0.0028  -0.0021  15.00  155.4
2024/05/10 12:58:16.000   28.423218405  -16.455611806   735.6100   1   8   0.0021   0.0012   0.0146  -0.0009   0.0028  -0.0021 -14.00  152.9
2024/05/10 12:58:17.000   28.423218405  -16.455611806   735.6100   1   8   0.0021   0.0012   0.0146  -0.0009   0.0028  -0.0021 -13.00  150.3
2024/05/10 12:58:18.000   28.423218405  -16.455611806   735.6099   1   8   0.0021   0.0012   0.0145  -0.0009   0.0028  -0.0021 -12.00  147.9
2024/05/10 12:58:19.000   28.423218405  -16.455611806   735.6100   1   8   0.0021   0.0012   0.0145  -0.0009   0.0028  -0.0021 -11.00  145.3
2024/05/10 12:58:20.000   28.423218405  -16.455611806   735.6100   1   8   0.0021   0.0012   0.0145  -0.0009   0.0028  -0.0021 -10.00  142.8
2024/05/10 12:58:21.000   28.423218405  -16.455611806   735.6100   1   8   0.0021   0.0012   0.0145  -0.0009   0.0028  -0.0021  -9.00  140.6
2024/05/10 12:58:22.000   28.423218405  -16.455611806   735.6101   1   8   0.0021   0.0012   0.0146  -0.0009   0.0028  -0.0021  -8.00  138.5
2024/05/10 12:58:23.000   28.423218405  -16.455611806   735.6101   1   8   0.0021   0.0013   0.0146  -0.0009   0.0028  -0.0021  -7.00  136.4
2024/05/10 12:58:24.000   28.423218405  -16.455611806   735.6102   1   8   0.0021   0.0013   0.0146  -0.0009   0.0028  -0.0022  -6.00  135.1
