% program   : RTKPOST-EX 2.5.0
% inp file  : C:\Users\SallyHenry\Desktop\Sally Internship\GNSS gravi\DATA\Survey Rover Obs\MI08.24o
% inp file  : C:\Users\SallyHenry\Desktop\Sally Internship\GNSS gravi\DATA\BaseStations\TN02\TN0200ESP_R_20241310000_01D_30S_MO.rnx
% inp file  : C:\Users\SallyHenry\Desktop\Sally Internship\GNSS gravi\DATA\BaseStations\TN02\TN0200ESP_R_20241310000_01D_MN.rnx
% inp file  : C:\Users\SallyHenry\Desktop\Sally Internship\GNSS gravi\DATA\aux_files\Survey\IGS0OPSFIN_20241310000_01D_15M_ORB.SP3
% inp file  : C:\Users\SallyHenry\Desktop\Sally Internship\GNSS gravi\DATA\aux_files\Survey\IGS0OPSFIN_20241310000_01D_30S_CLK.CLK
% obs start : 2024/05/10 13:35:02.0 GPST (week2313 480902.0s)
% obs end   : 2024/05/10 14:43:20.0 GPST (week2313 485000.0s)
% pos mode  : Static
% freqs     : L1+L2/E5b
% solution  : Combined-No Phase Reset
% elev mask : 15.0 deg
% dynamics  : on
% tidecorr  : solid
% ionos opt : Estimate TEC
% tropo opt : Estimate ZTD+Grad
% ephemeris : Precise
% navi sys  : GPS GLONASS Galileo QZSS BDS
% amb res   : Fix and Hold
% amb glo   : Fix and Hold
% amb bds   : on
% val thres : 3.0
% antenna1  :                       ( 0.0000  0.0000  1.8000)
% antenna2  :                       ( 0.0000  0.0000  0.0771)
% ref pos   :  28.418257450  -16.550784480    54.4145
%
% (lat/lon/height=WGS84/ellipsoidal,Q=1:fix,2:float,3:sbas,4:dgps,5:single,6:ppp,ns=# of satellites)
%  GPST                  latitude(deg) longitude(deg)  height(m)   Q  ns   sdn(m)   sde(m)   sdu(m)  sdne(m)  sdeu(m)  sdun(m) age(s)  ratio
2024/05/10 13:35:02.000   28.415477466  -16.476430612   655.7269   1   6   0.0025   0.0015   0.0163  -0.0001   0.0023  -0.0048   2.00    7.0
2024/05/10 13:35:03.000   28.415477471  -16.476430612   655.7258   1   6   0.0025   0.0015   0.0163  -0.0001   0.0023  -0.0048   3.00    7.3
2024/05/10 13:35:04.000   28.415477476  -16.476430612   655.7247   1   6   0.0025   0.0015   0.0163  -0.0001   0.0023  -0.0048   4.00    7.6
2024/05/10 13:35:05.000   28.415477481  -16.476430612   655.7238   1   6   0.0025   0.0015   0.0163  -0.0001   0.0023  -0.0048   5.00    7.9
2024/05/10 13:35:06.000   28.415477484  -16.476430612   655.7231   1   6   0.0025   0.0015   0.0163  -0.0000   0.0023  -0.0048   6.00    8.2
2024/05/10 13:35:07.000   28.415477487  -16.476430611   655.7226   1   6   0.0025   0.0015   0.0163  -0.0000   0.0023  -0.0048   7.00    8.3
2024/05/10 13:35:08.000   28.415477490  -16.476430611   655.7221   1   6   0.0025   0.0015   0.0163   0.0000   0.0023  -0.0048   8.00    8.4
2024/05/10 13:35:09.000   28.415477492  -16.476430611   655.7216   1   6   0.0025   0.0015   0.0163   0.0000   0.0023  -0.0048   9.00    8.4
2024/05/10 13:35:10.000   28.415477494  -16.476430611   655.7213   1   6   0.0025   0.0015   0.0163   0.0000   0.0023  -0.0048  10.00    8.4
2024/05/10 13:35:11.000   28.415477496  -16.476430611   655.7210   1   6   0.0025   0.0015   0.0163   0.0001   0.0023  -0.0048  11.00    8.4
2024/05/10 13:35:12.000   28.415477497  -16.476430611   655.7208   1   6   0.0025   0.0015   0.0163   0.0001   0.0023  -0.0048  12.00    8.3
2024/05/10 13:35:13.000   28.415477498  -16.476430611   655.7206   1   6   0.0025   0.0015   0.0163   0.0001   0.0023  -0.0048  13.00    8.3
2024/05/10 13:35:14.000   28.415477500  -16.476430611   655.7204   1   6   0.0025   0.0015   0.0163   0.0001   0.0023  -0.0048  14.00    8.2
2024/05/10 13:35:15.000   28.415477501  -16.476430611   655.7203   1   6   0.0025   0.0015   0.0163   0.0001   0.0023  -0.0048  15.00    8.2
2024/05/10 13:35:16.000   28.415477501  -16.476430611   655.7202   1   6   0.0025   0.0015   0.0163   0.0001   0.0023  -0.0048 -14.00    8.1
2024/05/10 13:35:17.000   28.415477502  -16.476430611   655.7200   1   6   0.0025   0.0015   0.0163   0.0001   0.0023  -0.0048 -13.00    8.1
2024/05/10 13:35:18.000   28.415477503  -16.476430611   655.7198   1   6   0.0025   0.0015   0.0163   0.0001   0.0023  -0.0048 -12.00    8.0
2024/05/10 13:35:19.000   28.415477505  -16.476430611   655.7196   1   6   0.0025   0.0015   0.0163   0.0001   0.0023  -0.0048 -11.00    7.9
2024/05/10 13:35:20.000   28.415477506  -16.476430611   655.7194   1   6   0.0025   0.0015   0.0163   0.0001   0.0023  -0.0048 -10.00    7.9
2024/05/10 13:35:21.000   28.415477508  -16.476430611   655.7191   1   6   0.0025   0.0015   0.0163   0.0001   0.0023  -0.0048  -9.00    7.8
2024/05/10 13:35:22.000   28.415477510  -16.476430611   655.7187   1   6   0.0026   0.0015   0.0163   0.0001   0.0023  -0.0048  -8.00    7.7
2024/05/10 13:35:23.000   28.415477512  -16.476430611   655.7183   1   6   0.0026   0.0015   0.0163   0.0001   0.0023  -0.0048  -7.00    7.7
2024/05/10 13:35:24.000   28.415477514  -16.476430611   655.7178   1   6   0.0026   0.0015   0.0163   0.0001   0.0023  -0.0048  -6.00    7.5
2024/05/10 13:35:25.000   28.415477517  -16.476430611   655.7171   1   6   0.0026   0.0015   0.0163   0.0001   0.0023  -0.0048  -5.00    7.4
2024/05/10 13:35:26.000   28.415477521  -16.476430611   655.7163   1   6   0.0026   0.0015   0.0163   0.0001   0.0023  -0.0049  -4.00    7.3
2024/05/10 13:35:27.000   28.415477526  -16.476430611   655.7153   1   6   0.0026   0.0015   0.0163   0.0001   0.0023  -0.0049  -3.00    7.0
2024/05/10 13:35:28.000   28.415477531  -16.476430610   655.7141   1   6   0.0026   0.0015   0.0163   0.0001   0.0023  -0.0049  -2.00    5.9
2024/05/10 13:35:29.000   28.415477537  -16.476430610   655.7128   1   6   0.0026   0.0015   0.0163   0.0001   0.0023  -0.0049  -1.00    4.2
2024/05/10 13:35:30.000   28.415477470  -16.476430614   655.7271   1   6   0.0025   0.0015   0.0163   0.0001   0.0023  -0.0048   0.00    8.1
2024/05/10 13:35:31.000   28.415477476  -16.476430613   655.7258   1   6   0.0025   0.0015   0.0163   0.0001   0.0023  -0.0048   1.00    8.5
2024/05/10 13:35:32.000   28.415477481  -16.476430613   655.7246   1   6   0.0025   0.0015   0.0163   0.0001   0.0023  -0.0048   2.00    8.9
2024/05/10 13:35:33.000   28.415477486  -16.476430613   655.7235   1   6   0.0025   0.0015   0.0163   0.0001   0.0023  -0.0048   3.00    9.4
2024/05/10 13:35:34.000   28.415477491  -16.476430613   655.7226   1   6   0.0025   0.0015   0.0163   0.0001   0.0023  -0.0048   4.00    9.7
2024/05/10 13:35:35.000   28.415477495  -16.476430612   655.7219   1   6   0.0025   0.0015   0.0163   0.0001   0.0023  -0.0048   5.00   10.0
2024/05/10 13:35:36.000   28.415477498  -16.476430612   655.7212   1   6   0.0025   0.0015   0.0163   0.0001   0.0023  -0.0048   6.00   10.3
2024/05/10 13:35:37.000   28.415477500  -16.476430612   655.7207   1   6   0.0025   0.0015   0.0163   0.0001   0.0023  -0.0048   7.00   10.4
2024/05/10 13:35:38.000   28.415477502  -16.476430612   655.7203   1   6   0.0025   0.0015   0.0163   0.0001   0.0023  -0.0048   8.00   10.4
2024/05/10 13:35:39.000   28.415477504  -16.476430612   655.7200   1   6   0.0025   0.0015   0.0163   0.0001   0.0023  -0.0048   9.00   10.3
2024/05/10 13:35:40.000   28.415477506  -16.476430612   655.7197   1   6   0.0025   0.0015   0.0163   0.0001   0.0023  -0.0048  10.00   10.2
2024/05/10 13:35:41.000   28.415477507  -16.476430612   655.7195   1   6   0.0025   0.0015   0.0163   0.0001   0.0023  -0.0048  11.00   10.1
2024/05/10 13:35:42.000   28.415477508  -16.476430612   655.7193   1   6   0.0025   0.0015   0.0163   0.0002   0.0023  -0.0048  12.00   10.0
2024/05/10 13:35:43.000   28.415477509  -16.476430612   655.7191   1   6   0.0025   0.0015   0.0163   0.0002   0.0023  -0.0048  13.00    9.9
2024/05/10 13:35:44.000   28.415477510  -16.476430612   655.7190   1   6   0.0025   0.0015   0.0163   0.0002   0.0023  -0.0048  14.00    9.8
2024/05/10 13:35:45.000   28.415477511  -16.476430612   655.7189   1   6   0.0025   0.0015   0.0163   0.0002   0.0023  -0.0048  15.00    9.7
2024/05/10 13:35:46.000   28.415477511  -16.476430612   655.7188   1   6   0.0025   0.0015   0.0163   0.0002   0.0023  -0.0048 -14.00    9.6
2024/05/10 13:35:47.000   28.415477512  -16.476430612   655.7187   1   6   0.0025   0.0015   0.0163   0.0002   0.0023  -0.0048 -13.00    9.5
2024/05/10 13:35:48.000   28.415477513  -16.476430612   655.7186   1   6   0.0026   0.0015   0.0163   0.0002   0.0023  -0.0048 -12.00    9.3
2024/05/10 13:35:49.000   28.415477514  -16.476430612   655.7184   1   6   0.0026   0.0015   0.0163   0.0002   0.0023  -0.0048 -11.00    9.2
2024/05/10 13:35:50.000   28.415477515  -16.476430612   655.7182   1   6   0.0026   0.0015   0.0163   0.0002   0.0023  -0.0048 -10.00    9.1
2024/05/10 13:35:51.000   28.415477516  -16.476430612   655.7180   1   6   0.0026   0.0015   0.0163   0.0002   0.0023  -0.0048  -9.00    9.0
2024/05/10 13:35:52.000   28.415477518  -16.476430612   655.7177   1   6   0.0026   0.0015   0.0163   0.0002   0.0023  -0.0048  -8.00    8.8
2024/05/10 13:35:53.000   28.415477520  -16.476430612   655.7173   1   6   0.0026   0.0015   0.0163   0.0002   0.0023  -0.0048  -7.00    8.7
2024/05/10 13:35:54.000   28.415477522  -16.476430612   655.7169   1   6   0.0026   0.0015   0.0163   0.0002   0.0023  -0.0048  -6.00    8.5
2024/05/10 13:35:55.000   28.415477525  -16.476430612   655.7163   1   6   0.0026   0.0015   0.0163   0.0002   0.0023  -0.0049  -5.00    8.2
2024/05/10 13:35:56.000   28.415477528  -16.476430612   655.7156   1   6   0.0026   0.0015   0.0163   0.0002   0.0023  -0.0049  -4.00    7.9
2024/05/10 13:35:57.000   28.415477532  -16.476430612   655.7147   1   6   0.0026   0.0015   0.0163   0.0002   0.0023  -0.0049  -3.00    7.5
2024/05/10 13:35:58.000   28.415477536  -16.476430612   655.7137   1   6   0.0026   0.0015   0.0163   0.0002   0.0023  -0.0049  -2.00    6.4
2024/05/10 13:35:59.000   28.415477541  -16.476430612   655.7125   1   6   0.0026   0.0015   0.0163   0.0002   0.0023  -0.0049  -1.00    4.4
2024/05/10 13:36:00.000   28.415477474  -16.476430615   655.7266   1   6   0.0025   0.0015   0.0162   0.0001   0.0023  -0.0048   0.00    8.0
2024/05/10 13:36:01.000   28.415477479  -16.476430615   655.7254   1   6   0.0025   0.0015   0.0163   0.0002   0.0023  -0.0048   1.00    8.3
2024/05/10 13:36:02.000   28.415477484  -16.476430615   655.7242   1   6   0.0025   0.0015   0.0163   0.0002   0.0023  -0.0048   2.00    8.5
2024/05/10 13:36:03.000   28.415477488  -16.476430615   655.7231   1   6   0.0025   0.0015   0.0163   0.0002   0.0023  -0.0048   3.00    8.8
2024/05/10 13:36:04.000   28.415477492  -16.476430616   655.7221   1   6   0.0025   0.0015   0.0163   0.0002   0.0023  -0.0048   4.00    9.1
2024/05/10 13:36:05.000   28.415477496  -16.476430616   655.7213   1   6   0.0025   0.0015   0.0163   0.0002   0.0023  -0.0048   5.00    9.3
2024/05/10 13:36:06.000   28.415477499  -16.476430616   655.7206   1   6   0.0025   0.0015   0.0163   0.0002   0.0023  -0.0048   6.00    9.5
2024/05/10 13:36:07.000   28.415477501  -16.476430616   655.7200   1   6   0.0025   0.0015   0.0163   0.0002   0.0023  -0.0048   7.00    9.7
2024/05/10 13:36:08.000   28.415477503  -16.476430616   655.7195   1   6   0.0025   0.0015   0.0163   0.0002   0.0023  -0.0048   8.00    9.7
2024/05/10 13:36:09.000   28.415477505  -16.476430616   655.7190   1   6   0.0025   0.0015   0.0163   0.0002   0.0023  -0.0048   9.00    9.6
2024/05/10 13:36:10.000   28.415477507  -16.476430616   655.7187   1   6   0.0025   0.0015   0.0163   0.0002   0.0023  -0.0048  10.00    9.6
2024/05/10 13:36:11.000   28.415477508  -16.476430616   655.7184   1   6   0.0025   0.0015   0.0163   0.0002   0.0023  -0.0048  11.00    9.5
2024/05/10 13:36:12.000   28.415477509  -16.476430616   655.7181   1   6   0.0026   0.0015   0.0163   0.0002   0.0023  -0.0048  12.00    9.4
2024/05/10 13:36:13.000   28.415477510  -16.476430616   655.7179   1   6   0.0026   0.0015   0.0163   0.0002   0.0023  -0.0048  13.00    9.3
2024/05/10 13:36:14.000   28.415477511  -16.476430616   655.7178   1   6   0.0026   0.0015   0.0163   0.0002   0.0023  -0.0048  14.00    9.2
2024/05/10 13:36:15.000   28.415477512  -16.476430617   655.7176   1   6   0.0026   0.0015   0.0163   0.0002   0.0023  -0.0048  15.00    9.1
2024/05/10 13:36:16.000   28.415477512  -16.476430617   655.7175   1   6   0.0026   0.0015   0.0163   0.0002   0.0023  -0.0048 -14.00    9.0
2024/05/10 13:36:17.000   28.415477513  -16.476430617   655.7174   1   6   0.0026   0.0015   0.0163   0.0002   0.0023  -0.0048 -13.00    8.9
2024/05/10 13:36:18.000   28.415477514  -16.476430617   655.7172   1   6   0.0026   0.0015   0.0163   0.0002   0.0023  -0.0048 -12.00    8.8
2024/05/10 13:36:19.000   28.415477515  -16.476430617   655.7170   1   6   0.0026   0.0015   0.0163   0.0002   0.0023  -0.0048 -11.00    8.7
2024/05/10 13:36:20.000   28.415477516  -16.476430617   655.7167   1   6   0.0026   0.0015   0.0163   0.0002   0.0023  -0.0048 -10.00    8.6
2024/05/10 13:36:21.000   28.415477518  -16.476430617   655.7165   1   6   0.0026   0.0015   0.0163   0.0002   0.0023  -0.0048  -9.00    8.5
2024/05/10 13:36:22.000   28.415477519  -16.476430617   655.7161   1   6   0.0026   0.0015   0.0163   0.0002   0.0023  -0.0048  -8.00    8.4
2024/05/10 13:36:23.000   28.415477521  -16.476430617   655.7157   1   6   0.0026   0.0015   0.0163   0.0002   0.0023  -0.0049  -7.00    8.3
2024/05/10 13:36:24.000   28.415477523  -16.476430617   655.7152   1   6   0.0026   0.0015   0.0163   0.0002   0.0023  -0.0049  -6.00    8.1
2024/05/10 13:36:25.000   28.415477526  -16.476430617   655.7145   1   6   0.0026   0.0015   0.0163   0.0002   0.0023  -0.0049  -5.00    7.9
2024/05/10 13:36:26.000   28.415477529  -16.476430617   655.7137   1   6   0.0026   0.0015   0.0163   0.0002   0.0023  -0.0049  -4.00    7.7
2024/05/10 13:36:27.000   28.415477533  -16.476430617   655.7127   1   6   0.0026   0.0015   0.0163   0.0002   0.0023  -0.0049  -3.00    7.4
2024/05/10 13:36:28.000   28.415477538  -16.476430617   655.7115   1   6   0.0026   0.0015   0.0163   0.0002   0.0023  -0.0049  -2.00    6.2
2024/05/10 13:36:29.000   28.415477543  -16.476430617   655.7102   1   6   0.0026   0.0015   0.0163   0.0002   0.0023  -0.0049  -1.00    4.3
2024/05/10 13:36:30.000   28.415477474  -16.476430621   655.7243   1   6   0.0025   0.0015   0.0162   0.0002   0.0023  -0.0048   0.00    7.9
2024/05/10 13:36:31.000   28.415477479  -16.476430621   655.7229   1   6   0.0025   0.0015   0.0162   0.0002   0.0023  -0.0048   1.00    8.2
2024/05/10 13:36:32.000   28.415477484  -16.476430621   655.7216   1   6   0.0025   0.0015   0.0162   0.0002   0.0023  -0.0048   2.00    8.6
2024/05/10 13:36:33.000   28.415477488  -16.476430621   655.7205   1   6   0.0025   0.0015   0.0163   0.0002   0.0023  -0.0048   3.00    8.9
2024/05/10 13:36:34.000   28.415477493  -16.476430621   655.7194   1   6   0.0025   0.0015   0.0163   0.0002   0.0023  -0.0048   4.00    9.3
2024/05/10 13:36:35.000   28.415477496  -16.476430621   655.7186   1   6   0.0025   0.0015   0.0163   0.0002   0.0023  -0.0048   5.00    9.5
2024/05/10 13:36:36.000   28.415477499  -16.476430621   655.7179   1   6   0.0025   0.0015   0.0163   0.0002   0.0023  -0.0048   6.00    9.8
2024/05/10 13:36:37.000   28.415477502  -16.476430621   655.7173   1   6   0.0025   0.0015   0.0163   0.0002   0.0023  -0.0048   7.00    9.9
2024/05/10 13:36:38.000   28.415477504  -16.476430620   655.7168   1   6   0.0025   0.0015   0.0163   0.0002   0.0023  -0.0048   8.00    9.9
2024/05/10 13:36:39.000   28.415477506  -16.476430620   655.7164   1   6   0.0026   0.0015   0.0163   0.0002   0.0023  -0.0048   9.00    9.8
2024/05/10 13:36:40.000   28.415477507  -16.476430620   655.7161   1   6   0.0026   0.0015   0.0163   0.0002   0.0023  -0.0048  10.00    9.8
2024/05/10 13:36:41.000   28.415477509  -16.476430620   655.7159   1   6   0.0026   0.0015   0.0163   0.0002   0.0023  -0.0048  11.00    9.7
2024/05/10 13:36:42.000   28.415477510  -16.476430620   655.7157   1   6   0.0026   0.0015   0.0163   0.0002   0.0023  -0.0048  12.00    9.6
2024/05/10 13:36:43.000   28.415477511  -16.476430620   655.7155   1   6   0.0026   0.0015   0.0163   0.0002   0.0023  -0.0048  13.00    9.5
2024/05/10 13:36:44.000   28.415477512  -16.476430620   655.7153   1   6   0.0026   0.0015   0.0163   0.0002   0.0023  -0.0048  14.00    9.4
2024/05/10 13:36:45.000   28.415477513  -16.476430620   655.7152   1   6   0.0026   0.0015   0.0162   0.0003   0.0023  -0.0048  15.00    9.4
2024/05/10 13:36:46.000   28.415477514  -16.476430620   655.7151   1   6   0.0026   0.0015   0.0162   0.0003   0.0023  -0.0048 -14.00    9.3
2024/05/10 13:36:47.000   28.415477514  -16.476430620   655.7150   1   6   0.0026   0.0015   0.0162   0.0003   0.0023  -0.0048 -13.00    9.2
2024/05/10 13:36:48.000   28.415477515  -16.476430620   655.7148   1   6   0.0026   0.0015   0.0162   0.0003   0.0023  -0.0048 -12.00    9.1
2024/05/10 13:36:49.000   28.415477516  -16.476430620   655.7146   1   6   0.0026   0.0015   0.0162   0.0003   0.0023  -0.0048 -11.00    9.0
2024/05/10 13:36:50.000   28.415477517  -16.476430620   655.7144   1   6   0.0026   0.0015   0.0162   0.0003   0.0023  -0.0049 -10.00    8.9
2024/05/10 13:36:51.000   28.415477519  -16.476430620   655.7141   1   6   0.0026   0.0015   0.0162   0.0003   0.0023  -0.0049  -9.00    8.7
2024/05/10 13:36:52.000   28.415477520  -16.476430619   655.7138   1   6   0.0026   0.0015   0.0162   0.0003   0.0023  -0.0049  -8.00    8.6
2024/05/10 13:36:53.000   28.415477522  -16.476430619   655.7134   1   6   0.0026   0.0015   0.0162   0.0003   0.0023  -0.0049  -7.00    8.5
2024/05/10 13:36:54.000   28.415477525  -16.476430619   655.7129   1   6   0.0026   0.0015   0.0162   0.0003   0.0023  -0.0049  -6.00    8.3
2024/05/10 13:36:55.000   28.415477527  -16.476430619   655.7123   1   6   0.0026   0.0015   0.0162   0.0003   0.0023  -0.0049  -5.00    8.1
2024/05/10 13:36:56.000   28.415477531  -16.476430619   655.7115   1   6   0.0026   0.0015   0.0162   0.0003   0.0023  -0.0049  -4.00    7.9
2024/05/10 13:36:57.000   28.415477535  -16.476430619   655.7105   1   6   0.0026   0.0015   0.0162   0.0003   0.0023  -0.0049  -3.00    7.6
2024/05/10 13:36:58.000   28.415477539  -16.476430619   655.7092   1   6   0.0026   0.0015   0.0162   0.0003   0.0023  -0.0049  -2.00    6.7
2024/05/10 13:36:59.000   28.415477545  -16.476430618   655.7078   1   6   0.0026   0.0015   0.0162   0.0003   0.0023  -0.0049  -1.00    4.6
2024/05/10 13:37:00.000   28.415477472  -16.476430624   655.7225   1   6   0.0025   0.0015   0.0162   0.0002   0.0023  -0.0048   0.00    7.4
2024/05/10 13:37:01.000   28.415477476  -16.476430624   655.7211   1   6   0.0025   0.0015   0.0162   0.0002   0.0023  -0.0048   1.00    7.6
2024/05/10 13:37:02.000   28.415477482  -16.476430624   655.7198   1   6   0.0025   0.0015   0.0162   0.0003   0.0023  -0.0048   2.00    7.9
2024/05/10 13:37:03.000   28.415477486  -16.476430624   655.7184   1   6   0.0025   0.0015   0.0162   0.0003   0.0023  -0.0048   3.00    8.2
2024/05/10 13:37:04.000   28.415477490  -16.476430624   655.7172   1   6   0.0025   0.0015   0.0162   0.0003   0.0023  -0.0048   4.00    8.5
2024/05/10 13:37:05.000   28.415477494  -16.476430623   655.7163   1   6   0.0025   0.0015   0.0162   0.0003   0.0023  -0.0048   5.00    8.8
2024/05/10 13:37:06.000   28.415477497  -16.476430623   655.7154   1   6   0.0025   0.0015   0.0162   0.0003   0.0023  -0.0048   6.00    9.0
2024/05/10 13:37:07.000   28.415477500  -16.476430623   655.7148   1   6   0.0026   0.0015   0.0162   0.0003   0.0023  -0.0048   7.00    8.9
2024/05/10 13:37:08.000   28.415477502  -16.476430623   655.7142   1   6   0.0026   0.0015   0.0162   0.0003   0.0023  -0.0048   8.00    8.9
2024/05/10 13:37:09.000   28.415477504  -16.476430623   655.7138   1   6   0.0026   0.0015   0.0162   0.0003   0.0023  -0.0048   9.00    8.9
2024/05/10 13:37:10.000   28.415477506  -16.476430623   655.7134   1   6   0.0026   0.0015   0.0162   0.0003   0.0023  -0.0048  10.00    8.9
2024/05/10 13:37:11.000   28.415477508  -16.476430623   655.7131   1   6   0.0026   0.0015   0.0162   0.0003   0.0023  -0.0048  11.00    8.8
2024/05/10 13:37:12.000   28.415477509  -16.476430623   655.7128   1   6   0.0026   0.0015   0.0162   0.0003   0.0023  -0.0048  12.00    8.8
2024/05/10 13:37:13.000   28.415477510  -16.476430623   655.7126   1   6   0.0026   0.0015   0.0162   0.0003   0.0023  -0.0048  13.00    8.7
2024/05/10 13:37:14.000   28.415477511  -16.476430623   655.7124   1   6   0.0026   0.0015   0.0162   0.0003   0.0023  -0.0049  14.00    8.6
2024/05/10 13:37:15.000   28.415477512  -16.476430623   655.7123   1   6   0.0026   0.0015   0.0162   0.0003   0.0023  -0.0049  15.00    8.5
2024/05/10 13:37:16.000   28.415477512  -16.476430623   655.7122   1   6   0.0026   0.0015   0.0162   0.0003   0.0023  -0.0049 -14.00    8.4
2024/05/10 13:37:17.000   28.415477513  -16.476430623   655.7120   1   6   0.0026   0.0015   0.0162   0.0003   0.0023  -0.0049 -13.00    8.3
2024/05/10 13:37:18.000   28.415477514  -16.476430623   655.7118   1   6   0.0026   0.0015   0.0162   0.0003   0.0023  -0.0049 -12.00    8.3
2024/05/10 13:37:19.000   28.415477515  -16.476430623   655.7117   1   6   0.0026   0.0015   0.0162   0.0003   0.0023  -0.0049 -11.00    8.2
2024/05/10 13:37:20.000   28.415477516  -16.476430623   655.7114   1   6   0.0026   0.0015   0.0162   0.0003   0.0023  -0.0049 -10.00    8.1
2024/05/10 13:37:21.000   28.415477518  -16.476430623   655.7111   1   6   0.0026   0.0015   0.0162   0.0003   0.0023  -0.0049  -9.00    8.0
2024/05/10 13:37:22.000   28.415477520  -16.476430623   655.7107   1   6   0.0026   0.0015   0.0162   0.0003   0.0023  -0.0049  -8.00    7.9
2024/05/10 13:37:23.000   28.415477522  -16.476430623   655.7102   1   6   0.0026   0.0015   0.0162   0.0003   0.0023  -0.0049  -7.00    7.8
2024/05/10 13:37:24.000   28.415477524  -16.476430622   655.7097   1   6   0.0026   0.0015   0.0162   0.0003   0.0023  -0.0049  -6.00    7.6
2024/05/10 13:37:25.000   28.415477527  -16.476430622   655.7090   1   6   0.0026   0.0015   0.0162   0.0003   0.0023  -0.0049  -5.00    7.5
2024/05/10 13:37:26.000   28.415477530  -16.476430622   655.7081   1   6   0.0026   0.0015   0.0162   0.0003   0.0023  -0.0049  -4.00    7.4
2024/05/10 13:37:27.000   28.415477535  -16.476430622   655.7071   1   6   0.0026   0.0015   0.0162   0.0003   0.0023  -0.0049  -3.00    7.1
2024/05/10 13:37:28.000   28.415477540  -16.476430622   655.7059   1   6   0.0026   0.0015   0.0162   0.0003   0.0023  -0.0049  -2.00    6.4
2024/05/10 13:37:29.000   28.415477546  -16.476430622   655.7044   1   6   0.0026   0.0015   0.0162   0.0003   0.0023  -0.0049  -1.00    4.6
2024/05/10 13:37:30.000   28.415477465  -16.476430628   655.7206   1   6   0.0025   0.0015   0.0162   0.0003   0.0023  -0.0048   0.00    6.2
2024/05/10 13:37:31.000   28.415477471  -16.476430627   655.7193   1   6   0.0025   0.0015   0.0162   0.0003   0.0023  -0.0048   1.00    6.5
2024/05/10 13:37:32.000   28.415477476  -16.476430627   655.7180   1   6   0.0025   0.0015   0.0162   0.0003   0.0023  -0.0048   2.00    6.7
2024/05/10 13:37:33.000   28.415477481  -16.476430627   655.7168   1   6   0.0025   0.0015   0.0162   0.0003   0.0023  -0.0048   3.00    7.0
2024/05/10 13:37:34.000   28.415477485  -16.476430627   655.7157   1   6   0.0025   0.0015   0.0162   0.0003   0.0023  -0.0048   4.00    7.3
2024/05/10 13:37:35.000   28.415477489  -16.476430627   655.7149   1   6   0.0026   0.0015   0.0162   0.0003   0.0023  -0.0048   5.00    7.5
2024/05/10 13:37:36.000   28.415477493  -16.476430627   655.7141   1   6   0.0026   0.0015   0.0162   0.0003   0.0023  -0.0048   6.00    7.7
2024/05/10 13:37:37.000   28.415477496  -16.476430627   655.7136   1   6   0.0026   0.0015   0.0162   0.0003   0.0023  -0.0048   7.00    7.9
2024/05/10 13:37:38.000   28.415477498  -16.476430627   655.7131   1   6   0.0026   0.0015   0.0162   0.0003   0.0023  -0.0048   8.00    7.9
2024/05/10 13:37:39.000   28.415477500  -16.476430627   655.7127   1   6   0.0026   0.0015   0.0162   0.0003   0.0023  -0.0049   9.00    7.8
2024/05/10 13:37:40.000   28.415477502  -16.476430627   655.7124   1   6   0.0026   0.0015   0.0162   0.0003   0.0023  -0.0049  10.00    7.8
2024/05/10 13:37:41.000   28.415477504  -16.476430627   655.7121   1   6   0.0026   0.0015   0.0162   0.0003   0.0023  -0.0049  11.00    7.8
2024/05/10 13:37:42.000   28.415477505  -16.476430627   655.7119   1   6   0.0026   0.0015   0.0162   0.0003   0.0023  -0.0049  12.00    7.8
2024/05/10 13:37:43.000   28.415477506  -16.476430627   655.7117   1   6   0.0026   0.0015   0.0162   0.0003   0.0023  -0.0049  13.00    7.7
2024/05/10 13:37:44.000   28.415477507  -16.476430626   655.7115   1   6   0.0026   0.0015   0.0162   0.0003   0.0023  -0.0049  14.00    7.7
2024/05/10 13:37:45.000   28.415477508  -16.476430626   655.7114   1   6   0.0026   0.0015   0.0162   0.0003   0.0023  -0.0049  15.00    7.6
2024/05/10 13:37:46.000   28.415477509  -16.476430626   655.7113   1   6   0.0026   0.0015   0.0162   0.0003   0.0023  -0.0049 -14.00    7.6
2024/05/10 13:37:47.000   28.415477510  -16.476430626   655.7111   1   6   0.0026   0.0015   0.0162   0.0003   0.0023  -0.0049 -13.00    7.5
2024/05/10 13:37:48.000   28.415477511  -16.476430626   655.7110   1   6   0.0026   0.0015   0.0162   0.0003   0.0023  -0.0049 -12.00    7.4
2024/05/10 13:37:49.000   28.415477512  -16.476430626   655.7107   1   6   0.0026   0.0015   0.0162   0.0003   0.0023  -0.0049 -11.00    7.4
2024/05/10 13:37:50.000   28.415477514  -16.476430626   655.7105   1   6   0.0026   0.0015   0.0162   0.0003   0.0023  -0.0049 -10.00    7.3
2024/05/10 13:37:51.000   28.415477515  -16.476430626   655.7102   1   6   0.0026   0.0015   0.0162   0.0003   0.0023  -0.0049  -9.00    7.3
2024/05/10 13:37:52.000   28.415477517  -16.476430626   655.7098   1   6   0.0026   0.0015   0.0162   0.0003   0.0023  -0.0049  -8.00    7.3
2024/05/10 13:37:53.000   28.415477519  -16.476430626   655.7094   1   6   0.0026   0.0015   0.0162   0.0003   0.0023  -0.0049  -7.00    7.2
2024/05/10 13:37:54.000   28.415477522  -16.476430626   655.7088   1   6   0.0026   0.0015   0.0162   0.0003   0.0023  -0.0049  -6.00    7.2
2024/05/10 13:37:55.000   28.415477525  -16.476430626   655.7082   1   6   0.0026   0.0015   0.0162   0.0003   0.0023  -0.0049  -5.00    7.2
2024/05/10 13:37:56.000   28.415477529  -16.476430626   655.7074   1   6   0.0026   0.0015   0.0162   0.0003   0.0023  -0.0049  -4.00    7.1
2024/05/10 13:37:57.000   28.415477534  -16.476430626   655.7065   1   6   0.0026   0.0015   0.0162   0.0003   0.0023  -0.0049  -3.00    7.0
2024/05/10 13:37:58.000   28.415477539  -16.476430625   655.7054   1   6   0.0026   0.0015   0.0162   0.0003   0.0023  -0.0049  -2.00    6.1
2024/05/10 13:37:59.000   28.415477545  -16.476430625   655.7041   1   6   0.0026   0.0015   0.0162   0.0004   0.0023  -0.0049  -1.00    4.6
2024/05/10 13:38:00.000   28.415477471  -16.476430631   655.7188   1   6   0.0025   0.0015   0.0162   0.0003   0.0023  -0.0048   0.00    6.9
2024/05/10 13:38:01.000   28.415477477  -16.476430631   655.7176   1   6   0.0025   0.0015   0.0162   0.0003   0.0023  -0.0048   1.00    7.2
2024/05/10 13:38:02.000   28.415477482  -16.476430631   655.7164   1   6   0.0025   0.0015   0.0162   0.0003   0.0023  -0.0048   2.00    7.6
2024/05/10 13:38:03.000   28.415477487  -16.476430631   655.7152   1   6   0.0025   0.0015   0.0162   0.0003   0.0023  -0.0048   3.00    8.0
2024/05/10 13:38:04.000   28.415477492  -16.476430631   655.7143   1   6   0.0026   0.0015   0.0162   0.0003   0.0023  -0.0048   4.00    8.3
2024/05/10 13:38:05.000   28.415477496  -16.476430630   655.7135   1   6   0.0026   0.0015   0.0162   0.0003   0.0023  -0.0048   5.00    8.7
2024/05/10 13:38:06.000   28.415477499  -16.476430630   655.7130   1   6   0.0026   0.0015   0.0162   0.0003   0.0023  -0.0048   6.00    8.9
2024/05/10 13:38:07.000   28.415477501  -16.476430630   655.7124   1   6   0.0026   0.0015   0.0162   0.0003   0.0023  -0.0049   7.00    9.1
2024/05/10 13:38:08.000   28.415477504  -16.476430630   655.7120   1   6   0.0026   0.0015   0.0162   0.0003   0.0023  -0.0049   8.00    9.2
2024/05/10 13:38:09.000   28.415477506  -16.476430630   655.7116   1   6   0.0026   0.0015   0.0162   0.0003   0.0023  -0.0049   9.00    9.2
2024/05/10 13:38:10.000   28.415477508  -16.476430630   655.7113   1   6   0.0026   0.0015   0.0162   0.0003   0.0023  -0.0049  10.00    9.2
2024/05/10 13:38:11.000   28.415477509  -16.476430630   655.7110   1   6   0.0026   0.0015   0.0162   0.0003   0.0023  -0.0049  11.00    9.2
2024/05/10 13:38:12.000   28.415477510  -16.476430630   655.7108   1   6   0.0026   0.0015   0.0162   0.0003   0.0023  -0.0049  12.00    9.1
2024/05/10 13:38:13.000   28.415477512  -16.476430629   655.7107   1   6   0.0026   0.0015   0.0162   0.0003   0.0023  -0.0049  13.00    9.0
2024/05/10 13:38:14.000   28.415477512  -16.476430629   655.7105   1   6   0.0026   0.0015   0.0162   0.0003   0.0023  -0.0049  14.00    9.0
2024/05/10 13:38:15.000   28.415477513  -16.476430629   655.7104   1   6   0.0026   0.0015   0.0162   0.0003   0.0023  -0.0049  15.00    8.9
2024/05/10 13:38:16.000   28.415477514  -16.476430629   655.7103   1   6   0.0026   0.0015   0.0162   0.0003   0.0023  -0.0049 -14.00    8.8
2024/05/10 13:38:17.000   28.415477515  -16.476430629   655.7102   1   6   0.0026   0.0015   0.0162   0.0004   0.0023  -0.0049 -13.00    8.7
2024/05/10 13:38:18.000   28.415477516  -16.476430629   655.7101   1   6   0.0026   0.0015   0.0162   0.0004   0.0023  -0.0049 -12.00    8.6
2024/05/10 13:38:19.000   28.415477517  -16.476430629   655.7099   1   6   0.0026   0.0015   0.0162   0.0004   0.0023  -0.0049 -11.00    8.5
2024/05/10 13:38:20.000   28.415477518  -16.476430629   655.7097   1   6   0.0026   0.0015   0.0162   0.0004   0.0023  -0.0049 -10.00    8.4
2024/05/10 13:38:21.000   28.415477520  -16.476430629   655.7095   1   6   0.0026   0.0015   0.0162   0.0004   0.0023  -0.0049  -9.00    8.3
2024/05/10 13:38:22.000   28.415477522  -16.476430629   655.7092   1   6   0.0026   0.0015   0.0162   0.0004   0.0023  -0.0049  -8.00    8.2
2024/05/10 13:38:23.000   28.415477524  -16.476430629   655.7088   1   6   0.0026   0.0015   0.0162   0.0004   0.0023  -0.0049  -7.00    8.1
2024/05/10 13:38:24.000   28.415477526  -16.476430629   655.7084   1   6   0.0026   0.0015   0.0162   0.0004   0.0023  -0.0049  -6.00    8.0
2024/05/10 13:38:25.000   28.415477529  -16.476430629   655.7078   1   6   0.0026   0.0015   0.0162   0.0004   0.0023  -0.0049  -5.00    7.9
2024/05/10 13:38:26.000   28.415477533  -16.476430628   655.7072   1   6   0.0026   0.0015   0.0162   0.0004   0.0023  -0.0049  -4.00    7.7
2024/05/10 13:38:27.000   28.415477537  -16.476430628   655.7064   1   6   0.0026   0.0015   0.0162   0.0004   0.0023  -0.0049  -3.00    7.4
2024/05/10 13:38:28.000   28.415477542  -16.476430628   655.7054   1   6   0.0026   0.0015   0.0162   0.0004   0.0023  -0.0049  -2.00    7.0
2024/05/10 13:38:29.000   28.415477547  -16.476430627   655.7044   1   6   0.0026   0.0015   0.0162   0.0004   0.0023  -0.0049  -1.00    5.0
2024/05/10 13:38:30.000   28.415477469  -16.476430634   655.7199   1   6   0.0025   0.0015   0.0162   0.0003   0.0023  -0.0048   0.00    5.1
2024/05/10 13:38:31.000   28.415477474  -16.476430634   655.7188   1   6   0.0025   0.0015   0.0162   0.0003   0.0023  -0.0048   1.00    5.3
2024/05/10 13:38:32.000   28.415477480  -16.476430634   655.7177   1   6   0.0025   0.0015   0.0162   0.0003   0.0023  -0.0048   2.00    5.5
2024/05/10 13:38:33.000   28.415477485  -16.476430634   655.7167   1   6   0.0026   0.0015   0.0162   0.0003   0.0023  -0.0048   3.00    5.6
2024/05/10 13:38:34.000   28.415477490  -16.476430633   655.7158   1   6   0.0026   0.0016   0.0162   0.0004   0.0023  -0.0048   4.00    5.9
2024/05/10 13:38:35.000   28.415477494  -16.476430633   655.7149   1   6   0.0026   0.0016   0.0162   0.0004   0.0023  -0.0049   5.00    6.1
2024/05/10 13:38:36.000   28.415477498  -16.476430633   655.7142   1   6   0.0026   0.0016   0.0162   0.0004   0.0023  -0.0049   6.00    6.2
2024/05/10 13:38:37.000   28.415477501  -16.476430633   655.7136   1   6   0.0026   0.0016   0.0162   0.0004   0.0023  -0.0049   7.00    6.4
2024/05/10 13:38:38.000   28.415477504  -16.476430633   655.7131   1   6   0.0026   0.0016   0.0162   0.0004   0.0023  -0.0049   8.00    6.5
2024/05/10 13:38:39.000   28.415477506  -16.476430632   655.7126   1   6   0.0026   0.0016   0.0162   0.0004   0.0023  -0.0049   9.00    6.6
2024/05/10 13:38:40.000   28.415477508  -16.476430632   655.7123   1   6   0.0026   0.0016   0.0162   0.0004   0.0023  -0.0049  10.00    6.6
2024/05/10 13:38:41.000   28.415477510  -16.476430632   655.7120   1   6   0.0026   0.0016   0.0162   0.0004   0.0023  -0.0049  11.00    6.7
2024/05/10 13:38:42.000   28.415477511  -16.476430632   655.7117   1   6   0.0026   0.0016   0.0162   0.0004   0.0023  -0.0049  12.00    6.7
2024/05/10 13:38:43.000   28.415477512  -16.476430632   655.7115   1   6   0.0026   0.0015   0.0162   0.0004   0.0023  -0.0049  13.00    6.7
2024/05/10 13:38:44.000   28.415477514  -16.476430632   655.7113   1   6   0.0026   0.0015   0.0162   0.0004   0.0023  -0.0049  14.00    6.7
2024/05/10 13:38:45.000   28.415477515  -16.476430632   655.7111   1   6   0.0026   0.0015   0.0162   0.0004   0.0023  -0.0049  15.00    6.6
2024/05/10 13:38:46.000   28.415477516  -16.476430632   655.7110   1   6   0.0026   0.0015   0.0162   0.0004   0.0023  -0.0049 -14.00    6.6
2024/05/10 13:38:47.000   28.415477517  -16.476430632   655.7108   1   6   0.0026   0.0015   0.0162   0.0004   0.0023  -0.0049 -13.00    6.5
2024/05/10 13:38:48.000   28.415477518  -16.476430632   655.7106   1   6   0.0026   0.0015   0.0162   0.0004   0.0023  -0.0049 -12.00    6.5
2024/05/10 13:38:49.000   28.415477519  -16.476430632   655.7104   1   6   0.0026   0.0015   0.0162   0.0004   0.0023  -0.0049 -11.00    6.5
2024/05/10 13:38:50.000   28.415477521  -16.476430632   655.7101   1   6   0.0026   0.0015   0.0162   0.0004   0.0023  -0.0049 -10.00    6.5
2024/05/10 13:38:51.000   28.415477522  -16.476430632   655.7098   1   6   0.0026   0.0015   0.0162   0.0004   0.0023  -0.0049  -9.00    6.5
2024/05/10 13:38:52.000   28.415477524  -16.476430632   655.7094   1   6   0.0026   0.0015   0.0162   0.0004   0.0023  -0.0049  -8.00    6.6
2024/05/10 13:38:53.000   28.415477527  -16.476430632   655.7090   1   6   0.0026   0.0015   0.0162   0.0004   0.0023  -0.0049  -7.00    6.7
2024/05/10 13:38:54.000   28.415477530  -16.476430631   655.7084   1   6   0.0026   0.0015   0.0162   0.0004   0.0023  -0.0049  -6.00    6.9
2024/05/10 13:38:55.000   28.415477533  -16.476430631   655.7078   1   6   0.0026   0.0015   0.0162   0.0004   0.0023  -0.0049  -5.00    7.2
2024/05/10 13:38:56.000   28.415477537  -16.476430631   655.7071   1   6   0.0026   0.0015   0.0162   0.0004   0.0023  -0.0049  -4.00    7.5
2024/05/10 13:38:57.000   28.415477541  -16.476430631   655.7062   1   6   0.0026   0.0015   0.0162   0.0004   0.0023  -0.0049  -3.00    7.4
2024/05/10 13:38:58.000   28.415477546  -16.476430631   655.7053   1   6   0.0026   0.0015   0.0162   0.0004   0.0023  -0.0049  -2.00    6.9
2024/05/10 13:38:59.000   28.415477551  -16.476430630   655.7042   1   6   0.0026   0.0015   0.0162   0.0004   0.0023  -0.0049  -1.00    4.9
2024/05/10 13:39:00.000   28.415477485  -16.476430636   655.7172   1   6   0.0025   0.0015   0.0161   0.0004   0.0023  -0.0048   0.00    4.5
2024/05/10 13:39:01.000   28.415477490  -16.476430636   655.7163   1   6   0.0026   0.0016   0.0161   0.0004   0.0023  -0.0048   1.00    4.7
2024/05/10 13:39:02.000   28.415477494  -16.476430636   655.7153   1   6   0.0026   0.0016   0.0162   0.0004   0.0023  -0.0048   2.00    4.8
2024/05/10 13:39:03.000   28.415477499  -16.476430635   655.7144   1   6   0.0026   0.0016   0.0162   0.0004   0.0023  -0.0049   3.00    4.9
2024/05/10 13:39:04.000   28.415477503  -16.476430635   655.7137   1   6   0.0026   0.0016   0.0162   0.0004   0.0023  -0.0049   4.00    5.0
2024/05/10 13:39:05.000   28.415477506  -16.476430635   655.7130   1   6   0.0026   0.0016   0.0162   0.0004   0.0023  -0.0049   5.00    5.1
2024/05/10 13:39:06.000   28.415477510  -16.476430634   655.7124   1   6   0.0026   0.0016   0.0162   0.0004   0.0023  -0.0049   6.00    5.2
2024/05/10 13:39:07.000   28.415477512  -16.476430634   655.7119   1   6   0.0026   0.0016   0.0162   0.0004   0.0023  -0.0049   7.00    5.3
2024/05/10 13:39:08.000   28.415477515  -16.476430634   655.7114   1   6   0.0026   0.0016   0.0162   0.0004   0.0023  -0.0049   8.00    5.3
2024/05/10 13:39:09.000   28.415477516  -16.476430634   655.7111   1   6   0.0026   0.0016   0.0162   0.0004   0.0023  -0.0049   9.00    5.3
2024/05/10 13:39:10.000   28.415477518  -16.476430634   655.7108   1   6   0.0026   0.0016   0.0162   0.0004   0.0023  -0.0049  10.00    5.2
2024/05/10 13:39:11.000   28.415477520  -16.476430634   655.7105   1   6   0.0026   0.0016   0.0162   0.0004   0.0023  -0.0049  11.00    5.1
2024/05/10 13:39:12.000   28.415477521  -16.476430633   655.7103   1   6   0.0026   0.0016   0.0162   0.0004   0.0023  -0.0049  12.00    5.1
2024/05/10 13:39:13.000   28.415477522  -16.476430633   655.7101   1   6   0.0026   0.0016   0.0162   0.0004   0.0023  -0.0049  13.00    5.0
2024/05/10 13:39:14.000   28.415477523  -16.476430633   655.7100   1   6   0.0026   0.0016   0.0162   0.0004   0.0023  -0.0049  14.00    4.8
2024/05/10 13:39:15.000   28.415477524  -16.476430633   655.7099   1   6   0.0026   0.0016   0.0162   0.0004   0.0023  -0.0049  15.00    4.7
2024/05/10 13:39:16.000   28.415477525  -16.476430633   655.7098   1   6   0.0026   0.0016   0.0162   0.0004   0.0023  -0.0049 -14.00    4.6
2024/05/10 13:39:17.000   28.415477525  -16.476430633   655.7097   1   6   0.0026   0.0016   0.0162   0.0004   0.0023  -0.0049 -13.00    4.4
2024/05/10 13:39:18.000   28.415477526  -16.476430633   655.7095   1   6   0.0026   0.0016   0.0162   0.0004   0.0023  -0.0049 -12.00    4.3
2024/05/10 13:39:19.000   28.415477527  -16.476430633   655.7094   1   6   0.0026   0.0016   0.0161   0.0004   0.0023  -0.0049 -11.00    4.2
2024/05/10 13:39:20.000   28.415477529  -16.476430633   655.7092   1   6   0.0026   0.0015   0.0161   0.0004   0.0023  -0.0049 -10.00    4.1
2024/05/10 13:39:21.000   28.415477530  -16.476430633   655.7090   1   6   0.0026   0.0015   0.0161   0.0004   0.0023  -0.0049  -9.00    3.9
2024/05/10 13:39:22.000   28.415477532  -16.476430633   655.7087   1   6   0.0026   0.0015   0.0161   0.0004   0.0023  -0.0049  -8.00    3.8
2024/05/10 13:39:23.000   28.415477534  -16.476430632   655.7083   1   6   0.0026   0.0015   0.0161   0.0004   0.0023  -0.0049  -7.00    3.8
2024/05/10 13:39:24.000   28.415477536  -16.476430632   655.7080   1   6   0.0026   0.0015   0.0161   0.0004   0.0023  -0.0049  -6.00    3.7
2024/05/10 13:39:25.000   28.415477539  -16.476430632   655.7075   1   6   0.0026   0.0015   0.0161   0.0004   0.0023  -0.0049  -5.00    3.6
2024/05/10 13:39:26.000   28.415477549  -16.476430630   655.7031   1   7   0.0026   0.0015   0.0161   0.0004   0.0023  -0.0049  -4.00    3.4
2024/05/10 13:39:27.000   28.415477552  -16.476430630   655.7027   1   7   0.0026   0.0015   0.0161   0.0004   0.0023  -0.0049  -3.00    3.4
2024/05/10 13:39:28.000   28.415477556  -16.476430629   655.7021   1   7   0.0026   0.0015   0.0161   0.0004   0.0023  -0.0049  -2.00    3.4
2024/05/10 13:39:29.000   28.415477560  -16.476430629   655.7018   1   7   0.0026   0.0016   0.0161   0.0004   0.0023  -0.0049  -1.00    3.4
2024/05/10 13:39:30.000   28.415477564  -16.476430629   655.7014   1   7   0.0026   0.0016   0.0161   0.0004   0.0023  -0.0049   0.00    9.7
2024/05/10 13:39:31.000   28.415477563  -16.476430629   655.7022   1   7   0.0026   0.0016   0.0162   0.0004   0.0023  -0.0049   1.00    7.4
2024/05/10 13:39:32.000   28.415477561  -16.476430629   655.7029   1   7   0.0026   0.0016   0.0162   0.0004   0.0023  -0.0049   2.00    4.3
2024/05/10 13:39:33.000   28.415477751  -16.476430573   655.6259   1   7   0.0020   0.0015   0.0149  -0.0008   0.0028  -0.0037   3.00   37.5
2024/05/10 13:39:34.000   28.415477751  -16.476430572   655.6259   1   7   0.0020   0.0015   0.0149  -0.0008   0.0028  -0.0037   4.00   37.5
2024/05/10 13:39:35.000   28.415477751  -16.476430572   655.6263   1   7   0.0020   0.0015   0.0149  -0.0008   0.0028  -0.0037   5.00   37.5
2024/05/10 13:39:36.000   28.415477751  -16.476430572   655.6265   1   7   0.0020   0.0015   0.0150  -0.0008   0.0028  -0.0037   6.00   37.4
2024/05/10 13:39:37.000   28.415477751  -16.476430572   655.6267   1   7   0.0020   0.0015   0.0150  -0.0008   0.0028  -0.0037   7.00   37.4
2024/05/10 13:39:38.000   28.415477750  -16.476430572   655.6269   1   7   0.0020   0.0015   0.0150  -0.0007   0.0028  -0.0037   8.00   37.4
2024/05/10 13:39:39.000   28.415477750  -16.476430572   655.6272   1   7   0.0020   0.0015   0.0150  -0.0007   0.0028  -0.0037   9.00   37.3
2024/05/10 13:39:40.000   28.415477750  -16.476430572   655.6273   1   7   0.0020   0.0015   0.0150  -0.0007   0.0028  -0.0037  10.00   37.3
2024/05/10 13:39:41.000   28.415477750  -16.476430572   655.6274   1   7   0.0020   0.0015   0.0150  -0.0007   0.0028  -0.0037  11.00   37.2
2024/05/10 13:39:42.000   28.415477750  -16.476430571   655.6276   1   7   0.0020   0.0015   0.0150  -0.0007   0.0028  -0.0037  12.00   37.2
2024/05/10 13:39:43.000   28.415477750  -16.476430571   655.6277   1   7   0.0020   0.0015   0.0150  -0.0007   0.0028  -0.0037  13.00   37.1
2024/05/10 13:39:44.000   28.415477750  -16.476430571   655.6278   1   7   0.0020   0.0015   0.0149  -0.0007   0.0028  -0.0037  14.00   37.1
2024/05/10 13:39:45.000   28.415477750  -16.476430571   655.6279   1   7   0.0020   0.0015   0.0149  -0.0007   0.0028  -0.0037  15.00   37.0
2024/05/10 13:39:46.000   28.415477750  -16.476430572   655.6281   1   7   0.0020   0.0015   0.0149  -0.0007   0.0028  -0.0037 -14.00   37.0
2024/05/10 13:39:47.000   28.415477750  -16.476430572   655.6282   1   7   0.0020   0.0015   0.0149  -0.0007   0.0028  -0.0037 -13.00   36.9
2024/05/10 13:39:48.000   28.415477750  -16.476430572   655.6283   1   7   0.0020   0.0015   0.0149  -0.0007   0.0028  -0.0037 -12.00   36.9
2024/05/10 13:39:49.000   28.415477750  -16.476430572   655.6284   1   7   0.0020   0.0015   0.0149  -0.0007   0.0028  -0.0037 -11.00   36.8
2024/05/10 13:39:50.000   28.415477750  -16.476430572   655.6285   1   7   0.0020   0.0015   0.0149  -0.0007   0.0028  -0.0037 -10.00   36.7
2024/05/10 13:39:51.000   28.415477749  -16.476430572   655.6287   1   7   0.0020   0.0015   0.0149  -0.0007   0.0028  -0.0037  -9.00   36.7
2024/05/10 13:39:52.000   28.415477749  -16.476430571   655.6289   1   7   0.0020   0.0015   0.0149  -0.0007   0.0028  -0.0037  -8.00   36.7
2024/05/10 13:39:53.000   28.415477749  -16.476430571   655.6291   1   7   0.0020   0.0015   0.0149  -0.0007   0.0028  -0.0037  -7.00   36.6
2024/05/10 13:39:54.000   28.415477749  -16.476430571   655.6293   1   7   0.0020   0.0015   0.0149  -0.0007   0.0028  -0.0037  -6.00   36.6
2024/05/10 13:39:55.000   28.415477749  -16.476430571   655.6296   1   7   0.0020   0.0015   0.0149  -0.0007   0.0028  -0.0037  -5.00   36.6
2024/05/10 13:39:56.000   28.415477749  -16.476430571   655.6299   1   7   0.0020   0.0015   0.0149  -0.0007   0.0028  -0.0037  -4.00   36.6
2024/05/10 13:39:57.000   28.415477748  -16.476430570   655.6303   1   7   0.0020   0.0015   0.0149  -0.0007   0.0028  -0.0037  -3.00   36.6
2024/05/10 13:39:58.000   28.415477748  -16.476430570   655.6307   1   7   0.0020   0.0015   0.0149  -0.0007   0.0028  -0.0037  -2.00   36.6
2024/05/10 13:39:59.000   28.415477748  -16.476430569   655.6311   1   7   0.0020   0.0015   0.0150  -0.0007   0.0028  -0.0037  -1.00   36.6
2024/05/10 13:40:00.000   28.415477748  -16.476430569   655.6313   1   7   0.0020   0.0015   0.0150  -0.0007   0.0028  -0.0037   0.00   36.5
2024/05/10 13:40:01.000   28.415477747  -16.476430569   655.6315   1   7   0.0020   0.0015   0.0150  -0.0007   0.0028  -0.0037   1.00   36.5
2024/05/10 13:40:02.000   28.415477747  -16.476430569   655.6319   1   7   0.0020   0.0015   0.0150  -0.0007   0.0028  -0.0038   2.00   36.5
2024/05/10 13:40:03.000   28.415477747  -16.476430569   655.6320   1   7   0.0020   0.0015   0.0150  -0.0007   0.0028  -0.0038   3.00   36.5
2024/05/10 13:40:04.000   28.415477746  -16.476430569   655.6321   1   7   0.0020   0.0015   0.0150  -0.0007   0.0028  -0.0038   4.00   36.4
2024/05/10 13:40:05.000   28.415477746  -16.476430569   655.6322   1   7   0.0020   0.0015   0.0150  -0.0007   0.0028  -0.0038   5.00   36.4
2024/05/10 13:40:06.000   28.415477746  -16.476430569   655.6323   1   7   0.0020   0.0015   0.0150  -0.0007   0.0028  -0.0038   6.00   36.3
2024/05/10 13:40:07.000   28.415477746  -16.476430569   655.6324   1   7   0.0020   0.0015   0.0150  -0.0007   0.0028  -0.0038   7.00   36.3
2024/05/10 13:40:08.000   28.415477746  -16.476430569   655.6326   1   7   0.0020   0.0015   0.0150  -0.0007   0.0028  -0.0038   8.00   36.2
2024/05/10 13:40:09.000   28.415477746  -16.476430569   655.6326   1   7   0.0020   0.0015   0.0150  -0.0007   0.0028  -0.0038   9.00   36.2
2024/05/10 13:40:10.000   28.415477746  -16.476430569   655.6327   1   7   0.0020   0.0015   0.0150  -0.0007   0.0028  -0.0038  10.00   36.1
2024/05/10 13:40:11.000   28.415477746  -16.476430569   655.6328   1   7   0.0020   0.0015   0.0150  -0.0007   0.0028  -0.0038  11.00   36.1
2024/05/10 13:40:12.000   28.415477745  -16.476430569   655.6329   1   7   0.0020   0.0015   0.0150  -0.0007   0.0028  -0.0038  12.00   36.0
2024/05/10 13:40:13.000   28.415477745  -16.476430569   655.6329   1   7   0.0020   0.0015   0.0150  -0.0007   0.0028  -0.0038  13.00   35.9
2024/05/10 13:40:14.000   28.415477745  -16.476430569   655.6330   1   7   0.0020   0.0015   0.0150  -0.0007   0.0028  -0.0038  14.00   35.9
2024/05/10 13:40:15.000   28.415477745  -16.476430569   655.6331   1   7   0.0020   0.0015   0.0150  -0.0007   0.0028  -0.0038  15.00   35.8
2024/05/10 13:40:16.000   28.415477745  -16.476430570   655.6331   1   7   0.0020   0.0015   0.0150  -0.0007   0.0028  -0.0038 -14.00   35.7
2024/05/10 13:40:17.000   28.415477745  -16.476430570   655.6332   1   7   0.0020   0.0015   0.0150  -0.0007   0.0028  -0.0038 -13.00   35.7
2024/05/10 13:40:18.000   28.415477745  -16.476430570   655.6332   1   7   0.0020   0.0015   0.0150  -0.0007   0.0028  -0.0038 -12.00   35.6
2024/05/10 13:40:19.000   28.415477745  -16.476430570   655.6333   1   7   0.0020   0.0015   0.0150  -0.0007   0.0028  -0.0038 -11.00   35.5
2024/05/10 13:40:20.000   28.415477745  -16.476430570   655.6334   1   7   0.0020   0.0015   0.0150  -0.0007   0.0028  -0.0038 -10.00   35.5
2024/05/10 13:40:21.000   28.415477745  -16.476430570   655.6334   1   7   0.0020   0.0015   0.0150  -0.0007   0.0028  -0.0038  -9.00   35.4
2024/05/10 13:40:22.000   28.415477745  -16.476430570   655.6335   1   7   0.0020   0.0015   0.0150  -0.0007   0.0028  -0.0038  -8.00   35.3
2024/05/10 13:40:23.000   28.415477745  -16.476430570   655.6336   1   7   0.0020   0.0015   0.0150  -0.0007   0.0028  -0.0038  -7.00   35.3
2024/05/10 13:40:24.000   28.415477745  -16.476430571   655.6337   1   7   0.0020   0.0015   0.0150  -0.0007   0.0028  -0.0038  -6.00   35.2
2024/05/10 13:40:25.000   28.415477745  -16.476430571   655.6337   1   7   0.0020   0.0015   0.0150  -0.0007   0.0028  -0.0038  -5.00   35.1
2024/05/10 13:40:26.000   28.415477745  -16.476430571   655.6338   1   7   0.0021   0.0015   0.0150  -0.0007   0.0028  -0.0038  -4.00   35.1
2024/05/10 13:40:27.000   28.415477744  -16.476430571   655.6339   1   7   0.0021   0.0015   0.0150  -0.0007   0.0028  -0.0038  -3.00   35.0
2024/05/10 13:40:28.000   28.415477744  -16.476430572   655.6340   1   7   0.0021   0.0015   0.0150  -0.0007   0.0028  -0.0038  -2.00   34.9
2024/05/10 13:40:29.000   28.415477744  -16.476430572   655.6341   1   7   0.0021   0.0015   0.0150  -0.0007   0.0028  -0.0038  -1.00   34.8
2024/05/10 13:40:30.000   28.415477744  -16.476430572   655.6343   1   7   0.0021   0.0015   0.0151  -0.0007   0.0028  -0.0038   0.00   34.8
2024/05/10 13:40:31.000   28.415477743  -16.476430572   655.6345   1   7   0.0021   0.0015   0.0151  -0.0007   0.0028  -0.0038   1.00   34.7
2024/05/10 13:40:32.000   28.415477743  -16.476430573   655.6348   1   7   0.0021   0.0015   0.0151  -0.0007   0.0028  -0.0038   2.00   34.7
2024/05/10 13:40:33.000   28.415477742  -16.476430573   655.6349   1   7   0.0021   0.0015   0.0151  -0.0007   0.0028  -0.0038   3.00   34.6
2024/05/10 13:40:34.000   28.415477742  -16.476430573   655.6350   1   7   0.0021   0.0015   0.0151  -0.0007   0.0028  -0.0038   4.00   34.5
2024/05/10 13:40:35.000   28.415477742  -16.476430573   655.6353   1   7   0.0021   0.0015   0.0151  -0.0007   0.0028  -0.0038   5.00   34.5
2024/05/10 13:40:36.000   28.415477742  -16.476430574   655.6355   1   7   0.0021   0.0015   0.0151  -0.0007   0.0028  -0.0038   6.00   34.4
2024/05/10 13:40:37.000   28.415477742  -16.476430574   655.6356   1   7   0.0021   0.0015   0.0151  -0.0007   0.0028  -0.0038   7.00   34.3
2024/05/10 13:40:38.000   28.415477742  -16.476430574   655.6358   1   7   0.0021   0.0015   0.0151  -0.0007   0.0028  -0.0038   8.00   34.2
2024/05/10 13:40:39.000   28.415477741  -16.476430574   655.6360   1   7   0.0021   0.0015   0.0151  -0.0007   0.0028  -0.0038   9.00   34.2
2024/05/10 13:40:40.000   28.415477741  -16.476430574   655.6361   1   7   0.0021   0.0015   0.0151  -0.0007   0.0028  -0.0038  10.00   34.1
2024/05/10 13:40:41.000   28.415477741  -16.476430574   655.6363   1   7   0.0021   0.0015   0.0151  -0.0007   0.0028  -0.0038  11.00   34.0
2024/05/10 13:40:42.000   28.415477741  -16.476430574   655.6364   1   7   0.0021   0.0015   0.0151  -0.0007   0.0028  -0.0038  12.00   34.0
2024/05/10 13:40:43.000   28.415477741  -16.476430575   655.6365   1   7   0.0021   0.0015   0.0151  -0.0007   0.0028  -0.0038  13.00   33.9
2024/05/10 13:40:44.000   28.415477741  -16.476430575   655.6366   1   7   0.0021   0.0015   0.0151  -0.0007   0.0028  -0.0038  14.00   33.8
2024/05/10 13:40:45.000   28.415477741  -16.476430575   655.6367   1   7   0.0021   0.0015   0.0151  -0.0007   0.0028  -0.0038  15.00   33.8
2024/05/10 13:40:46.000   28.415477741  -16.476430575   655.6368   1   7   0.0021   0.0015   0.0151  -0.0007   0.0028  -0.0038 -14.00   33.7
2024/05/10 13:40:47.000   28.415477741  -16.476430575   655.6368   1   7   0.0021   0.0015   0.0151  -0.0007   0.0028  -0.0038 -13.00   33.6
2024/05/10 13:40:48.000   28.415477741  -16.476430575   655.6369   1   7   0.0021   0.0015   0.0151  -0.0007   0.0028  -0.0038 -12.00   33.5
2024/05/10 13:40:49.000   28.415477741  -16.476430575   655.6370   1   7   0.0021   0.0015   0.0151  -0.0007   0.0028  -0.0038 -11.00   33.5
2024/05/10 13:40:50.000   28.415477741  -16.476430575   655.6371   1   7   0.0021   0.0015   0.0151  -0.0007   0.0028  -0.0038 -10.00   33.4
2024/05/10 13:40:51.000   28.415477741  -16.476430575   655.6372   1   7   0.0021   0.0015   0.0151  -0.0007   0.0028  -0.0038  -9.00   33.3
2024/05/10 13:40:52.000   28.415477741  -16.476430575   655.6374   1   7   0.0021   0.0015   0.0151  -0.0007   0.0028  -0.0039  -8.00   33.3
2024/05/10 13:40:53.000   28.415477741  -16.476430576   655.6375   1   7   0.0021   0.0015   0.0151  -0.0007   0.0028  -0.0039  -7.00   33.2
2024/05/10 13:40:54.000   28.415477740  -16.476430576   655.6377   1   7   0.0021   0.0015   0.0151  -0.0007   0.0028  -0.0039  -6.00   33.1
2024/05/10 13:40:55.000   28.415477740  -16.476430576   655.6379   1   7   0.0021   0.0015   0.0151  -0.0007   0.0028  -0.0039  -5.00   33.1
2024/05/10 13:40:56.000   28.415477740  -16.476430576   655.6380   1   7   0.0021   0.0015   0.0151  -0.0007   0.0028  -0.0039  -4.00   33.0
2024/05/10 13:40:57.000   28.415477740  -16.476430576   655.6382   1   7   0.0021   0.0015   0.0151  -0.0007   0.0028  -0.0039  -3.00   32.9
2024/05/10 13:40:58.000   28.415477740  -16.476430576   655.6385   1   7   0.0021   0.0015   0.0151  -0.0007   0.0028  -0.0039  -2.00   32.9
2024/05/10 13:40:59.000   28.415477740  -16.476430576   655.6387   1   7   0.0021   0.0015   0.0151  -0.0007   0.0028  -0.0039  -1.00   32.8
2024/05/10 13:41:00.000   28.415477739  -16.476430576   655.6391   1   7   0.0021   0.0015   0.0151  -0.0007   0.0028  -0.0039   0.00   32.7
2024/05/10 13:41:01.000   28.415477739  -16.476430576   655.6394   1   7   0.0021   0.0015   0.0151  -0.0007   0.0028  -0.0039   1.00   32.7
2024/05/10 13:41:02.000   28.415477738  -16.476430576   655.6398   1   7   0.0021   0.0015   0.0152  -0.0007   0.0028  -0.0039   2.00   32.6
2024/05/10 13:41:03.000   28.415477738  -16.476430576   655.6400   1   7   0.0021   0.0015   0.0152  -0.0007   0.0028  -0.0039   3.00   32.6
2024/05/10 13:41:04.000   28.415477738  -16.476430576   655.6404   1   7   0.0021   0.0015   0.0152  -0.0007   0.0028  -0.0039   4.00   32.5
2024/05/10 13:41:05.000   28.415477738  -16.476430576   655.6405   1   7   0.0021   0.0015   0.0152  -0.0007   0.0028  -0.0039   5.00   32.5
2024/05/10 13:41:06.000   28.415477738  -16.476430576   655.6407   1   7   0.0021   0.0015   0.0152  -0.0007   0.0028  -0.0039   6.00   32.4
2024/05/10 13:41:07.000   28.415477738  -16.476430576   655.6408   1   7   0.0021   0.0015   0.0152  -0.0007   0.0028  -0.0039   7.00   32.3
2024/05/10 13:41:08.000   28.415477737  -16.476430576   655.6409   1   7   0.0021   0.0015   0.0152  -0.0007   0.0028  -0.0039   8.00   32.3
2024/05/10 13:41:09.000   28.415477737  -16.476430576   655.6411   1   7   0.0021   0.0015   0.0152  -0.0007   0.0028  -0.0039   9.00   32.2
2024/05/10 13:41:10.000   28.415477737  -16.476430577   655.6412   1   7   0.0021   0.0015   0.0152  -0.0007   0.0028  -0.0039  10.00   32.1
2024/05/10 13:41:11.000   28.415477737  -16.476430577   655.6413   1   7   0.0021   0.0015   0.0152  -0.0007   0.0028  -0.0039  11.00   32.1
2024/05/10 13:41:12.000   28.415477737  -16.476430577   655.6414   1   7   0.0021   0.0015   0.0152  -0.0007   0.0028  -0.0039  12.00   32.0
2024/05/10 13:41:13.000   28.415477737  -16.476430577   655.6414   1   7   0.0021   0.0015   0.0152  -0.0007   0.0028  -0.0039  13.00   31.9
2024/05/10 13:41:14.000   28.415477737  -16.476430577   655.6415   1   7   0.0021   0.0015   0.0152  -0.0007   0.0028  -0.0039  14.00   31.8
2024/05/10 13:41:15.000   28.415477737  -16.476430577   655.6416   1   7   0.0021   0.0015   0.0152  -0.0007   0.0028  -0.0039  15.00   31.8
2024/05/10 13:41:16.000   28.415477737  -16.476430577   655.6416   1   7   0.0021   0.0015   0.0152  -0.0007   0.0028  -0.0039 -14.00   31.7
2024/05/10 13:41:17.000   28.415477737  -16.476430577   655.6417   1   7   0.0021   0.0015   0.0152  -0.0007   0.0028  -0.0039 -13.00   31.6
2024/05/10 13:41:18.000   28.415477737  -16.476430577   655.6417   1   7   0.0021   0.0015   0.0152  -0.0007   0.0028  -0.0039 -12.00   31.6
2024/05/10 13:41:19.000   28.415477737  -16.476430577   655.6418   1   7   0.0021   0.0015   0.0152  -0.0007   0.0028  -0.0039 -11.00   31.5
2024/05/10 13:41:20.000   28.415477737  -16.476430577   655.6418   1   7   0.0021   0.0015   0.0152  -0.0007   0.0028  -0.0039 -10.00   31.4
2024/05/10 13:41:21.000   28.415477737  -16.476430577   655.6419   1   7   0.0021   0.0015   0.0152  -0.0007   0.0028  -0.0039  -9.00   31.3
2024/05/10 13:41:22.000   28.415477737  -16.476430578   655.6419   1   7   0.0021   0.0015   0.0152  -0.0007   0.0028  -0.0039  -8.00   31.3
2024/05/10 13:41:23.000   28.415477737  -16.476430578   655.6420   1   7   0.0021   0.0015   0.0152  -0.0007   0.0028  -0.0039  -7.00   31.2
2024/05/10 13:41:24.000   28.415477737  -16.476430578   655.6421   1   7   0.0021   0.0015   0.0152  -0.0007   0.0028  -0.0039  -6.00   31.1
2024/05/10 13:41:25.000   28.415477737  -16.476430578   655.6421   1   7   0.0021   0.0015   0.0152  -0.0007   0.0028  -0.0039  -5.00   31.0
2024/05/10 13:41:26.000   28.415477737  -16.476430578   655.6422   1   7   0.0021   0.0015   0.0152  -0.0007   0.0028  -0.0039  -4.00   30.9
2024/05/10 13:41:27.000   28.415477737  -16.476430578   655.6423   1   7   0.0021   0.0015   0.0152  -0.0007   0.0028  -0.0039  -3.00   30.8
2024/05/10 13:41:28.000   28.415477737  -16.476430578   655.6424   1   7   0.0021   0.0015   0.0152  -0.0007   0.0028  -0.0039  -2.00   30.8
2024/05/10 13:41:29.000   28.415477737  -16.476430578   655.6426   1   7   0.0021   0.0015   0.0152  -0.0007   0.0028  -0.0039  -1.00   30.7
2024/05/10 13:41:30.000   28.415477737  -16.476430578   655.6429   1   7   0.0021   0.0015   0.0152  -0.0007   0.0028  -0.0039   0.00   30.6
2024/05/10 13:41:31.000   28.415477737  -16.476430578   655.6431   1   7   0.0021   0.0015   0.0152  -0.0007   0.0028  -0.0040   1.00   30.4
2024/05/10 13:41:32.000   28.415477737  -16.476430578   655.6433   1   7   0.0021   0.0015   0.0152  -0.0007   0.0028  -0.0040   2.00   30.3
2024/05/10 13:41:33.000   28.415477737  -16.476430578   655.6435   1   7   0.0021   0.0015   0.0152  -0.0007   0.0028  -0.0040   3.00   30.2
2024/05/10 13:41:34.000   28.415477737  -16.476430578   655.6437   1   7   0.0021   0.0015   0.0153  -0.0007   0.0028  -0.0040   4.00   30.2
2024/05/10 13:41:35.000   28.415477736  -16.476430578   655.6439   1   7   0.0021   0.0015   0.0153  -0.0007   0.0028  -0.0040   5.00   30.1
2024/05/10 13:41:36.000   28.415477736  -16.476430578   655.6442   1   7   0.0021   0.0015   0.0153  -0.0007   0.0028  -0.0040   6.00   30.0
2024/05/10 13:41:37.000   28.415477736  -16.476430578   655.6444   1   7   0.0021   0.0015   0.0153  -0.0007   0.0028  -0.0040   7.00   30.0
2024/05/10 13:41:38.000   28.415477736  -16.476430578   655.6446   1   7   0.0021   0.0015   0.0153  -0.0007   0.0028  -0.0040   8.00   29.9
2024/05/10 13:41:39.000   28.415477736  -16.476430578   655.6447   1   7   0.0021   0.0015   0.0153  -0.0007   0.0028  -0.0040   9.00   29.9
2024/05/10 13:41:40.000   28.415477736  -16.476430578   655.6448   1   7   0.0021   0.0015   0.0153  -0.0007   0.0028  -0.0040  10.00   29.8
2024/05/10 13:41:41.000   28.415477736  -16.476430578   655.6449   1   7   0.0021   0.0015   0.0153  -0.0007   0.0028  -0.0040  11.00   29.7
2024/05/10 13:41:42.000   28.415477736  -16.476430579   655.6450   1   7   0.0021   0.0015   0.0153  -0.0007   0.0028  -0.0040  12.00   29.7
2024/05/10 13:41:43.000   28.415477736  -16.476430579   655.6451   1   7   0.0021   0.0015   0.0153  -0.0007   0.0028  -0.0040  13.00   29.6
2024/05/10 13:41:44.000   28.415477736  -16.476430579   655.6452   1   7   0.0021   0.0015   0.0153  -0.0007   0.0028  -0.0040  14.00   29.5
2024/05/10 13:41:45.000   28.415477736  -16.476430579   655.6452   1   7   0.0021   0.0015   0.0152  -0.0007   0.0028  -0.0040  15.00   29.5
2024/05/10 13:41:46.000   28.415477736  -16.476430579   655.6453   1   7   0.0021   0.0015   0.0152  -0.0007   0.0028  -0.0040 -14.00   29.4
2024/05/10 13:41:47.000   28.415477736  -16.476430579   655.6454   1   7   0.0021   0.0015   0.0152  -0.0007   0.0028  -0.0040 -13.00   29.4
2024/05/10 13:41:48.000   28.415477736  -16.476430579   655.6455   1   7   0.0021   0.0015   0.0152  -0.0007   0.0028  -0.0040 -12.00   29.3
2024/05/10 13:41:49.000   28.415477736  -16.476430579   655.6456   1   7   0.0021   0.0015   0.0152  -0.0007   0.0028  -0.0040 -11.00   29.2
2024/05/10 13:41:50.000   28.415477736  -16.476430579   655.6457   1   7   0.0021   0.0015   0.0152  -0.0007   0.0028  -0.0040 -10.00   29.2
2024/05/10 13:41:51.000   28.415477736  -16.476430579   655.6458   1   7   0.0021   0.0015   0.0152  -0.0007   0.0028  -0.0040  -9.00   29.1
2024/05/10 13:41:52.000   28.415477736  -16.476430579   655.6459   1   7   0.0021   0.0015   0.0152  -0.0007   0.0028  -0.0040  -8.00   29.0
