% program   : RTKPOST-EX 2.5.0
% inp file  : C:\Users\SallyHenry\Desktop\Sally Internship\GNSS gravi\DATA\Survey Rover Obs\ORO00.25o
% inp file  : C:\Users\SallyHenry\Desktop\Sally Internship\GNSS gravi\DATA\BaseStations\TN02\TN0200ESP_R_20250940000_01D_30S_MO.rnx
% inp file  : C:\Users\SallyHenry\Desktop\Sally Internship\GNSS gravi\DATA\BaseStations\TN02\TN0200ESP_R_20250940000_01D_MN.rnx
% inp file  : C:\Users\SallyHenry\Desktop\Sally Internship\GNSS gravi\DATA\aux_files\Survey\IGS0OPSFIN_20250940000_01D_15M_ORB.SP3
% inp file  : C:\Users\SallyHenry\Desktop\Sally Internship\GNSS gravi\DATA\aux_files\Survey\IGS0OPSFIN_20250940000_01D_30S_CLK.CLK
% obs start : 2025/04/04 19:20:31.0 GPST (week2360 501631.0s)
% obs end   : 2025/04/04 19:37:04.0 GPST (week2360 502624.0s)
% pos mode  : Static
% freqs     : L1+L2/E5b
% solution  : Combined-No Phase Reset
% elev mask : 15.0 deg
% dynamics  : on
% tidecorr  : solid
% ionos opt : Estimate TEC
% tropo opt : Estimate ZTD+Grad
% ephemeris : Precise
% navi sys  : GPS GLONASS Galileo QZSS BDS
% amb res   : Fix and Hold
% amb glo   : Fix and Hold
% amb bds   : on
% val thres : 3.0
% antenna1  :                       ( 0.0000  0.0000  1.8000)
% antenna2  :                       ( 0.0000  0.0000  0.0771)
% ref pos   :  28.418257450  -16.550784480    54.4145
%
% (lat/lon/height=WGS84/ellipsoidal,Q=1:fix,2:float,3:sbas,4:dgps,5:single,6:ppp,ns=# of satellites)
%  GPST                  latitude(deg) longitude(deg)  height(m)   Q  ns   sdn(m)   sde(m)   sdu(m)  sdne(m)  sdeu(m)  sdun(m) age(s)  ratio
2025/04/04 19:20:31.000   28.410823278  -16.545241362   132.3431   1   6   0.0019   0.0014   0.0178   0.0010   0.0014   0.0028   1.00  249.8
2025/04/04 19:20:32.000   28.410823277  -16.545241362   132.3428   1   6   0.0019   0.0014   0.0178   0.0010   0.0014   0.0028   2.00  248.8
2025/04/04 19:20:33.000   28.410823275  -16.545241362   132.3424   1   6   0.0019   0.0014   0.0179   0.0010   0.0014   0.0028   3.00  247.8
2025/04/04 19:20:34.000   28.410823275  -16.545241362   132.3422   1   6   0.0019   0.0014   0.0179   0.0010   0.0014   0.0028   4.00  246.6
2025/04/04 19:20:35.000   28.410823274  -16.545241362   132.3421   1   6   0.0020   0.0014   0.0179   0.0010   0.0014   0.0028   5.00  245.4
2025/04/04 19:20:36.000   28.410823273  -16.545241362   132.3421   1   6   0.0020   0.0014   0.0179   0.0010   0.0014   0.0028   6.00  244.4
2025/04/04 19:20:37.000   28.410823273  -16.545241362   132.3422   1   6   0.0020   0.0014   0.0179   0.0010   0.0014   0.0028   7.00  243.6
2025/04/04 19:20:38.000   28.410823273  -16.545241362   132.3421   1   6   0.0020   0.0014   0.0179   0.0010   0.0014   0.0028   8.00  242.9
2025/04/04 19:20:39.000   28.410823273  -16.545241362   132.3422   1   6   0.0020   0.0014   0.0179   0.0010   0.0014   0.0028   9.00  242.3
2025/04/04 19:20:40.000   28.410823272  -16.545241362   132.3422   1   6   0.0020   0.0014   0.0179   0.0010   0.0014   0.0028  10.00  241.6
2025/04/04 19:20:41.000   28.410823272  -16.545241362   132.3423   1   6   0.0020   0.0014   0.0179   0.0010   0.0014   0.0028  11.00  241.0
2025/04/04 19:20:42.000   28.410823272  -16.545241362   132.3424   1   6   0.0020   0.0014   0.0179   0.0010   0.0014   0.0028  12.00  240.4
2025/04/04 19:20:43.000   28.410823272  -16.545241362   132.3425   1   6   0.0020   0.0014   0.0179   0.0010   0.0014   0.0028  13.00  239.9
2025/04/04 19:20:44.000   28.410823272  -16.545241362   132.3426   1   6   0.0019   0.0014   0.0179   0.0010   0.0014   0.0028  14.00  239.3
2025/04/04 19:20:45.000   28.410823272  -16.545241362   132.3426   1   6   0.0019   0.0014   0.0179   0.0010   0.0014   0.0028  15.00  238.8
2025/04/04 19:20:46.000   28.410823272  -16.545241362   132.3427   1   6   0.0019   0.0014   0.0179   0.0010   0.0014   0.0028 -14.00  238.2
2025/04/04 19:20:47.000   28.410823272  -16.545241362   132.3428   1   6   0.0019   0.0014   0.0179   0.0010   0.0014   0.0028 -13.00  237.7
2025/04/04 19:20:48.000   28.410823272  -16.545241362   132.3429   1   6   0.0019   0.0014   0.0178   0.0010   0.0014   0.0028 -12.00  237.2
2025/04/04 19:20:49.000   28.410823271  -16.545241362   132.3430   1   6   0.0019   0.0014   0.0178   0.0009   0.0014   0.0028 -11.00  236.7
2025/04/04 19:20:50.000   28.410823271  -16.545241362   132.3430   1   6   0.0019   0.0014   0.0178   0.0009   0.0014   0.0028 -10.00  236.2
2025/04/04 19:20:51.000   28.410823271  -16.545241362   132.3431   1   6   0.0019   0.0014   0.0178   0.0009   0.0014   0.0028  -9.00  235.7
2025/04/04 19:20:52.000   28.410823271  -16.545241362   132.3431   1   6   0.0019   0.0014   0.0178   0.0009   0.0014   0.0028  -8.00  235.1
2025/04/04 19:20:53.000   28.410823271  -16.545241362   132.3431   1   6   0.0019   0.0014   0.0178   0.0009   0.0014   0.0028  -7.00  234.6
2025/04/04 19:20:54.000   28.410823270  -16.545241363   132.3431   1   6   0.0019   0.0014   0.0178   0.0009   0.0014   0.0028  -6.00  234.1
2025/04/04 19:20:55.000   28.410823270  -16.545241363   132.3431   1   6   0.0019   0.0014   0.0178   0.0009   0.0014   0.0028  -5.00  233.6
2025/04/04 19:20:56.000   28.410823269  -16.545241363   132.3430   1   6   0.0019   0.0014   0.0178   0.0009   0.0014   0.0028  -4.00  233.2
2025/04/04 19:20:57.000   28.410823269  -16.545241363   132.3428   1   6   0.0019   0.0014   0.0178   0.0009   0.0014   0.0028  -3.00  232.9
2025/04/04 19:20:58.000   28.410823268  -16.545241363   132.3425   1   6   0.0020   0.0014   0.0179   0.0009   0.0014   0.0028  -2.00  232.5
2025/04/04 19:20:59.000   28.410823267  -16.545241363   132.3422   1   6   0.0020   0.0014   0.0179   0.0009   0.0014   0.0028  -1.00  232.0
2025/04/04 19:21:00.000   28.410823265  -16.545241363   132.3417   1   6   0.0020   0.0014   0.0179   0.0010   0.0014   0.0028   0.00  231.8
2025/04/04 19:21:01.000   28.410823264  -16.545241363   132.3411   1   6   0.0020   0.0014   0.0179   0.0010   0.0014   0.0029   1.00  231.5
2025/04/04 19:21:02.000   28.410823262  -16.545241363   132.3408   1   6   0.0020   0.0014   0.0179   0.0010   0.0014   0.0029   2.00  231.2
2025/04/04 19:21:03.000   28.410823261  -16.545241364   132.3405   1   6   0.0020   0.0014   0.0179   0.0010   0.0015   0.0029   3.00  230.8
2025/04/04 19:21:04.000   28.410823260  -16.545241364   132.3401   1   6   0.0020   0.0014   0.0179   0.0010   0.0015   0.0029   4.00  230.6
2025/04/04 19:21:05.000   28.410823259  -16.545241364   132.3399   1   6   0.0020   0.0014   0.0179   0.0010   0.0015   0.0029   5.00  230.3
2025/04/04 19:21:06.000   28.410823259  -16.545241364   132.3398   1   6   0.0020   0.0014   0.0179   0.0010   0.0015   0.0029   6.00  229.8
2025/04/04 19:21:07.000   28.410823258  -16.545241364   132.3397   1   6   0.0020   0.0014   0.0179   0.0010   0.0015   0.0029   7.00  229.5
2025/04/04 19:21:08.000   28.410823258  -16.545241364   132.3396   1   6   0.0020   0.0014   0.0179   0.0010   0.0015   0.0029   8.00  229.1
2025/04/04 19:21:09.000   28.410823257  -16.545241364   132.3396   1   6   0.0020   0.0014   0.0179   0.0010   0.0015   0.0029   9.00  228.6
2025/04/04 19:21:10.000   28.410823257  -16.545241364   132.3397   1   6   0.0020   0.0014   0.0179   0.0010   0.0015   0.0029  10.00  228.2
2025/04/04 19:21:11.000   28.410823257  -16.545241364   132.3397   1   6   0.0020   0.0014   0.0179   0.0010   0.0015   0.0029  11.00  227.7
2025/04/04 19:21:12.000   28.410823257  -16.545241364   132.3398   1   6   0.0020   0.0014   0.0179   0.0010   0.0015   0.0029  12.00  227.2
2025/04/04 19:21:13.000   28.410823257  -16.545241364   132.3398   1   6   0.0020   0.0014   0.0179   0.0010   0.0015   0.0029  13.00  226.8
2025/04/04 19:21:14.000   28.410823256  -16.545241364   132.3399   1   6   0.0020   0.0014   0.0179   0.0010   0.0014   0.0029  14.00  226.3
2025/04/04 19:21:15.000   28.410823256  -16.545241364   132.3400   1   6   0.0020   0.0014   0.0179   0.0010   0.0014   0.0029  15.00  225.9
2025/04/04 19:21:16.000   28.410823256  -16.545241364   132.3400   1   6   0.0020   0.0014   0.0179   0.0010   0.0014   0.0029 -14.00  225.4
2025/04/04 19:21:17.000   28.410823256  -16.545241364   132.3401   1   6   0.0020   0.0014   0.0179   0.0010   0.0014   0.0029 -13.00  225.0
2025/04/04 19:21:18.000   28.410823256  -16.545241364   132.3402   1   6   0.0020   0.0014   0.0179   0.0010   0.0014   0.0029 -12.00  224.5
2025/04/04 19:21:19.000   28.410823256  -16.545241364   132.3402   1   6   0.0020   0.0014   0.0179   0.0010   0.0014   0.0029 -11.00  224.1
2025/04/04 19:21:20.000   28.410823256  -16.545241364   132.3402   1   6   0.0020   0.0014   0.0179   0.0009   0.0014   0.0029 -10.00  223.6
2025/04/04 19:21:21.000   28.410823255  -16.545241364   132.3403   1   6   0.0020   0.0014   0.0179   0.0009   0.0014   0.0029  -9.00  223.2
2025/04/04 19:21:22.000   28.410823255  -16.545241364   132.3403   1   6   0.0020   0.0014   0.0179   0.0009   0.0014   0.0029  -8.00  222.8
2025/04/04 19:21:23.000   28.410823255  -16.545241364   132.3403   1   6   0.0020   0.0014   0.0179   0.0009   0.0014   0.0029  -7.00  222.4
2025/04/04 19:21:24.000   28.410823254  -16.545241364   132.3403   1   6   0.0020   0.0014   0.0179   0.0009   0.0014   0.0029  -6.00  222.0
2025/04/04 19:21:25.000   28.410823254  -16.545241364   132.3403   1   6   0.0020   0.0014   0.0179   0.0009   0.0014   0.0029  -5.00  221.6
2025/04/04 19:21:26.000   28.410823253  -16.545241364   132.3402   1   6   0.0020   0.0014   0.0179   0.0009   0.0014   0.0029  -4.00  221.3
2025/04/04 19:21:27.000   28.410823253  -16.545241364   132.3402   1   6   0.0020   0.0014   0.0179   0.0009   0.0014   0.0029  -3.00  220.9
2025/04/04 19:21:28.000   28.410823252  -16.545241364   132.3401   1   6   0.0020   0.0014   0.0179   0.0009   0.0014   0.0029  -2.00  220.5
2025/04/04 19:21:29.000   28.410823251  -16.545241364   132.3399   1   6   0.0020   0.0014   0.0179   0.0009   0.0014   0.0029  -1.00  220.2
2025/04/04 19:21:30.000   28.410823250  -16.545241364   132.3397   1   6   0.0020   0.0014   0.0179   0.0010   0.0014   0.0029   0.00  219.9
2025/04/04 19:21:31.000   28.410823249  -16.545241364   132.3393   1   6   0.0020   0.0014   0.0180   0.0010   0.0015   0.0029   1.00  219.5
2025/04/04 19:21:32.000   28.410823248  -16.545241364   132.3390   1   6   0.0020   0.0014   0.0180   0.0010   0.0015   0.0029   2.00  219.4
2025/04/04 19:21:33.000   28.410823247  -16.545241364   132.3387   1   6   0.0020   0.0014   0.0180   0.0010   0.0015   0.0029   3.00  219.1
2025/04/04 19:21:34.000   28.410823246  -16.545241364   132.3384   1   6   0.0020   0.0014   0.0180   0.0010   0.0015   0.0029   4.00  219.0
2025/04/04 19:21:35.000   28.410823245  -16.545241364   132.3381   1   6   0.0020   0.0015   0.0180   0.0010   0.0015   0.0029   5.00  218.8
2025/04/04 19:21:36.000   28.410823245  -16.545241364   132.3379   1   6   0.0020   0.0015   0.0180   0.0010   0.0015   0.0029   6.00  218.4
2025/04/04 19:21:37.000   28.410823244  -16.545241364   132.3379   1   6   0.0020   0.0015   0.0180   0.0010   0.0015   0.0029   7.00  218.0
2025/04/04 19:21:38.000   28.410823244  -16.545241364   132.3379   1   6   0.0020   0.0015   0.0180   0.0010   0.0015   0.0029   8.00  217.6
2025/04/04 19:21:39.000   28.410823244  -16.545241364   132.3379   1   6   0.0020   0.0015   0.0180   0.0010   0.0015   0.0029   9.00  217.3
2025/04/04 19:21:40.000   28.410823244  -16.545241364   132.3380   1   6   0.0020   0.0015   0.0180   0.0010   0.0015   0.0029  10.00  216.8
2025/04/04 19:21:41.000   28.410823244  -16.545241364   132.3381   1   6   0.0020   0.0014   0.0180   0.0010   0.0015   0.0029  11.00  216.4
2025/04/04 19:21:42.000   28.410823243  -16.545241364   132.3382   1   6   0.0020   0.0014   0.0180   0.0010   0.0015   0.0029  12.00  215.9
2025/04/04 19:21:43.000   28.410823243  -16.545241364   132.3384   1   6   0.0020   0.0014   0.0180   0.0010   0.0015   0.0029  13.00  215.5
2025/04/04 19:21:44.000   28.410823243  -16.545241364   132.3385   1   6   0.0020   0.0014   0.0180   0.0010   0.0015   0.0029  14.00  215.1
2025/04/04 19:21:45.000   28.410823243  -16.545241364   132.3387   1   6   0.0020   0.0014   0.0180   0.0010   0.0015   0.0029  15.00  214.7
2025/04/04 19:21:46.000   28.410823243  -16.545241364   132.3388   1   6   0.0020   0.0014   0.0180   0.0010   0.0015   0.0029 -14.00  214.2
2025/04/04 19:21:47.000   28.410823243  -16.545241364   132.3390   1   6   0.0020   0.0014   0.0180   0.0010   0.0015   0.0029 -13.00  213.8
2025/04/04 19:21:48.000   28.410823243  -16.545241364   132.3391   1   6   0.0020   0.0014   0.0180   0.0010   0.0015   0.0029 -12.00  213.4
2025/04/04 19:21:49.000   28.410823243  -16.545241364   132.3392   1   6   0.0020   0.0014   0.0180   0.0010   0.0015   0.0029 -11.00  213.0
2025/04/04 19:21:50.000   28.410823243  -16.545241364   132.3394   1   6   0.0020   0.0014   0.0180   0.0009   0.0015   0.0029 -10.00  212.6
2025/04/04 19:21:51.000   28.410823243  -16.545241364   132.3395   1   6   0.0020   0.0014   0.0180   0.0009   0.0014   0.0029  -9.00  212.2
2025/04/04 19:21:52.000   28.410823243  -16.545241364   132.3396   1   6   0.0020   0.0014   0.0180   0.0009   0.0014   0.0029  -8.00  211.8
2025/04/04 19:21:53.000   28.410823243  -16.545241364   132.3398   1   6   0.0020   0.0014   0.0180   0.0009   0.0014   0.0029  -7.00  211.4
2025/04/04 19:21:54.000   28.410823243  -16.545241364   132.3398   1   6   0.0020   0.0014   0.0180   0.0009   0.0014   0.0029  -6.00  211.1
2025/04/04 19:21:55.000   28.410823243  -16.545241364   132.3399   1   6   0.0020   0.0014   0.0180   0.0009   0.0014   0.0029  -5.00  210.9
2025/04/04 19:21:56.000   28.410823242  -16.545241364   132.3399   1   6   0.0020   0.0014   0.0180   0.0009   0.0014   0.0029  -4.00  210.7
2025/04/04 19:21:57.000   28.410823242  -16.545241364   132.3398   1   6   0.0020   0.0014   0.0180   0.0009   0.0014   0.0029  -3.00  210.6
2025/04/04 19:21:58.000   28.410823241  -16.545241364   132.3397   1   6   0.0020   0.0014   0.0180   0.0009   0.0015   0.0029  -2.00  210.7
2025/04/04 19:21:59.000   28.410823240  -16.545241364   132.3394   1   6   0.0020   0.0014   0.0180   0.0009   0.0015   0.0029  -1.00  210.9
2025/04/04 19:22:00.000   28.410823239  -16.545241364   132.3390   1   6   0.0020   0.0014   0.0180   0.0010   0.0015   0.0030   0.00  211.1
2025/04/04 19:22:01.000   28.410823238  -16.545241364   132.3385   1   6   0.0020   0.0014   0.0180   0.0010   0.0015   0.0030   1.00  211.3
2025/04/04 19:22:02.000   28.410823237  -16.545241364   132.3381   1   6   0.0020   0.0015   0.0180   0.0010   0.0015   0.0030   2.00  211.4
2025/04/04 19:22:03.000   28.410823236  -16.545241364   132.3378   1   6   0.0020   0.0015   0.0181   0.0010   0.0015   0.0030   3.00  211.5
2025/04/04 19:22:04.000   28.410823236  -16.545241365   132.3376   1   6   0.0020   0.0015   0.0181   0.0010   0.0015   0.0030   4.00  211.5
2025/04/04 19:22:05.000   28.410823235  -16.545241365   132.3376   1   6   0.0020   0.0015   0.0181   0.0010   0.0015   0.0030   5.00  211.2
2025/04/04 19:22:06.000   28.410823235  -16.545241365   132.3375   1   6   0.0020   0.0015   0.0181   0.0010   0.0015   0.0030   6.00  210.9
2025/04/04 19:22:07.000   28.410823235  -16.545241365   132.3375   1   6   0.0020   0.0015   0.0181   0.0010   0.0015   0.0030   7.00  210.6
2025/04/04 19:22:08.000   28.410823234  -16.545241365   132.3375   1   6   0.0020   0.0015   0.0181   0.0010   0.0015   0.0030   8.00  210.3
2025/04/04 19:22:09.000   28.410823234  -16.545241365   132.3376   1   6   0.0020   0.0015   0.0181   0.0010   0.0015   0.0030   9.00  209.9
2025/04/04 19:22:10.000   28.410823234  -16.545241365   132.3377   1   6   0.0020   0.0015   0.0181   0.0010   0.0015   0.0030  10.00  209.6
2025/04/04 19:22:11.000   28.410823234  -16.545241365   132.3377   1   6   0.0020   0.0015   0.0181   0.0010   0.0015   0.0030  11.00  209.2
2025/04/04 19:22:12.000   28.410823234  -16.545241365   132.3378   1   6   0.0020   0.0015   0.0181   0.0010   0.0015   0.0030  12.00  208.9
2025/04/04 19:22:13.000   28.410823234  -16.545241365   132.3379   1   6   0.0020   0.0015   0.0181   0.0010   0.0015   0.0030  13.00  208.5
2025/04/04 19:22:14.000   28.410823234  -16.545241365   132.3380   1   6   0.0020   0.0015   0.0181   0.0010   0.0015   0.0030  14.00  208.2
2025/04/04 19:22:15.000   28.410823234  -16.545241366   132.3381   1   6   0.0020   0.0015   0.0181   0.0010   0.0015   0.0030  15.00  207.8
2025/04/04 19:22:16.000   28.410823234  -16.545241366   132.3382   1   6   0.0020   0.0015   0.0181   0.0010   0.0015   0.0030 -14.00  207.4
2025/04/04 19:22:17.000   28.410823234  -16.545241366   132.3383   1   6   0.0020   0.0014   0.0181   0.0010   0.0015   0.0030 -13.00  207.0
2025/04/04 19:22:18.000   28.410823234  -16.545241366   132.3385   1   6   0.0020   0.0014   0.0181   0.0010   0.0015   0.0030 -12.00  206.7
2025/04/04 19:22:19.000   28.410823234  -16.545241366   132.3386   1   6   0.0020   0.0014   0.0181   0.0009   0.0015   0.0030 -11.00  206.3
2025/04/04 19:22:20.000   28.410823234  -16.545241366   132.3387   1   6   0.0020   0.0014   0.0180   0.0009   0.0015   0.0030 -10.00  206.0
2025/04/04 19:22:21.000   28.410823234  -16.545241366   132.3388   1   6   0.0020   0.0014   0.0180   0.0009   0.0015   0.0030  -9.00  205.7
2025/04/04 19:22:22.000   28.410823234  -16.545241366   132.3389   1   6   0.0020   0.0014   0.0180   0.0009   0.0015   0.0030  -8.00  205.4
2025/04/04 19:22:23.000   28.410823234  -16.545241366   132.3390   1   6   0.0020   0.0014   0.0180   0.0009   0.0015   0.0030  -7.00  205.1
2025/04/04 19:22:24.000   28.410823234  -16.545241366   132.3390   1   6   0.0020   0.0014   0.0180   0.0009   0.0015   0.0030  -6.00  204.9
2025/04/04 19:22:25.000   28.410823233  -16.545241367   132.3391   1   6   0.0020   0.0014   0.0180   0.0009   0.0015   0.0030  -5.00  204.7
2025/04/04 19:22:26.000   28.410823233  -16.545241367   132.3391   1   6   0.0020   0.0014   0.0180   0.0009   0.0015   0.0030  -4.00  204.4
2025/04/04 19:22:27.000   28.410823233  -16.545241367   132.3391   1   6   0.0020   0.0014   0.0181   0.0009   0.0015   0.0030  -3.00  204.4
2025/04/04 19:22:28.000   28.410823232  -16.545241367   132.3390   1   6   0.0020   0.0014   0.0181   0.0009   0.0015   0.0030  -2.00  204.2
2025/04/04 19:22:29.000   28.410823231  -16.545241367   132.3389   1   6   0.0020   0.0014   0.0181   0.0009   0.0015   0.0030  -1.00  203.9
2025/04/04 19:22:30.000   28.410823230  -16.545241368   132.3385   1   6   0.0020   0.0015   0.0181   0.0009   0.0015   0.0030   0.00  203.5
2025/04/04 19:22:31.000   28.410823229  -16.545241368   132.3381   1   6   0.0020   0.0015   0.0181   0.0010   0.0015   0.0030   1.00  203.0
2025/04/04 19:22:32.000   28.410823228  -16.545241368   132.3377   1   6   0.0020   0.0015   0.0181   0.0010   0.0015   0.0030   2.00  202.8
2025/04/04 19:22:33.000   28.410823227  -16.545241369   132.3373   1   6   0.0020   0.0015   0.0181   0.0010   0.0015   0.0030   3.00  202.3
2025/04/04 19:22:34.000   28.410823227  -16.545241369   132.3369   1   6   0.0020   0.0015   0.0181   0.0010   0.0015   0.0030   4.00  202.0
2025/04/04 19:22:35.000   28.410823226  -16.545241370   132.3367   1   6   0.0020   0.0015   0.0182   0.0010   0.0015   0.0030   5.00  201.6
2025/04/04 19:22:36.000   28.410823225  -16.545241370   132.3365   1   6   0.0020   0.0015   0.0182   0.0010   0.0015   0.0030   6.00  201.2
2025/04/04 19:22:37.000   28.410823225  -16.545241370   132.3363   1   6   0.0020   0.0015   0.0182   0.0010   0.0015   0.0030   7.00  200.7
2025/04/04 19:22:38.000   28.410823225  -16.545241370   132.3362   1   6   0.0020   0.0015   0.0182   0.0010   0.0015   0.0030   8.00  200.2
2025/04/04 19:22:39.000   28.410823224  -16.545241370   132.3361   1   6   0.0020   0.0015   0.0182   0.0010   0.0015   0.0030   9.00  199.7
2025/04/04 19:22:40.000   28.410823224  -16.545241371   132.3361   1   6   0.0020   0.0015   0.0182   0.0010   0.0015   0.0030  10.00  199.2
2025/04/04 19:22:41.000   28.410823224  -16.545241371   132.3361   1   6   0.0020   0.0015   0.0182   0.0010   0.0015   0.0030  11.00  198.7
2025/04/04 19:22:42.000   28.410823271  -16.545241375   132.3592   1   6   0.0018   0.0013   0.0173   0.0009   0.0006   0.0026  12.00    6.3
2025/04/04 19:22:43.000   28.410823271  -16.545241375   132.3593   1   6   0.0018   0.0013   0.0172   0.0009   0.0006   0.0026  13.00    6.3
2025/04/04 19:22:44.000   28.410823271  -16.545241375   132.3594   1   6   0.0018   0.0013   0.0172   0.0009   0.0006   0.0026  14.00    6.3
2025/04/04 19:22:45.000   28.410823271  -16.545241375   132.3595   1   6   0.0018   0.0013   0.0172   0.0009   0.0006   0.0026 -15.00    6.3
2025/04/04 19:22:46.000   28.410823271  -16.545241375   132.3596   1   6   0.0018   0.0013   0.0172   0.0009   0.0006   0.0026 -14.00    6.3
2025/04/04 19:22:47.000   28.410823271  -16.545241375   132.3597   1   6   0.0018   0.0013   0.0172   0.0009   0.0006   0.0026 -13.00    6.3
2025/04/04 19:22:48.000   28.410823271  -16.545241375   132.3598   1   6   0.0018   0.0013   0.0172   0.0009   0.0005   0.0026 -12.00    6.2
2025/04/04 19:22:49.000   28.410823271  -16.545241375   132.3599   1   6   0.0018   0.0013   0.0172   0.0009   0.0005   0.0026 -11.00    6.3
2025/04/04 19:22:50.000   28.410823271  -16.545241375   132.3600   1   6   0.0018   0.0013   0.0172   0.0009   0.0005   0.0026 -10.00    6.3
2025/04/04 19:22:51.000   28.410823270  -16.545241375   132.3601   1   6   0.0018   0.0013   0.0172   0.0009   0.0005   0.0026  -9.00    6.3
2025/04/04 19:22:52.000   28.410823270  -16.545241375   132.3602   1   6   0.0018   0.0013   0.0172   0.0009   0.0005   0.0026  -8.00    6.4
2025/04/04 19:22:53.000   28.410823270  -16.545241375   132.3603   1   6   0.0018   0.0013   0.0172   0.0009   0.0005   0.0026  -7.00    6.4
2025/04/04 19:22:54.000   28.410823270  -16.545241375   132.3605   1   6   0.0018   0.0013   0.0172   0.0009   0.0005   0.0026  -6.00    6.5
2025/04/04 19:22:55.000   28.410823270  -16.545241375   132.3605   1   6   0.0018   0.0013   0.0172   0.0009   0.0005   0.0026  -5.00    6.7
2025/04/04 19:22:56.000   28.410823270  -16.545241375   132.3607   1   6   0.0018   0.0013   0.0172   0.0009   0.0005   0.0026  -4.00    6.8
2025/04/04 19:22:57.000   28.410823270  -16.545241375   132.3608   1   6   0.0018   0.0013   0.0172   0.0009   0.0005   0.0026  -3.00    7.2
2025/04/04 19:22:58.000   28.410823270  -16.545241376   132.3609   1   6   0.0018   0.0013   0.0172   0.0009   0.0005   0.0026  -2.00    7.4
2025/04/04 19:22:59.000   28.410823270  -16.545241375   132.3611   1   6   0.0018   0.0013   0.0172   0.0009   0.0004   0.0026  -1.00    7.6
2025/04/04 19:23:00.000   28.410823270  -16.545241376   132.3612   1   6   0.0018   0.0013   0.0172   0.0009   0.0004   0.0026   0.00    7.7
2025/04/04 19:23:01.000   28.410823270  -16.545241376   132.3613   1   6   0.0018   0.0013   0.0172   0.0009   0.0004   0.0026   1.00    7.9
2025/04/04 19:23:02.000   28.410823270  -16.545241376   132.3616   1   6   0.0018   0.0013   0.0172   0.0009   0.0004   0.0026   2.00   10.0
2025/04/04 19:23:03.000   28.410823270  -16.545241376   132.3617   1   6   0.0018   0.0013   0.0172   0.0009   0.0004   0.0026   3.00   10.9
2025/04/04 19:23:04.000   28.410823270  -16.545241376   132.3618   1   6   0.0018   0.0013   0.0172   0.0009   0.0004   0.0026   4.00   11.5
2025/04/04 19:23:05.000   28.410823269  -16.545241376   132.3619   1   6   0.0018   0.0013   0.0172   0.0009   0.0004   0.0026   5.00   12.1
2025/04/04 19:23:06.000   28.410823269  -16.545241376   132.3620   1   6   0.0018   0.0013   0.0172   0.0009   0.0004   0.0026   6.00   12.7
2025/04/04 19:23:07.000   28.410823269  -16.545241377   132.3621   1   6   0.0018   0.0013   0.0172   0.0009   0.0004   0.0026   7.00   13.3
2025/04/04 19:23:08.000   28.410823269  -16.545241377   132.3622   1   6   0.0018   0.0013   0.0172   0.0009   0.0004   0.0026   8.00   13.9
2025/04/04 19:23:09.000   28.410823269  -16.545241377   132.3623   1   6   0.0018   0.0013   0.0172   0.0009   0.0004   0.0026   9.00   14.5
2025/04/04 19:23:10.000   28.410823269  -16.545241377   132.3624   1   6   0.0018   0.0013   0.0172   0.0009   0.0004   0.0026  10.00   15.0
2025/04/04 19:23:11.000   28.410823269  -16.545241377   132.3625   1   6   0.0018   0.0013   0.0172   0.0009   0.0004   0.0026  11.00   15.6
2025/04/04 19:23:12.000   28.410823269  -16.545241377   132.3626   1   6   0.0018   0.0013   0.0172   0.0009   0.0003   0.0026  12.00   16.2
2025/04/04 19:23:13.000   28.410823269  -16.545241377   132.3628   1   6   0.0018   0.0013   0.0172   0.0009   0.0003   0.0026  13.00   16.8
2025/04/04 19:23:14.000   28.410823269  -16.545241377   132.3629   1   6   0.0018   0.0013   0.0172   0.0009   0.0003   0.0026  14.00   17.3
2025/04/04 19:23:15.000   28.410823269  -16.545241377   132.3630   1   6   0.0018   0.0013   0.0172   0.0009   0.0003   0.0026 -15.00   17.9
2025/04/04 19:23:16.000   28.410823269  -16.545241377   132.3631   1   6   0.0018   0.0013   0.0172   0.0009   0.0003   0.0026 -14.00   18.4
2025/04/04 19:23:17.000   28.410823269  -16.545241377   132.3632   1   6   0.0018   0.0013   0.0172   0.0009   0.0003   0.0026 -13.00   19.0
2025/04/04 19:23:18.000   28.410823268  -16.545241377   132.3633   1   6   0.0018   0.0013   0.0172   0.0009   0.0003   0.0026 -12.00   19.6
2025/04/04 19:23:19.000   28.410823268  -16.545241377   132.3634   1   6   0.0018   0.0013   0.0172   0.0009   0.0003   0.0026 -11.00   20.2
2025/04/04 19:23:20.000   28.410823268  -16.545241377   132.3635   1   6   0.0018   0.0013   0.0171   0.0009   0.0003   0.0026 -10.00   20.8
2025/04/04 19:23:21.000   28.410823268  -16.545241378   132.3636   1   6   0.0018   0.0013   0.0171   0.0009   0.0002   0.0026  -9.00   21.4
2025/04/04 19:23:22.000   28.410823268  -16.545241378   132.3636   1   6   0.0018   0.0013   0.0171   0.0009   0.0002   0.0026  -8.00   22.1
2025/04/04 19:23:23.000   28.410823268  -16.545241378   132.3638   1   6   0.0018   0.0013   0.0171   0.0009   0.0002   0.0025  -7.00   22.7
2025/04/04 19:23:24.000   28.410823268  -16.545241378   132.3639   1   6   0.0018   0.0013   0.0171   0.0009   0.0002   0.0025  -6.00   23.5
2025/04/04 19:23:25.000   28.410823268  -16.545241378   132.3640   1   6   0.0018   0.0013   0.0171   0.0008   0.0002   0.0025  -5.00   24.4
2025/04/04 19:23:26.000   28.410823268  -16.545241378   132.3641   1   6   0.0018   0.0013   0.0171   0.0008   0.0001   0.0025  -4.00   25.2
2025/04/04 19:23:27.000   28.410823268  -16.545241378   132.3643   1   6   0.0018   0.0013   0.0171   0.0008   0.0001   0.0025  -3.00   26.2
2025/04/04 19:23:28.000   28.410823268  -16.545241378   132.3645   1   6   0.0018   0.0013   0.0171   0.0008  -0.0001   0.0025  -2.00   27.3
2025/04/04 19:23:29.000   28.410823268  -16.545241378   132.3646   1   6   0.0018   0.0013   0.0171   0.0008  -0.0001   0.0025  -1.00   28.5
2025/04/04 19:23:30.000   28.410823268  -16.545241378   132.3648   1   6   0.0018   0.0013   0.0171   0.0008  -0.0002   0.0025   0.00   29.8
2025/04/04 19:23:31.000   28.410823268  -16.545241378   132.3650   1   6   0.0018   0.0013   0.0171   0.0008  -0.0002   0.0025   1.00   30.8
2025/04/04 19:23:32.000   28.410823268  -16.545241378   132.3651   1   6   0.0018   0.0013   0.0171   0.0008  -0.0002   0.0025   2.00   32.0
2025/04/04 19:23:33.000   28.410823268  -16.545241378   132.3653   1   6   0.0018   0.0013   0.0171   0.0008  -0.0002   0.0025   3.00   33.2
2025/04/04 19:23:34.000   28.410823268  -16.545241379   132.3653   1   6   0.0018   0.0013   0.0171   0.0008  -0.0002   0.0025   4.00   34.5
2025/04/04 19:23:35.000   28.410823267  -16.545241379   132.3654   1   6   0.0018   0.0013   0.0171   0.0008  -0.0002   0.0025   5.00   35.6
2025/04/04 19:23:36.000   28.410823267  -16.545241379   132.3655   1   6   0.0018   0.0013   0.0171   0.0008  -0.0003   0.0025   6.00   36.6
2025/04/04 19:23:37.000   28.410823267  -16.545241379   132.3656   1   6   0.0018   0.0013   0.0171   0.0008  -0.0003   0.0025   7.00   37.6
2025/04/04 19:23:38.000   28.410823267  -16.545241379   132.3657   1   6   0.0018   0.0013   0.0171   0.0008  -0.0003   0.0025   8.00   38.6
2025/04/04 19:23:39.000   28.410823267  -16.545241379   132.3657   1   6   0.0018   0.0013   0.0171   0.0008  -0.0003   0.0025   9.00   39.4
2025/04/04 19:23:40.001   28.410823267  -16.545241379   132.3658   1   6   0.0018   0.0013   0.0171   0.0008  -0.0003   0.0025  10.00   40.3
2025/04/04 19:23:41.000   28.410823267  -16.545241379   132.3658   1   6   0.0018   0.0013   0.0171   0.0008  -0.0003   0.0025  11.00   41.2
2025/04/04 19:23:42.000   28.410823267  -16.545241379   132.3659   1   6   0.0018   0.0013   0.0171   0.0008  -0.0003   0.0025  12.00   42.1
2025/04/04 19:23:43.000   28.410823267  -16.545241379   132.3660   1   6   0.0018   0.0013   0.0171   0.0008  -0.0003   0.0025  13.00   42.9
2025/04/04 19:23:44.000   28.410823267  -16.545241379   132.3661   1   6   0.0018   0.0013   0.0171   0.0008  -0.0003   0.0025  14.00   43.8
2025/04/04 19:23:45.000   28.410823267  -16.545241379   132.3662   1   6   0.0018   0.0013   0.0171   0.0008  -0.0003   0.0025 -15.00   44.6
2025/04/04 19:23:46.000   28.410823266  -16.545241380   132.3662   1   6   0.0018   0.0013   0.0171   0.0008  -0.0003   0.0025 -14.00   45.5
2025/04/04 19:23:47.000   28.410823266  -16.545241380   132.3663   1   6   0.0018   0.0013   0.0171   0.0008  -0.0004   0.0025 -13.00   46.4
2025/04/04 19:23:48.000   28.410823266  -16.545241380   132.3664   1   6   0.0018   0.0013   0.0171   0.0008  -0.0004   0.0025 -12.00   47.4
2025/04/04 19:23:49.000   28.410823266  -16.545241380   132.3664   1   6   0.0018   0.0013   0.0171   0.0008  -0.0004   0.0025 -11.00   48.5
2025/04/04 19:23:50.000   28.410823266  -16.545241380   132.3665   1   6   0.0018   0.0013   0.0171   0.0008  -0.0004   0.0025 -10.00   49.5
2025/04/04 19:23:51.000   28.410823266  -16.545241380   132.3666   1   6   0.0017   0.0013   0.0171   0.0008  -0.0004   0.0025  -9.00   50.8
2025/04/04 19:23:52.000   28.410823266  -16.545241380   132.3666   1   6   0.0017   0.0013   0.0171   0.0008  -0.0004   0.0025  -8.00   52.0
2025/04/04 19:23:53.000   28.410823266  -16.545241380   132.3666   1   6   0.0017   0.0013   0.0171   0.0008  -0.0004   0.0025  -7.00   53.6
2025/04/04 19:23:54.000   28.410823266  -16.545241380   132.3667   1   6   0.0017   0.0013   0.0171   0.0008  -0.0004   0.0025  -6.00   55.3
2025/04/04 19:23:55.000   28.410823266  -16.545241380   132.3667   1   6   0.0017   0.0013   0.0171   0.0008  -0.0004   0.0025  -5.00   57.3
2025/04/04 19:23:56.000   28.410823265  -16.545241381   132.3668   1   6   0.0017   0.0013   0.0171   0.0008  -0.0004   0.0025  -4.00   59.6
2025/04/04 19:23:57.000   28.410823265  -16.545241381   132.3670   1   6   0.0017   0.0013   0.0171   0.0008  -0.0005   0.0025  -3.00   62.5
2025/04/04 19:23:58.000   28.410823265  -16.545241381   132.3671   1   6   0.0017   0.0013   0.0170   0.0008  -0.0005   0.0025  -2.00   66.4
2025/04/04 19:23:59.000   28.410823265  -16.545241381   132.3675   1   6   0.0017   0.0013   0.0170   0.0008  -0.0005   0.0025  -1.00   70.7
2025/04/04 19:24:00.000   28.410823265  -16.545241381   132.3679   1   6   0.0017   0.0013   0.0170   0.0008  -0.0005   0.0025   0.00   75.5
2025/04/04 19:24:01.000   28.410823265  -16.545241381   132.3682   1   6   0.0017   0.0013   0.0170   0.0008  -0.0005   0.0025   1.00   81.0
2025/04/04 19:24:02.000   28.410823265  -16.545241381   132.3685   1   6   0.0017   0.0013   0.0171   0.0008  -0.0005   0.0025   2.00   85.7
2025/04/04 19:24:03.000   28.410823265  -16.545241382   132.3687   1   6   0.0017   0.0013   0.0171   0.0008  -0.0005   0.0025   3.00   90.0
2025/04/04 19:24:04.000   28.410823265  -16.545241382   132.3690   1   6   0.0017   0.0013   0.0171   0.0008  -0.0005   0.0025   4.00   94.0
2025/04/04 19:24:05.000   28.410823264  -16.545241382   132.3692   1   6   0.0017   0.0013   0.0171   0.0008  -0.0005   0.0025   5.00   98.2
2025/04/04 19:24:06.000   28.410823265  -16.545241382   132.3695   1   6   0.0017   0.0013   0.0171   0.0008  -0.0005   0.0025   6.00  102.2
2025/04/04 19:24:07.000   28.410823265  -16.545241382   132.3698   1   6   0.0017   0.0013   0.0171   0.0008  -0.0005   0.0025   7.00  105.7
2025/04/04 19:24:08.000   28.410823265  -16.545241382   132.3701   1   6   0.0017   0.0013   0.0170   0.0008  -0.0005   0.0025   8.00  109.3
2025/04/04 19:24:09.000   28.410823265  -16.545241382   132.3704   1   6   0.0017   0.0013   0.0170   0.0008  -0.0005   0.0025   9.00  112.6
2025/04/04 19:24:10.000   28.410823265  -16.545241382   132.3706   1   6   0.0017   0.0013   0.0170   0.0008  -0.0006   0.0025  10.00  115.4
2025/04/04 19:24:11.000   28.410823265  -16.545241382   132.3709   1   6   0.0017   0.0013   0.0170   0.0008  -0.0006   0.0025  11.00  118.4
2025/04/04 19:24:12.000   28.410823265  -16.545241382   132.3712   1   6   0.0017   0.0013   0.0170   0.0008  -0.0006   0.0025  12.00  121.2
2025/04/04 19:24:13.000   28.410823265  -16.545241382   132.3714   1   6   0.0017   0.0013   0.0170   0.0008  -0.0006   0.0025  13.00  123.9
2025/04/04 19:24:14.000   28.410823265  -16.545241382   132.3717   1   6   0.0017   0.0013   0.0170   0.0008  -0.0006   0.0025  14.00  126.4
2025/04/04 19:24:15.000   28.410823265  -16.545241382   132.3719   1   6   0.0017   0.0013   0.0170   0.0008  -0.0006   0.0025 -15.00  128.8
2025/04/04 19:24:16.000   28.410823265  -16.545241382   132.3720   1   6   0.0017   0.0013   0.0170   0.0008  -0.0006   0.0025 -14.00  131.4
2025/04/04 19:24:17.000   28.410823265  -16.545241382   132.3723   1   6   0.0017   0.0013   0.0170   0.0008  -0.0006   0.0025 -13.00  134.3
2025/04/04 19:24:18.000   28.410823266  -16.545241382   132.3725   1   6   0.0017   0.0013   0.0170   0.0008  -0.0006   0.0025 -12.00  137.4
2025/04/04 19:24:19.000   28.410823266  -16.545241382   132.3727   1   6   0.0017   0.0013   0.0170   0.0008  -0.0006   0.0025 -11.00  140.9
2025/04/04 19:24:20.000   28.410823266  -16.545241382   132.3729   1   6   0.0017   0.0013   0.0170   0.0008  -0.0006   0.0025 -10.00  144.7
2025/04/04 19:24:21.000   28.410823266  -16.545241382   132.3732   1   6   0.0017   0.0013   0.0170   0.0008  -0.0006   0.0025  -9.00  149.4
2025/04/04 19:24:22.000   28.410823266  -16.545241382   132.3735   1   6   0.0017   0.0013   0.0170   0.0008  -0.0006   0.0025  -8.00  154.5
2025/04/04 19:24:23.000   28.410823266  -16.545241382   132.3738   1   6   0.0017   0.0013   0.0170   0.0008  -0.0006   0.0025  -7.00  160.0
2025/04/04 19:24:24.000   28.410823266  -16.545241382   132.3741   1   6   0.0017   0.0013   0.0170   0.0008  -0.0006   0.0025  -6.00  167.3
2025/04/04 19:24:25.000   28.410823267  -16.545241382   132.3745   1   6   0.0017   0.0013   0.0170   0.0008  -0.0006   0.0025  -5.00  175.4
2025/04/04 19:24:26.000   28.410823267  -16.545241382   132.3749   1   6   0.0017   0.0013   0.0170   0.0008  -0.0006   0.0025  -4.00  186.6
2025/04/04 19:24:27.000   28.410823267  -16.545241382   132.3754   1   6   0.0017   0.0013   0.0170   0.0008  -0.0006   0.0025  -3.00  199.1
2025/04/04 19:24:28.000   28.410823267  -16.545241382   132.3760   1   6   0.0017   0.0013   0.0170   0.0008  -0.0007   0.0025  -2.00  212.9
2025/04/04 19:24:29.000   28.410823267  -16.545241382   132.3763   1   6   0.0017   0.0013   0.0170   0.0008  -0.0007   0.0025  -1.00  231.6
2025/04/04 19:24:30.000   28.410823268  -16.545241382   132.3768   1   6   0.0017   0.0013   0.0170   0.0008  -0.0007   0.0025   0.00  250.8
2025/04/04 19:24:31.000   28.410823267  -16.545241383   132.3769   1   6   0.0017   0.0013   0.0170   0.0008  -0.0007   0.0025   1.00  273.5
2025/04/04 19:24:32.000   28.410823267  -16.545241383   132.3774   1   6   0.0017   0.0013   0.0170   0.0008  -0.0007   0.0025   2.00  295.1
2025/04/04 19:24:33.000   28.410823268  -16.545241383   132.3777   1   6   0.0017   0.0013   0.0170   0.0008  -0.0007   0.0025   3.00  314.2
2025/04/04 19:24:34.000   28.410823268  -16.545241383   132.3780   1   6   0.0017   0.0013   0.0170   0.0008  -0.0007   0.0025   4.00  333.7
2025/04/04 19:24:35.000   28.410823268  -16.545241383   132.3784   1   6   0.0017   0.0013   0.0170   0.0008  -0.0007   0.0025   5.00  352.0
2025/04/04 19:24:36.000   28.410823268  -16.545241383   132.3789   1   6   0.0017   0.0013   0.0170   0.0008  -0.0007   0.0025   6.00  370.3
2025/04/04 19:24:37.000   28.410823268  -16.545241383   132.3792   1   6   0.0017   0.0013   0.0170   0.0008  -0.0007   0.0025   7.00  385.2
2025/04/04 19:24:38.000   28.410823268  -16.545241383   132.3795   1   6   0.0017   0.0013   0.0170   0.0008  -0.0007   0.0025   8.00  399.7
2025/04/04 19:24:39.000   28.410823268  -16.545241383   132.3798   1   6   0.0017   0.0013   0.0170   0.0008  -0.0007   0.0025   9.00  414.8
2025/04/04 19:24:40.000   28.410823268  -16.545241383   132.3801   1   6   0.0017   0.0013   0.0170   0.0008  -0.0007   0.0025  10.00  428.0
2025/04/04 19:24:41.000   28.410823268  -16.545241383   132.3803   1   6   0.0017   0.0013   0.0170   0.0008  -0.0007   0.0025  11.00  439.5
2025/04/04 19:24:42.000   28.410823268  -16.545241383   132.3805   1   6   0.0017   0.0013   0.0170   0.0008  -0.0007   0.0025  12.00  451.5
2025/04/04 19:24:43.000   28.410823268  -16.545241383   132.3808   1   6   0.0017   0.0013   0.0170   0.0008  -0.0007   0.0025  13.00  462.0
2025/04/04 19:24:44.000   28.410823268  -16.545241383   132.3810   1   6   0.0017   0.0013   0.0170   0.0008  -0.0007   0.0025  14.00  472.0
2025/04/04 19:24:45.000   28.410823268  -16.545241383   132.3812   1   6   0.0017   0.0013   0.0170   0.0008  -0.0007   0.0025 -15.00  481.5
2025/04/04 19:24:46.000   28.410823268  -16.545241383   132.3813   1   6   0.0017   0.0013   0.0170   0.0008  -0.0007   0.0025 -14.00  491.2
2025/04/04 19:24:47.000   28.410823268  -16.545241383   132.3815   1   6   0.0017   0.0013   0.0170   0.0008  -0.0007   0.0025 -13.00  501.7
2025/04/04 19:24:48.000   28.410823268  -16.545241383   132.3816   1   6   0.0017   0.0013   0.0170   0.0008  -0.0007   0.0025 -12.00  513.7
2025/04/04 19:24:49.000   28.410823268  -16.545241383   132.3818   1   6   0.0017   0.0013   0.0170   0.0008  -0.0007   0.0025 -11.00  526.1
2025/04/04 19:24:50.000   28.410823268  -16.545241383   132.3819   1   6   0.0017   0.0013   0.0170   0.0008  -0.0007   0.0025 -10.00  539.1
2025/04/04 19:24:51.000   28.410823268  -16.545241384   132.3821   1   6   0.0017   0.0013   0.0170   0.0008  -0.0007   0.0025  -9.00  553.2
2025/04/04 19:24:52.000   28.410823268  -16.545241384   132.3822   1   6   0.0017   0.0013   0.0170   0.0008  -0.0007   0.0025  -8.00  571.2
2025/04/04 19:24:53.000   28.410823268  -16.545241384   132.3824   1   6   0.0017   0.0013   0.0170   0.0008  -0.0008   0.0025  -7.00  588.3
2025/04/04 19:24:54.000   28.410823268  -16.545241384   132.3826   1   6   0.0017   0.0013   0.0170   0.0008  -0.0008   0.0025  -6.00  612.3
2025/04/04 19:24:55.000   28.410823268  -16.545241384   132.3827   1   6   0.0017   0.0013   0.0169   0.0008  -0.0008   0.0025  -5.00  636.4
2025/04/04 19:24:56.000   28.410823268  -16.545241384   132.3829   1   6   0.0017   0.0013   0.0169   0.0008  -0.0008   0.0025  -4.00  672.6
2025/04/04 19:24:57.000   28.410823268  -16.545241384   132.3832   1   6   0.0017   0.0013   0.0169   0.0008  -0.0008   0.0025  -3.00  714.9
2025/04/04 19:24:58.000   28.410823268  -16.545241384   132.3835   1   6   0.0017   0.0013   0.0169   0.0008  -0.0008   0.0025  -2.00  754.2
2025/04/04 19:24:59.000   28.410823268  -16.545241385   132.3837   1   6   0.0017   0.0012   0.0169   0.0008  -0.0008   0.0025  -1.00  807.1
2025/04/04 19:25:00.000   28.410823268  -16.545241385   132.3842   1   6   0.0017   0.0012   0.0169   0.0008  -0.0008   0.0025   0.00  871.0
2025/04/04 19:25:01.000   28.410823268  -16.545241385   132.3846   1   6   0.0017   0.0012   0.0169   0.0008  -0.0008   0.0025   1.00  922.1
2025/04/04 19:25:02.000   28.410823268  -16.545241385   132.3849   1   6   0.0017   0.0012   0.0170   0.0008  -0.0008   0.0025   2.00  969.9
2025/04/04 19:25:03.000   28.410823268  -16.545241385   132.3854   1   6   0.0017   0.0012   0.0170   0.0008  -0.0008   0.0025   3.00  999.9
2025/04/04 19:25:04.000   28.410823269  -16.545241385   132.3858   1   6   0.0017   0.0012   0.0170   0.0008  -0.0008   0.0026   4.00  999.9
2025/04/04 19:25:05.000   28.410823269  -16.545241385   132.3863   1   6   0.0017   0.0012   0.0170   0.0008  -0.0008   0.0026   5.00  999.9
2025/04/04 19:25:06.000   28.410823269  -16.545241385   132.3866   1   6   0.0017   0.0012   0.0170   0.0008  -0.0008   0.0026   6.00  999.9
2025/04/04 19:25:07.000   28.410823269  -16.545241385   132.3869   1   6   0.0017   0.0012   0.0170   0.0008  -0.0008   0.0026   7.00  999.9
2025/04/04 19:25:08.000   28.410823269  -16.545241385   132.3872   1   6   0.0017   0.0012   0.0170   0.0008  -0.0008   0.0026   8.00  999.9
2025/04/04 19:25:09.000   28.410823269  -16.545241385   132.3875   1   6   0.0017   0.0012   0.0170   0.0008  -0.0008   0.0026   9.00  999.9
2025/04/04 19:25:10.000   28.410823269  -16.545241385   132.3878   1   6   0.0017   0.0012   0.0170   0.0008  -0.0008   0.0026  10.00  999.9
2025/04/04 19:25:11.000   28.410823269  -16.545241385   132.3881   1   6   0.0017   0.0012   0.0170   0.0008  -0.0008   0.0026  11.00  999.9
2025/04/04 19:25:12.000   28.410823269  -16.545241385   132.3883   1   6   0.0017   0.0012   0.0170   0.0008  -0.0008   0.0026  12.00  999.9
2025/04/04 19:25:13.000   28.410823269  -16.545241385   132.3885   1   6   0.0017   0.0012   0.0169   0.0008  -0.0008   0.0026  13.00  999.9
2025/04/04 19:25:14.000   28.410823269  -16.545241385   132.3887   1   6   0.0017   0.0012   0.0169   0.0008  -0.0008   0.0026  14.00  999.9
2025/04/04 19:25:15.000   28.410823269  -16.545241385   132.3888   1   6   0.0017   0.0012   0.0169   0.0008  -0.0008   0.0026 -15.00  999.9
2025/04/04 19:25:16.000   28.410823269  -16.545241385   132.3890   1   6   0.0017   0.0012   0.0169   0.0008  -0.0008   0.0026 -14.00  999.9
2025/04/04 19:25:17.000   28.410823269  -16.545241385   132.3892   1   6   0.0017   0.0012   0.0169   0.0008  -0.0008   0.0026 -13.00  999.9
2025/04/04 19:25:18.000   28.410823269  -16.545241385   132.3893   1   6   0.0017   0.0012   0.0169   0.0008  -0.0009   0.0026 -12.00  999.9
2025/04/04 19:25:19.000   28.410823269  -16.545241385   132.3895   1   6   0.0017   0.0012   0.0169   0.0008  -0.0009   0.0026 -11.00  999.9
2025/04/04 19:25:20.000   28.410823269  -16.545241386   132.3896   1   6   0.0017   0.0012   0.0169   0.0008  -0.0009   0.0026 -10.00  999.9
2025/04/04 19:25:21.000   28.410823269  -16.545241386   132.3897   1   6   0.0017   0.0012   0.0169   0.0008  -0.0009   0.0026  -9.00  999.9
2025/04/04 19:25:22.000   28.410823269  -16.545241386   132.3899   1   6   0.0017   0.0012   0.0169   0.0008  -0.0009   0.0026  -8.00  999.9
2025/04/04 19:25:23.000   28.410823269  -16.545241386   132.3901   1   6   0.0017   0.0012   0.0169   0.0008  -0.0009   0.0026  -7.00  999.9
2025/04/04 19:25:24.000   28.410823269  -16.545241386   132.3902   1   6   0.0017   0.0012   0.0169   0.0008  -0.0009   0.0026  -6.00  999.9
2025/04/04 19:25:25.000   28.410823269  -16.545241386   132.3904   1   6   0.0017   0.0012   0.0169   0.0008  -0.0009   0.0026  -5.00  999.9
2025/04/04 19:25:26.000   28.410823269  -16.545241386   132.3907   1   6   0.0017   0.0012   0.0169   0.0008  -0.0009   0.0026  -4.00  999.9
2025/04/04 19:25:27.000   28.410823269  -16.545241386   132.3910   1   6   0.0017   0.0012   0.0169   0.0008  -0.0009   0.0026  -3.00  999.9
2025/04/04 19:25:28.000   28.410823269  -16.545241387   132.3914   1   6   0.0017   0.0012   0.0169   0.0008  -0.0009   0.0026  -2.00  999.9
2025/04/04 19:25:29.000   28.410823269  -16.545241387   132.3917   1   6   0.0017   0.0012   0.0169   0.0008  -0.0009   0.0026  -1.00  999.9
2025/04/04 19:25:30.000   28.410823269  -16.545241387   132.3921   1   6   0.0017   0.0012   0.0169   0.0008  -0.0009   0.0026   0.00  999.9
2025/04/04 19:25:31.000   28.410823269  -16.545241387   132.3926   1   6   0.0017   0.0012   0.0169   0.0008  -0.0009   0.0026   1.00  999.9
2025/04/04 19:25:32.000   28.410823274  -16.545241366   132.3485   1   7   0.0017   0.0012   0.0142   0.0008   0.0018   0.0027   2.00    5.3
2025/04/04 19:25:33.000   28.410823274  -16.545241366   132.3492   1   7   0.0017   0.0012   0.0141   0.0008   0.0018   0.0027   3.00    6.1
2025/04/04 19:25:34.000   28.410823274  -16.545241366   132.3484   1   7   0.0017   0.0012   0.0141   0.0008   0.0018   0.0027   4.00    6.2
2025/04/04 19:25:35.000   28.410823274  -16.545241366   132.3482   1   7   0.0017   0.0012   0.0140   0.0008   0.0019   0.0027   5.00    6.4
2025/04/04 19:25:36.000   28.410823274  -16.545241366   132.3478   1   7   0.0017   0.0012   0.0140   0.0008   0.0019   0.0027   6.00    6.8
2025/04/04 19:25:37.000   28.410823274  -16.545241365   132.3475   1   7   0.0017   0.0011   0.0140   0.0008   0.0019   0.0027   7.00    7.1
2025/04/04 19:25:38.000   28.410823274  -16.545241365   132.3472   1   7   0.0017   0.0011   0.0140   0.0008   0.0019   0.0027   8.00    7.3
2025/04/04 19:25:39.000   28.410823274  -16.545241365   132.3469   1   7   0.0017   0.0011   0.0140   0.0008   0.0019   0.0027   9.00    7.6
2025/04/04 19:25:40.000   28.410823274  -16.545241365   132.3469   1   7   0.0017   0.0011   0.0139   0.0008   0.0019   0.0027  10.00    8.0
2025/04/04 19:25:41.000   28.410823273  -16.545241365   132.3467   1   7   0.0017   0.0011   0.0139   0.0008   0.0019   0.0027  11.00    8.3
2025/04/04 19:25:42.000   28.410823273  -16.545241365   132.3467   1   7   0.0017   0.0011   0.0139   0.0008   0.0019   0.0027  12.00    8.7
2025/04/04 19:25:43.000   28.410823273  -16.545241365   132.3466   1   7   0.0017   0.0011   0.0139   0.0008   0.0019   0.0027  13.00    9.0
2025/04/04 19:25:44.000   28.410823273  -16.545241365   132.3466   1   7   0.0017   0.0011   0.0139   0.0008   0.0019   0.0027  14.00    9.4
2025/04/04 19:25:45.000   28.410823273  -16.545241365   132.3465   1   7   0.0017   0.0011   0.0139   0.0008   0.0019   0.0027 -15.00    9.7
2025/04/04 19:25:46.000   28.410823273  -16.545241365   132.3465   1   7   0.0017   0.0011   0.0139   0.0008   0.0019   0.0027 -14.00   10.1
2025/04/04 19:25:47.000   28.410823273  -16.545241364   132.3462   1   7   0.0017   0.0011   0.0139   0.0008   0.0019   0.0027 -13.00   10.4
2025/04/04 19:25:48.000   28.410823273  -16.545241364   132.3462   1   7   0.0017   0.0011   0.0139   0.0008   0.0019   0.0027 -12.00   10.7
2025/04/04 19:25:49.000   28.410823273  -16.545241364   132.3460   1   7   0.0017   0.0011   0.0139   0.0008   0.0019   0.0027 -11.00   10.9
2025/04/04 19:25:50.000   28.410823273  -16.545241364   132.3458   1   7   0.0017   0.0011   0.0139   0.0008   0.0019   0.0027 -10.00   11.2
2025/04/04 19:25:51.000   28.410823273  -16.545241364   132.3455   1   7   0.0017   0.0011   0.0138   0.0008   0.0019   0.0027  -9.00   11.4
2025/04/04 19:25:52.000   28.410823273  -16.545241364   132.3452   1   7   0.0017   0.0011   0.0138   0.0008   0.0019   0.0027  -8.00   11.6
2025/04/04 19:25:53.000   28.410823273  -16.545241364   132.3449   1   7   0.0017   0.0011   0.0138   0.0008   0.0019   0.0027  -7.00   11.8
2025/04/04 19:25:54.000   28.410823273  -16.545241364   132.3444   1   7   0.0017   0.0011   0.0138   0.0008   0.0019   0.0027  -6.00   11.9
2025/04/04 19:25:55.000   28.410823273  -16.545241363   132.3443   1   7   0.0017   0.0011   0.0138   0.0008   0.0019   0.0027  -5.00   11.9
2025/04/04 19:25:56.000   28.410823273  -16.545241363   132.3438   1   7   0.0017   0.0011   0.0138   0.0008   0.0019   0.0027  -4.00   11.9
2025/04/04 19:25:57.000   28.410823273  -16.545241363   132.3435   1   7   0.0017   0.0011   0.0138   0.0008   0.0019   0.0027  -3.00   11.9
2025/04/04 19:25:58.000   28.410823272  -16.545241363   132.3430   1   7   0.0017   0.0011   0.0138   0.0008   0.0019   0.0027  -2.00   11.8
2025/04/04 19:25:59.000   28.410823272  -16.545241363   132.3422   1   7   0.0017   0.0011   0.0137   0.0008   0.0019   0.0027  -1.00   11.6
2025/04/04 19:26:00.000   28.410823272  -16.545241362   132.3418   1   7   0.0017   0.0011   0.0137   0.0008   0.0019   0.0027   0.00   11.5
2025/04/04 19:26:01.000   28.410823272  -16.545241362   132.3415   1   7   0.0017   0.0011   0.0137   0.0008   0.0019   0.0027   1.00   11.4
2025/04/04 19:26:02.000   28.410823272  -16.545241362   132.3412   1   7   0.0017   0.0011   0.0137   0.0008   0.0019   0.0027   2.00   11.4
2025/04/04 19:26:03.000   28.410823272  -16.545241362   132.3411   1   7   0.0017   0.0011   0.0137   0.0008   0.0019   0.0027   3.00   11.4
2025/04/04 19:26:04.000   28.410823272  -16.545241362   132.3409   1   7   0.0017   0.0011   0.0137   0.0008   0.0019   0.0027   4.00   11.5
2025/04/04 19:26:05.000   28.410823272  -16.545241361   132.3406   1   7   0.0017   0.0011   0.0137   0.0008   0.0019   0.0027   5.00   11.5
2025/04/04 19:26:06.000   28.410823273  -16.545241361   132.3405   1   7   0.0017   0.0011   0.0137   0.0008   0.0019   0.0027   6.00   11.6
2025/04/04 19:26:07.000   28.410823273  -16.545241361   132.3405   1   7   0.0017   0.0011   0.0137   0.0008   0.0019   0.0027   7.00   11.8
2025/04/04 19:26:08.000   28.410823273  -16.545241361   132.3404   1   7   0.0017   0.0011   0.0137   0.0008   0.0019   0.0027   8.00   11.9
2025/04/04 19:26:09.000   28.410823273  -16.545241361   132.3403   1   7   0.0017   0.0011   0.0137   0.0008   0.0019   0.0027   9.00   12.1
2025/04/04 19:26:10.000   28.410823273  -16.545241361   132.3403   1   7   0.0017   0.0011   0.0137   0.0008   0.0019   0.0027  10.00   12.3
2025/04/04 19:26:11.000   28.410823273  -16.545241361   132.3403   1   7   0.0017   0.0011   0.0137   0.0008   0.0019   0.0027  11.00   12.5
2025/04/04 19:26:12.000   28.410823273  -16.545241361   132.3403   1   7   0.0017   0.0011   0.0137   0.0008   0.0019   0.0027  12.00   12.7
2025/04/04 19:26:13.000   28.410823273  -16.545241361   132.3403   1   7   0.0017   0.0011   0.0137   0.0008   0.0019   0.0027  13.00   12.9
2025/04/04 19:26:14.000   28.410823273  -16.545241361   132.3403   1   7   0.0017   0.0011   0.0137   0.0008   0.0019   0.0027  14.00   13.1
2025/04/04 19:26:15.000   28.410823273  -16.545241361   132.3403   1   7   0.0017   0.0011   0.0137   0.0008   0.0019   0.0027 -15.00   13.3
2025/04/04 19:26:16.000   28.410823273  -16.545241361   132.3402   1   7   0.0017   0.0011   0.0137   0.0008   0.0019   0.0027 -14.00   13.5
2025/04/04 19:26:17.000   28.410823273  -16.545241360   132.3402   1   7   0.0017   0.0011   0.0137   0.0008   0.0019   0.0027 -13.00   13.8
2025/04/04 19:26:18.000   28.410823273  -16.545241360   132.3401   1   7   0.0017   0.0011   0.0137   0.0008   0.0019   0.0027 -12.00   14.0
2025/04/04 19:26:19.000   28.410823273  -16.545241360   132.3401   1   7   0.0017   0.0011   0.0136   0.0008   0.0019   0.0027 -11.00   14.2
2025/04/04 19:26:20.000   28.410823273  -16.545241360   132.3399   1   7   0.0017   0.0011   0.0136   0.0008   0.0019   0.0027 -10.00   14.4
2025/04/04 19:26:21.000   28.410823273  -16.545241360   132.3398   1   7   0.0017   0.0011   0.0136   0.0008   0.0019   0.0027  -9.00   14.6
2025/04/04 19:26:22.000   28.410823273  -16.545241360   132.3396   1   7   0.0017   0.0011   0.0136   0.0008   0.0019   0.0027  -8.00   14.7
2025/04/04 19:26:23.000   28.410823272  -16.545241360   132.3394   1   7   0.0017   0.0011   0.0136   0.0008   0.0019   0.0027  -7.00   14.9
2025/04/04 19:26:24.000   28.410823272  -16.545241360   132.3392   1   7   0.0017   0.0011   0.0136   0.0008   0.0019   0.0027  -6.00   15.0
2025/04/04 19:26:25.000   28.410823272  -16.545241360   132.3391   1   7   0.0017   0.0011   0.0136   0.0008   0.0019   0.0027  -5.00   15.2
2025/04/04 19:26:26.000   28.410823272  -16.545241360   132.3387   1   7   0.0017   0.0011   0.0136   0.0008   0.0019   0.0027  -4.00   15.3
2025/04/04 19:26:27.000   28.410823272  -16.545241360   132.3386   1   7   0.0017   0.0011   0.0136   0.0008   0.0019   0.0027  -3.00   15.5
2025/04/04 19:26:28.000   28.410823272  -16.545241360   132.3384   1   7   0.0017   0.0011   0.0136   0.0008   0.0019   0.0027  -2.00   15.7
2025/04/04 19:26:29.000   28.410823272  -16.545241360   132.3380   1   7   0.0017   0.0011   0.0136   0.0008   0.0019   0.0027  -1.00   15.8
2025/04/04 19:26:30.000   28.410823272  -16.545241359   132.3379   1   7   0.0017   0.0011   0.0136   0.0008   0.0019   0.0027   0.00   15.9
2025/04/04 19:26:31.000   28.410823272  -16.545241359   132.3377   1   7   0.0017   0.0011   0.0136   0.0008   0.0019   0.0027   1.00   16.1
2025/04/04 19:26:32.000   28.410823272  -16.545241359   132.3376   1   7   0.0017   0.0011   0.0136   0.0008   0.0019   0.0027   2.00   16.3
2025/04/04 19:26:33.000   28.410823272  -16.545241359   132.3374   1   7   0.0017   0.0011   0.0136   0.0008   0.0019   0.0027   3.00   16.5
2025/04/04 19:26:34.000   28.410823272  -16.545241359   132.3375   1   7   0.0017   0.0011   0.0136   0.0008   0.0019   0.0027   4.00   16.7
2025/04/04 19:26:35.000   28.410823272  -16.545241359   132.3374   1   7   0.0017   0.0011   0.0136   0.0008   0.0019   0.0027   5.00   16.9
2025/04/04 19:26:36.000   28.410823273  -16.545241358   132.3374   1   7   0.0017   0.0011   0.0136   0.0008   0.0019   0.0027   6.00   17.1
2025/04/04 19:26:37.000   28.410823273  -16.545241358   132.3373   1   7   0.0017   0.0011   0.0136   0.0008   0.0019   0.0027   7.00   17.3
2025/04/04 19:26:38.000   28.410823273  -16.545241358   132.3373   1   7   0.0017   0.0011   0.0135   0.0008   0.0019   0.0027   8.00   17.6
2025/04/04 19:26:39.000   28.410823273  -16.545241358   132.3373   1   7   0.0017   0.0011   0.0135   0.0008   0.0019   0.0027   9.00   17.8
2025/04/04 19:26:40.000   28.410823273  -16.545241358   132.3373   1   7   0.0017   0.0011   0.0135   0.0008   0.0019   0.0027  10.00   18.0
2025/04/04 19:26:41.000   28.410823273  -16.545241358   132.3374   1   7   0.0017   0.0011   0.0135   0.0008   0.0019   0.0027  11.00   18.3
2025/04/04 19:26:42.000   28.410823273  -16.545241358   132.3374   1   7   0.0017   0.0011   0.0135   0.0008   0.0019   0.0027  12.00   18.5
2025/04/04 19:26:43.000   28.410823273  -16.545241358   132.3375   1   7   0.0017   0.0011   0.0135   0.0008   0.0019   0.0027  13.00   18.8
2025/04/04 19:26:44.000   28.410823273  -16.545241358   132.3375   1   7   0.0017   0.0011   0.0135   0.0008   0.0019   0.0027  14.00   19.0
2025/04/04 19:26:45.000   28.410823273  -16.545241358   132.3375   1   7   0.0017   0.0011   0.0135   0.0008   0.0019   0.0027 -15.00   19.3
2025/04/04 19:26:46.000   28.410823273  -16.545241358   132.3376   1   7   0.0017   0.0011   0.0135   0.0008   0.0019   0.0027 -14.00   19.5
2025/04/04 19:26:47.000   28.410823273  -16.545241358   132.3376   1   7   0.0017   0.0011   0.0135   0.0008   0.0019   0.0027 -13.00   19.8
2025/04/04 19:26:48.000   28.410823273  -16.545241358   132.3376   1   7   0.0017   0.0011   0.0135   0.0008   0.0019   0.0027 -12.00   20.0
2025/04/04 19:26:49.000   28.410823273  -16.545241358   132.3377   1   7   0.0017   0.0011   0.0135   0.0008   0.0019   0.0027 -11.00   20.3
2025/04/04 19:26:50.000   28.410823273  -16.545241358   132.3376   1   7   0.0017   0.0011   0.0135   0.0008   0.0019   0.0027 -10.00   20.5
2025/04/04 19:26:51.000   28.410823273  -16.545241358   132.3376   1   7   0.0017   0.0011   0.0135   0.0008   0.0019   0.0027  -9.00   20.8
2025/04/04 19:26:52.000   28.410823273  -16.545241358   132.3376   1   7   0.0017   0.0011   0.0135   0.0008   0.0019   0.0027  -8.00   21.0
2025/04/04 19:26:53.000   28.410823273  -16.545241358   132.3375   1   7   0.0017   0.0011   0.0135   0.0008   0.0019   0.0027  -7.00   21.2
2025/04/04 19:26:54.000   28.410823273  -16.545241358   132.3375   1   7   0.0017   0.0011   0.0135   0.0008   0.0019   0.0027  -6.00   21.5
2025/04/04 19:26:55.000   28.410823273  -16.545241358   132.3375   1   7   0.0017   0.0011   0.0135   0.0008   0.0019   0.0027  -5.00   21.7
2025/04/04 19:26:56.000   28.410823273  -16.545241358   132.3375   1   7   0.0017   0.0011   0.0135   0.0008   0.0019   0.0027  -4.00   22.0
2025/04/04 19:26:57.000   28.410823273  -16.545241358   132.3373   1   7   0.0017   0.0011   0.0135   0.0008   0.0019   0.0027  -3.00   22.2
2025/04/04 19:26:58.000   28.410823273  -16.545241358   132.3373   1   7   0.0017   0.0011   0.0135   0.0008   0.0019   0.0027  -2.00   22.5
2025/04/04 19:26:59.000   28.410823273  -16.545241358   132.3371   1   7   0.0017   0.0011   0.0135   0.0007   0.0019   0.0027  -1.00   22.7
2025/04/04 19:27:00.000   28.410823273  -16.545241358   132.3369   1   7   0.0017   0.0011   0.0135   0.0007   0.0019   0.0027   0.00   22.9
2025/04/04 19:27:01.000   28.410823273  -16.545241358   132.3368   1   7   0.0017   0.0011   0.0135   0.0007   0.0019   0.0027   1.00   23.1
2025/04/04 19:27:02.000   28.410823273  -16.545241357   132.3366   1   7   0.0017   0.0011   0.0135   0.0007   0.0019   0.0027   2.00   23.3
2025/04/04 19:27:03.000   28.410823273  -16.545241357   132.3367   1   7   0.0017   0.0011   0.0135   0.0007   0.0019   0.0027   3.00   23.5
2025/04/04 19:27:04.000   28.410823273  -16.545241357   132.3367   1   7   0.0017   0.0011   0.0135   0.0007   0.0019   0.0027   4.00   23.8
2025/04/04 19:27:05.000   28.410823273  -16.545241357   132.3367   1   7   0.0017   0.0011   0.0135   0.0007   0.0019   0.0027   5.00   24.0
2025/04/04 19:27:06.000   28.410823273  -16.545241357   132.3367   1   7   0.0017   0.0011   0.0135   0.0007   0.0019   0.0028   6.00   24.2
2025/04/04 19:27:07.000   28.410823273  -16.545241357   132.3368   1   7   0.0017   0.0011   0.0135   0.0007   0.0019   0.0028   7.00   24.5
2025/04/04 19:27:08.000   28.410823273  -16.545241357   132.3368   1   7   0.0017   0.0011   0.0135   0.0007   0.0019   0.0028   8.00   24.8
2025/04/04 19:27:09.000   28.410823273  -16.545241357   132.3368   1   7   0.0017   0.0011   0.0135   0.0007   0.0019   0.0028   9.00   25.0
2025/04/04 19:27:10.000   28.410823273  -16.545241357   132.3369   1   7   0.0017   0.0011   0.0135   0.0007   0.0019   0.0028  10.00   25.3
2025/04/04 19:27:11.000   28.410823274  -16.545241357   132.3369   1   7   0.0017   0.0011   0.0135   0.0007   0.0019   0.0028  11.00   25.6
2025/04/04 19:27:12.000   28.410823274  -16.545241357   132.3371   1   7   0.0017   0.0011   0.0135   0.0007   0.0019   0.0028  12.00   25.8
2025/04/04 19:27:13.000   28.410823274  -16.545241357   132.3372   1   7   0.0017   0.0011   0.0135   0.0007   0.0019   0.0028  13.00   26.1
2025/04/04 19:27:14.000   28.410823274  -16.545241357   132.3373   1   7   0.0017   0.0011   0.0134   0.0007   0.0019   0.0028  14.00   26.4
2025/04/04 19:27:15.000   28.410823274  -16.545241357   132.3374   1   7   0.0017   0.0011   0.0134   0.0007   0.0019   0.0028 -15.00   26.6
2025/04/04 19:27:16.000   28.410823274  -16.545241357   132.3375   1   7   0.0017   0.0011   0.0134   0.0007   0.0019   0.0028 -14.00   26.9
2025/04/04 19:27:17.000   28.410823274  -16.545241357   132.3376   1   7   0.0017   0.0011   0.0134   0.0007   0.0019   0.0028 -13.00   27.2
2025/04/04 19:27:18.000   28.410823274  -16.545241357   132.3377   1   7   0.0017   0.0011   0.0134   0.0007   0.0019   0.0028 -12.00   27.5
2025/04/04 19:27:19.000   28.410823274  -16.545241357   132.3378   1   7   0.0017   0.0011   0.0134   0.0007   0.0019   0.0028 -11.00   27.7
2025/04/04 19:27:20.000   28.410823275  -16.545241357   132.3379   1   7   0.0017   0.0011   0.0134   0.0007   0.0019   0.0028 -10.00   28.0
2025/04/04 19:27:21.000   28.410823275  -16.545241357   132.3380   1   7   0.0017   0.0011   0.0134   0.0007   0.0019   0.0028  -9.00   28.3
