% program   : RTKPOST-EX 2.5.0
% inp file  : C:\Users\SallyHenry\Desktop\Sally Internship\GNSS gravi\DATA\Survey Rover Obs\ORO01.25o
% inp file  : C:\Users\SallyHenry\Desktop\Sally Internship\GNSS gravi\DATA\BaseStations\TN02\TN0200ESP_R_20250940000_01D_30S_MO.rnx
% inp file  : C:\Users\SallyHenry\Desktop\Sally Internship\GNSS gravi\DATA\BaseStations\TN02\TN0200ESP_R_20250940000_01D_MN.rnx
% inp file  : C:\Users\SallyHenry\Desktop\Sally Internship\GNSS gravi\DATA\aux_files\Survey\IGS0OPSFIN_20250940000_01D_15M_ORB.SP3
% inp file  : C:\Users\SallyHenry\Desktop\Sally Internship\GNSS gravi\DATA\aux_files\Survey\IGS0OPSFIN_20250940000_01D_30S_CLK.CLK
% obs start : 2025/04/04 17:24:06.0 GPST (week2360 494646.0s)
% obs end   : 2025/04/04 17:39:20.0 GPST (week2360 495560.0s)
% pos mode  : Static
% freqs     : L1+L2/E5b
% solution  : Combined-No Phase Reset
% elev mask : 15.0 deg
% dynamics  : on
% tidecorr  : solid
% ionos opt : Estimate TEC
% tropo opt : Estimate ZTD+Grad
% ephemeris : Precise
% navi sys  : GPS GLONASS Galileo QZSS BDS
% amb res   : Fix and Hold
% amb glo   : Fix and Hold
% amb bds   : on
% val thres : 3.0
% antenna1  :                       ( 0.0000  0.0000  1.8000)
% antenna2  :                       ( 0.0000  0.0000  0.0771)
% ref pos   :  28.418257450  -16.550784480    54.4145
%
% (lat/lon/height=WGS84/ellipsoidal,Q=1:fix,2:float,3:sbas,4:dgps,5:single,6:ppp,ns=# of satellites)
%  GPST                  latitude(deg) longitude(deg)  height(m)   Q  ns   sdn(m)   sde(m)   sdu(m)  sdne(m)  sdeu(m)  sdun(m) age(s)  ratio
2025/04/04 17:24:06.000   28.415368206  -16.516605807   157.8448   2   6   0.0159   0.0237   0.1691  -0.0050  -0.0201   0.0157 -24.00    0.0
2025/04/04 17:24:07.000   28.415368206  -16.516605809   157.8438   2   6   0.0160   0.0237   0.1690  -0.0050  -0.0201   0.0157 -23.00    0.0
2025/04/04 17:24:08.000   28.415368206  -16.516605810   157.8433   2   6   0.0160   0.0237   0.1689  -0.0050  -0.0201   0.0157 -22.00    0.0
2025/04/04 17:24:09.000   28.415368204  -16.516605810   157.8420   2   6   0.0160   0.0237   0.1688  -0.0050  -0.0201   0.0157 -21.00    0.0
2025/04/04 17:24:10.000   28.415368203  -16.516605810   157.8422   2   6   0.0160   0.0237   0.1688  -0.0050  -0.0201   0.0157 -20.00    0.0
2025/04/04 17:24:11.000   28.415368202  -16.516605811   157.8428   2   6   0.0160   0.0237   0.1687  -0.0049  -0.0201   0.0156 -19.00    0.0
2025/04/04 17:24:12.000   28.415368202  -16.516605811   157.8428   2   6   0.0160   0.0237   0.1687  -0.0049  -0.0201   0.0156 -18.00    0.0
2025/04/04 17:24:13.000   28.415368201  -16.516605813   157.8423   2   6   0.0160   0.0237   0.1686  -0.0049  -0.0201   0.0156 -17.00    0.0
2025/04/04 17:24:14.000   28.415368200  -16.516605813   157.8412   2   6   0.0160   0.0237   0.1686  -0.0049  -0.0201   0.0156 -16.00    0.0
2025/04/04 17:24:15.000   28.415368200  -16.516605813   157.8396   2   6   0.0160   0.0237   0.1686  -0.0049  -0.0201   0.0156 -15.00    0.0
2025/04/04 17:24:16.000   28.415368199  -16.516605813   157.8382   2   6   0.0160   0.0237   0.1685  -0.0049  -0.0201   0.0156 -14.00    0.0
2025/04/04 17:24:17.000   28.415368198  -16.516605814   157.8361   2   6   0.0160   0.0237   0.1685  -0.0049  -0.0201   0.0156 -13.00    0.0
2025/04/04 17:24:18.000   28.415368198  -16.516605813   157.8338   2   6   0.0160   0.0237   0.1685  -0.0049  -0.0201   0.0156 -12.00    0.0
2025/04/04 17:24:19.000   28.415368197  -16.516605814   157.8307   2   6   0.0160   0.0237   0.1684  -0.0049  -0.0201   0.0156 -11.00    0.0
2025/04/04 17:24:20.000   28.415368196  -16.516605814   157.8273   2   6   0.0160   0.0237   0.1684  -0.0049  -0.0201   0.0156 -10.00    0.0
2025/04/04 17:24:21.000   28.415368195  -16.516605814   157.8236   2   6   0.0160   0.0237   0.1684  -0.0049  -0.0201   0.0156  -9.00    0.0
2025/04/04 17:24:22.000   28.415368194  -16.516605813   157.8187   2   6   0.0160   0.0237   0.1684  -0.0049  -0.0201   0.0155  -8.00    0.0
2025/04/04 17:24:23.000   28.415368194  -16.516605812   157.8135   2   6   0.0160   0.0237   0.1684  -0.0049  -0.0201   0.0155  -7.00    0.0
2025/04/04 17:24:24.000   28.415368193  -16.516605812   157.8080   2   6   0.0160   0.0238   0.1685  -0.0049  -0.0201   0.0155  -6.00    0.0
2025/04/04 17:24:25.000   28.415368192  -16.516605811   157.8011   2   6   0.0160   0.0238   0.1685  -0.0049  -0.0201   0.0155  -5.00    0.0
2025/04/04 17:24:26.000   28.415368191  -16.516605813   157.7951   2   6   0.0160   0.0238   0.1685  -0.0049  -0.0202   0.0155  -4.00    0.0
2025/04/04 17:24:27.000   28.415368191  -16.516605813   157.7895   2   6   0.0160   0.0238   0.1686  -0.0049  -0.0202   0.0155  -3.00    0.0
2025/04/04 17:24:28.000   28.415368190  -16.516605814   157.7842   2   6   0.0160   0.0238   0.1686  -0.0049  -0.0202   0.0155  -2.00    0.0
2025/04/04 17:24:29.000   28.415368191  -16.516605816   157.7812   2   6   0.0160   0.0238   0.1687  -0.0049  -0.0202   0.0155  -1.00    0.0
2025/04/04 17:24:30.000   28.415368189  -16.516605819   157.7754   2   6   0.0161   0.0238   0.1688  -0.0049  -0.0203   0.0155   0.00    0.0
2025/04/04 17:24:31.000   28.415368190  -16.516605821   157.7889   2   6   0.0161   0.0238   0.1689  -0.0049  -0.0203   0.0155   1.00    0.0
2025/04/04 17:24:32.000   28.415368192  -16.516605823   157.7989   2   6   0.0161   0.0239   0.1690  -0.0048  -0.0203   0.0155   2.00    0.0
2025/04/04 17:24:33.000   28.415368192  -16.516605826   157.8063   2   6   0.0161   0.0239   0.1691  -0.0048  -0.0204   0.0155   3.00    0.0
2025/04/04 17:24:34.000   28.415368194  -16.516605827   157.8155   2   6   0.0161   0.0239   0.1691  -0.0048  -0.0204   0.0155   4.00    0.0
2025/04/04 17:24:35.000   28.415368196  -16.516605828   157.8227   2   6   0.0161   0.0239   0.1692  -0.0048  -0.0204   0.0155   5.00    0.0
2025/04/04 17:24:36.000   28.415368196  -16.516605828   157.8273   2   6   0.0161   0.0239   0.1692  -0.0048  -0.0204   0.0155   6.00    0.0
2025/04/04 17:24:37.000   28.415368197  -16.516605829   157.8312   2   6   0.0161   0.0239   0.1692  -0.0048  -0.0205   0.0155   7.00    0.0
2025/04/04 17:24:38.000   28.415368197  -16.516605828   157.8345   2   6   0.0161   0.0239   0.1692  -0.0048  -0.0205   0.0155   8.00    0.0
2025/04/04 17:24:39.000   28.415368198  -16.516605828   157.8362   2   6   0.0162   0.0239   0.1692  -0.0048  -0.0205   0.0155   9.00    0.0
2025/04/04 17:24:40.000   28.415368198  -16.516605828   157.8371   2   6   0.0162   0.0239   0.1692  -0.0048  -0.0205   0.0155  10.00    0.0
2025/04/04 17:24:41.000   28.415368198  -16.516605828   157.8388   2   6   0.0162   0.0239   0.1692  -0.0048  -0.0205   0.0154  11.00    0.0
2025/04/04 17:24:42.000   28.415368197  -16.516605828   157.8395   2   6   0.0162   0.0240   0.1692  -0.0048  -0.0205   0.0154  12.00    0.0
2025/04/04 17:24:43.000   28.415368197  -16.516605828   157.8413   2   6   0.0162   0.0240   0.1692  -0.0048  -0.0205   0.0154  13.00    0.0
2025/04/04 17:24:44.000   28.415368198  -16.516605828   157.8428   2   6   0.0162   0.0240   0.1692  -0.0048  -0.0205   0.0154  14.00    0.0
2025/04/04 17:24:45.000   28.415368197  -16.516605828   157.8440   2   6   0.0162   0.0240   0.1692  -0.0048  -0.0205   0.0154 -15.00    0.0
2025/04/04 17:24:46.000   28.415368197  -16.516605828   157.8442   2   6   0.0162   0.0240   0.1692  -0.0048  -0.0205   0.0154 -14.00    0.0
2025/04/04 17:24:47.000   28.415368197  -16.516605828   157.8449   2   6   0.0162   0.0240   0.1692  -0.0048  -0.0205   0.0154 -13.00    0.0
2025/04/04 17:24:48.000   28.415368196  -16.516605828   157.8457   2   6   0.0162   0.0240   0.1692  -0.0048  -0.0205   0.0154 -12.00    0.0
2025/04/04 17:24:49.000   28.415368196  -16.516605828   157.8468   2   6   0.0162   0.0240   0.1692  -0.0048  -0.0205   0.0154 -11.00    0.0
2025/04/04 17:24:50.000   28.415368196  -16.516605828   157.8475   2   6   0.0162   0.0240   0.1692  -0.0048  -0.0205   0.0154 -10.00    0.0
2025/04/04 17:24:51.000   28.415368195  -16.516605828   157.8487   2   6   0.0162   0.0240   0.1692  -0.0047  -0.0205   0.0154  -9.00    0.0
2025/04/04 17:24:52.000   28.415368195  -16.516605828   157.8494   2   6   0.0162   0.0240   0.1692  -0.0047  -0.0205   0.0154  -8.00    0.0
2025/04/04 17:24:53.000   28.415368194  -16.516605828   157.8494   2   6   0.0162   0.0240   0.1692  -0.0047  -0.0205   0.0154  -7.00    0.0
2025/04/04 17:24:54.000   28.415368194  -16.516605827   157.8509   2   6   0.0162   0.0240   0.1693  -0.0047  -0.0205   0.0154  -6.00    0.0
2025/04/04 17:24:55.000   28.415368193  -16.516605826   157.8515   2   6   0.0162   0.0240   0.1693  -0.0047  -0.0205   0.0153  -5.00    0.0
2025/04/04 17:24:56.000   28.415368192  -16.516605826   157.8511   2   6   0.0162   0.0240   0.1693  -0.0047  -0.0205   0.0153  -4.00    0.0
2025/04/04 17:24:57.000   28.415368190  -16.516605825   157.8501   2   6   0.0162   0.0240   0.1694  -0.0047  -0.0205   0.0153  -3.00    0.0
2025/04/04 17:24:58.000   28.415368188  -16.516605822   157.8495   2   6   0.0162   0.0240   0.1694  -0.0047  -0.0206   0.0153  -2.00    0.0
2025/04/04 17:24:59.000   28.415368188  -16.516605819   157.8476   2   6   0.0162   0.0240   0.1695  -0.0047  -0.0206   0.0153  -1.00    0.0
2025/04/04 17:25:00.000   28.415368188  -16.516605814   157.8473   2   6   0.0162   0.0240   0.1696  -0.0047  -0.0206   0.0153   0.00    0.0
2025/04/04 17:25:01.000   28.415368190  -16.516605811   157.8525   2   6   0.0163   0.0241   0.1696  -0.0047  -0.0207   0.0152   1.00    0.0
2025/04/04 17:25:02.000   28.415368191  -16.516605810   157.8526   2   6   0.0163   0.0241   0.1696  -0.0047  -0.0207   0.0152   2.00    0.0
2025/04/04 17:25:03.000   28.415368193  -16.516605807   157.8545   2   6   0.0163   0.0241   0.1697  -0.0047  -0.0208   0.0152   3.00    0.0
2025/04/04 17:25:04.000   28.415368195  -16.516605804   157.8549   2   6   0.0163   0.0241   0.1698  -0.0047  -0.0208   0.0152   4.00    0.0
2025/04/04 17:25:05.000   28.415368196  -16.516605800   157.8560   2   6   0.0163   0.0241   0.1699  -0.0047  -0.0208   0.0152   5.00    0.0
2025/04/04 17:25:06.000   28.415368197  -16.516605797   157.8563   2   6   0.0163   0.0241   0.1699  -0.0047  -0.0209   0.0152   6.00    0.0
2025/04/04 17:25:07.000   28.415368199  -16.516605794   157.8580   2   6   0.0163   0.0241   0.1700  -0.0046  -0.0209   0.0152   7.00    0.0
2025/04/04 17:25:08.000   28.415368199  -16.516605791   157.8586   2   6   0.0163   0.0242   0.1700  -0.0046  -0.0209   0.0152   8.00    0.0
2025/04/04 17:25:09.000   28.415368200  -16.516605788   157.8593   2   6   0.0163   0.0242   0.1700  -0.0046  -0.0209   0.0152   9.00    0.0
2025/04/04 17:25:10.000   28.415368202  -16.516605787   157.8603   2   6   0.0163   0.0242   0.1700  -0.0046  -0.0209   0.0151  10.00    0.0
2025/04/04 17:25:11.000   28.415368203  -16.516605785   157.8616   2   6   0.0163   0.0242   0.1701  -0.0046  -0.0209   0.0151  11.00    0.0
2025/04/04 17:25:12.000   28.415368203  -16.516605783   157.8622   2   6   0.0163   0.0242   0.1701  -0.0046  -0.0209   0.0151  12.00    0.0
2025/04/04 17:25:13.000   28.415368203  -16.516605782   157.8625   2   6   0.0163   0.0242   0.1701  -0.0046  -0.0209   0.0151  13.00    0.0
2025/04/04 17:25:14.000   28.415368204  -16.516605781   157.8629   2   6   0.0163   0.0242   0.1701  -0.0046  -0.0209   0.0151  14.00    0.0
2025/04/04 17:25:15.000   28.415368204  -16.516605780   157.8632   2   6   0.0163   0.0242   0.1701  -0.0046  -0.0209   0.0151 -15.00    0.0
2025/04/04 17:25:16.000   28.415368204  -16.516605779   157.8637   2   6   0.0163   0.0242   0.1701  -0.0046  -0.0209   0.0151 -14.00    0.0
2025/04/04 17:25:17.000   28.415368204  -16.516605778   157.8639   2   6   0.0163   0.0242   0.1701  -0.0046  -0.0209   0.0151 -13.00    0.0
2025/04/04 17:25:18.000   28.415368205  -16.516605777   157.8640   2   6   0.0163   0.0242   0.1701  -0.0046  -0.0209   0.0151 -12.00    0.0
2025/04/04 17:25:19.000   28.415368205  -16.516605775   157.8639   2   6   0.0163   0.0242   0.1701  -0.0046  -0.0209   0.0151 -11.00    0.0
2025/04/04 17:25:20.000   28.415368205  -16.516605774   157.8641   2   6   0.0163   0.0242   0.1702  -0.0046  -0.0209   0.0151 -10.00    0.0
2025/04/04 17:25:21.000   28.415368205  -16.516605773   157.8638   2   6   0.0163   0.0242   0.1702  -0.0046  -0.0209   0.0151  -9.00    0.0
2025/04/04 17:25:22.000   28.415368204  -16.516605771   157.8632   2   6   0.0164   0.0242   0.1702  -0.0046  -0.0209   0.0151  -8.00    0.0
2025/04/04 17:25:23.000   28.415368204  -16.516605770   157.8629   2   6   0.0164   0.0242   0.1702  -0.0046  -0.0209   0.0151  -7.00    0.0
2025/04/04 17:25:24.000   28.415368204  -16.516605768   157.8627   2   6   0.0164   0.0242   0.1702  -0.0046  -0.0209   0.0150  -6.00    0.0
2025/04/04 17:25:25.000   28.415368204  -16.516605765   157.8616   2   6   0.0164   0.0242   0.1703  -0.0046  -0.0210   0.0150  -5.00    0.0
2025/04/04 17:25:26.000   28.415368203  -16.516605762   157.8610   2   6   0.0164   0.0242   0.1703  -0.0045  -0.0210   0.0150  -4.00    0.0
2025/04/04 17:25:27.000   28.415368203  -16.516605758   157.8615   2   6   0.0164   0.0242   0.1704  -0.0045  -0.0210   0.0150  -3.00    0.0
2025/04/04 17:25:28.000   28.415368205  -16.516605752   157.8630   2   6   0.0164   0.0242   0.1704  -0.0045  -0.0210   0.0150  -2.00    0.0
2025/04/04 17:25:29.000   28.415368206  -16.516605747   157.8638   2   6   0.0164   0.0242   0.1705  -0.0045  -0.0211   0.0149  -1.00    0.0
2025/04/04 17:25:30.000   28.415368206  -16.516605742   157.8629   2   6   0.0164   0.0243   0.1706  -0.0045  -0.0211   0.0149   0.00    0.0
2025/04/04 17:25:31.000   28.415368206  -16.516605736   157.8625   2   6   0.0164   0.0243   0.1706  -0.0045  -0.0212   0.0149   1.00    0.0
2025/04/04 17:25:32.000   28.415368207  -16.516605730   157.8613   2   6   0.0164   0.0243   0.1707  -0.0045  -0.0212   0.0148   2.00    0.0
2025/04/04 17:25:33.000   28.415368208  -16.516605725   157.8622   2   6   0.0164   0.0243   0.1708  -0.0045  -0.0213   0.0148   3.00    0.0
2025/04/04 17:25:34.000   28.415368208  -16.516605719   157.8631   2   6   0.0165   0.0243   0.1708  -0.0045  -0.0213   0.0148   4.00    0.0
2025/04/04 17:25:35.000   28.415368210  -16.516605716   157.8654   2   6   0.0165   0.0243   0.1709  -0.0045  -0.0213   0.0148   5.00    0.0
2025/04/04 17:25:36.000   28.415368213  -16.516605713   157.8679   2   6   0.0165   0.0243   0.1709  -0.0045  -0.0214   0.0148   6.00    0.0
2025/04/04 17:25:37.000   28.415368214  -16.516605709   157.8704   2   6   0.0165   0.0244   0.1710  -0.0045  -0.0214   0.0148   7.00    0.0
2025/04/04 17:25:38.000   28.415368215  -16.516605706   157.8712   2   6   0.0165   0.0244   0.1710  -0.0044  -0.0214   0.0148   8.00    0.0
2025/04/04 17:25:39.000   28.415368216  -16.516605704   157.8717   2   6   0.0165   0.0244   0.1711  -0.0044  -0.0214   0.0148   9.00    0.0
2025/04/04 17:25:40.000   28.415368216  -16.516605701   157.8719   2   6   0.0165   0.0244   0.1711  -0.0044  -0.0214   0.0147  10.00    0.0
2025/04/04 17:25:41.000   28.415368216  -16.516605700   157.8723   2   6   0.0165   0.0244   0.1711  -0.0044  -0.0214   0.0147  11.00    0.0
2025/04/04 17:25:42.000   28.415368216  -16.516605700   157.8724   2   6   0.0165   0.0244   0.1711  -0.0044  -0.0214   0.0147  12.00    0.0
2025/04/04 17:25:43.000   28.415368215  -16.516605698   157.8725   2   6   0.0165   0.0244   0.1711  -0.0044  -0.0214   0.0147  13.00    0.0
2025/04/04 17:25:44.000   28.415368215  -16.516605698   157.8727   2   6   0.0165   0.0244   0.1712  -0.0044  -0.0214   0.0147  14.00    0.0
2025/04/04 17:25:45.000   28.415368215  -16.516605697   157.8730   2   6   0.0165   0.0244   0.1712  -0.0044  -0.0214   0.0147 -15.00    0.0
2025/04/04 17:25:46.000   28.415368215  -16.516605696   157.8736   2   6   0.0165   0.0244   0.1712  -0.0044  -0.0214   0.0147 -14.00    0.0
2025/04/04 17:25:47.000   28.415368215  -16.516605696   157.8737   2   6   0.0165   0.0244   0.1712  -0.0044  -0.0214   0.0147 -13.00    0.0
2025/04/04 17:25:48.000   28.415368214  -16.516605695   157.8734   2   6   0.0165   0.0244   0.1712  -0.0044  -0.0214   0.0147 -12.00    0.0
2025/04/04 17:25:49.000   28.415368214  -16.516605694   157.8735   2   6   0.0165   0.0244   0.1712  -0.0044  -0.0214   0.0147 -11.00    0.0
2025/04/04 17:25:50.000   28.415368213  -16.516605693   157.8737   2   6   0.0165   0.0244   0.1712  -0.0044  -0.0214   0.0147 -10.00    0.0
2025/04/04 17:25:51.000   28.415368213  -16.516605692   157.8740   2   6   0.0165   0.0244   0.1712  -0.0044  -0.0214   0.0147  -9.00    0.0
2025/04/04 17:25:52.000   28.415368213  -16.516605690   157.8742   2   6   0.0165   0.0244   0.1712  -0.0044  -0.0214   0.0147  -8.00    0.0
2025/04/04 17:25:53.000   28.415368213  -16.516605688   157.8748   2   6   0.0165   0.0244   0.1713  -0.0044  -0.0214   0.0147  -7.00    0.0
2025/04/04 17:25:54.000   28.415368213  -16.516605686   157.8752   2   6   0.0165   0.0244   0.1713  -0.0044  -0.0214   0.0146  -6.00    0.0
2025/04/04 17:25:55.000   28.415368211  -16.516605684   157.8754   2   6   0.0165   0.0244   0.1713  -0.0044  -0.0215   0.0146  -5.00    0.0
2025/04/04 17:25:56.000   28.415368212  -16.516605680   157.8767   2   6   0.0165   0.0244   0.1714  -0.0044  -0.0215   0.0146  -4.00    0.0
2025/04/04 17:25:57.000   28.415368212  -16.516605676   157.8774   2   6   0.0165   0.0244   0.1714  -0.0043  -0.0215   0.0146  -3.00    0.0
2025/04/04 17:25:58.000   28.415368212  -16.516605673   157.8792   2   6   0.0165   0.0244   0.1715  -0.0043  -0.0215   0.0145  -2.00    0.0
2025/04/04 17:25:59.000   28.415368212  -16.516605668   157.8810   2   6   0.0165   0.0244   0.1715  -0.0043  -0.0216   0.0145  -1.00    0.0
2025/04/04 17:26:00.000   28.415368213  -16.516605663   157.8827   2   6   0.0166   0.0245   0.1716  -0.0043  -0.0216   0.0145   0.00    0.0
2025/04/04 17:26:01.000   28.415368217  -16.516605655   157.8899   2   6   0.0166   0.0245   0.1717  -0.0043  -0.0216   0.0144   1.00    0.0
2025/04/04 17:26:02.000   28.415368219  -16.516605650   157.8939   2   6   0.0166   0.0245   0.1717  -0.0043  -0.0217   0.0144   2.00    0.0
2025/04/04 17:26:03.000   28.415368218  -16.516605647   157.8948   2   6   0.0166   0.0245   0.1718  -0.0043  -0.0217   0.0144   3.00    0.0
2025/04/04 17:26:04.000   28.415368217  -16.516605645   157.8955   2   6   0.0166   0.0245   0.1719  -0.0043  -0.0218   0.0144   4.00    0.0
2025/04/04 17:26:05.000   28.415368217  -16.516605641   157.8960   2   6   0.0166   0.0245   0.1719  -0.0043  -0.0218   0.0144   5.00    0.0
2025/04/04 17:26:06.000   28.415368218  -16.516605638   157.8986   2   6   0.0166   0.0245   0.1720  -0.0042  -0.0218   0.0144   6.00    0.0
2025/04/04 17:26:07.000   28.415368220  -16.516605634   157.9010   2   6   0.0166   0.0245   0.1720  -0.0042  -0.0218   0.0144   7.00    0.0
2025/04/04 17:26:08.000   28.415368220  -16.516605633   157.9029   2   6   0.0166   0.0246   0.1721  -0.0042  -0.0218   0.0143   8.00    0.0
2025/04/04 17:26:09.000   28.415368220  -16.516605630   157.9040   2   6   0.0166   0.0246   0.1721  -0.0042  -0.0218   0.0143   9.00    0.0
2025/04/04 17:26:10.000   28.415368221  -16.516605629   157.9051   2   6   0.0166   0.0246   0.1721  -0.0042  -0.0219   0.0143  10.00    0.0
2025/04/04 17:26:11.000   28.415368222  -16.516605627   157.9057   2   6   0.0166   0.0246   0.1722  -0.0042  -0.0219   0.0143  11.00    0.0
2025/04/04 17:26:12.000   28.415368222  -16.516605624   157.9060   2   6   0.0166   0.0246   0.1722  -0.0042  -0.0219   0.0143  12.00    0.0
2025/04/04 17:26:13.000   28.415368222  -16.516605622   157.9064   2   6   0.0166   0.0246   0.1722  -0.0042  -0.0219   0.0143  13.00    0.0
2025/04/04 17:26:14.000   28.415368223  -16.516605621   157.9071   2   6   0.0166   0.0246   0.1722  -0.0042  -0.0219   0.0143  14.00    0.0
2025/04/04 17:26:15.000   28.415368224  -16.516605620   157.9077   2   6   0.0166   0.0246   0.1722  -0.0042  -0.0219   0.0143 -15.00    0.0
2025/04/04 17:26:16.000   28.415368224  -16.516605619   157.9081   2   6   0.0166   0.0246   0.1722  -0.0042  -0.0219   0.0143 -14.00    0.0
2025/04/04 17:26:17.000   28.415368225  -16.516605618   157.9086   2   6   0.0167   0.0246   0.1722  -0.0042  -0.0219   0.0143 -13.00    0.0
2025/04/04 17:26:18.000   28.415368226  -16.516605616   157.9090   2   6   0.0167   0.0246   0.1722  -0.0042  -0.0219   0.0143 -12.00    0.0
2025/04/04 17:26:19.000   28.415368227  -16.516605614   157.9091   2   6   0.0167   0.0246   0.1723  -0.0042  -0.0219   0.0143 -11.00    0.0
2025/04/04 17:26:20.000   28.415368229  -16.516605611   157.9093   2   6   0.0167   0.0246   0.1723  -0.0042  -0.0219   0.0143 -10.00    0.0
2025/04/04 17:26:21.000   28.415368229  -16.516605609   157.9089   2   6   0.0167   0.0246   0.1723  -0.0042  -0.0219   0.0143  -9.00    0.0
2025/04/04 17:26:22.000   28.415368231  -16.516605608   157.9084   2   6   0.0167   0.0246   0.1723  -0.0042  -0.0219   0.0143  -8.00    0.0
2025/04/04 17:26:23.000   28.415368232  -16.516605605   157.9084   2   6   0.0167   0.0246   0.1723  -0.0042  -0.0219   0.0143  -7.00    0.0
2025/04/04 17:26:24.000   28.415368233  -16.516605604   157.9087   2   6   0.0167   0.0246   0.1723  -0.0041  -0.0219   0.0142  -6.00    0.0
2025/04/04 17:26:25.000   28.415368234  -16.516605603   157.9082   2   6   0.0167   0.0246   0.1724  -0.0041  -0.0219   0.0142  -5.00    0.0
2025/04/04 17:26:26.000   28.415368236  -16.516605602   157.9079   2   6   0.0167   0.0246   0.1724  -0.0041  -0.0219   0.0142  -4.00    0.0
2025/04/04 17:26:27.000   28.415368238  -16.516605598   157.9073   2   6   0.0167   0.0246   0.1724  -0.0041  -0.0219   0.0142  -3.00    0.0
2025/04/04 17:26:28.000   28.415368239  -16.516605593   157.9049   2   6   0.0167   0.0246   0.1725  -0.0041  -0.0219   0.0141  -2.00    0.0
2025/04/04 17:26:29.000   28.415368242  -16.516605588   157.9013   2   6   0.0167   0.0246   0.1726  -0.0041  -0.0220   0.0141  -1.00    0.0
2025/04/04 17:26:30.000   28.415368245  -16.516605583   157.8997   2   6   0.0167   0.0246   0.1726  -0.0041  -0.0220   0.0141   0.00    0.0
2025/04/04 17:26:31.000   28.415368248  -16.516605580   157.8971   2   6   0.0167   0.0247   0.1727  -0.0041  -0.0221   0.0140   1.00    0.0
2025/04/04 17:26:32.000   28.415368251  -16.516605577   157.8983   2   6   0.0167   0.0247   0.1727  -0.0041  -0.0221   0.0140   2.00    0.0
2025/04/04 17:26:33.000   28.415368254  -16.516605573   157.8989   2   6   0.0167   0.0247   0.1728  -0.0040  -0.0221   0.0140   3.00    0.0
2025/04/04 17:26:34.000   28.415368256  -16.516605569   157.8997   2   6   0.0167   0.0247   0.1728  -0.0040  -0.0222   0.0140   4.00    0.0
2025/04/04 17:26:35.000   28.415368257  -16.516605567   157.9017   2   6   0.0168   0.0247   0.1729  -0.0040  -0.0222   0.0140   5.00    0.0
2025/04/04 17:26:36.000   28.415368259  -16.516605564   157.9022   2   6   0.0168   0.0247   0.1729  -0.0040  -0.0222   0.0139   6.00    0.0
2025/04/04 17:26:37.000   28.415368260  -16.516605562   157.9026   2   6   0.0168   0.0247   0.1730  -0.0040  -0.0222   0.0139   7.00    0.0
2025/04/04 17:26:38.000   28.415368261  -16.516605560   157.9023   2   6   0.0168   0.0247   0.1730  -0.0040  -0.0222   0.0139   8.00    0.0
2025/04/04 17:26:39.000   28.415368262  -16.516605557   157.9023   2   6   0.0168   0.0247   0.1730  -0.0040  -0.0222   0.0139   9.00    0.0
2025/04/04 17:26:40.000   28.415368262  -16.516605556   157.9026   2   6   0.0168   0.0247   0.1730  -0.0040  -0.0223   0.0139  10.00    0.0
2025/04/04 17:26:41.000   28.415368263  -16.516605554   157.9027   2   6   0.0168   0.0247   0.1731  -0.0040  -0.0223   0.0139  11.00    0.0
2025/04/04 17:26:42.000   28.415368264  -16.516605553   157.9026   2   6   0.0168   0.0247   0.1731  -0.0040  -0.0223   0.0139  12.00    0.0
2025/04/04 17:26:43.000   28.415368265  -16.516605551   157.9029   2   6   0.0168   0.0247   0.1731  -0.0040  -0.0223   0.0139  13.00    0.0
2025/04/04 17:26:44.000   28.415368266  -16.516605549   157.9028   2   6   0.0168   0.0247   0.1731  -0.0040  -0.0223   0.0139  14.00    0.0
2025/04/04 17:26:45.000   28.415368266  -16.516605548   157.9024   2   6   0.0168   0.0247   0.1731  -0.0039  -0.0223   0.0139 -15.00    0.0
2025/04/04 17:26:46.000   28.415368267  -16.516605546   157.9025   2   6   0.0168   0.0247   0.1731  -0.0039  -0.0223   0.0139 -14.00    0.0
2025/04/04 17:26:47.000   28.415368268  -16.516605545   157.9024   2   6   0.0168   0.0247   0.1731  -0.0039  -0.0223   0.0139 -13.00    0.0
2025/04/04 17:26:48.000   28.415368269  -16.516605543   157.9021   2   6   0.0168   0.0247   0.1731  -0.0039  -0.0223   0.0139 -12.00    0.0
2025/04/04 17:26:49.000   28.415368270  -16.516605540   157.9014   2   6   0.0168   0.0247   0.1731  -0.0039  -0.0223   0.0139 -11.00    0.0
2025/04/04 17:26:50.000   28.415368272  -16.516605538   157.9015   2   6   0.0168   0.0247   0.1732  -0.0039  -0.0223   0.0139 -10.00    0.0
2025/04/04 17:26:51.000   28.415368273  -16.516605535   157.9013   2   6   0.0168   0.0248   0.1732  -0.0039  -0.0223   0.0139  -9.00    0.0
2025/04/04 17:26:52.000   28.415368274  -16.516605532   157.9008   2   6   0.0168   0.0248   0.1732  -0.0039  -0.0223   0.0138  -8.00    0.0
2025/04/04 17:26:53.000   28.415368275  -16.516605528   157.9003   2   6   0.0168   0.0248   0.1732  -0.0039  -0.0223   0.0138  -7.00    0.0
2025/04/04 17:26:54.000   28.415368276  -16.516605525   157.8998   2   6   0.0168   0.0248   0.1732  -0.0039  -0.0223   0.0138  -6.00    0.0
2025/04/04 17:26:55.000   28.415368276  -16.516605522   157.8988   2   6   0.0168   0.0248   0.1732  -0.0039  -0.0223   0.0138  -5.00    0.0
2025/04/04 17:26:56.000   28.415368276  -16.516605519   157.8970   2   6   0.0168   0.0248   0.1733  -0.0039  -0.0223   0.0138  -4.00    0.0
2025/04/04 17:26:57.000   28.415368275  -16.516605518   157.8940   2   6   0.0168   0.0248   0.1733  -0.0039  -0.0223   0.0138  -3.00    0.0
2025/04/04 17:26:58.000   28.415368274  -16.516605516   157.8896   2   6   0.0168   0.0248   0.1733  -0.0039  -0.0223   0.0137  -2.00    0.0
2025/04/04 17:26:59.000   28.415368273  -16.516605514   157.8848   2   6   0.0168   0.0248   0.1734  -0.0038  -0.0224   0.0137  -1.00    0.0
2025/04/04 17:27:00.000   28.415368272  -16.516605511   157.8798   2   6   0.0168   0.0248   0.1734  -0.0038  -0.0224   0.0137   0.00    0.0
2025/04/04 17:27:01.000   28.415368272  -16.516605508   157.8740   2   6   0.0168   0.0248   0.1734  -0.0038  -0.0224   0.0136   1.00    0.0
2025/04/04 17:27:02.000   28.415368270  -16.516605504   157.8634   2   6   0.0169   0.0248   0.1735  -0.0038  -0.0225   0.0136   2.00    0.0
2025/04/04 17:27:03.000   28.415368266  -16.516605501   157.8528   2   6   0.0169   0.0249   0.1735  -0.0038  -0.0225   0.0136   3.00    0.0
2025/04/04 17:27:04.000   28.415368263  -16.516605499   157.8432   2   6   0.0169   0.0249   0.1735  -0.0038  -0.0225   0.0135   4.00    0.0
2025/04/04 17:27:05.000   28.415368260  -16.516605497   157.8356   2   6   0.0169   0.0249   0.1735  -0.0038  -0.0225   0.0135   5.00    0.0
2025/04/04 17:27:06.000   28.415368258  -16.516605496   157.8272   2   6   0.0169   0.0249   0.1735  -0.0038  -0.0226   0.0135   6.00    0.0
2025/04/04 17:27:07.000   28.415368256  -16.516605494   157.8217   2   6   0.0169   0.0249   0.1735  -0.0037  -0.0226   0.0135   7.00    0.0
2025/04/04 17:27:08.000   28.415368255  -16.516605492   157.8161   2   6   0.0169   0.0249   0.1735  -0.0037  -0.0226   0.0135   8.00    0.0
2025/04/04 17:27:09.000   28.415368254  -16.516605492   157.8120   2   6   0.0169   0.0249   0.1735  -0.0037  -0.0226   0.0134   9.00    0.0
2025/04/04 17:27:10.000   28.415368253  -16.516605492   157.8081   2   6   0.0169   0.0249   0.1735  -0.0037  -0.0226   0.0134  10.00    0.0
2025/04/04 17:27:11.000   28.415368252  -16.516605491   157.8033   2   6   0.0169   0.0249   0.1735  -0.0037  -0.0226   0.0134  11.00    0.0
2025/04/04 17:27:12.000   28.415368250  -16.516605492   157.8000   2   6   0.0169   0.0249   0.1735  -0.0037  -0.0226   0.0134  12.00    0.0
2025/04/04 17:27:13.000   28.415368249  -16.516605492   157.7974   2   6   0.0169   0.0249   0.1735  -0.0037  -0.0226   0.0134  13.00    0.0
2025/04/04 17:27:14.000   28.415368248  -16.516605492   157.7944   2   6   0.0169   0.0249   0.1735  -0.0037  -0.0226   0.0134  14.00    0.0
2025/04/04 17:27:15.000   28.415368247  -16.516605492   157.7922   2   6   0.0169   0.0249   0.1735  -0.0037  -0.0226   0.0134 -15.00    0.0
2025/04/04 17:27:16.000   28.415368247  -16.516605493   157.7892   2   6   0.0169   0.0249   0.1735  -0.0037  -0.0226   0.0134 -14.00    0.0
2025/04/04 17:27:17.000   28.415368246  -16.516605493   157.7860   2   6   0.0169   0.0249   0.1735  -0.0037  -0.0226   0.0134 -13.00    0.0
2025/04/04 17:27:18.000   28.415368245  -16.516605494   157.7830   2   6   0.0169   0.0249   0.1735  -0.0037  -0.0226   0.0134 -12.00    0.0
2025/04/04 17:27:19.000   28.415368244  -16.516605495   157.7804   2   6   0.0169   0.0249   0.1735  -0.0037  -0.0226   0.0133 -11.00    0.0
2025/04/04 17:27:20.000   28.415368243  -16.516605496   157.7770   2   6   0.0169   0.0249   0.1735  -0.0037  -0.0226   0.0133 -10.00    0.0
2025/04/04 17:27:21.000   28.415368242  -16.516605496   157.7731   2   6   0.0169   0.0249   0.1735  -0.0037  -0.0226   0.0133  -9.00    0.0
2025/04/04 17:27:22.000   28.415368241  -16.516605497   157.7688   2   6   0.0169   0.0249   0.1735  -0.0037  -0.0226   0.0133  -8.00    0.0
2025/04/04 17:27:23.000   28.415368241  -16.516605498   157.7643   2   6   0.0169   0.0249   0.1735  -0.0037  -0.0226   0.0133  -7.00    0.0
2025/04/04 17:27:24.000   28.415368241  -16.516605499   157.7598   2   6   0.0169   0.0249   0.1735  -0.0036  -0.0226   0.0132  -6.00    0.0
2025/04/04 17:27:25.000   28.415368240  -16.516605499   157.7543   2   6   0.0169   0.0249   0.1735  -0.0036  -0.0227   0.0132  -5.00    0.0
2025/04/04 17:27:26.000   28.415368239  -16.516605500   157.7494   2   6   0.0169   0.0249   0.1735  -0.0036  -0.0227   0.0132  -4.00    0.0
2025/04/04 17:27:27.000   28.415368240  -16.516605501   157.7447   2   6   0.0169   0.0249   0.1735  -0.0036  -0.0227   0.0131  -3.00    0.0
2025/04/04 17:27:28.000   28.415368242  -16.516605502   157.7397   2   6   0.0169   0.0249   0.1735  -0.0036  -0.0227   0.0131  -2.00    0.0
2025/04/04 17:27:29.000   28.415368244  -16.516605501   157.7350   2   6   0.0169   0.0249   0.1736  -0.0036  -0.0228   0.0130  -1.00    0.0
2025/04/04 17:27:30.000   28.415368246  -16.516605499   157.7302   2   6   0.0170   0.0250   0.1736  -0.0036  -0.0228   0.0130   0.00    0.0
2025/04/04 17:27:31.000   28.415368247  -16.516605498   157.7296   2   6   0.0170   0.0250   0.1736  -0.0036  -0.0228   0.0129   1.00    0.0
2025/04/04 17:27:32.000   28.415368248  -16.516605497   157.7232   2   6   0.0170   0.0250   0.1736  -0.0035  -0.0229   0.0129   2.00    0.0
2025/04/04 17:27:33.000   28.415368248  -16.516605497   157.7168   2   6   0.0170   0.0250   0.1736  -0.0035  -0.0229   0.0128   3.00    1.1
2025/04/04 17:27:34.000   28.415368248  -16.516605497   157.7143   2   6   0.0170   0.0250   0.1736  -0.0035  -0.0229   0.0128   4.00    1.2
2025/04/04 17:27:35.000   28.415368247  -16.516605497   157.7098   2   6   0.0170   0.0250   0.1736  -0.0035  -0.0230   0.0128   5.00    1.0
2025/04/04 17:27:36.000   28.415368246  -16.516605498   157.7068   2   6   0.0170   0.0250   0.1736  -0.0035  -0.0230   0.0128   6.00    1.2
2025/04/04 17:27:37.000   28.415368245  -16.516605498   157.7039   2   6   0.0170   0.0250   0.1736  -0.0035  -0.0230   0.0127   7.00    1.1
2025/04/04 17:27:38.000   28.415368244  -16.516605498   157.7006   2   6   0.0170   0.0250   0.1736  -0.0035  -0.0230   0.0127   8.00    1.0
2025/04/04 17:27:39.000   28.415368244  -16.516605499   157.6982   2   6   0.0170   0.0250   0.1736  -0.0035  -0.0230   0.0127   9.00    1.1
2025/04/04 17:27:40.000   28.415368244  -16.516605499   157.6961   2   6   0.0170   0.0250   0.1737  -0.0035  -0.0230   0.0127  10.00    1.2
2025/04/04 17:27:41.000   28.415368244  -16.516605499   157.6938   2   6   0.0170   0.0250   0.1737  -0.0034  -0.0230   0.0127  11.00    1.1
2025/04/04 17:27:42.000   28.415368243  -16.516605500   157.6915   2   6   0.0170   0.0250   0.1737  -0.0034  -0.0230   0.0127  12.00    1.6
2025/04/04 17:27:43.000   28.415368243  -16.516605500   157.6897   2   6   0.0170   0.0250   0.1737  -0.0034  -0.0230   0.0127  13.00    1.1
2025/04/04 17:27:44.000   28.415368243  -16.516605500   157.6885   2   6   0.0170   0.0250   0.1737  -0.0034  -0.0230   0.0127  14.00    1.1
2025/04/04 17:27:45.000   28.415368243  -16.516605500   157.6870   2   6   0.0170   0.0250   0.1737  -0.0034  -0.0230   0.0127 -15.00    1.2
2025/04/04 17:27:46.000   28.415368242  -16.516605501   157.6858   2   6   0.0170   0.0250   0.1737  -0.0034  -0.0230   0.0127 -14.00    1.1
2025/04/04 17:27:47.000   28.415368242  -16.516605501   157.6844   2   6   0.0170   0.0250   0.1737  -0.0034  -0.0230   0.0127 -13.00    1.2
2025/04/04 17:27:48.000   28.415368242  -16.516605501   157.6832   2   6   0.0170   0.0250   0.1737  -0.0034  -0.0230   0.0126 -12.00    1.2
2025/04/04 17:27:49.000   28.415368241  -16.516605501   157.6815   2   6   0.0170   0.0250   0.1737  -0.0034  -0.0230   0.0126 -11.00    1.2
2025/04/04 17:27:50.000   28.415368240  -16.516605501   157.6803   2   6   0.0170   0.0250   0.1737  -0.0034  -0.0230   0.0126 -10.00    1.1
2025/04/04 17:27:51.000   28.415368240  -16.516605502   157.6788   2   6   0.0170   0.0250   0.1737  -0.0034  -0.0230   0.0126  -9.00    1.2
2025/04/04 17:27:52.000   28.415368240  -16.516605502   157.6772   2   6   0.0170   0.0251   0.1737  -0.0034  -0.0230   0.0126  -8.00    1.3
2025/04/04 17:27:53.000   28.415368240  -16.516605501   157.6751   2   6   0.0170   0.0251   0.1737  -0.0034  -0.0230   0.0126  -7.00    1.2
2025/04/04 17:27:54.000   28.415368239  -16.516605502   157.6719   2   6   0.0170   0.0251   0.1737  -0.0034  -0.0230   0.0126  -6.00    1.8
2025/04/04 17:27:55.000   28.415368237  -16.516605503   157.6680   2   6   0.0170   0.0251   0.1737  -0.0034  -0.0231   0.0125  -5.00    1.9
2025/04/04 17:27:56.000   28.415368233  -16.516605503   157.6628   2   6   0.0170   0.0251   0.1737  -0.0034  -0.0231   0.0125  -4.00    1.9
2025/04/04 17:27:57.000   28.415368230  -16.516605505   157.6578   2   6   0.0170   0.0251   0.1737  -0.0033  -0.0231   0.0125  -3.00    1.9
2025/04/04 17:27:58.000   28.415368226  -16.516605506   157.6524   2   6   0.0170   0.0251   0.1738  -0.0033  -0.0231   0.0124  -2.00    2.0
2025/04/04 17:27:59.000   28.415368223  -16.516605507   157.6454   2   6   0.0171   0.0251   0.1738  -0.0033  -0.0231   0.0124  -1.00    2.1
2025/04/04 17:28:00.000   28.415368219  -16.516605510   157.6386   2   6   0.0171   0.0251   0.1738  -0.0033  -0.0232   0.0123   0.00    2.1
2025/04/04 17:28:01.000   28.415368213  -16.516605515   157.6329   2   6   0.0171   0.0251   0.1738  -0.0033  -0.0232   0.0123   1.00    2.0
2025/04/04 17:28:02.000   28.415368208  -16.516605517   157.6265   2   6   0.0171   0.0251   0.1738  -0.0033  -0.0232   0.0122   2.00    2.0
2025/04/04 17:28:03.000   28.415368207  -16.516605517   157.6248   2   6   0.0171   0.0251   0.1738  -0.0032  -0.0233   0.0122   3.00    2.0
2025/04/04 17:28:04.000   28.415368205  -16.516605519   157.6194   2   6   0.0171   0.0251   0.1738  -0.0032  -0.0233   0.0121   4.00    1.2
2025/04/04 17:28:05.000   28.415368204  -16.516605522   157.6159   2   6   0.0171   0.0251   0.1738  -0.0032  -0.0233   0.0121   5.00    1.0
2025/04/04 17:28:06.000   28.415368202  -16.516605524   157.6117   2   6   0.0171   0.0252   0.1738  -0.0032  -0.0233   0.0121   6.00    1.1
2025/04/04 17:28:07.000   28.415368200  -16.516605525   157.6080   2   6   0.0171   0.0252   0.1738  -0.0032  -0.0233   0.0121   7.00    1.1
2025/04/04 17:28:08.000   28.415368198  -16.516605526   157.6058   2   6   0.0171   0.0252   0.1738  -0.0032  -0.0234   0.0120   8.00    1.0
2025/04/04 17:28:09.000   28.415368197  -16.516605526   157.6041   2   6   0.0171   0.0252   0.1738  -0.0032  -0.0234   0.0120   9.00    1.2
2025/04/04 17:28:10.000   28.415368197  -16.516605526   157.6022   2   6   0.0171   0.0252   0.1738  -0.0032  -0.0234   0.0120  10.00    1.0
2025/04/04 17:28:11.000   28.415368196  -16.516605526   157.6009   2   6   0.0171   0.0252   0.1738  -0.0031  -0.0234   0.0120  11.00    1.5
2025/04/04 17:28:12.000   28.415368196  -16.516605526   157.5995   2   6   0.0171   0.0252   0.1738  -0.0031  -0.0234   0.0120  12.00    1.0
2025/04/04 17:28:13.000   28.415368195  -16.516605526   157.5983   2   6   0.0171   0.0252   0.1738  -0.0031  -0.0234   0.0120  13.00    1.3
2025/04/04 17:28:14.000   28.415368195  -16.516605526   157.5970   2   6   0.0171   0.0252   0.1738  -0.0031  -0.0234   0.0120  14.00    1.0
2025/04/04 17:28:15.000   28.415368194  -16.516605526   157.5956   2   6   0.0171   0.0252   0.1738  -0.0031  -0.0234   0.0120 -15.00    2.0
2025/04/04 17:28:16.000   28.415368194  -16.516605527   157.5945   2   6   0.0171   0.0252   0.1738  -0.0031  -0.0234   0.0120 -14.00    2.0
2025/04/04 17:28:17.000   28.415368194  -16.516605527   157.5933   2   6   0.0171   0.0252   0.1738  -0.0031  -0.0234   0.0120 -13.00    2.0
2025/04/04 17:28:18.000   28.415368193  -16.516605529   157.5921   2   6   0.0171   0.0252   0.1738  -0.0031  -0.0234   0.0119 -12.00    2.1
2025/04/04 17:28:19.000   28.415368193  -16.516605530   157.5910   2   6   0.0171   0.0252   0.1738  -0.0031  -0.0234   0.0119 -11.00    2.1
2025/04/04 17:28:20.000   28.415368193  -16.516605531   157.5897   2   6   0.0171   0.0252   0.1738  -0.0031  -0.0234   0.0119 -10.00    2.1
2025/04/04 17:28:21.000   28.415368192  -16.516605531   157.5874   2   6   0.0171   0.0252   0.1738  -0.0031  -0.0234   0.0119  -9.00    2.1
2025/04/04 17:28:22.000   28.415368192  -16.516605533   157.5846   2   6   0.0171   0.0252   0.1738  -0.0031  -0.0234   0.0119  -8.00    2.1
2025/04/04 17:28:23.000   28.415368191  -16.516605534   157.5814   2   6   0.0171   0.0252   0.1738  -0.0031  -0.0234   0.0119  -7.00    2.2
2025/04/04 17:28:24.000   28.415368190  -16.516605536   157.5777   2   6   0.0171   0.0252   0.1738  -0.0031  -0.0234   0.0119  -6.00    2.2
2025/04/04 17:28:25.000   28.415368189  -16.516605538   157.5738   2   6   0.0171   0.0252   0.1738  -0.0031  -0.0234   0.0118  -5.00    1.0
2025/04/04 17:28:26.000   28.415368188  -16.516605542   157.5696   2   6   0.0171   0.0252   0.1738  -0.0031  -0.0234   0.0118  -4.00    1.0
2025/04/04 17:28:27.000   28.415368187  -16.516605546   157.5650   2   6   0.0171   0.0252   0.1738  -0.0030  -0.0234   0.0118  -3.00    1.0
2025/04/04 17:28:28.000   28.415368183  -16.516605552   157.5594   2   6   0.0171   0.0252   0.1738  -0.0030  -0.0235   0.0117  -2.00    1.0
2025/04/04 17:28:29.000   28.415368177  -16.516605559   157.5535   2   6   0.0171   0.0252   0.1738  -0.0030  -0.0235   0.0117  -1.00    1.0
2025/04/04 17:28:30.000   28.415368172  -16.516605567   157.5482   2   6   0.0172   0.0252   0.1738  -0.0030  -0.0235   0.0116   0.00    1.2
2025/04/04 17:28:31.000   28.415368170  -16.516605573   157.5426   2   6   0.0172   0.0252   0.1738  -0.0030  -0.0236   0.0115   1.00    1.3
2025/04/04 17:28:32.000   28.415368168  -16.516605578   157.5397   2   6   0.0172   0.0252   0.1738  -0.0029  -0.0236   0.0115   2.00    1.5
2025/04/04 17:28:33.000   28.415368167  -16.516605582   157.5363   2   6   0.0172   0.0252   0.1737  -0.0029  -0.0236   0.0114   3.00    1.3
2025/04/04 17:28:34.000   28.415368165  -16.516605584   157.5359   2   6   0.0172   0.0253   0.1737  -0.0029  -0.0236   0.0114   4.00    1.1
2025/04/04 17:28:35.000   28.415368166  -16.516605586   157.5340   2   6   0.0172   0.0253   0.1737  -0.0029  -0.0237   0.0113   5.00    1.3
2025/04/04 17:28:36.000   28.415368167  -16.516605587   157.5331   2   6   0.0172   0.0253   0.1737  -0.0029  -0.0237   0.0113   6.00    2.0
2025/04/04 17:28:37.000   28.415368168  -16.516605587   157.5319   2   6   0.0172   0.0253   0.1737  -0.0029  -0.0237   0.0113   7.00    2.0
2025/04/04 17:28:38.000   28.415368169  -16.516605586   157.5300   2   6   0.0172   0.0253   0.1737  -0.0028  -0.0237   0.0113   8.00    2.0
2025/04/04 17:28:39.000   28.415368170  -16.516605587   157.5293   2   6   0.0172   0.0253   0.1737  -0.0028  -0.0237   0.0112   9.00    2.0
2025/04/04 17:28:40.000   28.415368171  -16.516605586   157.5285   2   6   0.0172   0.0253   0.1737  -0.0028  -0.0237   0.0112  10.00    2.0
2025/04/04 17:28:41.000   28.415368171  -16.516605588   157.5283   2   6   0.0172   0.0253   0.1737  -0.0028  -0.0237   0.0112  11.00    2.0
2025/04/04 17:28:42.000   28.415368171  -16.516605589   157.5278   2   6   0.0172   0.0253   0.1737  -0.0028  -0.0237   0.0112  12.00    2.0
2025/04/04 17:28:43.000   28.415368171  -16.516605589   157.5267   2   6   0.0172   0.0253   0.1737  -0.0028  -0.0237   0.0112  13.00    2.0
2025/04/04 17:28:44.000   28.415368170  -16.516605590   157.5258   2   6   0.0172   0.0253   0.1737  -0.0028  -0.0237   0.0112  14.00    2.0
2025/04/04 17:28:45.000   28.415368169  -16.516605591   157.5247   2   6   0.0172   0.0253   0.1737  -0.0028  -0.0237   0.0112 -15.00    2.0
2025/04/04 17:28:46.000   28.415368168  -16.516605591   157.5234   2   6   0.0172   0.0253   0.1737  -0.0028  -0.0237   0.0112 -14.00    1.2
2025/04/04 17:28:47.000   28.415368168  -16.516605592   157.5222   2   6   0.0172   0.0253   0.1737  -0.0028  -0.0237   0.0112 -13.00    1.1
2025/04/04 17:28:48.000   28.415368168  -16.516605593   157.5208   2   6   0.0172   0.0253   0.1737  -0.0028  -0.0237   0.0112 -12.00    1.2
2025/04/04 17:28:49.000   28.415368168  -16.516605594   157.5190   2   6   0.0172   0.0253   0.1737  -0.0028  -0.0237   0.0112 -11.00    1.0
2025/04/04 17:28:50.000   28.415368168  -16.516605594   157.5169   2   6   0.0172   0.0253   0.1737  -0.0028  -0.0237   0.0111 -10.00    1.2
2025/04/04 17:28:51.000   28.415368168  -16.516605595   157.5156   2   6   0.0172   0.0253   0.1737  -0.0028  -0.0237   0.0111  -9.00    1.2
2025/04/04 17:28:52.000   28.415368168  -16.516605596   157.5140   2   6   0.0172   0.0253   0.1737  -0.0028  -0.0237   0.0111  -8.00    1.2
2025/04/04 17:28:53.000   28.415368167  -16.516605597   157.5126   2   6   0.0172   0.0253   0.1737  -0.0027  -0.0237   0.0111  -7.00    1.5
2025/04/04 17:28:54.000   28.415368167  -16.516605598   157.5110   2   6   0.0172   0.0253   0.1737  -0.0027  -0.0238   0.0111  -6.00    1.1
2025/04/04 17:28:55.000   28.415368168  -16.516605598   157.5098   2   6   0.0172   0.0253   0.1737  -0.0027  -0.0238   0.0110  -5.00    1.2
2025/04/04 17:28:56.000   28.415368170  -16.516605597   157.5088   2   6   0.0172   0.0253   0.1737  -0.0027  -0.0238   0.0110  -4.00    1.1
2025/04/04 17:28:57.000   28.415368169  -16.516605599   157.5064   2   6   0.0172   0.0253   0.1737  -0.0027  -0.0238   0.0110  -3.00    2.0
2025/04/04 17:28:58.000   28.415368169  -16.516605601   157.5039   2   6   0.0172   0.0253   0.1737  -0.0027  -0.0238   0.0109  -2.00    2.0
2025/04/04 17:28:59.000   28.415368170  -16.516605601   157.5030   2   6   0.0172   0.0253   0.1737  -0.0027  -0.0238   0.0109  -1.00    2.0
2025/04/04 17:29:00.000   28.415368171  -16.516605600   157.5001   2   6   0.0172   0.0253   0.1737  -0.0027  -0.0239   0.0108   0.00    2.0
2025/04/04 17:29:01.000   28.415368171  -16.516605597   157.4995   2   6   0.0172   0.0253   0.1737  -0.0026  -0.0239   0.0107   1.00    2.1
2025/04/04 17:29:02.000   28.415368172  -16.516605594   157.4958   2   6   0.0173   0.0253   0.1737  -0.0026  -0.0239   0.0107   2.00    2.2
2025/04/04 17:29:03.000   28.415368172  -16.516605592   157.4912   2   6   0.0173   0.0253   0.1736  -0.0026  -0.0239   0.0106   3.00    2.2
2025/04/04 17:29:04.000   28.415368172  -16.516605591   157.4901   2   6   0.0173   0.0253   0.1736  -0.0026  -0.0240   0.0106   4.00    2.2
2025/04/04 17:29:05.000   28.415368171  -16.516605590   157.4866   2   6   0.0173   0.0253   0.1736  -0.0025  -0.0240   0.0106   5.00    2.2
2025/04/04 17:29:06.000   28.415368170  -16.516605591   157.4844   2   6   0.0173   0.0254   0.1736  -0.0025  -0.0240   0.0105   6.00    2.2
2025/04/04 17:29:07.000   28.415368169  -16.516605593   157.4823   2   6   0.0173   0.0254   0.1736  -0.0025  -0.0240   0.0105   7.00    1.2
2025/04/04 17:29:08.000   28.415368169  -16.516605593   157.4804   2   6   0.0173   0.0254   0.1736  -0.0025  -0.0240   0.0105   8.00    1.2
2025/04/04 17:29:09.000   28.415368169  -16.516605594   157.4788   2   6   0.0173   0.0254   0.1736  -0.0025  -0.0240   0.0105   9.00    1.2
2025/04/04 17:29:10.000   28.415368168  -16.516605594   157.4774   2   6   0.0173   0.0254   0.1736  -0.0025  -0.0240   0.0104  10.00    1.0
2025/04/04 17:29:11.000   28.415368168  -16.516605595   157.4758   2   6   0.0173   0.0254   0.1736  -0.0025  -0.0240   0.0104  11.00    1.2
2025/04/04 17:29:12.000   28.415368168  -16.516605595   157.4744   2   6   0.0173   0.0254   0.1736  -0.0025  -0.0240   0.0104  12.00    1.2
2025/04/04 17:29:13.000   28.415368167  -16.516605596   157.4723   2   6   0.0173   0.0254   0.1736  -0.0024  -0.0240   0.0104  13.00    1.2
2025/04/04 17:29:14.000   28.415368166  -16.516605597   157.4708   2   6   0.0173   0.0254   0.1736  -0.0024  -0.0240   0.0104  14.00    1.6
2025/04/04 17:29:15.000   28.415368165  -16.516605598   157.4697   2   6   0.0173   0.0254   0.1736  -0.0024  -0.0240   0.0104 -15.00    1.1
2025/04/04 17:29:16.000   28.415368165  -16.516605599   157.4680   2   6   0.0173   0.0254   0.1736  -0.0024  -0.0240   0.0104 -14.00    1.2
2025/04/04 17:29:17.000   28.415368165  -16.516605600   157.4665   2   6   0.0173   0.0254   0.1736  -0.0024  -0.0240   0.0104 -13.00    1.1
2025/04/04 17:29:18.000   28.415368164  -16.516605601   157.4650   2   6   0.0173   0.0254   0.1736  -0.0024  -0.0240   0.0104 -12.00    2.3
2025/04/04 17:29:19.000   28.415368163  -16.516605603   157.4631   2   6   0.0173   0.0254   0.1736  -0.0024  -0.0240   0.0104 -11.00    2.3
2025/04/04 17:29:20.000   28.415368163  -16.516605604   157.4608   2   6   0.0173   0.0254   0.1736  -0.0024  -0.0240   0.0104 -10.00    2.3
2025/04/04 17:29:21.000   28.415368162  -16.516605605   157.4586   2   6   0.0173   0.0254   0.1736  -0.0024  -0.0240   0.0103  -9.00    2.3
2025/04/04 17:29:22.000   28.415368161  -16.516605606   157.4564   2   6   0.0173   0.0254   0.1736  -0.0024  -0.0240   0.0103  -8.00    2.3
2025/04/04 17:29:23.000   28.415368161  -16.516605607   157.4542   2   6   0.0173   0.0254   0.1736  -0.0024  -0.0240   0.0103  -7.00    2.3
2025/04/04 17:29:24.000   28.415368162  -16.516605607   157.4527   2   6   0.0173   0.0254   0.1735  -0.0024  -0.0241   0.0103  -6.00    2.3
2025/04/04 17:29:25.000   28.415368162  -16.516605607   157.4501   2   6   0.0173   0.0254   0.1735  -0.0024  -0.0241   0.0102  -5.00    2.3
2025/04/04 17:29:26.000   28.415368162  -16.516605608   157.4475   2   6   0.0173   0.0254   0.1735  -0.0024  -0.0241   0.0102  -4.00    2.3
2025/04/04 17:29:27.000   28.415368163  -16.516605608   157.4450   2   6   0.0173   0.0254   0.1735  -0.0023  -0.0241   0.0102  -3.00    2.3
2025/04/04 17:29:28.000   28.415368163  -16.516605607   157.4420   2   6   0.0173   0.0254   0.1735  -0.0023  -0.0241   0.0101  -2.00    1.0
2025/04/04 17:29:29.000   28.415368165  -16.516605610   157.4379   2   6   0.0173   0.0254   0.1735  -0.0023  -0.0241   0.0101  -1.00    1.3
2025/04/04 17:29:30.000   28.415368167  -16.516605612   157.4344   2   6   0.0173   0.0254   0.1735  -0.0023  -0.0241   0.0100   0.00    1.0
2025/04/04 17:29:31.000   28.415368168  -16.516605613   157.4341   2   6   0.0173   0.0254   0.1735  -0.0023  -0.0242   0.0099   1.00    1.1
2025/04/04 17:29:32.000   28.415368168  -16.516605616   157.4311   2   6   0.0173   0.0254   0.1735  -0.0022  -0.0242   0.0099   2.00    1.3
2025/04/04 17:29:33.000   28.415368169  -16.516605615   157.4320   2   6   0.0173   0.0254   0.1735  -0.0022  -0.0242   0.0098   3.00    1.1
2025/04/04 17:29:34.000   28.415368171  -16.516605614   157.4320   2   6   0.0173   0.0254   0.1734  -0.0022  -0.0242   0.0098   4.00    1.3
2025/04/04 17:29:35.000   28.415368172  -16.516605614   157.4301   2   6   0.0173   0.0254   0.1734  -0.0022  -0.0243   0.0097   5.00    1.7
2025/04/04 17:29:36.000   28.415368172  -16.516605613   157.4298   2   6   0.0173   0.0254   0.1734  -0.0021  -0.0243   0.0097   6.00    1.2
2025/04/04 17:29:37.000   28.415368172  -16.516605613   157.4300   2   6   0.0173   0.0254   0.1734  -0.0021  -0.0243   0.0097   7.00    1.2
2025/04/04 17:29:38.000   28.415368173  -16.516605614   157.4305   2   6   0.0173   0.0254   0.1734  -0.0021  -0.0243   0.0097   8.00    1.2
2025/04/04 17:29:39.000   28.415368173  -16.516605614   157.4308   2   6   0.0173   0.0254   0.1734  -0.0021  -0.0243   0.0096   9.00    2.5
2025/04/04 17:29:40.000   28.415368174  -16.516605613   157.4306   2   6   0.0173   0.0254   0.1734  -0.0021  -0.0243   0.0096  10.00    2.5
2025/04/04 17:29:41.000   28.415368175  -16.516605613   157.4305   2   6   0.0173   0.0254   0.1734  -0.0021  -0.0243   0.0096  11.00    2.5
2025/04/04 17:29:42.000   28.415368176  -16.516605613   157.4309   2   6   0.0173   0.0254   0.1734  -0.0021  -0.0243   0.0096  12.00    2.5
2025/04/04 17:29:43.000   28.415368176  -16.516605612   157.4303   2   6   0.0173   0.0254   0.1734  -0.0021  -0.0243   0.0096  13.00    2.5
2025/04/04 17:29:44.000   28.415368177  -16.516605612   157.4295   2   6   0.0173   0.0254   0.1734  -0.0020  -0.0243   0.0096  14.00    2.5
2025/04/04 17:29:45.000   28.415368177  -16.516605613   157.4286   2   6   0.0173   0.0254   0.1734  -0.0020  -0.0243   0.0096 -15.00    2.5
2025/04/04 17:29:46.000   28.415368178  -16.516605613   157.4284   2   6   0.0173   0.0254   0.1734  -0.0020  -0.0243   0.0096 -14.00    2.5
2025/04/04 17:29:47.000   28.415368178  -16.516605612   157.4277   2   6   0.0173   0.0254   0.1734  -0.0020  -0.0243   0.0095 -13.00    2.5
2025/04/04 17:29:48.000   28.415368178  -16.516605612   157.4273   2   6   0.0173   0.0254   0.1734  -0.0020  -0.0243   0.0095 -12.00    2.5
2025/04/04 17:29:49.000   28.415368179  -16.516605611   157.4267   2   6   0.0173   0.0254   0.1734  -0.0020  -0.0243   0.0095 -11.00    1.2
2025/04/04 17:29:50.000   28.415368179  -16.516605611   157.4257   2   6   0.0173   0.0254   0.1733  -0.0020  -0.0243   0.0095 -10.00    1.3
2025/04/04 17:29:51.000   28.415368179  -16.516605610   157.4245   2   6   0.0173   0.0254   0.1733  -0.0020  -0.0243   0.0095  -9.00    1.2
2025/04/04 17:29:52.000   28.415368179  -16.516605610   157.4227   2   6   0.0173   0.0254   0.1733  -0.0020  -0.0243   0.0095  -8.00    1.1
2025/04/04 17:29:53.000   28.415368179  -16.516605611   157.4214   2   6   0.0173   0.0254   0.1733  -0.0020  -0.0243   0.0095  -7.00    1.1
2025/04/04 17:29:54.000   28.415368178  -16.516605610   157.4205   2   6   0.0173   0.0254   0.1733  -0.0020  -0.0243   0.0094  -6.00    1.0
2025/04/04 17:29:55.000   28.415368178  -16.516605608   157.4186   2   6   0.0173   0.0254   0.1733  -0.0020  -0.0243   0.0094  -5.00    1.1
2025/04/04 17:29:56.000   28.415368178  -16.516605607   157.4160   2   6   0.0173   0.0254   0.1733  -0.0020  -0.0243   0.0094  -4.00    1.7
2025/04/04 17:29:57.000   28.415368177  -16.516605607   157.4135   2   6   0.0173   0.0254   0.1733  -0.0019  -0.0244   0.0093  -3.00    1.1
2025/04/04 17:29:58.000   28.415368178  -16.516605606   157.4103   2   6   0.0173   0.0254   0.1733  -0.0019  -0.0244   0.0093  -2.00    1.2
2025/04/04 17:29:59.000   28.415368179  -16.516605603   157.4055   2   6   0.0173   0.0254   0.1733  -0.0019  -0.0244   0.0092  -1.00    1.1
2025/04/04 17:30:00.000   28.415368182  -16.516605602   157.4009   2   6   0.0173   0.0254   0.1733  -0.0019  -0.0244   0.0092   0.00    2.2
2025/04/04 17:30:01.000   28.415368183  -16.516605603   157.3965   2   6   0.0174   0.0254   0.1732  -0.0019  -0.0244   0.0091   1.00    2.7
2025/04/04 17:30:02.000   28.415368184  -16.516605602   157.3932   2   6   0.0174   0.0254   0.1732  -0.0018  -0.0245   0.0090   2.00    2.6
2025/04/04 17:30:03.000   28.415368186  -16.516605599   157.3927   2   6   0.0174   0.0255   0.1732  -0.0018  -0.0245   0.0090   3.00    2.6
2025/04/04 17:30:04.000   28.415368188  -16.516605596   157.3931   2   6   0.0174   0.0255   0.1731  -0.0018  -0.0245   0.0089   4.00    2.5
2025/04/04 17:30:05.000   28.415368190  -16.516605592   157.3916   2   6   0.0174   0.0255   0.1731  -0.0017  -0.0245   0.0089   5.00    2.5
2025/04/04 17:30:06.000   28.415368191  -16.516605591   157.3910   2   6   0.0174   0.0255   0.1731  -0.0017  -0.0245   0.0088   6.00    2.4
2025/04/04 17:30:07.000   28.415368192  -16.516605589   157.3899   2   6   0.0174   0.0255   0.1731  -0.0017  -0.0245   0.0088   7.00    2.4
2025/04/04 17:30:08.000   28.415368194  -16.516605588   157.3886   2   6   0.0174   0.0255   0.1731  -0.0017  -0.0245   0.0088   8.00    2.4
2025/04/04 17:30:09.000   28.415368195  -16.516605587   157.3876   2   6   0.0174   0.0255   0.1731  -0.0017  -0.0245   0.0088   9.00    2.4
2025/04/04 17:30:10.000   28.415368196  -16.516605586   157.3870   2   6   0.0174   0.0255   0.1731  -0.0017  -0.0245   0.0088  10.00    1.3
2025/04/04 17:30:11.000   28.415368197  -16.516605585   157.3865   2   6   0.0174   0.0255   0.1731  -0.0016  -0.0245   0.0087  11.00    1.4
2025/04/04 17:30:12.000   28.415368198  -16.516605585   157.3859   2   6   0.0174   0.0255   0.1731  -0.0016  -0.0245   0.0087  12.00    1.3
2025/04/04 17:30:13.000   28.415368199  -16.516605584   157.3854   2   6   0.0174   0.0255   0.1731  -0.0016  -0.0245   0.0087  13.00    1.2
2025/04/04 17:30:14.000   28.415368199  -16.516605584   157.3853   2   6   0.0174   0.0255   0.1731  -0.0016  -0.0245   0.0087  14.00    1.3
2025/04/04 17:30:15.000   28.415368200  -16.516605584   157.3845   2   6   0.0174   0.0255   0.1731  -0.0016  -0.0245   0.0087 -15.00    1.1
2025/04/04 17:30:16.000   28.415368200  -16.516605584   157.3839   2   6   0.0174   0.0255   0.1731  -0.0016  -0.0245   0.0087 -14.00    1.3
2025/04/04 17:30:17.000   28.415368201  -16.516605584   157.3836   2   6   0.0174   0.0255   0.1730  -0.0016  -0.0245   0.0087 -13.00    1.6
2025/04/04 17:30:18.000   28.415368201  -16.516605584   157.3829   2   6   0.0174   0.0255   0.1730  -0.0016  -0.0245   0.0087 -12.00    1.3
2025/04/04 17:30:19.000   28.415368201  -16.516605584   157.3821   2   6   0.0174   0.0255   0.1730  -0.0016  -0.0246   0.0087 -11.00    1.2
2025/04/04 17:30:20.000   28.415368202  -16.516605584   157.3807   2   6   0.0174   0.0255   0.1730  -0.0016  -0.0246   0.0087 -10.00    1.3
2025/04/04 17:30:21.000   28.415368202  -16.516605584   157.3795   2   6   0.0174   0.0255   0.1730  -0.0016  -0.0246   0.0086  -9.00    2.3
2025/04/04 17:30:22.000   28.415368203  -16.516605584   157.3783   2   6   0.0174   0.0255   0.1730  -0.0016  -0.0246   0.0086  -8.00    2.3
2025/04/04 17:30:23.000   28.415368205  -16.516605584   157.3768   2   6   0.0174   0.0255   0.1730  -0.0016  -0.0246   0.0086  -7.00    2.3
2025/04/04 17:30:24.000   28.415368207  -16.516605582   157.3752   2   6   0.0174   0.0255   0.1730  -0.0015  -0.0246   0.0086  -6.00    2.3
2025/04/04 17:30:25.000   28.415368207  -16.516605582   157.3740   2   6   0.0174   0.0255   0.1730  -0.0015  -0.0246   0.0086  -5.00    2.3
2025/04/04 17:30:26.000   28.415368207  -16.516605580   157.3730   2   6   0.0174   0.0255   0.1729  -0.0015  -0.0246   0.0085  -4.00    2.3
2025/04/04 17:30:27.000   28.415368208  -16.516605579   157.3714   2   6   0.0174   0.0255   0.1729  -0.0015  -0.0246   0.0085  -3.00    2.2
2025/04/04 17:30:28.000   28.415368209  -16.516605577   157.3700   2   6   0.0174   0.0255   0.1729  -0.0015  -0.0246   0.0084  -2.00    2.2
2025/04/04 17:30:29.000   28.415368209  -16.516605576   157.3695   2   6   0.0174   0.0255   0.1729  -0.0015  -0.0246   0.0084  -1.00    2.2
2025/04/04 17:30:30.000   28.415368211  -16.516605573   157.3683   2   6   0.0174   0.0255   0.1729  -0.0014  -0.0246   0.0083   0.00    2.2
2025/04/04 17:30:31.000   28.415368211  -16.516605571   157.3655   2   6   0.0174   0.0255   0.1728  -0.0014  -0.0246   0.0083   1.00    1.1
2025/04/04 17:30:32.000   28.415368208  -16.516605571   157.3618   2   6   0.0174   0.0255   0.1728  -0.0014  -0.0247   0.0082   2.00    1.4
2025/04/04 17:30:33.000   28.415368206  -16.516605571   157.3588   2   6   0.0174   0.0255   0.1728  -0.0013  -0.0247   0.0082   3.00    1.2
2025/04/04 17:30:34.000   28.415368206  -16.516605571   157.3569   2   6   0.0174   0.0255   0.1728  -0.0013  -0.0247   0.0081   4.00    1.2
2025/04/04 17:30:35.000   28.415368206  -16.516605570   157.3558   2   6   0.0174   0.0255   0.1728  -0.0013  -0.0247   0.0081   5.00    1.3
2025/04/04 17:30:36.000   28.415368205  -16.516605571   157.3534   2   6   0.0174   0.0255   0.1727  -0.0012  -0.0247   0.0080   6.00    1.1
2025/04/04 17:30:37.000   28.415368204  -16.516605571   157.3517   2   6   0.0174   0.0255   0.1727  -0.0012  -0.0247   0.0080   7.00    1.3
2025/04/04 17:30:38.000   28.415368204  -16.516605572   157.3495   2   6   0.0174   0.0255   0.1727  -0.0012  -0.0247   0.0080   8.00    1.4
2025/04/04 17:30:39.000   28.415368202  -16.516605574   157.3477   2   6   0.0174   0.0255   0.1727  -0.0012  -0.0247   0.0080   9.00    1.2
2025/04/04 17:30:40.000   28.415368201  -16.516605575   157.3458   2   6   0.0174   0.0255   0.1727  -0.0012  -0.0247   0.0079  10.00    1.2
2025/04/04 17:30:41.000   28.415368200  -16.516605577   157.3447   2   6   0.0174   0.0255   0.1727  -0.0011  -0.0247   0.0079  11.00    1.2
2025/04/04 17:30:42.000   28.415368200  -16.516605578   157.3434   2   6   0.0174   0.0255   0.1727  -0.0011  -0.0247   0.0079  12.00    2.3
2025/04/04 17:30:43.000   28.415368200  -16.516605579   157.3417   2   6   0.0174   0.0255   0.1727  -0.0011  -0.0247   0.0079  13.00    2.3
2025/04/04 17:30:44.000   28.415368199  -16.516605580   157.3404   2   6   0.0174   0.0255   0.1727  -0.0011  -0.0247   0.0079  14.00    2.2
2025/04/04 17:30:45.000   28.415368199  -16.516605581   157.3391   2   6   0.0174   0.0255   0.1727  -0.0011  -0.0247   0.0079 -15.00    2.2
2025/04/04 17:30:46.000   28.415368198  -16.516605582   157.3383   2   6   0.0174   0.0255   0.1726  -0.0011  -0.0247   0.0079 -14.00    2.2
2025/04/04 17:30:47.000   28.415368198  -16.516605583   157.3370   2   6   0.0174   0.0255   0.1726  -0.0011  -0.0247   0.0079 -13.00    2.2
2025/04/04 17:30:48.000   28.415368198  -16.516605584   157.3355   2   6   0.0174   0.0255   0.1726  -0.0011  -0.0247   0.0079 -12.00    2.2
2025/04/04 17:30:49.000   28.415368197  -16.516605585   157.3339   2   6   0.0174   0.0255   0.1726  -0.0011  -0.0247   0.0079 -11.00    2.2
2025/04/04 17:30:50.000   28.415368196  -16.516605588   157.3320   2   6   0.0174   0.0255   0.1726  -0.0011  -0.0247   0.0079 -10.00    2.2
2025/04/04 17:30:51.000   28.415368195  -16.516605590   157.3301   2   6   0.0174   0.0255   0.1726  -0.0010  -0.0247   0.0078  -9.00    2.1
2025/04/04 17:30:52.000   28.415368194  -16.516605591   157.3283   2   6   0.0174   0.0255   0.1726  -0.0010  -0.0247   0.0078  -8.00    1.2
2025/04/04 17:30:53.000   28.415368192  -16.516605592   157.3260   2   6   0.0174   0.0255   0.1726  -0.0010  -0.0247   0.0078  -7.00    1.3
2025/04/04 17:30:54.000   28.415368191  -16.516605594   157.3236   2   6   0.0174   0.0255   0.1725  -0.0010  -0.0247   0.0078  -6.00    1.2
2025/04/04 17:30:55.000   28.415368188  -16.516605595   157.3210   2   6   0.0174   0.0255   0.1725  -0.0010  -0.0247   0.0078  -5.00    1.1
2025/04/04 17:30:56.000   28.415368185  -16.516605598   157.3175   2   6   0.0174   0.0255   0.1725  -0.0010  -0.0247   0.0077  -4.00    1.1
