% program   : RTKPOST-EX 2.5.0
% inp file  : C:\Users\SallyHenry\Desktop\Sally Internship\GNSS gravi\DATA\Survey Rover Obs\ORO04.25o
% inp file  : C:\Users\SallyHenry\Desktop\Sally Internship\GNSS gravi\DATA\BaseStations\TN02\TN0200ESP_R_20250940000_01D_30S_MO.rnx
% inp file  : C:\Users\SallyHenry\Desktop\Sally Internship\GNSS gravi\DATA\BaseStations\TN02\TN0200ESP_R_20250940000_01D_MN.rnx
% inp file  : C:\Users\SallyHenry\Desktop\Sally Internship\GNSS gravi\DATA\aux_files\Survey\IGS0OPSFIN_20250940000_01D_15M_ORB.SP3
% inp file  : C:\Users\SallyHenry\Desktop\Sally Internship\GNSS gravi\DATA\aux_files\Survey\IGS0OPSFIN_20250940000_01D_30S_CLK.CLK
% obs start : 2025/04/04 14:41:00.0 GPST (week2360 484860.0s)
% obs end   : 2025/04/04 14:57:04.0 GPST (week2360 485824.0s)
% pos mode  : Static
% freqs     : L1+L2/E5b
% solution  : Combined-No Phase Reset
% elev mask : 15.0 deg
% dynamics  : on
% tidecorr  : solid
% ionos opt : Estimate TEC
% tropo opt : Estimate ZTD+Grad
% ephemeris : Precise
% navi sys  : GPS GLONASS Galileo QZSS BDS
% amb res   : Fix and Hold
% amb glo   : Fix and Hold
% amb bds   : on
% val thres : 3.0
% antenna1  :                       ( 0.0000  0.0000  1.8000)
% antenna2  :                       ( 0.0000  0.0000  0.0771)
% ref pos   :  28.418257450  -16.550784480    54.4145
%
% (lat/lon/height=WGS84/ellipsoidal,Q=1:fix,2:float,3:sbas,4:dgps,5:single,6:ppp,ns=# of satellites)
%  GPST                  latitude(deg) longitude(deg)  height(m)   Q  ns   sdn(m)   sde(m)   sdu(m)  sdne(m)  sdeu(m)  sdun(m) age(s)  ratio
2025/04/04 14:41:00.000   28.378929688  -16.499699454   798.3020   2   5   0.0256   0.0367   0.1526   0.0243  -0.0316  -0.0467   0.00    0.0
2025/04/04 14:41:01.000   28.378929684  -16.499699453   798.3034   2   5   0.0256   0.0367   0.1528   0.0242  -0.0315  -0.0467   1.00    0.0
2025/04/04 14:41:02.000   28.378929682  -16.499699451   798.3023   2   5   0.0256   0.0367   0.1529   0.0242  -0.0315  -0.0468   2.00    0.0
2025/04/04 14:41:03.000   28.378929680  -16.499699449   798.3014   2   5   0.0256   0.0367   0.1530   0.0242  -0.0314  -0.0468   3.00    0.0
2025/04/04 14:41:04.000   28.378929677  -16.499699448   798.3019   2   5   0.0256   0.0367   0.1531   0.0242  -0.0313  -0.0468   4.00    0.0
2025/04/04 14:41:05.000   28.378929673  -16.499699447   798.3016   2   5   0.0256   0.0367   0.1532   0.0242  -0.0313  -0.0468   5.00    0.0
2025/04/04 14:41:06.000   28.378929672  -16.499699446   798.3004   2   5   0.0256   0.0367   0.1533   0.0242  -0.0312  -0.0468   6.00    0.0
2025/04/04 14:41:07.000   28.378929671  -16.499699447   798.2993   2   5   0.0256   0.0367   0.1533   0.0241  -0.0312  -0.0468   7.00    0.0
2025/04/04 14:41:08.000   28.378929671  -16.499699447   798.2985   2   5   0.0256   0.0366   0.1533   0.0241  -0.0312  -0.0468   8.00    0.0
2025/04/04 14:41:09.000   28.378929670  -16.499699446   798.2977   2   5   0.0256   0.0366   0.1534   0.0241  -0.0311  -0.0468   9.00    0.0
2025/04/04 14:41:10.000   28.378929669  -16.499699446   798.2977   2   5   0.0256   0.0366   0.1534   0.0241  -0.0311  -0.0468  10.00    0.0
2025/04/04 14:41:11.000   28.378929668  -16.499699446   798.2973   2   5   0.0256   0.0366   0.1534   0.0241  -0.0311  -0.0468  11.00    0.0
2025/04/04 14:41:12.000   28.378929667  -16.499699447   798.2970   2   5   0.0256   0.0366   0.1534   0.0241  -0.0311  -0.0468  12.00    0.0
2025/04/04 14:41:13.000   28.378929666  -16.499699447   798.2971   2   5   0.0256   0.0366   0.1534   0.0241  -0.0310  -0.0468  13.00    0.0
2025/04/04 14:41:14.000   28.378929666  -16.499699447   798.2968   2   5   0.0256   0.0366   0.1534   0.0241  -0.0310  -0.0468  14.00    0.0
2025/04/04 14:41:15.000   28.378929666  -16.499699447   798.2967   2   5   0.0256   0.0366   0.1533   0.0241  -0.0310  -0.0467 -15.00    0.0
2025/04/04 14:41:16.000   28.378929666  -16.499699447   798.2962   2   5   0.0256   0.0366   0.1533   0.0240  -0.0310  -0.0467 -14.00    0.0
2025/04/04 14:41:17.000   28.378929666  -16.499699448   798.2959   2   5   0.0256   0.0365   0.1533   0.0240  -0.0309  -0.0467 -13.00    0.0
2025/04/04 14:41:18.000   28.378929665  -16.499699448   798.2956   2   5   0.0256   0.0365   0.1533   0.0240  -0.0309  -0.0467 -12.00    0.0
2025/04/04 14:41:19.000   28.378929664  -16.499699448   798.2959   2   5   0.0256   0.0365   0.1533   0.0240  -0.0309  -0.0467 -11.00    0.0
2025/04/04 14:41:20.000   28.378929664  -16.499699449   798.2954   2   5   0.0256   0.0365   0.1533   0.0240  -0.0309  -0.0467 -10.00    0.0
2025/04/04 14:41:21.000   28.378929662  -16.499699451   798.2951   2   5   0.0256   0.0365   0.1533   0.0240  -0.0308  -0.0467  -9.00    0.0
2025/04/04 14:41:22.000   28.378929662  -16.499699451   798.2946   2   5   0.0256   0.0365   0.1533   0.0240  -0.0308  -0.0467  -8.00    0.0
2025/04/04 14:41:23.000   28.378929661  -16.499699451   798.2939   2   5   0.0255   0.0365   0.1533   0.0240  -0.0308  -0.0467  -7.00    0.0
2025/04/04 14:41:24.000   28.378929659  -16.499699452   798.2931   2   5   0.0255   0.0365   0.1533   0.0240  -0.0308  -0.0467  -6.00    0.0
2025/04/04 14:41:25.000   28.378929658  -16.499699452   798.2919   2   5   0.0255   0.0365   0.1533   0.0239  -0.0307  -0.0467  -5.00    0.0
2025/04/04 14:41:26.000   28.378929655  -16.499699451   798.2917   2   5   0.0255   0.0365   0.1533   0.0239  -0.0307  -0.0467  -4.00    0.0
2025/04/04 14:41:27.000   28.378929654  -16.499699450   798.2904   2   5   0.0255   0.0365   0.1533   0.0239  -0.0306  -0.0467  -3.00    0.0
2025/04/04 14:41:28.000   28.378929652  -16.499699449   798.2881   2   5   0.0255   0.0364   0.1534   0.0239  -0.0306  -0.0467  -2.00    0.0
2025/04/04 14:41:29.000   28.378929650  -16.499699448   798.2859   2   5   0.0255   0.0364   0.1535   0.0239  -0.0306  -0.0467  -1.00    0.0
2025/04/04 14:41:30.000   28.378929648  -16.499699446   798.2822   2   5   0.0256   0.0364   0.1536   0.0239  -0.0305  -0.0467   0.00    0.0
2025/04/04 14:41:31.000   28.378929645  -16.499699442   798.2801   2   5   0.0256   0.0364   0.1538   0.0239  -0.0304  -0.0467   1.00    0.0
2025/04/04 14:41:32.000   28.378929641  -16.499699440   798.2782   2   5   0.0256   0.0364   0.1539   0.0238  -0.0304  -0.0467   2.00    0.0
2025/04/04 14:41:33.000   28.378929640  -16.499699441   798.2753   2   5   0.0256   0.0364   0.1540   0.0238  -0.0303  -0.0467   3.00    0.0
2025/04/04 14:41:34.000   28.378929637  -16.499699442   798.2734   2   5   0.0256   0.0364   0.1541   0.0238  -0.0303  -0.0468   4.00    0.0
2025/04/04 14:41:35.000   28.378929635  -16.499699443   798.2720   2   5   0.0256   0.0364   0.1542   0.0238  -0.0302  -0.0468   5.00    0.0
2025/04/04 14:41:36.000   28.378929633  -16.499699444   798.2715   2   5   0.0256   0.0364   0.1543   0.0238  -0.0302  -0.0468   6.00    0.0
2025/04/04 14:41:37.000   28.378929630  -16.499699445   798.2712   2   5   0.0256   0.0364   0.1543   0.0238  -0.0301  -0.0468   7.00    0.0
2025/04/04 14:41:38.000   28.378929628  -16.499699447   798.2716   2   5   0.0256   0.0364   0.1544   0.0238  -0.0301  -0.0468   8.00    0.0
2025/04/04 14:41:39.000   28.378929625  -16.499699450   798.2713   2   5   0.0256   0.0364   0.1544   0.0237  -0.0301  -0.0468   9.00    0.0
2025/04/04 14:41:40.000   28.378929623  -16.499699452   798.2712   2   5   0.0256   0.0364   0.1544   0.0237  -0.0301  -0.0468  10.00    0.0
2025/04/04 14:41:41.000   28.378929622  -16.499699454   798.2709   2   5   0.0256   0.0363   0.1544   0.0237  -0.0300  -0.0468  11.00    0.0
2025/04/04 14:41:42.000   28.378929621  -16.499699456   798.2707   2   5   0.0256   0.0363   0.1544   0.0237  -0.0300  -0.0468  12.00    0.0
2025/04/04 14:41:43.000   28.378929619  -16.499699458   798.2705   2   5   0.0256   0.0363   0.1545   0.0237  -0.0300  -0.0468  13.00    0.0
2025/04/04 14:41:44.000   28.378929618  -16.499699460   798.2705   2   5   0.0256   0.0363   0.1545   0.0237  -0.0300  -0.0467  14.00    0.0
2025/04/04 14:41:45.000   28.378929616  -16.499699463   798.2705   2   5   0.0256   0.0363   0.1545   0.0237  -0.0299  -0.0467 -15.00    0.0
2025/04/04 14:41:46.000   28.378929616  -16.499699464   798.2703   2   5   0.0256   0.0363   0.1545   0.0237  -0.0299  -0.0467 -14.00    0.0
2025/04/04 14:41:47.000   28.378929614  -16.499699466   798.2701   2   5   0.0255   0.0363   0.1545   0.0237  -0.0299  -0.0467 -13.00    0.0
2025/04/04 14:41:48.000   28.378929613  -16.499699468   798.2699   2   5   0.0255   0.0363   0.1545   0.0237  -0.0299  -0.0467 -12.00    0.0
2025/04/04 14:41:49.000   28.378929612  -16.499699469   798.2699   2   5   0.0255   0.0363   0.1545   0.0236  -0.0299  -0.0467 -11.00    0.0
2025/04/04 14:41:50.000   28.378929611  -16.499699470   798.2702   2   5   0.0255   0.0363   0.1545   0.0236  -0.0298  -0.0467 -10.00    0.0
2025/04/04 14:41:51.000   28.378929609  -16.499699471   798.2707   2   5   0.0255   0.0363   0.1545   0.0236  -0.0298  -0.0467  -9.00    0.0
2025/04/04 14:41:52.000   28.378929608  -16.499699471   798.2709   2   5   0.0255   0.0362   0.1545   0.0236  -0.0298  -0.0467  -8.00    0.0
2025/04/04 14:41:53.000   28.378929605  -16.499699472   798.2714   2   5   0.0255   0.0362   0.1545   0.0236  -0.0298  -0.0467  -7.00    0.0
2025/04/04 14:41:54.000   28.378929603  -16.499699472   798.2724   2   5   0.0255   0.0362   0.1545   0.0236  -0.0297  -0.0467  -6.00    0.0
2025/04/04 14:41:55.000   28.378929600  -16.499699471   798.2733   2   5   0.0255   0.0362   0.1545   0.0236  -0.0297  -0.0467  -5.00    0.0
2025/04/04 14:41:56.000   28.378929596  -16.499699470   798.2733   2   5   0.0255   0.0362   0.1545   0.0236  -0.0297  -0.0467  -4.00    0.0
2025/04/04 14:41:57.000   28.378929591  -16.499699469   798.2739   2   5   0.0255   0.0362   0.1546   0.0236  -0.0296  -0.0467  -3.00    0.0
2025/04/04 14:41:58.000   28.378929587  -16.499699469   798.2739   2   5   0.0255   0.0362   0.1547   0.0235  -0.0296  -0.0467  -2.00    0.0
2025/04/04 14:41:59.000   28.378929584  -16.499699468   798.2746   2   5   0.0255   0.0362   0.1547   0.0235  -0.0296  -0.0467  -1.00    0.0
2025/04/04 14:42:00.000   28.378929579  -16.499699468   798.2738   2   5   0.0255   0.0362   0.1549   0.0235  -0.0295  -0.0467   0.00    0.0
2025/04/04 14:42:01.000   28.378929574  -16.499699468   798.2720   2   5   0.0255   0.0362   0.1550   0.0235  -0.0294  -0.0467   1.00    0.0
2025/04/04 14:42:02.000   28.378929571  -16.499699467   798.2706   2   5   0.0256   0.0362   0.1552   0.0235  -0.0294  -0.0468   2.00    0.0
2025/04/04 14:42:03.000   28.378929568  -16.499699465   798.2693   2   5   0.0256   0.0362   0.1553   0.0235  -0.0293  -0.0468   3.00    0.0
2025/04/04 14:42:04.000   28.378929566  -16.499699464   798.2691   2   5   0.0256   0.0362   0.1554   0.0235  -0.0293  -0.0468   4.00    0.0
2025/04/04 14:42:05.000   28.378929563  -16.499699463   798.2698   2   5   0.0256   0.0362   0.1555   0.0234  -0.0292  -0.0468   5.00    0.0
2025/04/04 14:42:06.000   28.378929562  -16.499699463   798.2689   2   5   0.0256   0.0361   0.1556   0.0234  -0.0292  -0.0468   6.00    0.0
2025/04/04 14:42:07.000   28.378929560  -16.499699463   798.2679   2   5   0.0256   0.0361   0.1556   0.0234  -0.0291  -0.0468   7.00    0.0
2025/04/04 14:42:08.000   28.378929560  -16.499699464   798.2667   2   5   0.0256   0.0361   0.1557   0.0234  -0.0291  -0.0468   8.00    0.0
2025/04/04 14:42:09.000   28.378929560  -16.499699464   798.2655   2   5   0.0256   0.0361   0.1557   0.0234  -0.0291  -0.0468   9.00    0.0
2025/04/04 14:42:10.000   28.378929560  -16.499699464   798.2645   2   5   0.0256   0.0361   0.1557   0.0234  -0.0291  -0.0468  10.00    0.0
2025/04/04 14:42:11.000   28.378929560  -16.499699465   798.2639   2   5   0.0256   0.0361   0.1557   0.0234  -0.0290  -0.0468  11.00    0.0
2025/04/04 14:42:12.000   28.378929559  -16.499699465   798.2637   2   5   0.0256   0.0361   0.1558   0.0234  -0.0290  -0.0468  12.00    0.0
2025/04/04 14:42:13.000   28.378929559  -16.499699466   798.2631   2   5   0.0256   0.0361   0.1558   0.0234  -0.0290  -0.0468  13.00    0.0
2025/04/04 14:42:14.000   28.378929559  -16.499699466   798.2627   2   5   0.0256   0.0361   0.1558   0.0233  -0.0290  -0.0468  14.00    0.0
2025/04/04 14:42:15.000   28.378929559  -16.499699466   798.2622   2   5   0.0256   0.0361   0.1558   0.0233  -0.0290  -0.0468 -15.00    0.0
2025/04/04 14:42:16.000   28.378929559  -16.499699466   798.2619   2   5   0.0255   0.0361   0.1558   0.0233  -0.0289  -0.0468 -14.00    0.0
2025/04/04 14:42:17.000   28.378929560  -16.499699465   798.2614   2   5   0.0255   0.0361   0.1558   0.0233  -0.0289  -0.0468 -13.00    0.0
2025/04/04 14:42:18.000   28.378929560  -16.499699465   798.2611   2   5   0.0255   0.0360   0.1558   0.0233  -0.0289  -0.0468 -12.00    0.0
2025/04/04 14:42:19.000   28.378929560  -16.499699464   798.2611   2   5   0.0255   0.0360   0.1558   0.0233  -0.0289  -0.0468 -11.00    0.0
2025/04/04 14:42:20.000   28.378929559  -16.499699463   798.2612   2   5   0.0255   0.0360   0.1558   0.0233  -0.0289  -0.0468 -10.00    0.0
2025/04/04 14:42:21.000   28.378929559  -16.499699463   798.2612   2   5   0.0255   0.0360   0.1558   0.0233  -0.0288  -0.0468  -9.00    0.0
2025/04/04 14:42:22.000   28.378929560  -16.499699462   798.2606   2   5   0.0255   0.0360   0.1558   0.0233  -0.0288  -0.0468  -8.00    0.0
2025/04/04 14:42:23.000   28.378929560  -16.499699461   798.2602   2   5   0.0255   0.0360   0.1558   0.0233  -0.0288  -0.0468  -7.00    0.0
2025/04/04 14:42:24.000   28.378929560  -16.499699459   798.2595   2   5   0.0255   0.0360   0.1559   0.0233  -0.0288  -0.0468  -6.00    0.0
2025/04/04 14:42:25.000   28.378929559  -16.499699458   798.2592   2   5   0.0255   0.0360   0.1559   0.0232  -0.0287  -0.0468  -5.00    0.0
2025/04/04 14:42:26.000   28.378929560  -16.499699457   798.2581   2   5   0.0255   0.0360   0.1559   0.0232  -0.0287  -0.0468  -4.00    0.0
2025/04/04 14:42:27.000   28.378929560  -16.499699455   798.2567   2   5   0.0255   0.0360   0.1560   0.0232  -0.0287  -0.0468  -3.00    0.0
2025/04/04 14:42:28.000   28.378929560  -16.499699454   798.2542   2   5   0.0255   0.0360   0.1561   0.0232  -0.0286  -0.0468  -2.00    0.0
2025/04/04 14:42:29.000   28.378929560  -16.499699452   798.2507   2   5   0.0255   0.0360   0.1562   0.0232  -0.0286  -0.0468  -1.00    0.0
2025/04/04 14:42:30.000   28.378929559  -16.499699451   798.2472   2   5   0.0255   0.0360   0.1563   0.0232  -0.0285  -0.0468   0.00    0.0
2025/04/04 14:42:31.000   28.378929559  -16.499699448   798.2455   2   5   0.0256   0.0359   0.1564   0.0232  -0.0285  -0.0468   1.00    0.0
2025/04/04 14:42:32.000   28.378929560  -16.499699447   798.2438   2   5   0.0256   0.0359   0.1566   0.0231  -0.0284  -0.0469   2.00    0.0
2025/04/04 14:42:33.000   28.378929560  -16.499699447   798.2421   2   5   0.0256   0.0359   0.1567   0.0231  -0.0283  -0.0469   3.00    0.0
2025/04/04 14:42:34.000   28.378929561  -16.499699447   798.2389   2   5   0.0256   0.0359   0.1568   0.0231  -0.0283  -0.0469   4.00    0.0
2025/04/04 14:42:35.000   28.378929561  -16.499699447   798.2374   2   5   0.0256   0.0359   0.1569   0.0231  -0.0283  -0.0469   5.00    0.0
2025/04/04 14:42:36.000   28.378929562  -16.499699447   798.2362   2   5   0.0256   0.0359   0.1570   0.0231  -0.0282  -0.0469   6.00    0.0
2025/04/04 14:42:37.000   28.378929563  -16.499699446   798.2351   2   5   0.0256   0.0359   0.1570   0.0231  -0.0282  -0.0469   7.00    0.0
2025/04/04 14:42:38.000   28.378929565  -16.499699444   798.2338   2   5   0.0256   0.0359   0.1571   0.0231  -0.0282  -0.0469   8.00    0.0
2025/04/04 14:42:39.000   28.378929565  -16.499699444   798.2332   2   5   0.0256   0.0359   0.1571   0.0231  -0.0281  -0.0469   9.00    0.0
2025/04/04 14:42:40.000   28.378929566  -16.499699443   798.2324   2   5   0.0256   0.0359   0.1572   0.0230  -0.0281  -0.0469  10.00    0.0
2025/04/04 14:42:41.000   28.378929568  -16.499699442   798.2313   2   5   0.0256   0.0359   0.1572   0.0230  -0.0281  -0.0469  11.00    0.0
2025/04/04 14:42:42.000   28.378929569  -16.499699441   798.2304   2   5   0.0256   0.0359   0.1572   0.0230  -0.0281  -0.0469  12.00    0.0
2025/04/04 14:42:43.000   28.378929570  -16.499699440   798.2298   2   5   0.0256   0.0359   0.1572   0.0230  -0.0280  -0.0469  13.00    0.0
2025/04/04 14:42:44.000   28.378929571  -16.499699439   798.2294   2   5   0.0256   0.0359   0.1572   0.0230  -0.0280  -0.0469  14.00    0.0
2025/04/04 14:42:45.000   28.378929572  -16.499699437   798.2288   2   5   0.0256   0.0358   0.1572   0.0230  -0.0280  -0.0469 -15.00    0.0
2025/04/04 14:42:46.000   28.378929573  -16.499699436   798.2281   2   5   0.0256   0.0358   0.1572   0.0230  -0.0280  -0.0469 -14.00    0.0
2025/04/04 14:42:47.000   28.378929575  -16.499699435   798.2275   2   5   0.0256   0.0358   0.1572   0.0230  -0.0280  -0.0469 -13.00    0.0
2025/04/04 14:42:48.000   28.378929576  -16.499699434   798.2267   2   5   0.0256   0.0358   0.1572   0.0230  -0.0280  -0.0469 -12.00    0.0
2025/04/04 14:42:49.000   28.378929577  -16.499699434   798.2261   2   5   0.0256   0.0358   0.1573   0.0230  -0.0279  -0.0469 -11.00    0.0
2025/04/04 14:42:50.000   28.378929579  -16.499699432   798.2249   2   5   0.0255   0.0358   0.1573   0.0230  -0.0279  -0.0469 -10.00    0.0
2025/04/04 14:42:51.000   28.378929581  -16.499699431   798.2236   2   5   0.0255   0.0358   0.1573   0.0230  -0.0279  -0.0469  -9.00    0.0
2025/04/04 14:42:52.000   28.378929583  -16.499699430   798.2220   2   5   0.0255   0.0358   0.1573   0.0229  -0.0279  -0.0469  -8.00    0.0
2025/04/04 14:42:53.000   28.378929586  -16.499699430   798.2203   2   5   0.0255   0.0358   0.1573   0.0229  -0.0279  -0.0469  -7.00    0.0
2025/04/04 14:42:54.000   28.378929588  -16.499699429   798.2181   2   5   0.0255   0.0358   0.1573   0.0229  -0.0278  -0.0469  -6.00    0.0
2025/04/04 14:42:55.000   28.378929591  -16.499699429   798.2156   2   5   0.0255   0.0358   0.1574   0.0229  -0.0278  -0.0469  -5.00    0.0
2025/04/04 14:42:56.000   28.378929595  -16.499699430   798.2120   2   5   0.0255   0.0358   0.1574   0.0229  -0.0278  -0.0469  -4.00    0.0
2025/04/04 14:42:57.000   28.378929600  -16.499699430   798.2076   2   5   0.0255   0.0358   0.1575   0.0229  -0.0277  -0.0469  -3.00    0.0
2025/04/04 14:42:58.000   28.378929604  -16.499699432   798.2032   2   5   0.0255   0.0357   0.1576   0.0229  -0.0277  -0.0469  -2.00    0.0
2025/04/04 14:42:59.000   28.378929610  -16.499699435   798.1981   2   5   0.0256   0.0357   0.1577   0.0229  -0.0277  -0.0469  -1.00    0.0
2025/04/04 14:43:00.000   28.378929617  -16.499699438   798.1919   2   5   0.0256   0.0357   0.1578   0.0228  -0.0276  -0.0469   0.00    0.0
2025/04/04 14:43:01.000   28.378929622  -16.499699441   798.1862   2   5   0.0256   0.0357   0.1579   0.0228  -0.0275  -0.0469   1.00    0.0
2025/04/04 14:43:02.000   28.378929626  -16.499699443   798.1836   2   5   0.0256   0.0357   0.1581   0.0228  -0.0275  -0.0470   2.00    0.0
2025/04/04 14:43:03.000   28.378929630  -16.499699444   798.1806   2   5   0.0256   0.0357   0.1582   0.0228  -0.0274  -0.0470   3.00    0.0
2025/04/04 14:43:04.000   28.378929633  -16.499699442   798.1783   2   5   0.0256   0.0357   0.1583   0.0228  -0.0274  -0.0470   4.00    0.0
2025/04/04 14:43:05.000   28.378929636  -16.499699441   798.1775   2   5   0.0256   0.0357   0.1584   0.0228  -0.0273  -0.0470   5.00    0.0
2025/04/04 14:43:06.000   28.378929638  -16.499699440   798.1762   2   5   0.0256   0.0357   0.1584   0.0228  -0.0273  -0.0470   6.00    0.0
2025/04/04 14:43:07.000   28.378929640  -16.499699439   798.1748   2   5   0.0256   0.0357   0.1585   0.0228  -0.0273  -0.0470   7.00    0.0
2025/04/04 14:43:08.000   28.378929642  -16.499699439   798.1738   2   5   0.0256   0.0357   0.1585   0.0227  -0.0272  -0.0470   8.00    0.0
2025/04/04 14:43:09.000   28.378929644  -16.499699438   798.1727   2   5   0.0256   0.0357   0.1586   0.0227  -0.0272  -0.0470   9.00    0.0
2025/04/04 14:43:10.000   28.378929646  -16.499699437   798.1719   2   5   0.0256   0.0357   0.1586   0.0227  -0.0272  -0.0470  10.00    0.0
2025/04/04 14:43:11.000   28.378929648  -16.499699436   798.1713   2   5   0.0256   0.0357   0.1586   0.0227  -0.0272  -0.0470  11.00    0.0
2025/04/04 14:43:12.000   28.378929650  -16.499699434   798.1707   2   5   0.0256   0.0357   0.1587   0.0227  -0.0272  -0.0470  12.00    0.0
2025/04/04 14:43:13.000   28.378929651  -16.499699435   798.1701   2   5   0.0256   0.0357   0.1587   0.0227  -0.0271  -0.0470  13.00    0.0
2025/04/04 14:43:14.000   28.378929652  -16.499699434   798.1696   2   5   0.0256   0.0356   0.1587   0.0227  -0.0271  -0.0470  14.00    0.0
2025/04/04 14:43:15.000   28.378929654  -16.499699433   798.1690   2   5   0.0256   0.0356   0.1587   0.0227  -0.0271  -0.0470 -15.00    0.0
2025/04/04 14:43:16.000   28.378929655  -16.499699434   798.1685   2   5   0.0256   0.0356   0.1587   0.0227  -0.0271  -0.0470 -14.00    0.0
2025/04/04 14:43:17.000   28.378929656  -16.499699433   798.1678   2   5   0.0256   0.0356   0.1587   0.0227  -0.0271  -0.0470 -13.00    0.0
2025/04/04 14:43:18.000   28.378929658  -16.499699432   798.1672   2   5   0.0256   0.0356   0.1587   0.0227  -0.0271  -0.0470 -12.00    0.0
2025/04/04 14:43:19.000   28.378929659  -16.499699432   798.1666   2   5   0.0256   0.0356   0.1587   0.0227  -0.0270  -0.0470 -11.00    0.0
2025/04/04 14:43:20.000   28.378929660  -16.499699432   798.1657   2   5   0.0256   0.0356   0.1587   0.0226  -0.0270  -0.0470 -10.00    0.0
2025/04/04 14:43:21.000   28.378929662  -16.499699432   798.1648   2   5   0.0256   0.0356   0.1587   0.0226  -0.0270  -0.0470  -9.00    0.0
2025/04/04 14:43:22.000   28.378929663  -16.499699433   798.1640   2   5   0.0256   0.0356   0.1588   0.0226  -0.0270  -0.0470  -8.00    0.0
2025/04/04 14:43:23.000   28.378929664  -16.499699434   798.1630   2   5   0.0256   0.0356   0.1588   0.0226  -0.0270  -0.0470  -7.00    0.0
2025/04/04 14:43:24.000   28.378929666  -16.499699436   798.1623   2   5   0.0256   0.0356   0.1588   0.0226  -0.0269  -0.0470  -6.00    0.0
2025/04/04 14:43:25.000   28.378929667  -16.499699437   798.1615   2   5   0.0256   0.0356   0.1588   0.0226  -0.0269  -0.0470  -5.00    0.0
2025/04/04 14:43:26.000   28.378929669  -16.499699439   798.1610   2   5   0.0256   0.0356   0.1589   0.0226  -0.0269  -0.0470  -4.00    0.0
2025/04/04 14:43:27.000   28.378929672  -16.499699441   798.1609   2   5   0.0256   0.0356   0.1590   0.0226  -0.0269  -0.0470  -3.00    0.0
2025/04/04 14:43:28.000   28.378929674  -16.499699443   798.1595   2   5   0.0256   0.0355   0.1590   0.0226  -0.0268  -0.0470  -2.00    0.0
2025/04/04 14:43:29.000   28.378929677  -16.499699446   798.1583   2   5   0.0256   0.0355   0.1591   0.0226  -0.0268  -0.0470  -1.00    0.0
2025/04/04 14:43:30.000   28.378929681  -16.499699449   798.1581   2   5   0.0256   0.0355   0.1592   0.0225  -0.0267  -0.0470   0.00    0.0
2025/04/04 14:43:31.000   28.378929683  -16.499699453   798.1588   2   5   0.0256   0.0355   0.1594   0.0225  -0.0267  -0.0471   1.00    0.0
2025/04/04 14:43:32.000   28.378929686  -16.499699457   798.1578   2   5   0.0256   0.0355   0.1595   0.0225  -0.0266  -0.0471   2.00    0.0
2025/04/04 14:43:33.000   28.378929689  -16.499699460   798.1571   2   5   0.0256   0.0355   0.1596   0.0225  -0.0265  -0.0471   3.00    0.0
2025/04/04 14:43:34.000   28.378929691  -16.499699462   798.1576   2   5   0.0256   0.0355   0.1597   0.0225  -0.0265  -0.0471   4.00    0.0
2025/04/04 14:43:35.000   28.378929692  -16.499699463   798.1574   2   5   0.0256   0.0355   0.1598   0.0225  -0.0265  -0.0471   5.00    0.0
2025/04/04 14:43:36.000   28.378929694  -16.499699465   798.1580   2   5   0.0256   0.0355   0.1599   0.0225  -0.0264  -0.0471   6.00    0.0
2025/04/04 14:43:37.000   28.378929694  -16.499699467   798.1583   2   5   0.0256   0.0355   0.1600   0.0225  -0.0264  -0.0471   7.00    0.0
2025/04/04 14:43:38.000   28.378929694  -16.499699469   798.1581   2   5   0.0256   0.0355   0.1600   0.0224  -0.0264  -0.0471   8.00    0.0
2025/04/04 14:43:39.000   28.378929695  -16.499699470   798.1579   2   5   0.0256   0.0355   0.1600   0.0224  -0.0263  -0.0471   9.00    0.0
2025/04/04 14:43:40.000   28.378929696  -16.499699470   798.1579   2   5   0.0256   0.0355   0.1601   0.0224  -0.0263  -0.0471  10.00    0.0
2025/04/04 14:43:41.000   28.378929696  -16.499699471   798.1579   2   5   0.0256   0.0355   0.1601   0.0224  -0.0263  -0.0471  11.00    0.0
2025/04/04 14:43:42.000   28.378929696  -16.499699473   798.1580   2   5   0.0256   0.0355   0.1601   0.0224  -0.0263  -0.0471  12.00    0.0
2025/04/04 14:43:43.000   28.378929696  -16.499699474   798.1582   2   5   0.0256   0.0355   0.1601   0.0224  -0.0263  -0.0471  13.00    0.0
2025/04/04 14:43:44.000   28.378929697  -16.499699474   798.1580   2   5   0.0256   0.0355   0.1601   0.0224  -0.0262  -0.0471  14.00    0.0
2025/04/04 14:43:45.000   28.378929696  -16.499699476   798.1581   2   5   0.0256   0.0354   0.1601   0.0224  -0.0262  -0.0471 -15.00    0.0
2025/04/04 14:43:46.000   28.378929696  -16.499699477   798.1582   2   5   0.0256   0.0354   0.1601   0.0224  -0.0262  -0.0471 -14.00    0.0
2025/04/04 14:43:47.000   28.378929696  -16.499699479   798.1585   2   5   0.0256   0.0354   0.1602   0.0224  -0.0262  -0.0471 -13.00    0.0
2025/04/04 14:43:48.000   28.378929695  -16.499699481   798.1587   2   5   0.0256   0.0354   0.1602   0.0224  -0.0262  -0.0471 -12.00    0.0
2025/04/04 14:43:49.000   28.378929695  -16.499699483   798.1586   2   5   0.0256   0.0354   0.1602   0.0224  -0.0262  -0.0471 -11.00    0.0
2025/04/04 14:43:50.000   28.378929696  -16.499699484   798.1583   2   5   0.0256   0.0354   0.1602   0.0224  -0.0261  -0.0471 -10.00    0.0
2025/04/04 14:43:51.000   28.378929696  -16.499699487   798.1581   2   5   0.0256   0.0354   0.1602   0.0223  -0.0261  -0.0471  -9.00    0.0
2025/04/04 14:43:52.000   28.378929696  -16.499699488   798.1584   2   5   0.0256   0.0354   0.1602   0.0223  -0.0261  -0.0471  -8.00    0.0
2025/04/04 14:43:53.000   28.378929697  -16.499699490   798.1583   2   5   0.0256   0.0354   0.1602   0.0223  -0.0261  -0.0471  -7.00    0.0
2025/04/04 14:43:54.000   28.378929697  -16.499699494   798.1582   2   5   0.0256   0.0354   0.1603   0.0223  -0.0261  -0.0471  -6.00    0.0
2025/04/04 14:43:55.000   28.378929698  -16.499699497   798.1584   2   5   0.0256   0.0354   0.1603   0.0223  -0.0261  -0.0471  -5.00    0.0
2025/04/04 14:43:56.000   28.378929699  -16.499699500   798.1580   2   5   0.0256   0.0354   0.1603   0.0223  -0.0260  -0.0471  -4.00    0.0
2025/04/04 14:43:57.000   28.378929701  -16.499699503   798.1588   2   5   0.0256   0.0354   0.1604   0.0223  -0.0260  -0.0471  -3.00    0.0
2025/04/04 14:43:58.000   28.378929702  -16.499699506   798.1600   2   5   0.0256   0.0354   0.1605   0.0223  -0.0260  -0.0471  -2.00    0.0
2025/04/04 14:43:59.000   28.378929705  -16.499699510   798.1604   2   5   0.0256   0.0354   0.1606   0.0223  -0.0259  -0.0471  -1.00    0.0
2025/04/04 14:44:00.000   28.378929707  -16.499699513   798.1612   2   5   0.0256   0.0354   0.1607   0.0223  -0.0259  -0.0472   0.00    0.0
2025/04/04 14:44:01.000   28.378929707  -16.499699516   798.1628   2   5   0.0256   0.0353   0.1608   0.0222  -0.0258  -0.0472   1.00    0.0
2025/04/04 14:44:02.000   28.378929708  -16.499699521   798.1637   2   5   0.0256   0.0353   0.1610   0.0222  -0.0258  -0.0472   2.00    0.0
2025/04/04 14:44:03.000   28.378929709  -16.499699525   798.1641   2   5   0.0256   0.0353   0.1611   0.0222  -0.0257  -0.0472   3.00    0.0
2025/04/04 14:44:04.000   28.378929709  -16.499699528   798.1658   2   5   0.0256   0.0353   0.1612   0.0222  -0.0257  -0.0472   4.00    0.0
2025/04/04 14:44:05.000   28.378929708  -16.499699531   798.1662   2   5   0.0256   0.0353   0.1613   0.0222  -0.0256  -0.0472   5.00    0.0
2025/04/04 14:44:06.000   28.378929708  -16.499699535   798.1672   2   5   0.0256   0.0353   0.1613   0.0222  -0.0256  -0.0472   6.00    0.0
2025/04/04 14:44:07.000   28.378929707  -16.499699537   798.1675   2   5   0.0256   0.0353   0.1614   0.0222  -0.0256  -0.0472   7.00    0.0
2025/04/04 14:44:08.000   28.378929706  -16.499699540   798.1685   2   5   0.0256   0.0353   0.1614   0.0222  -0.0255  -0.0472   8.00    0.0
2025/04/04 14:44:09.000   28.378929705  -16.499699542   798.1684   2   5   0.0256   0.0353   0.1614   0.0222  -0.0255  -0.0472   9.00    0.0
2025/04/04 14:44:10.000   28.378929705  -16.499699544   798.1684   2   5   0.0256   0.0353   0.1615   0.0221  -0.0255  -0.0472  10.00    0.0
2025/04/04 14:44:11.000   28.378929705  -16.499699547   798.1682   2   5   0.0256   0.0353   0.1615   0.0221  -0.0255  -0.0472  11.00    0.0
2025/04/04 14:44:12.000   28.378929704  -16.499699550   798.1678   2   5   0.0256   0.0353   0.1615   0.0221  -0.0255  -0.0472  12.00    0.0
2025/04/04 14:44:13.000   28.378929703  -16.499699552   798.1676   2   5   0.0256   0.0353   0.1615   0.0221  -0.0254  -0.0472  13.00    0.0
2025/04/04 14:44:14.000   28.378929703  -16.499699554   798.1675   2   5   0.0256   0.0353   0.1615   0.0221  -0.0254  -0.0472  14.00    0.0
2025/04/04 14:44:15.000   28.378929702  -16.499699556   798.1674   2   5   0.0256   0.0353   0.1616   0.0221  -0.0254  -0.0472 -15.00    0.0
2025/04/04 14:44:16.000   28.378929702  -16.499699557   798.1672   2   5   0.0256   0.0353   0.1616   0.0221  -0.0254  -0.0472 -14.00    0.0
2025/04/04 14:44:17.000   28.378929702  -16.499699558   798.1672   2   5   0.0256   0.0353   0.1616   0.0221  -0.0254  -0.0472 -13.00    0.0
2025/04/04 14:44:18.000   28.378929702  -16.499699559   798.1671   2   5   0.0256   0.0352   0.1616   0.0221  -0.0254  -0.0472 -12.00    0.0
2025/04/04 14:44:19.000   28.378929702  -16.499699559   798.1668   2   5   0.0256   0.0352   0.1616   0.0221  -0.0254  -0.0472 -11.00    0.0
2025/04/04 14:44:20.000   28.378929702  -16.499699560   798.1664   2   5   0.0256   0.0352   0.1616   0.0221  -0.0253  -0.0472 -10.00    0.0
2025/04/04 14:44:21.000   28.378929702  -16.499699562   798.1661   2   5   0.0256   0.0352   0.1616   0.0221  -0.0253  -0.0472  -9.00    0.0
2025/04/04 14:44:22.000   28.378929702  -16.499699563   798.1657   2   5   0.0256   0.0352   0.1616   0.0221  -0.0253  -0.0472  -8.00    0.0
2025/04/04 14:44:23.000   28.378929702  -16.499699565   798.1653   2   5   0.0256   0.0352   0.1617   0.0221  -0.0253  -0.0472  -7.00    0.0
2025/04/04 14:44:24.000   28.378929703  -16.499699567   798.1648   2   5   0.0256   0.0352   0.1617   0.0220  -0.0253  -0.0472  -6.00    0.0
2025/04/04 14:44:25.000   28.378929705  -16.499699569   798.1635   2   5   0.0256   0.0352   0.1617   0.0220  -0.0253  -0.0472  -5.00    0.0
2025/04/04 14:44:26.000   28.378929706  -16.499699570   798.1622   2   5   0.0256   0.0352   0.1618   0.0220  -0.0252  -0.0472  -4.00    0.0
2025/04/04 14:44:27.000   28.378929707  -16.499699572   798.1617   2   5   0.0256   0.0352   0.1618   0.0220  -0.0252  -0.0472  -3.00    0.0
2025/04/04 14:44:28.000   28.378929708  -16.499699573   798.1614   2   5   0.0256   0.0352   0.1619   0.0220  -0.0252  -0.0472  -2.00    0.0
2025/04/04 14:44:29.000   28.378929709  -16.499699576   798.1606   2   5   0.0256   0.0352   0.1620   0.0220  -0.0251  -0.0472  -1.00    0.0
2025/04/04 14:44:30.000   28.378929710  -16.499699579   798.1577   2   5   0.0256   0.0352   0.1621   0.0220  -0.0251  -0.0473   0.00    0.0
2025/04/04 14:44:31.000   28.378929711  -16.499699581   798.1569   2   5   0.0256   0.0352   0.1622   0.0220  -0.0250  -0.0473   1.00    0.0
2025/04/04 14:44:32.000   28.378929712  -16.499699583   798.1561   2   5   0.0257   0.0352   0.1623   0.0220  -0.0250  -0.0473   2.00    0.0
2025/04/04 14:44:33.000   28.378929713  -16.499699586   798.1549   2   5   0.0257   0.0352   0.1625   0.0219  -0.0249  -0.0473   3.00    0.0
2025/04/04 14:44:34.000   28.378929714  -16.499699589   798.1527   2   5   0.0257   0.0352   0.1625   0.0219  -0.0249  -0.0473   4.00    0.0
2025/04/04 14:44:35.000   28.378929715  -16.499699590   798.1522   2   5   0.0257   0.0352   0.1626   0.0219  -0.0249  -0.0473   5.00    0.0
2025/04/04 14:44:36.000   28.378929716  -16.499699591   798.1524   2   5   0.0257   0.0351   0.1627   0.0219  -0.0248  -0.0473   6.00    0.0
2025/04/04 14:44:37.000   28.378929717  -16.499699591   798.1519   2   5   0.0257   0.0351   0.1627   0.0219  -0.0248  -0.0473   7.00    0.0
2025/04/04 14:44:38.000   28.378929717  -16.499699591   798.1514   2   5   0.0257   0.0351   0.1628   0.0219  -0.0248  -0.0473   8.00    0.0
2025/04/04 14:44:39.000   28.378929718  -16.499699591   798.1513   2   5   0.0257   0.0351   0.1628   0.0219  -0.0248  -0.0473   9.00    0.0
2025/04/04 14:44:40.000   28.378929718  -16.499699591   798.1512   2   5   0.0257   0.0351   0.1628   0.0219  -0.0248  -0.0473  10.00    0.0
2025/04/04 14:44:41.000   28.378929719  -16.499699590   798.1516   2   5   0.0257   0.0351   0.1629   0.0219  -0.0247  -0.0473  11.00    0.0
2025/04/04 14:44:42.000   28.378929720  -16.499699589   798.1517   2   5   0.0257   0.0351   0.1629   0.0219  -0.0247  -0.0473  12.00    0.0
2025/04/04 14:44:43.000   28.378929720  -16.499699588   798.1515   2   5   0.0257   0.0351   0.1629   0.0219  -0.0247  -0.0473  13.00    0.0
2025/04/04 14:44:44.000   28.378929721  -16.499699587   798.1514   2   5   0.0257   0.0351   0.1629   0.0219  -0.0247  -0.0473  14.00    0.0
2025/04/04 14:44:45.000   28.378929722  -16.499699586   798.1513   2   5   0.0257   0.0351   0.1629   0.0219  -0.0247  -0.0473 -15.00    0.0
2025/04/04 14:44:46.000   28.378929723  -16.499699585   798.1511   2   5   0.0257   0.0351   0.1629   0.0218  -0.0247  -0.0473 -14.00    0.0
2025/04/04 14:44:47.000   28.378929724  -16.499699584   798.1507   2   5   0.0257   0.0351   0.1629   0.0218  -0.0246  -0.0473 -13.00    0.0
2025/04/04 14:44:48.000   28.378929725  -16.499699582   798.1502   2   5   0.0257   0.0351   0.1629   0.0218  -0.0246  -0.0473 -12.00    0.0
2025/04/04 14:44:49.000   28.378929726  -16.499699581   798.1499   2   5   0.0257   0.0351   0.1629   0.0218  -0.0246  -0.0473 -11.00    0.0
2025/04/04 14:44:50.000   28.378929727  -16.499699581   798.1494   2   5   0.0257   0.0351   0.1630   0.0218  -0.0246  -0.0473 -10.00    0.0
2025/04/04 14:44:51.000   28.378929728  -16.499699581   798.1485   2   5   0.0257   0.0351   0.1630   0.0218  -0.0246  -0.0473  -9.00    0.0
2025/04/04 14:44:52.000   28.378929730  -16.499699580   798.1473   2   5   0.0257   0.0350   0.1630   0.0218  -0.0246  -0.0473  -8.00    0.0
2025/04/04 14:44:53.000   28.378929732  -16.499699579   798.1468   2   5   0.0257   0.0350   0.1630   0.0218  -0.0246  -0.0473  -7.00    0.0
2025/04/04 14:44:54.000   28.378929733  -16.499699578   798.1461   2   5   0.0257   0.0350   0.1630   0.0218  -0.0245  -0.0473  -6.00    0.0
2025/04/04 14:44:55.000   28.378929735  -16.499699578   798.1455   2   5   0.0257   0.0350   0.1631   0.0218  -0.0245  -0.0473  -5.00    0.0
2025/04/04 14:44:56.000   28.378929737  -16.499699577   798.1447   2   5   0.0257   0.0350   0.1631   0.0218  -0.0245  -0.0473  -4.00    0.0
2025/04/04 14:44:57.000   28.378929739  -16.499699577   798.1440   2   5   0.0257   0.0350   0.1632   0.0218  -0.0245  -0.0473  -3.00    0.0
2025/04/04 14:44:58.000   28.378929741  -16.499699576   798.1433   2   5   0.0257   0.0350   0.1632   0.0218  -0.0245  -0.0473  -2.00    0.0
2025/04/04 14:44:59.000   28.378929743  -16.499699576   798.1425   2   5   0.0257   0.0350   0.1633   0.0218  -0.0244  -0.0473  -1.00    0.0
2025/04/04 14:45:00.000   28.378929746  -16.499699575   798.1413   2   5   0.0257   0.0350   0.1634   0.0217  -0.0244  -0.0474   0.00    0.0
2025/04/04 14:45:01.000   28.378929749  -16.499699577   798.1411   2   5   0.0257   0.0350   0.1635   0.0217  -0.0243  -0.0474   1.00    0.0
2025/04/04 14:45:02.000   28.378929753  -16.499699577   798.1412   2   5   0.0257   0.0350   0.1636   0.0217  -0.0243  -0.0474   2.00    0.0
2025/04/04 14:45:03.000   28.378929755  -16.499699576   798.1410   2   5   0.0257   0.0350   0.1637   0.0217  -0.0242  -0.0474   3.00    0.0
2025/04/04 14:45:04.000   28.378929756  -16.499699575   798.1415   2   5   0.0257   0.0350   0.1638   0.0217  -0.0242  -0.0474   4.00    0.0
2025/04/04 14:45:05.000   28.378929756  -16.499699573   798.1417   2   5   0.0257   0.0350   0.1639   0.0217  -0.0242  -0.0474   5.00    0.0
2025/04/04 14:45:06.000   28.378929757  -16.499699572   798.1422   2   5   0.0257   0.0350   0.1640   0.0217  -0.0241  -0.0474   6.00    0.0
2025/04/04 14:45:07.000   28.378929759  -16.499699570   798.1428   2   5   0.0257   0.0350   0.1640   0.0217  -0.0241  -0.0474   7.00    0.0
2025/04/04 14:45:08.000   28.378929760  -16.499699568   798.1432   2   5   0.0257   0.0350   0.1640   0.0217  -0.0241  -0.0474   8.00    0.0
2025/04/04 14:45:09.000   28.378929762  -16.499699567   798.1435   2   5   0.0257   0.0350   0.1641   0.0217  -0.0241  -0.0474   9.00    0.0
2025/04/04 14:45:10.000   28.378929763  -16.499699565   798.1436   2   5   0.0257   0.0350   0.1641   0.0216  -0.0241  -0.0474  10.00    0.0
2025/04/04 14:45:11.000   28.378929764  -16.499699563   798.1434   2   5   0.0257   0.0350   0.1641   0.0216  -0.0240  -0.0474  11.00    0.0
2025/04/04 14:45:12.000   28.378929765  -16.499699562   798.1432   2   5   0.0257   0.0349   0.1641   0.0216  -0.0240  -0.0474  12.00    0.0
2025/04/04 14:45:13.000   28.378929766  -16.499699561   798.1431   2   5   0.0257   0.0349   0.1641   0.0216  -0.0240  -0.0474  13.00    0.0
2025/04/04 14:45:14.000   28.378929767  -16.499699559   798.1428   2   5   0.0257   0.0349   0.1642   0.0216  -0.0240  -0.0474  14.00    0.0
2025/04/04 14:45:15.000   28.378929768  -16.499699559   798.1427   2   5   0.0257   0.0349   0.1642   0.0216  -0.0240  -0.0474 -15.00    0.0
2025/04/04 14:45:16.000   28.378929769  -16.499699558   798.1424   2   5   0.0257   0.0349   0.1642   0.0216  -0.0240  -0.0474 -14.00    0.0
2025/04/04 14:45:17.000   28.378929770  -16.499699555   798.1420   2   5   0.0257   0.0349   0.1642   0.0216  -0.0240  -0.0474 -13.00    0.0
2025/04/04 14:45:18.000   28.378929771  -16.499699555   798.1418   2   5   0.0257   0.0349   0.1642   0.0216  -0.0240  -0.0474 -12.00    0.0
2025/04/04 14:45:19.000   28.378929772  -16.499699553   798.1415   2   5   0.0257   0.0349   0.1642   0.0216  -0.0239  -0.0474 -11.00    0.0
2025/04/04 14:45:20.000   28.378929772  -16.499699552   798.1412   2   5   0.0257   0.0349   0.1642   0.0216  -0.0239  -0.0474 -10.00    0.0
2025/04/04 14:45:21.000   28.378929773  -16.499699550   798.1411   2   5   0.0257   0.0349   0.1642   0.0216  -0.0239  -0.0474  -9.00    0.0
2025/04/04 14:45:22.000   28.378929773  -16.499699549   798.1409   2   5   0.0257   0.0349   0.1642   0.0216  -0.0239  -0.0474  -8.00    0.0
2025/04/04 14:45:23.000   28.378929773  -16.499699548   798.1408   2   5   0.0257   0.0349   0.1643   0.0216  -0.0239  -0.0474  -7.00    0.0
2025/04/04 14:45:24.000   28.378929773  -16.499699547   798.1405   2   5   0.0257   0.0349   0.1643   0.0216  -0.0239  -0.0474  -6.00    0.0
2025/04/04 14:45:25.000   28.378929773  -16.499699544   798.1403   2   5   0.0257   0.0349   0.1643   0.0216  -0.0239  -0.0474  -5.00    0.0
2025/04/04 14:45:26.000   28.378929772  -16.499699543   798.1410   2   5   0.0257   0.0349   0.1643   0.0216  -0.0238  -0.0474  -4.00    0.0
2025/04/04 14:45:27.000   28.378929772  -16.499699540   798.1425   2   5   0.0257   0.0349   0.1644   0.0215  -0.0238  -0.0474  -3.00    0.0
2025/04/04 14:45:28.000   28.378929771  -16.499699538   798.1442   2   5   0.0257   0.0349   0.1644   0.0215  -0.0238  -0.0474  -2.00    0.0
2025/04/04 14:45:29.000   28.378929768  -16.499699536   798.1465   2   5   0.0257   0.0349   0.1645   0.0215  -0.0238  -0.0474  -1.00    0.0
2025/04/04 14:45:30.000   28.378929764  -16.499699533   798.1487   2   5   0.0257   0.0348   0.1646   0.0215  -0.0237  -0.0474   0.00    0.0
2025/04/04 14:45:31.000   28.378929761  -16.499699529   798.1516   2   5   0.0257   0.0348   0.1647   0.0215  -0.0237  -0.0474   1.00    0.0
2025/04/04 14:45:32.000   28.378929756  -16.499699524   798.1550   2   5   0.0257   0.0348   0.1648   0.0215  -0.0237  -0.0475   2.00    0.0
2025/04/04 14:45:33.000   28.378929753  -16.499699521   798.1572   2   5   0.0257   0.0348   0.1649   0.0215  -0.0236  -0.0475   3.00    0.0
2025/04/04 14:45:34.000   28.378929750  -16.499699517   798.1594   2   5   0.0257   0.0348   0.1650   0.0215  -0.0236  -0.0475   4.00    0.0
2025/04/04 14:45:35.000   28.378929747  -16.499699514   798.1629   2   5   0.0257   0.0348   0.1651   0.0215  -0.0236  -0.0475   5.00    0.0
2025/04/04 14:45:36.000   28.378929745  -16.499699513   798.1649   2   5   0.0257   0.0348   0.1651   0.0215  -0.0235  -0.0475   6.00    0.0
2025/04/04 14:45:37.000   28.378929744  -16.499699510   798.1661   2   5   0.0257   0.0348   0.1651   0.0215  -0.0235  -0.0475   7.00    0.0
2025/04/04 14:45:38.000   28.378929743  -16.499699509   798.1678   2   5   0.0257   0.0348   0.1652   0.0214  -0.0235  -0.0475   8.00    0.0
2025/04/04 14:45:39.000   28.378929741  -16.499699508   798.1693   2   5   0.0257   0.0348   0.1652   0.0214  -0.0235  -0.0475   9.00    0.0
2025/04/04 14:45:40.000   28.378929740  -16.499699507   798.1702   2   5   0.0257   0.0348   0.1652   0.0214  -0.0235  -0.0475  10.00    0.0
2025/04/04 14:45:41.000   28.378929739  -16.499699507   798.1710   2   5   0.0257   0.0348   0.1653   0.0214  -0.0234  -0.0475  11.00    0.0
2025/04/04 14:45:42.000   28.378929738  -16.499699505   798.1717   2   5   0.0257   0.0348   0.1653   0.0214  -0.0234  -0.0475  12.00    0.0
2025/04/04 14:45:43.000   28.378929738  -16.499699505   798.1721   2   5   0.0257   0.0348   0.1653   0.0214  -0.0234  -0.0475  13.00    0.0
2025/04/04 14:45:44.000   28.378929737  -16.499699505   798.1724   2   5   0.0257   0.0348   0.1653   0.0214  -0.0234  -0.0475  14.00    0.0
2025/04/04 14:45:45.000   28.378929737  -16.499699505   798.1726   2   5   0.0257   0.0348   0.1653   0.0214  -0.0234  -0.0475 -15.00    0.0
2025/04/04 14:45:46.000   28.378929737  -16.499699504   798.1727   2   5   0.0257   0.0348   0.1653   0.0214  -0.0234  -0.0475 -14.00    0.0
2025/04/04 14:45:47.000   28.378929737  -16.499699503   798.1729   2   5   0.0257   0.0348   0.1653   0.0214  -0.0234  -0.0475 -13.00    0.0
2025/04/04 14:45:48.000   28.378929737  -16.499699503   798.1733   2   5   0.0257   0.0348   0.1653   0.0214  -0.0234  -0.0475 -12.00    0.0
2025/04/04 14:45:49.000   28.378929737  -16.499699502   798.1735   2   5   0.0257   0.0348   0.1653   0.0214  -0.0233  -0.0475 -11.00    0.0
2025/04/04 14:45:50.000   28.378929738  -16.499699501   798.1740   2   5   0.0257   0.0347   0.1653   0.0214  -0.0233  -0.0475 -10.00    0.0
2025/04/04 14:45:51.000   28.378929738  -16.499699501   798.1746   2   5   0.0257   0.0347   0.1653   0.0214  -0.0233  -0.0475  -9.00    0.0
2025/04/04 14:45:52.000   28.378929739  -16.499699500   798.1750   2   5   0.0257   0.0347   0.1654   0.0214  -0.0233  -0.0475  -8.00    0.0
2025/04/04 14:45:53.000   28.378929739  -16.499699501   798.1753   2   5   0.0257   0.0347   0.1654   0.0214  -0.0233  -0.0475  -7.00    0.0
2025/04/04 14:45:54.000   28.378929740  -16.499699501   798.1760   2   5   0.0257   0.0347   0.1654   0.0214  -0.0233  -0.0475  -6.00    0.0
2025/04/04 14:45:55.000   28.378929741  -16.499699501   798.1761   2   5   0.0257   0.0347   0.1654   0.0214  -0.0233  -0.0475  -5.00    0.0
2025/04/04 14:45:56.000   28.378929742  -16.499699501   798.1771   2   5   0.0257   0.0347   0.1654   0.0213  -0.0233  -0.0475  -4.00    0.0
2025/04/04 14:45:57.000   28.378929744  -16.499699500   798.1793   2   5   0.0257   0.0347   0.1655   0.0213  -0.0232  -0.0475  -3.00    0.0
2025/04/04 14:45:58.000   28.378929746  -16.499699500   798.1807   2   5   0.0257   0.0347   0.1655   0.0213  -0.0232  -0.0475  -2.00    0.0
2025/04/04 14:45:59.000   28.378929747  -16.499699500   798.1817   2   5   0.0257   0.0347   0.1656   0.0213  -0.0232  -0.0475  -1.00    0.0
2025/04/04 14:46:00.000   28.378929747  -16.499699499   798.1845   2   5   0.0257   0.0347   0.1657   0.0213  -0.0232  -0.0475   0.00    0.0
2025/04/04 14:46:01.000   28.378929746  -16.499699499   798.1916   2   5   0.0257   0.0347   0.1658   0.0213  -0.0231  -0.0475   1.00    0.0
2025/04/04 14:46:02.000   28.378929745  -16.499699498   798.1962   2   5   0.0257   0.0347   0.1658   0.0213  -0.0231  -0.0475   2.00    0.0
2025/04/04 14:46:03.000   28.378929745  -16.499699497   798.1992   2   5   0.0257   0.0347   0.1659   0.0213  -0.0231  -0.0475   3.00    0.0
2025/04/04 14:46:04.000   28.378929745  -16.499699497   798.2025   2   5   0.0257   0.0347   0.1660   0.0213  -0.0230  -0.0475   4.00    0.0
2025/04/04 14:46:05.000   28.378929745  -16.499699497   798.2049   2   5   0.0257   0.0347   0.1661   0.0213  -0.0230  -0.0475   5.00    0.0
2025/04/04 14:46:06.000   28.378929746  -16.499699497   798.2059   2   5   0.0257   0.0347   0.1661   0.0213  -0.0230  -0.0475   6.00    0.0
2025/04/04 14:46:07.000   28.378929746  -16.499699497   798.2077   2   5   0.0257   0.0347   0.1661   0.0213  -0.0230  -0.0475   7.00    0.0
2025/04/04 14:46:08.000   28.378929746  -16.499699497   798.2091   2   5   0.0257   0.0347   0.1662   0.0213  -0.0230  -0.0475   8.00    0.0
2025/04/04 14:46:09.000   28.378929747  -16.499699495   798.2103   2   5   0.0257   0.0347   0.1662   0.0212  -0.0229  -0.0475   9.00    0.0
2025/04/04 14:46:10.000   28.378929748  -16.499699495   798.2110   2   5   0.0257   0.0347   0.1662   0.0212  -0.0229  -0.0475  10.00    0.0
2025/04/04 14:46:11.000   28.378929747  -16.499699495   798.2114   2   5   0.0257   0.0346   0.1662   0.0212  -0.0229  -0.0475  11.00    0.0
2025/04/04 14:46:12.000   28.378929747  -16.499699495   798.2117   2   5   0.0257   0.0346   0.1662   0.0212  -0.0229  -0.0475  12.00    0.0
2025/04/04 14:46:13.000   28.378929748  -16.499699495   798.2122   2   5   0.0257   0.0346   0.1663   0.0212  -0.0229  -0.0475  13.00    0.0
2025/04/04 14:46:14.000   28.378929748  -16.499699495   798.2124   2   5   0.0257   0.0346   0.1663   0.0212  -0.0229  -0.0475  14.00    0.0
2025/04/04 14:46:15.000   28.378929748  -16.499699495   798.2125   2   5   0.0257   0.0346   0.1663   0.0212  -0.0229  -0.0475 -15.00    0.0
2025/04/04 14:46:16.000   28.378929749  -16.499699495   798.2125   2   5   0.0257   0.0346   0.1663   0.0212  -0.0229  -0.0475 -14.00    0.0
2025/04/04 14:46:17.000   28.378929750  -16.499699495   798.2128   2   5   0.0257   0.0346   0.1663   0.0212  -0.0229  -0.0475 -13.00    0.0
2025/04/04 14:46:18.000   28.378929750  -16.499699495   798.2132   2   5   0.0257   0.0346   0.1663   0.0212  -0.0228  -0.0475 -12.00    0.0
2025/04/04 14:46:19.000   28.378929751  -16.499699495   798.2134   2   5   0.0257   0.0346   0.1663   0.0212  -0.0228  -0.0475 -11.00    0.0
2025/04/04 14:46:20.000   28.378929751  -16.499699495   798.2137   2   5   0.0257   0.0346   0.1663   0.0212  -0.0228  -0.0475 -10.00    0.0
2025/04/04 14:46:21.000   28.378929751  -16.499699496   798.2141   2   5   0.0257   0.0346   0.1663   0.0212  -0.0228  -0.0475  -9.00    0.0
2025/04/04 14:46:22.000   28.378929752  -16.499699497   798.2146   2   5   0.0257   0.0346   0.1663   0.0212  -0.0228  -0.0475  -8.00    0.0
2025/04/04 14:46:23.000   28.378929753  -16.499699497   798.2155   2   5   0.0257   0.0346   0.1663   0.0212  -0.0228  -0.0475  -7.00    0.0
2025/04/04 14:46:24.000   28.378929754  -16.499699497   798.2164   2   5   0.0257   0.0346   0.1663   0.0212  -0.0228  -0.0475  -6.00    0.0
2025/04/04 14:46:25.000   28.378929754  -16.499699498   798.2176   2   5   0.0257   0.0346   0.1664   0.0212  -0.0228  -0.0475  -5.00    0.0
2025/04/04 14:46:26.000   28.378929755  -16.499699500   798.2185   2   5   0.0257   0.0346   0.1664   0.0212  -0.0228  -0.0475  -4.00    0.0
2025/04/04 14:46:27.000   28.378929756  -16.499699499   798.2205   2   5   0.0257   0.0346   0.1664   0.0212  -0.0228  -0.0475  -3.00    0.0
2025/04/04 14:46:28.000   28.378929756  -16.499699498   798.2240   2   5   0.0257   0.0346   0.1664   0.0211  -0.0227  -0.0475  -2.00    0.0
2025/04/04 14:46:29.000   28.378929756  -16.499699498   798.2285   2   5   0.0257   0.0346   0.1665   0.0211  -0.0227  -0.0475  -1.00    0.0
2025/04/04 14:46:30.000   28.378929756  -16.499699499   798.2314   2   5   0.0257   0.0345   0.1666   0.0211  -0.0227  -0.0475   0.00    0.0
2025/04/04 14:46:31.000   28.378929755  -16.499699499   798.2332   2   5   0.0257   0.0345   0.1666   0.0211  -0.0227  -0.0475   1.00    0.0
2025/04/04 14:46:32.000   28.378929755  -16.499699499   798.2351   2   5   0.0257   0.0345   0.1667   0.0211  -0.0227  -0.0475   2.00    0.0
2025/04/04 14:46:33.000   28.378929755  -16.499699499   798.2381   2   5   0.0257   0.0345   0.1668   0.0211  -0.0226  -0.0475   3.00    0.0
2025/04/04 14:46:34.000   28.378929755  -16.499699498   798.2418   2   5   0.0257   0.0345   0.1669   0.0211  -0.0226  -0.0475   4.00    0.0
2025/04/04 14:46:35.000   28.378929753  -16.499699497   798.2439   2   5   0.0257   0.0345   0.1669   0.0211  -0.0226  -0.0475   5.00    0.0
2025/04/04 14:46:36.000   28.378929752  -16.499699496   798.2456   2   5   0.0257   0.0345   0.1669   0.0211  -0.0226  -0.0475   6.00    0.0
2025/04/04 14:46:37.000   28.378929751  -16.499699494   798.2476   2   5   0.0257   0.0345   0.1670   0.0211  -0.0225  -0.0475   7.00    0.0
2025/04/04 14:46:38.000   28.378929750  -16.499699494   798.2488   2   5   0.0257   0.0345   0.1670   0.0211  -0.0225  -0.0475   8.00    0.0
2025/04/04 14:46:39.000   28.378929750  -16.499699493   798.2499   2   5   0.0257   0.0345   0.1670   0.0211  -0.0225  -0.0475   9.00    0.0
2025/04/04 14:46:40.000   28.378929750  -16.499699493   798.2508   2   5   0.0257   0.0345   0.1670   0.0211  -0.0225  -0.0475  10.00    0.0
2025/04/04 14:46:41.000   28.378929749  -16.499699493   798.2516   2   5   0.0257   0.0345   0.1671   0.0211  -0.0225  -0.0475  11.00    0.0
2025/04/04 14:46:42.000   28.378929749  -16.499699493   798.2520   2   5   0.0257   0.0345   0.1671   0.0211  -0.0225  -0.0475  12.00    0.0
2025/04/04 14:46:43.000   28.378929749  -16.499699493   798.2524   2   5   0.0257   0.0345   0.1671   0.0211  -0.0225  -0.0475  13.00    0.0
2025/04/04 14:46:44.000   28.378929748  -16.499699493   798.2527   2   5   0.0257   0.0345   0.1671   0.0211  -0.0225  -0.0475  14.00    0.0
2025/04/04 14:46:45.000   28.378929748  -16.499699493   798.2530   2   5   0.0257   0.0345   0.1671   0.0210  -0.0225  -0.0475 -15.00    0.0
2025/04/04 14:46:46.000   28.378929749  -16.499699493   798.2531   2   5   0.0257   0.0345   0.1671   0.0210  -0.0224  -0.0475 -14.00    0.0
2025/04/04 14:46:47.000   28.378929749  -16.499699494   798.2534   2   5   0.0257   0.0345   0.1671   0.0210  -0.0224  -0.0475 -13.00    0.0
2025/04/04 14:46:48.000   28.378929749  -16.499699495   798.2537   2   5   0.0257   0.0345   0.1671   0.0210  -0.0224  -0.0475 -12.00    0.0
2025/04/04 14:46:49.000   28.378929749  -16.499699495   798.2537   2   5   0.0257   0.0345   0.1671   0.0210  -0.0224  -0.0475 -11.00    0.0
2025/04/04 14:46:50.000   28.378929749  -16.499699495   798.2540   2   5   0.0257   0.0345   0.1671   0.0210  -0.0224  -0.0475 -10.00    0.0
2025/04/04 14:46:51.000   28.378929749  -16.499699496   798.2543   2   5   0.0257   0.0345   0.1671   0.0210  -0.0224  -0.0475  -9.00    0.0
2025/04/04 14:46:52.000   28.378929750  -16.499699496   798.2549   2   5   0.0257   0.0344   0.1671   0.0210  -0.0224  -0.0475  -8.00    0.0
2025/04/04 14:46:53.000   28.378929750  -16.499699496   798.2560   2   5   0.0257   0.0344   0.1671   0.0210  -0.0224  -0.0475  -7.00    0.0
2025/04/04 14:46:54.000   28.378929750  -16.499699496   798.2575   2   5   0.0257   0.0344   0.1671   0.0210  -0.0224  -0.0475  -6.00    0.0
2025/04/04 14:46:55.000   28.378929749  -16.499699494   798.2591   2   5   0.0257   0.0344   0.1672   0.0210  -0.0224  -0.0475  -5.00    0.0
2025/04/04 14:46:56.000   28.378929748  -16.499699494   798.2617   2   5   0.0257   0.0344   0.1672   0.0210  -0.0224  -0.0475  -4.00    0.0
2025/04/04 14:46:57.000   28.378929747  -16.499699493   798.2641   2   5   0.0257   0.0344   0.1672   0.0210  -0.0224  -0.0475  -3.00    0.0
2025/04/04 14:46:58.000   28.378929746  -16.499699492   798.2679   2   5   0.0257   0.0344   0.1672   0.0210  -0.0224  -0.0475  -2.00    0.0
2025/04/04 14:46:59.000   28.378929745  -16.499699489   798.2727   2   5   0.0257   0.0344   0.1673   0.0210  -0.0224  -0.0475  -1.00    0.0
2025/04/04 14:47:00.000   28.378929744  -16.499699487   798.2774   2   5   0.0257   0.0344   0.1673   0.0210  -0.0223  -0.0475   0.00    0.0
2025/04/04 14:47:01.000   28.378929744  -16.499699485   798.2804   2   5   0.0257   0.0344   0.1674   0.0210  -0.0223  -0.0475   1.00    0.0
2025/04/04 14:47:02.000   28.378929743  -16.499699483   798.2856   2   5   0.0257   0.0344   0.1674   0.0210  -0.0223  -0.0475   2.00    0.0
2025/04/04 14:47:03.000   28.378929741  -16.499699481   798.2898   2   5   0.0257   0.0344   0.1675   0.0210  -0.0223  -0.0475   3.00    0.0
2025/04/04 14:47:04.000   28.378929740  -16.499699480   798.2931   2   5   0.0257   0.0344   0.1675   0.0210  -0.0222  -0.0475   4.00    0.0
2025/04/04 14:47:05.000   28.378929740  -16.499699478   798.2963   2   5   0.0257   0.0344   0.1676   0.0209  -0.0222  -0.0475   5.00    0.0
2025/04/04 14:47:06.000   28.378929739  -16.499699477   798.3005   2   5   0.0257   0.0344   0.1676   0.0209  -0.0222  -0.0475   6.00    0.0
2025/04/04 14:47:07.000   28.378929738  -16.499699476   798.3027   2   5   0.0257   0.0344   0.1676   0.0209  -0.0222  -0.0475   7.00    0.0
2025/04/04 14:47:08.000   28.378929737  -16.499699476   798.3042   2   5   0.0257   0.0344   0.1676   0.0209  -0.0222  -0.0475   8.00    0.0
2025/04/04 14:47:09.000   28.378929738  -16.499699475   798.3056   2   5   0.0257   0.0344   0.1677   0.0209  -0.0222  -0.0475   9.00    0.0
2025/04/04 14:47:10.000   28.378929737  -16.499699475   798.3066   2   5   0.0257   0.0344   0.1677   0.0209  -0.0222  -0.0475  10.00    0.0
2025/04/04 14:47:11.000   28.378929737  -16.499699476   798.3077   2   5   0.0257   0.0344   0.1677   0.0209  -0.0221  -0.0475  11.00    0.0
2025/04/04 14:47:12.000   28.378929737  -16.499699476   798.3085   2   5   0.0257   0.0344   0.1677   0.0209  -0.0221  -0.0475  12.00    0.0
2025/04/04 14:47:13.000   28.378929736  -16.499699476   798.3091   2   5   0.0257   0.0343   0.1677   0.0209  -0.0221  -0.0475  13.00    0.0
2025/04/04 14:47:14.000   28.378929736  -16.499699476   798.3098   2   5   0.0257   0.0343   0.1677   0.0209  -0.0221  -0.0475  14.00    0.0
2025/04/04 14:47:15.000   28.378929736  -16.499699477   798.3101   2   5   0.0257   0.0343   0.1677   0.0209  -0.0221  -0.0475 -15.00    0.0
2025/04/04 14:47:16.000   28.378929736  -16.499699477   798.3107   2   5   0.0257   0.0343   0.1677   0.0209  -0.0221  -0.0475 -14.00    0.0
2025/04/04 14:47:17.000   28.378929736  -16.499699477   798.3114   2   5   0.0257   0.0343   0.1677   0.0209  -0.0221  -0.0475 -13.00    0.0
2025/04/04 14:47:18.000   28.378929735  -16.499699477   798.3123   2   5   0.0257   0.0343   0.1677   0.0209  -0.0221  -0.0475 -12.00    0.0
2025/04/04 14:47:19.000   28.378929735  -16.499699477   798.3133   2   5   0.0257   0.0343   0.1677   0.0209  -0.0221  -0.0475 -11.00    0.0
2025/04/04 14:47:20.000   28.378929735  -16.499699477   798.3144   2   5   0.0257   0.0343   0.1677   0.0209  -0.0221  -0.0475 -10.00    0.0
2025/04/04 14:47:21.000   28.378929735  -16.499699476   798.3157   2   5   0.0257   0.0343   0.1677   0.0209  -0.0221  -0.0475  -9.00    0.0
2025/04/04 14:47:22.000   28.378929735  -16.499699477   798.3174   2   5   0.0257   0.0343   0.1677   0.0209  -0.0221  -0.0475  -8.00    0.0
2025/04/04 14:47:23.000   28.378929735  -16.499699477   798.3193   2   5   0.0257   0.0343   0.1677   0.0209  -0.0221  -0.0475  -7.00    0.0
2025/04/04 14:47:24.000   28.378929734  -16.499699476   798.3214   2   5   0.0257   0.0343   0.1677   0.0209  -0.0221  -0.0475  -6.00    0.0
2025/04/04 14:47:25.000   28.378929733  -16.499699476   798.3245   2   5   0.0257   0.0343   0.1677   0.0209  -0.0221  -0.0475  -5.00    0.0
2025/04/04 14:47:26.000   28.378929732  -16.499699476   798.3276   2   5   0.0257   0.0343   0.1677   0.0209  -0.0221  -0.0475  -4.00    0.0
2025/04/04 14:47:27.000   28.378929731  -16.499699474   798.3316   2   5   0.0257   0.0343   0.1678   0.0209  -0.0221  -0.0475  -3.00    0.0
2025/04/04 14:47:28.000   28.378929730  -16.499699473   798.3363   2   5   0.0257   0.0343   0.1678   0.0209  -0.0221  -0.0475  -2.00    0.0
2025/04/04 14:47:29.000   28.378929729  -16.499699473   798.3410   2   5   0.0257   0.0343   0.1678   0.0209  -0.0221  -0.0474  -1.00    0.0
2025/04/04 14:47:30.000   28.378929728  -16.499699473   798.3461   2   5   0.0257   0.0343   0.1678   0.0209  -0.0221  -0.0474   0.00    0.0
2025/04/04 14:47:31.000   28.378929728  -16.499699472   798.3522   2   5   0.0257   0.0343   0.1679   0.0208  -0.0221  -0.0474   1.00    0.0
2025/04/04 14:47:32.000   28.378929727  -16.499699471   798.3575   2   5   0.0257   0.0343   0.1679   0.0208  -0.0220  -0.0474   2.00    0.0
2025/04/04 14:47:33.000   28.378929728  -16.499699470   798.3623   2   5   0.0257   0.0343   0.1680   0.0208  -0.0220  -0.0474   3.00    0.0
2025/04/04 14:47:34.000   28.378929727  -16.499699471   798.3683   2   5   0.0257   0.0342   0.1680   0.0208  -0.0220  -0.0475   4.00    0.0
2025/04/04 14:47:35.000   28.378929726  -16.499699470   798.3727   2   5   0.0257   0.0342   0.1680   0.0208  -0.0220  -0.0475   5.00    0.0
2025/04/04 14:47:36.000   28.378929724  -16.499699470   798.3766   2   5   0.0257   0.0342   0.1681   0.0208  -0.0220  -0.0475   6.00    0.0
2025/04/04 14:47:37.000   28.378929723  -16.499699471   798.3787   2   5   0.0257   0.0342   0.1681   0.0208  -0.0220  -0.0475   7.00    0.0
2025/04/04 14:47:38.000   28.378929721  -16.499699471   798.3807   2   5   0.0257   0.0342   0.1681   0.0208  -0.0220  -0.0475   8.00    0.0
2025/04/04 14:47:39.000   28.378929720  -16.499699472   798.3822   2   5   0.0257   0.0342   0.1681   0.0208  -0.0220  -0.0475   9.00    0.0
2025/04/04 14:47:40.000   28.378929719  -16.499699472   798.3838   2   5   0.0257   0.0342   0.1681   0.0208  -0.0219  -0.0474  10.00    0.0
2025/04/04 14:47:41.000   28.378929718  -16.499699473   798.3851   2   5   0.0257   0.0342   0.1681   0.0208  -0.0219  -0.0474  11.00    0.0
2025/04/04 14:47:42.000   28.378929718  -16.499699474   798.3861   2   5   0.0257   0.0342   0.1681   0.0208  -0.0219  -0.0474  12.00    0.0
2025/04/04 14:47:43.000   28.378929718  -16.499699474   798.3869   2   5   0.0257   0.0342   0.1681   0.0208  -0.0219  -0.0474  13.00    0.0
2025/04/04 14:47:44.000   28.378929718  -16.499699474   798.3878   2   5   0.0257   0.0342   0.1682   0.0208  -0.0219  -0.0474  14.00    0.0
2025/04/04 14:47:45.000   28.378929718  -16.499699475   798.3886   2   5   0.0257   0.0342   0.1682   0.0208  -0.0219  -0.0474 -15.00    0.0
2025/04/04 14:47:46.000   28.378929717  -16.499699476   798.3893   2   5   0.0257   0.0342   0.1682   0.0208  -0.0219  -0.0474 -14.00    0.0
2025/04/04 14:47:47.000   28.378929717  -16.499699476   798.3900   2   5   0.0257   0.0342   0.1682   0.0208  -0.0219  -0.0474 -13.00    0.0
2025/04/04 14:47:48.000   28.378929717  -16.499699476   798.3908   2   5   0.0257   0.0342   0.1682   0.0208  -0.0219  -0.0474 -12.00    0.0
2025/04/04 14:47:49.000   28.378929716  -16.499699477   798.3919   2   5   0.0257   0.0342   0.1682   0.0208  -0.0219  -0.0474 -11.00    0.0
2025/04/04 14:47:50.000   28.378929716  -16.499699477   798.3931   2   5   0.0257   0.0342   0.1682   0.0208  -0.0219  -0.0474 -10.00    0.0
