% program   : RTKPOST-EX 2.5.0
% inp file  : C:\Users\SallyHenry\Desktop\Sally Internship\GNSS gravi\DATA\Survey Rover Obs\ORO08.25o
% inp file  : C:\Users\SallyHenry\Desktop\Sally Internship\GNSS gravi\DATA\BaseStations\TN02\TN0200ESP_R_20250940000_01D_30S_MO.rnx
% inp file  : C:\Users\SallyHenry\Desktop\Sally Internship\GNSS gravi\DATA\BaseStations\TN02\TN0200ESP_R_20250940000_01D_MN.rnx
% inp file  : C:\Users\SallyHenry\Desktop\Sally Internship\GNSS gravi\DATA\aux_files\Survey\IGS0OPSFIN_20250940000_01D_15M_ORB.SP3
% inp file  : C:\Users\SallyHenry\Desktop\Sally Internship\GNSS gravi\DATA\aux_files\Survey\IGS0OPSFIN_20250940000_01D_30S_CLK.CLK
% obs start : 2025/04/04 16:59:31.0 GPST (week2360 493171.0s)
% obs end   : 2025/04/04 17:14:32.0 GPST (week2360 494072.0s)
% pos mode  : Static
% freqs     : L1+L2/E5b
% solution  : Combined-No Phase Reset
% elev mask : 15.0 deg
% dynamics  : on
% tidecorr  : solid
% ionos opt : Estimate TEC
% tropo opt : Estimate ZTD+Grad
% ephemeris : Precise
% navi sys  : GPS GLONASS Galileo QZSS BDS
% amb res   : Fix and Hold
% amb glo   : Fix and Hold
% amb bds   : on
% val thres : 3.0
% antenna1  :                       ( 0.0000  0.0000  1.8000)
% antenna2  :                       ( 0.0000  0.0000  0.0771)
% ref pos   :  28.418257450  -16.550784480    54.4145
%
% (lat/lon/height=WGS84/ellipsoidal,Q=1:fix,2:float,3:sbas,4:dgps,5:single,6:ppp,ns=# of satellites)
%  GPST                  latitude(deg) longitude(deg)  height(m)   Q  ns   sdn(m)   sde(m)   sdu(m)  sdne(m)  sdeu(m)  sdun(m) age(s)  ratio
2025/04/04 16:59:31.000   28.415259234  -16.528655956   127.0887   1   7   0.0022   0.0021   0.0101   0.0015   0.0010   0.0009   1.00   12.3
2025/04/04 16:59:32.000   28.415259234  -16.528655956   127.0886   1   7   0.0022   0.0021   0.0102   0.0015   0.0010   0.0009   2.00   12.1
2025/04/04 16:59:33.000   28.415259234  -16.528655956   127.0886   1   7   0.0022   0.0021   0.0102   0.0015   0.0010   0.0009   3.00   11.9
2025/04/04 16:59:34.000   28.415259234  -16.528655956   127.0884   1   7   0.0022   0.0021   0.0102   0.0015   0.0010   0.0009   4.00   11.6
2025/04/04 16:59:35.000   28.415259234  -16.528655956   127.0883   1   7   0.0022   0.0021   0.0102   0.0015   0.0010   0.0009   5.00   11.4
2025/04/04 16:59:36.000   28.415259235  -16.528655956   127.0881   1   7   0.0022   0.0021   0.0102   0.0015   0.0010   0.0009   6.00   11.1
2025/04/04 16:59:37.000   28.415259235  -16.528655956   127.0879   1   7   0.0022   0.0021   0.0102   0.0015   0.0010   0.0009   7.00   10.9
2025/04/04 16:59:38.000   28.415259235  -16.528655956   127.0879   1   7   0.0022   0.0021   0.0102   0.0015   0.0010   0.0009   8.00   10.6
2025/04/04 16:59:39.000   28.415259234  -16.528655956   127.0879   1   7   0.0022   0.0021   0.0102   0.0015   0.0010   0.0009   9.00   10.3
2025/04/04 16:59:40.000   28.415259234  -16.528655956   127.0879   1   7   0.0022   0.0021   0.0102   0.0015   0.0010   0.0009  10.00   10.0
2025/04/04 16:59:41.000   28.415259234  -16.528655956   127.0879   1   7   0.0022   0.0021   0.0102   0.0015   0.0011   0.0009  11.00    9.7
2025/04/04 16:59:42.000   28.415259234  -16.528655956   127.0879   1   7   0.0022   0.0021   0.0102   0.0015   0.0011   0.0009  12.00    9.3
2025/04/04 16:59:43.000   28.415259234  -16.528655956   127.0878   1   7   0.0022   0.0021   0.0103   0.0015   0.0011   0.0009  13.00    9.0
2025/04/04 16:59:44.000   28.415259234  -16.528655956   127.0878   1   7   0.0022   0.0021   0.0102   0.0015   0.0011   0.0009  14.00    8.7
2025/04/04 16:59:45.000   28.415259234  -16.528655956   127.0877   1   7   0.0022   0.0021   0.0102   0.0015   0.0011   0.0009  15.00    8.4
2025/04/04 16:59:46.000   28.415259234  -16.528655956   127.0877   1   7   0.0022   0.0021   0.0102   0.0015   0.0011   0.0009 -14.00    8.1
2025/04/04 16:59:47.000   28.415259234  -16.528655956   127.0877   1   7   0.0022   0.0021   0.0102   0.0015   0.0011   0.0009 -13.00    7.8
2025/04/04 16:59:48.000   28.415259234  -16.528655956   127.0877   1   7   0.0022   0.0021   0.0102   0.0015   0.0011   0.0009 -12.00    7.5
2025/04/04 16:59:49.000   28.415259234  -16.528655956   127.0876   1   7   0.0022   0.0021   0.0102   0.0015   0.0011   0.0009 -11.00    7.1
2025/04/04 16:59:50.000   28.415259234  -16.528655956   127.0875   1   7   0.0022   0.0021   0.0102   0.0015   0.0011   0.0009 -10.00    6.8
2025/04/04 16:59:51.000   28.415259233  -16.528655956   127.0873   1   7   0.0022   0.0021   0.0102   0.0015   0.0011   0.0009  -9.00    6.4
2025/04/04 16:59:52.000   28.415259233  -16.528655956   127.0872   1   7   0.0022   0.0021   0.0103   0.0015   0.0011   0.0009  -8.00    6.0
2025/04/04 16:59:53.000   28.415259233  -16.528655956   127.0871   1   7   0.0022   0.0021   0.0103   0.0015   0.0011   0.0009  -7.00    5.5
2025/04/04 16:59:54.000   28.415259233  -16.528655956   127.0870   1   7   0.0022   0.0021   0.0103   0.0015   0.0011   0.0009  -6.00    5.0
2025/04/04 16:59:55.000   28.415259233  -16.528655956   127.0869   1   7   0.0022   0.0021   0.0103   0.0015   0.0011   0.0009  -5.00    4.5
2025/04/04 16:59:56.000   28.415259232  -16.528655957   127.0869   1   7   0.0022   0.0021   0.0103   0.0015   0.0012   0.0009  -4.00  100.6
2025/04/04 16:59:57.000   28.415259232  -16.528655957   127.0869   1   7   0.0022   0.0021   0.0103   0.0015   0.0012   0.0009  -3.00  100.9
2025/04/04 16:59:58.000   28.415259232  -16.528655957   127.0868   1   7   0.0022   0.0021   0.0104   0.0015   0.0012   0.0009  -2.00  101.4
2025/04/04 16:59:59.000   28.415259232  -16.528655957   127.0867   1   7   0.0022   0.0021   0.0104   0.0015   0.0012   0.0009  -1.00  101.9
2025/04/04 17:00:00.000   28.415259234  -16.528655959   127.0834   1   7   0.0022   0.0021   0.0102   0.0015   0.0011   0.0009   0.00    8.5
2025/04/04 17:00:01.000   28.415259234  -16.528655959   127.0835   1   7   0.0022   0.0021   0.0103   0.0015   0.0011   0.0009   1.00    8.1
2025/04/04 17:00:02.000   28.415259235  -16.528655958   127.0837   1   7   0.0022   0.0021   0.0103   0.0015   0.0011   0.0008   2.00    7.7
2025/04/04 17:00:03.000   28.415259235  -16.528655957   127.0839   1   7   0.0022   0.0021   0.0103   0.0015   0.0011   0.0008   3.00    7.3
2025/04/04 17:00:04.000   28.415259235  -16.528655957   127.0840   1   7   0.0022   0.0021   0.0103   0.0015   0.0011   0.0008   4.00    6.8
2025/04/04 17:00:05.000   28.415259235  -16.528655957   127.0842   1   7   0.0022   0.0021   0.0103   0.0015   0.0011   0.0008   5.00    6.4
2025/04/04 17:00:06.000   28.415259235  -16.528655956   127.0845   1   7   0.0022   0.0021   0.0103   0.0015   0.0011   0.0008   6.00    6.0
2025/04/04 17:00:07.000   28.415259235  -16.528655956   127.0846   1   7   0.0022   0.0021   0.0104   0.0015   0.0011   0.0008   7.00    5.6
2025/04/04 17:00:08.000   28.415259235  -16.528655956   127.0848   1   7   0.0022   0.0021   0.0104   0.0015   0.0011   0.0008   8.00    5.2
2025/04/04 17:00:09.000   28.415259235  -16.528655956   127.0851   1   7   0.0022   0.0021   0.0104   0.0015   0.0011   0.0008   9.00    4.8
2025/04/04 17:00:10.000   28.415259235  -16.528655956   127.0853   1   7   0.0022   0.0021   0.0104   0.0015   0.0011   0.0008  10.00    4.4
2025/04/04 17:00:11.000   28.415259235  -16.528655955   127.0855   1   7   0.0022   0.0021   0.0104   0.0015   0.0012   0.0008  11.00    4.1
2025/04/04 17:00:12.000   28.415259235  -16.528655955   127.0857   1   7   0.0022   0.0021   0.0104   0.0015   0.0012   0.0008  12.00    3.8
2025/04/04 17:00:13.000   28.415259234  -16.528655954   127.0878   1   7   0.0022   0.0021   0.0104   0.0015   0.0012   0.0008  13.00    3.7
2025/04/04 17:00:14.000   28.415259234  -16.528655954   127.0877   1   7   0.0022   0.0021   0.0104   0.0015   0.0012   0.0008  14.00    3.4
2025/04/04 17:00:15.000   28.415259234  -16.528655955   127.0873   1   7   0.0022   0.0021   0.0104   0.0015   0.0012   0.0008  15.00  105.6
2025/04/04 17:00:16.000   28.415259234  -16.528655955   127.0873   1   7   0.0022   0.0021   0.0104   0.0015   0.0012   0.0008 -14.00  105.5
2025/04/04 17:00:17.000   28.415259234  -16.528655955   127.0873   1   7   0.0022   0.0021   0.0104   0.0015   0.0012   0.0008 -13.00  105.4
2025/04/04 17:00:18.000   28.415259234  -16.528655955   127.0873   1   7   0.0022   0.0021   0.0104   0.0015   0.0012   0.0008 -12.00  105.4
2025/04/04 17:00:19.000   28.415259234  -16.528655955   127.0874   1   7   0.0022   0.0021   0.0104   0.0015   0.0012   0.0008 -11.00  105.4
2025/04/04 17:00:20.000   28.415259233  -16.528655955   127.0874   1   7   0.0022   0.0021   0.0104   0.0015   0.0012   0.0008 -10.00  105.4
2025/04/04 17:00:21.000   28.415259234  -16.528655954   127.0884   1   7   0.0022   0.0021   0.0103   0.0015   0.0012   0.0008  -9.00    6.0
2025/04/04 17:00:22.000   28.415259234  -16.528655954   127.0883   1   7   0.0022   0.0021   0.0103   0.0015   0.0012   0.0008  -8.00    5.8
2025/04/04 17:00:23.000   28.415259234  -16.528655953   127.0891   1   7   0.0022   0.0021   0.0103   0.0015   0.0012   0.0008  -7.00    6.0
2025/04/04 17:00:24.000   28.415259234  -16.528655954   127.0889   1   7   0.0022   0.0021   0.0103   0.0015   0.0012   0.0008  -6.00    5.5
2025/04/04 17:00:25.000   28.415259234  -16.528655953   127.0889   1   7   0.0022   0.0021   0.0103   0.0015   0.0012   0.0008  -5.00    4.9
2025/04/04 17:00:26.000   28.415259235  -16.528655953   127.0884   1   7   0.0022   0.0021   0.0104   0.0015   0.0012   0.0008  -4.00    4.0
2025/04/04 17:00:27.000   28.415259235  -16.528655953   127.0884   1   7   0.0022   0.0021   0.0104   0.0015   0.0012   0.0008  -3.00    3.4
2025/04/04 17:00:28.000   28.415259235  -16.528655954   127.0880   1   7   0.0022   0.0021   0.0104   0.0015   0.0012   0.0008  -2.00  106.1
2025/04/04 17:00:29.000   28.415259236  -16.528655954   127.0883   1   7   0.0022   0.0021   0.0104   0.0015   0.0012   0.0008  -1.00  106.5
2025/04/04 17:00:30.000   28.415259236  -16.528655952   127.0898   1   7   0.0022   0.0021   0.0102   0.0015   0.0011   0.0008   0.00   14.9
2025/04/04 17:00:31.000   28.415259236  -16.528655952   127.0898   1   7   0.0022   0.0021   0.0102   0.0015   0.0011   0.0008   1.00   14.8
2025/04/04 17:00:32.000   28.415259237  -16.528655952   127.0897   1   7   0.0022   0.0021   0.0103   0.0015   0.0011   0.0008   2.00   14.6
2025/04/04 17:00:33.000   28.415259237  -16.528655952   127.0897   1   7   0.0022   0.0021   0.0103   0.0015   0.0011   0.0008   3.00   14.4
2025/04/04 17:00:34.000   28.415259238  -16.528655952   127.0896   1   7   0.0022   0.0021   0.0103   0.0015   0.0011   0.0008   4.00   14.1
2025/04/04 17:00:35.000   28.415259238  -16.528655952   127.0897   1   7   0.0022   0.0021   0.0103   0.0015   0.0011   0.0008   5.00   13.8
2025/04/04 17:00:36.000   28.415259238  -16.528655952   127.0896   1   7   0.0022   0.0021   0.0103   0.0015   0.0011   0.0008   6.00   13.5
2025/04/04 17:00:37.000   28.415259239  -16.528655952   127.0894   1   7   0.0022   0.0021   0.0103   0.0015   0.0011   0.0008   7.00   13.2
2025/04/04 17:00:38.000   28.415259239  -16.528655952   127.0894   1   7   0.0022   0.0021   0.0103   0.0015   0.0011   0.0008   8.00   12.8
2025/04/04 17:00:39.000   28.415259239  -16.528655952   127.0893   1   7   0.0022   0.0021   0.0103   0.0015   0.0011   0.0008   9.00   12.5
2025/04/04 17:00:40.000   28.415259239  -16.528655952   127.0891   1   7   0.0022   0.0021   0.0104   0.0015   0.0011   0.0007  10.00   12.1
2025/04/04 17:00:41.000   28.415259239  -16.528655952   127.0891   1   7   0.0022   0.0021   0.0104   0.0015   0.0011   0.0007  11.00   11.7
2025/04/04 17:00:42.000   28.415259239  -16.528655952   127.0890   1   7   0.0022   0.0021   0.0104   0.0015   0.0011   0.0007  12.00   11.4
2025/04/04 17:00:43.000   28.415259239  -16.528655952   127.0890   1   7   0.0022   0.0021   0.0104   0.0015   0.0011   0.0007  13.00   11.0
2025/04/04 17:00:44.000   28.415259239  -16.528655952   127.0890   1   7   0.0022   0.0021   0.0104   0.0015   0.0011   0.0007  14.00   10.7
2025/04/04 17:00:45.000   28.415259239  -16.528655952   127.0890   1   7   0.0022   0.0021   0.0104   0.0015   0.0011   0.0007  15.00   10.3
2025/04/04 17:00:46.000   28.415259239  -16.528655952   127.0890   1   7   0.0022   0.0021   0.0104   0.0015   0.0011   0.0007 -14.00   10.0
2025/04/04 17:00:47.000   28.415259239  -16.528655952   127.0889   1   7   0.0022   0.0021   0.0104   0.0015   0.0012   0.0007 -13.00    9.7
2025/04/04 17:00:48.000   28.415259239  -16.528655952   127.0889   1   7   0.0022   0.0021   0.0104   0.0015   0.0012   0.0007 -12.00    9.4
2025/04/04 17:00:49.000   28.415259239  -16.528655952   127.0889   1   7   0.0022   0.0021   0.0104   0.0015   0.0012   0.0007 -11.00    9.0
2025/04/04 17:00:50.000   28.415259239  -16.528655952   127.0888   1   7   0.0022   0.0021   0.0104   0.0015   0.0012   0.0007 -10.00    8.6
2025/04/04 17:00:51.000   28.415259239  -16.528655952   127.0888   1   7   0.0022   0.0021   0.0104   0.0015   0.0012   0.0007  -9.00    8.1
2025/04/04 17:00:52.000   28.415259239  -16.528655952   127.0888   1   7   0.0022   0.0021   0.0104   0.0015   0.0012   0.0007  -8.00    7.6
2025/04/04 17:00:53.000   28.415259239  -16.528655952   127.0888   1   7   0.0022   0.0021   0.0104   0.0015   0.0012   0.0007  -7.00    7.0
2025/04/04 17:00:54.000   28.415259238  -16.528655952   127.0888   1   7   0.0022   0.0021   0.0104   0.0015   0.0012   0.0007  -6.00    6.4
2025/04/04 17:00:55.000   28.415259239  -16.528655952   127.0889   1   7   0.0022   0.0021   0.0104   0.0015   0.0012   0.0007  -5.00    5.6
2025/04/04 17:00:56.000   28.415259238  -16.528655952   127.0892   1   7   0.0022   0.0021   0.0104   0.0015   0.0012   0.0007  -4.00    4.5
2025/04/04 17:00:57.000   28.415259239  -16.528655951   127.0894   1   7   0.0022   0.0021   0.0104   0.0015   0.0012   0.0007  -3.00    3.7
2025/04/04 17:00:58.000   28.415259239  -16.528655952   127.0891   1   7   0.0022   0.0021   0.0105   0.0015   0.0013   0.0007  -2.00  110.1
2025/04/04 17:00:59.000   28.415259239  -16.528655951   127.0893   1   7   0.0022   0.0021   0.0105   0.0015   0.0013   0.0007  -1.00  110.5
2025/04/04 17:01:00.000   28.415259240  -16.528655951   127.0884   1   7   0.0022   0.0021   0.0103   0.0015   0.0011   0.0007   0.00   14.9
2025/04/04 17:01:01.000   28.415259241  -16.528655951   127.0886   1   7   0.0022   0.0021   0.0103   0.0015   0.0011   0.0007   1.00   14.6
2025/04/04 17:01:02.000   28.415259242  -16.528655950   127.0887   1   7   0.0022   0.0021   0.0103   0.0015   0.0011   0.0007   2.00   14.3
2025/04/04 17:01:03.000   28.415259243  -16.528655949   127.0888   1   7   0.0022   0.0021   0.0103   0.0015   0.0011   0.0007   3.00   14.1
2025/04/04 17:01:04.000   28.415259243  -16.528655948   127.0890   1   7   0.0022   0.0021   0.0104   0.0015   0.0011   0.0007   4.00   13.8
2025/04/04 17:01:05.000   28.415259243  -16.528655948   127.0892   1   7   0.0022   0.0021   0.0104   0.0015   0.0011   0.0007   5.00   13.5
2025/04/04 17:01:06.000   28.415259244  -16.528655947   127.0894   1   7   0.0022   0.0021   0.0104   0.0015   0.0011   0.0007   6.00   13.1
2025/04/04 17:01:07.000   28.415259244  -16.528655947   127.0895   1   7   0.0022   0.0021   0.0104   0.0015   0.0011   0.0007   7.00   12.7
2025/04/04 17:01:08.000   28.415259244  -16.528655947   127.0897   1   7   0.0022   0.0021   0.0104   0.0015   0.0011   0.0007   8.00   12.2
2025/04/04 17:01:09.000   28.415259244  -16.528655946   127.0898   1   7   0.0022   0.0021   0.0104   0.0015   0.0012   0.0007   9.00   11.8
2025/04/04 17:01:10.000   28.415259244  -16.528655946   127.0900   1   7   0.0022   0.0021   0.0104   0.0015   0.0012   0.0007  10.00   11.4
2025/04/04 17:01:11.000   28.415259244  -16.528655946   127.0901   1   7   0.0022   0.0021   0.0104   0.0015   0.0012   0.0007  11.00   11.1
2025/04/04 17:01:12.000   28.415259244  -16.528655946   127.0902   1   7   0.0022   0.0021   0.0104   0.0015   0.0012   0.0007  12.00   10.7
2025/04/04 17:01:13.000   28.415259244  -16.528655946   127.0903   1   7   0.0022   0.0021   0.0104   0.0015   0.0012   0.0007  13.00   10.4
2025/04/04 17:01:14.000   28.415259244  -16.528655946   127.0903   1   7   0.0022   0.0021   0.0104   0.0015   0.0012   0.0007  14.00   10.1
2025/04/04 17:01:15.000   28.415259244  -16.528655946   127.0903   1   7   0.0022   0.0021   0.0104   0.0015   0.0012   0.0007  15.00    9.8
2025/04/04 17:01:16.000   28.415259244  -16.528655946   127.0904   1   7   0.0022   0.0021   0.0104   0.0015   0.0012   0.0007 -14.00    9.5
2025/04/04 17:01:17.000   28.415259244  -16.528655946   127.0904   1   7   0.0022   0.0021   0.0104   0.0015   0.0012   0.0007 -13.00    9.2
2025/04/04 17:01:18.000   28.415259244  -16.528655946   127.0904   1   7   0.0022   0.0021   0.0104   0.0015   0.0012   0.0007 -12.00    8.9
2025/04/04 17:01:19.000   28.415259244  -16.528655946   127.0904   1   7   0.0022   0.0021   0.0104   0.0015   0.0012   0.0007 -11.00    8.6
2025/04/04 17:01:20.000   28.415259244  -16.528655946   127.0905   1   7   0.0022   0.0021   0.0104   0.0015   0.0012   0.0007 -10.00    8.2
2025/04/04 17:01:21.000   28.415259244  -16.528655945   127.0906   1   7   0.0022   0.0021   0.0104   0.0015   0.0012   0.0007  -9.00    7.8
2025/04/04 17:01:22.000   28.415259244  -16.528655945   127.0907   1   7   0.0022   0.0021   0.0104   0.0015   0.0012   0.0007  -8.00    7.4
2025/04/04 17:01:23.000   28.415259244  -16.528655945   127.0908   1   7   0.0022   0.0021   0.0104   0.0015   0.0012   0.0007  -7.00    6.8
2025/04/04 17:01:24.000   28.415259244  -16.528655945   127.0909   1   7   0.0022   0.0021   0.0104   0.0015   0.0012   0.0007  -6.00    6.2
2025/04/04 17:01:25.000   28.415259244  -16.528655945   127.0911   1   7   0.0022   0.0021   0.0104   0.0015   0.0012   0.0007  -5.00    5.5
2025/04/04 17:01:26.000   28.415259243  -16.528655944   127.0925   1   7   0.0022   0.0021   0.0105   0.0015   0.0013   0.0006  -4.00    4.3
2025/04/04 17:01:27.000   28.415259243  -16.528655945   127.0923   1   7   0.0022   0.0021   0.0105   0.0015   0.0013   0.0006  -3.00    3.6
2025/04/04 17:01:28.000   28.415259242  -16.528655946   127.0914   1   7   0.0022   0.0021   0.0105   0.0015   0.0013   0.0006  -2.00  111.0
2025/04/04 17:01:29.000   28.415259242  -16.528655946   127.0915   1   7   0.0022   0.0021   0.0105   0.0015   0.0013   0.0006  -1.00  111.0
2025/04/04 17:01:30.000   28.415259244  -16.528655946   127.0896   1   7   0.0022   0.0021   0.0103   0.0015   0.0011   0.0007   0.00   14.2
2025/04/04 17:01:31.000   28.415259245  -16.528655946   127.0898   1   7   0.0022   0.0021   0.0104   0.0015   0.0011   0.0007   1.00   14.0
2025/04/04 17:01:32.000   28.415259245  -16.528655946   127.0901   1   7   0.0022   0.0021   0.0104   0.0015   0.0011   0.0006   2.00   13.8
2025/04/04 17:01:33.000   28.415259245  -16.528655945   127.0904   1   7   0.0022   0.0021   0.0104   0.0015   0.0011   0.0006   3.00   13.5
2025/04/04 17:01:34.000   28.415259245  -16.528655945   127.0906   1   7   0.0022   0.0021   0.0104   0.0015   0.0012   0.0006   4.00   13.3
2025/04/04 17:01:35.000   28.415259245  -16.528655945   127.0907   1   7   0.0022   0.0021   0.0104   0.0015   0.0012   0.0006   5.00   12.9
2025/04/04 17:01:36.000   28.415259245  -16.528655945   127.0908   1   7   0.0022   0.0021   0.0104   0.0015   0.0012   0.0006   6.00   12.5
2025/04/04 17:01:37.000   28.415259245  -16.528655945   127.0909   1   7   0.0022   0.0021   0.0105   0.0015   0.0012   0.0006   7.00   12.1
2025/04/04 17:01:38.000   28.415259245  -16.528655945   127.0910   1   7   0.0022   0.0021   0.0105   0.0015   0.0012   0.0006   8.00   11.7
2025/04/04 17:01:39.000   28.415259245  -16.528655944   127.0911   1   7   0.0022   0.0021   0.0105   0.0015   0.0012   0.0006   9.00   11.4
2025/04/04 17:01:40.000   28.415259245  -16.528655944   127.0912   1   7   0.0022   0.0021   0.0105   0.0015   0.0012   0.0006  10.00   11.0
2025/04/04 17:01:41.000   28.415259245  -16.528655944   127.0913   1   7   0.0022   0.0021   0.0105   0.0015   0.0012   0.0006  11.00   10.7
2025/04/04 17:01:42.000   28.415259245  -16.528655944   127.0914   1   7   0.0022   0.0021   0.0105   0.0015   0.0012   0.0006  12.00   10.4
2025/04/04 17:01:43.000   28.415259245  -16.528655944   127.0915   1   7   0.0022   0.0021   0.0105   0.0015   0.0012   0.0006  13.00   10.1
2025/04/04 17:01:44.000   28.415259245  -16.528655944   127.0915   1   7   0.0022   0.0021   0.0105   0.0015   0.0012   0.0006  14.00    9.9
2025/04/04 17:01:45.000   28.415259245  -16.528655944   127.0916   1   7   0.0022   0.0021   0.0105   0.0015   0.0012   0.0006  15.00    9.6
2025/04/04 17:01:46.000   28.415259245  -16.528655944   127.0917   1   7   0.0022   0.0021   0.0105   0.0015   0.0012   0.0006 -14.00    9.3
2025/04/04 17:01:47.000   28.415259245  -16.528655944   127.0918   1   7   0.0022   0.0021   0.0105   0.0015   0.0012   0.0006 -13.00    9.1
2025/04/04 17:01:48.000   28.415259245  -16.528655944   127.0919   1   7   0.0022   0.0021   0.0105   0.0015   0.0012   0.0006 -12.00    8.8
2025/04/04 17:01:49.000   28.415259245  -16.528655944   127.0919   1   7   0.0022   0.0021   0.0105   0.0015   0.0012   0.0006 -11.00    8.5
2025/04/04 17:01:50.000   28.415259245  -16.528655944   127.0920   1   7   0.0022   0.0021   0.0105   0.0015   0.0012   0.0006 -10.00    8.2
2025/04/04 17:01:51.000   28.415259245  -16.528655944   127.0921   1   7   0.0022   0.0021   0.0105   0.0015   0.0012   0.0006  -9.00    7.8
2025/04/04 17:01:52.000   28.415259245  -16.528655944   127.0922   1   7   0.0022   0.0021   0.0105   0.0015   0.0012   0.0006  -8.00    7.4
2025/04/04 17:01:53.000   28.415259245  -16.528655943   127.0924   1   7   0.0022   0.0021   0.0105   0.0015   0.0013   0.0006  -7.00    6.9
2025/04/04 17:01:54.000   28.415259245  -16.528655943   127.0926   1   7   0.0022   0.0021   0.0105   0.0015   0.0013   0.0006  -6.00    6.4
2025/04/04 17:01:55.000   28.415259245  -16.528655943   127.0928   1   7   0.0022   0.0021   0.0105   0.0015   0.0013   0.0006  -5.00    5.7
2025/04/04 17:01:56.000   28.415259243  -16.528655942   127.0945   1   7   0.0022   0.0021   0.0105   0.0015   0.0013   0.0005  -4.00    4.4
2025/04/04 17:01:57.000   28.415259243  -16.528655942   127.0944   1   7   0.0022   0.0021   0.0106   0.0015   0.0013   0.0005  -3.00    3.8
2025/04/04 17:01:58.000   28.415259243  -16.528655943   127.0937   1   7   0.0022   0.0021   0.0106   0.0015   0.0013   0.0006  -2.00  109.5
2025/04/04 17:01:59.000   28.415259243  -16.528655943   127.0939   1   7   0.0022   0.0021   0.0106   0.0015   0.0013   0.0005  -1.00  109.6
2025/04/04 17:02:00.000   28.415259245  -16.528655945   127.0904   1   7   0.0022   0.0021   0.0104   0.0015   0.0012   0.0006   0.00   14.9
2025/04/04 17:02:01.000   28.415259245  -16.528655944   127.0909   1   7   0.0022   0.0021   0.0104   0.0015   0.0012   0.0006   1.00   14.6
2025/04/04 17:02:02.000   28.415259245  -16.528655944   127.0913   1   7   0.0022   0.0021   0.0104   0.0015   0.0012   0.0006   2.00   14.2
2025/04/04 17:02:03.000   28.415259245  -16.528655943   127.0917   1   7   0.0022   0.0021   0.0105   0.0015   0.0012   0.0005   3.00   13.8
2025/04/04 17:02:04.000   28.415259245  -16.528655943   127.0921   1   7   0.0022   0.0021   0.0105   0.0015   0.0012   0.0005   4.00   13.4
2025/04/04 17:02:05.000   28.415259245  -16.528655943   127.0924   1   7   0.0022   0.0021   0.0105   0.0015   0.0012   0.0005   5.00   13.0
2025/04/04 17:02:06.000   28.415259245  -16.528655943   127.0928   1   7   0.0022   0.0021   0.0105   0.0015   0.0012   0.0005   6.00   12.6
2025/04/04 17:02:07.000   28.415259245  -16.528655942   127.0930   1   7   0.0022   0.0021   0.0105   0.0015   0.0012   0.0005   7.00   12.2
2025/04/04 17:02:08.000   28.415259245  -16.528655942   127.0933   1   7   0.0022   0.0021   0.0105   0.0015   0.0012   0.0005   8.00   11.9
2025/04/04 17:02:09.000   28.415259245  -16.528655942   127.0935   1   7   0.0022   0.0021   0.0105   0.0015   0.0012   0.0005   9.00   11.5
2025/04/04 17:02:10.000   28.415259245  -16.528655941   127.0937   1   7   0.0022   0.0021   0.0105   0.0015   0.0012   0.0005  10.00   11.2
2025/04/04 17:02:11.000   28.415259245  -16.528655941   127.0939   1   7   0.0022   0.0021   0.0105   0.0015   0.0012   0.0005  11.00   10.9
2025/04/04 17:02:12.000   28.415259245  -16.528655941   127.0941   1   7   0.0022   0.0021   0.0105   0.0015   0.0012   0.0005  12.00   10.6
2025/04/04 17:02:13.000   28.415259245  -16.528655941   127.0942   1   7   0.0022   0.0021   0.0105   0.0015   0.0012   0.0005  13.00   10.3
2025/04/04 17:02:14.000   28.415259245  -16.528655941   127.0943   1   7   0.0022   0.0021   0.0105   0.0015   0.0012   0.0005  14.00   10.0
2025/04/04 17:02:15.000   28.415259245  -16.528655941   127.0944   1   7   0.0022   0.0021   0.0105   0.0015   0.0012   0.0005  15.00    9.8
2025/04/04 17:02:16.000   28.415259245  -16.528655941   127.0945   1   7   0.0022   0.0021   0.0105   0.0015   0.0013   0.0005 -14.00    9.5
2025/04/04 17:02:17.000   28.415259245  -16.528655941   127.0946   1   7   0.0022   0.0021   0.0105   0.0015   0.0013   0.0005 -13.00    9.3
2025/04/04 17:02:18.000   28.415259245  -16.528655941   127.0947   1   7   0.0022   0.0021   0.0105   0.0015   0.0013   0.0005 -12.00    9.0
2025/04/04 17:02:19.000   28.415259245  -16.528655940   127.0949   1   7   0.0022   0.0021   0.0105   0.0015   0.0013   0.0005 -11.00    8.7
2025/04/04 17:02:20.000   28.415259245  -16.528655940   127.0950   1   7   0.0022   0.0021   0.0105   0.0015   0.0013   0.0005 -10.00    8.3
2025/04/04 17:02:21.000   28.415259245  -16.528655940   127.0952   1   7   0.0022   0.0021   0.0105   0.0015   0.0013   0.0005  -9.00    8.0
2025/04/04 17:02:22.000   28.415259245  -16.528655940   127.0954   1   7   0.0022   0.0021   0.0105   0.0015   0.0013   0.0005  -8.00    7.6
2025/04/04 17:02:23.000   28.415259245  -16.528655940   127.0956   1   7   0.0022   0.0021   0.0105   0.0015   0.0013   0.0005  -7.00    7.1
2025/04/04 17:02:24.000   28.415259244  -16.528655940   127.0957   1   7   0.0022   0.0021   0.0106   0.0015   0.0013   0.0005  -6.00    6.6
2025/04/04 17:02:25.000   28.415259244  -16.528655939   127.0958   1   7   0.0022   0.0021   0.0106   0.0015   0.0013   0.0005  -5.00    6.0
2025/04/04 17:02:26.000   28.415259243  -16.528655939   127.0975   1   7   0.0022   0.0021   0.0106   0.0015   0.0013   0.0004  -4.00    4.8
2025/04/04 17:02:27.000   28.415259243  -16.528655938   127.0973   1   7   0.0022   0.0021   0.0106   0.0015   0.0013   0.0004  -3.00    4.1
2025/04/04 17:02:28.000   28.415259243  -16.528655939   127.0967   1   7   0.0022   0.0021   0.0107   0.0015   0.0014   0.0004  -2.00  110.7
2025/04/04 17:02:29.000   28.415259243  -16.528655938   127.0969   1   7   0.0022   0.0021   0.0107   0.0015   0.0014   0.0004  -1.00  111.1
2025/04/04 17:02:30.000   28.415259246  -16.528655942   127.0910   1   7   0.0022   0.0021   0.0104   0.0015   0.0012   0.0005   0.00   14.7
2025/04/04 17:02:31.000   28.415259246  -16.528655941   127.0912   1   7   0.0022   0.0021   0.0105   0.0015   0.0012   0.0005   1.00   14.4
2025/04/04 17:02:32.000   28.415259246  -16.528655940   127.0916   1   7   0.0022   0.0021   0.0105   0.0015   0.0012   0.0005   2.00   14.1
2025/04/04 17:02:33.000   28.415259247  -16.528655939   127.0918   1   7   0.0022   0.0021   0.0105   0.0015   0.0012   0.0005   3.00   13.8
2025/04/04 17:02:34.000   28.415259247  -16.528655939   127.0921   1   7   0.0022   0.0021   0.0105   0.0015   0.0012   0.0004   4.00   13.4
2025/04/04 17:02:35.000   28.415259247  -16.528655938   127.0923   1   7   0.0022   0.0021   0.0105   0.0015   0.0012   0.0004   5.00   13.1
2025/04/04 17:02:36.000   28.415259247  -16.528655938   127.0926   1   7   0.0022   0.0021   0.0106   0.0015   0.0012   0.0004   6.00   12.8
2025/04/04 17:02:37.000   28.415259247  -16.528655937   127.0928   1   7   0.0022   0.0021   0.0106   0.0015   0.0012   0.0004   7.00   12.5
2025/04/04 17:02:38.000   28.415259247  -16.528655937   127.0931   1   7   0.0022   0.0021   0.0106   0.0015   0.0012   0.0004   8.00   12.2
2025/04/04 17:02:39.000   28.415259247  -16.528655937   127.0934   1   7   0.0022   0.0021   0.0106   0.0015   0.0013   0.0004   9.00   11.8
2025/04/04 17:02:40.000   28.415259247  -16.528655936   127.0936   1   7   0.0022   0.0021   0.0106   0.0015   0.0013   0.0004  10.00   11.5
2025/04/04 17:02:41.000   28.415259247  -16.528655936   127.0938   1   7   0.0022   0.0021   0.0106   0.0015   0.0013   0.0004  11.00   11.3
2025/04/04 17:02:42.000   28.415259247  -16.528655936   127.0940   1   7   0.0022   0.0021   0.0106   0.0015   0.0013   0.0004  12.00   11.0
2025/04/04 17:02:43.000   28.415259247  -16.528655936   127.0941   1   7   0.0022   0.0021   0.0106   0.0015   0.0013   0.0004  13.00   10.7
2025/04/04 17:02:44.000   28.415259247  -16.528655936   127.0943   1   7   0.0022   0.0021   0.0106   0.0015   0.0013   0.0004  14.00   10.5
2025/04/04 17:02:45.000   28.415259247  -16.528655936   127.0944   1   7   0.0022   0.0021   0.0106   0.0015   0.0013   0.0004  15.00   10.2
2025/04/04 17:02:46.000   28.415259247  -16.528655935   127.0945   1   7   0.0022   0.0021   0.0106   0.0015   0.0013   0.0004 -14.00   10.0
2025/04/04 17:02:47.000   28.415259247  -16.528655935   127.0947   1   7   0.0022   0.0021   0.0106   0.0015   0.0013   0.0004 -13.00    9.7
2025/04/04 17:02:48.000   28.415259247  -16.528655935   127.0949   1   7   0.0022   0.0021   0.0106   0.0015   0.0013   0.0004 -12.00    9.4
2025/04/04 17:02:49.000   28.415259247  -16.528655935   127.0950   1   7   0.0022   0.0021   0.0106   0.0015   0.0013   0.0004 -11.00    9.1
2025/04/04 17:02:50.000   28.415259247  -16.528655935   127.0953   1   7   0.0022   0.0021   0.0106   0.0015   0.0013   0.0004 -10.00    8.8
2025/04/04 17:02:51.000   28.415259247  -16.528655935   127.0955   1   7   0.0022   0.0021   0.0106   0.0015   0.0013   0.0004  -9.00    8.5
2025/04/04 17:02:52.000   28.415259247  -16.528655934   127.0957   1   7   0.0022   0.0021   0.0106   0.0015   0.0013   0.0004  -8.00    8.1
2025/04/04 17:02:53.000   28.415259246  -16.528655934   127.0959   1   7   0.0022   0.0021   0.0106   0.0015   0.0013   0.0004  -7.00    7.6
2025/04/04 17:02:54.000   28.415259246  -16.528655934   127.0962   1   7   0.0022   0.0021   0.0106   0.0015   0.0013   0.0003  -6.00    7.1
2025/04/04 17:02:55.000   28.415259246  -16.528655934   127.0964   1   7   0.0022   0.0021   0.0106   0.0015   0.0013   0.0003  -5.00    6.4
2025/04/04 17:02:56.000   28.415259245  -16.528655933   127.0982   1   7   0.0022   0.0021   0.0107   0.0015   0.0014   0.0002  -4.00    5.5
2025/04/04 17:02:57.000   28.415259245  -16.528655933   127.0981   1   7   0.0022   0.0021   0.0107   0.0015   0.0014   0.0002  -3.00    4.6
2025/04/04 17:02:58.000   28.415259245  -16.528655933   127.0980   1   7   0.0022   0.0021   0.0107   0.0015   0.0014   0.0003  -2.00  117.5
2025/04/04 17:02:59.000   28.415259246  -16.528655933   127.0980   1   7   0.0022   0.0021   0.0107   0.0015   0.0014   0.0003  -1.00  118.1
2025/04/04 17:03:00.000   28.415259248  -16.528655937   127.0911   1   7   0.0022   0.0021   0.0105   0.0015   0.0012   0.0004   0.00   15.5
2025/04/04 17:03:01.000   28.415259249  -16.528655937   127.0915   1   7   0.0022   0.0021   0.0105   0.0015   0.0012   0.0004   1.00   15.1
2025/04/04 17:03:02.000   28.415259250  -16.528655936   127.0918   1   7   0.0022   0.0021   0.0105   0.0015   0.0012   0.0004   2.00   14.8
2025/04/04 17:03:03.000   28.415259250  -16.528655935   127.0923   1   7   0.0022   0.0021   0.0106   0.0015   0.0013   0.0003   3.00   14.4
2025/04/04 17:03:04.000   28.415259251  -16.528655934   127.0927   1   7   0.0022   0.0021   0.0106   0.0015   0.0013   0.0003   4.00   14.0
2025/04/04 17:03:05.000   28.415259251  -16.528655934   127.0931   1   7   0.0022   0.0021   0.0106   0.0015   0.0013   0.0003   5.00   13.6
2025/04/04 17:03:06.000   28.415259251  -16.528655933   127.0935   1   7   0.0022   0.0021   0.0106   0.0015   0.0013   0.0003   6.00   13.2
2025/04/04 17:03:07.000   28.415259251  -16.528655933   127.0938   1   7   0.0022   0.0021   0.0106   0.0015   0.0013   0.0003   7.00   12.9
2025/04/04 17:03:08.000   28.415259251  -16.528655932   127.0941   1   7   0.0022   0.0021   0.0106   0.0015   0.0013   0.0003   8.00   12.5
2025/04/04 17:03:09.000   28.415259252  -16.528655932   127.0944   1   7   0.0022   0.0021   0.0106   0.0015   0.0013   0.0003   9.00   12.1
2025/04/04 17:03:10.000   28.415259252  -16.528655932   127.0946   1   7   0.0022   0.0021   0.0106   0.0015   0.0013   0.0002  10.00   11.8
2025/04/04 17:03:11.000   28.415259251  -16.528655931   127.0949   1   7   0.0022   0.0021   0.0106   0.0015   0.0013   0.0002  11.00   11.5
2025/04/04 17:03:12.000   28.415259251  -16.528655931   127.0951   1   7   0.0022   0.0021   0.0106   0.0015   0.0013   0.0002  12.00   11.2
2025/04/04 17:03:13.000   28.415259251  -16.528655931   127.0952   1   7   0.0022   0.0021   0.0107   0.0015   0.0013   0.0002  13.00   10.9
2025/04/04 17:03:14.000   28.415259251  -16.528655931   127.0954   1   7   0.0022   0.0021   0.0107   0.0015   0.0013   0.0002  14.00   10.6
2025/04/04 17:03:15.000   28.415259251  -16.528655931   127.0955   1   7   0.0022   0.0021   0.0107   0.0015   0.0013   0.0002  15.00   10.4
2025/04/04 17:03:16.000   28.415259251  -16.528655931   127.0957   1   7   0.0022   0.0021   0.0106   0.0015   0.0013   0.0002 -14.00   10.1
2025/04/04 17:03:17.000   28.415259251  -16.528655931   127.0958   1   7   0.0022   0.0021   0.0106   0.0015   0.0013   0.0002 -13.00    9.8
2025/04/04 17:03:18.000   28.415259251  -16.528655930   127.0960   1   7   0.0022   0.0021   0.0106   0.0015   0.0013   0.0002 -12.00    9.5
2025/04/04 17:03:19.000   28.415259251  -16.528655930   127.0962   1   7   0.0022   0.0021   0.0107   0.0015   0.0013   0.0002 -11.00    9.2
2025/04/04 17:03:20.000   28.415259251  -16.528655930   127.0964   1   7   0.0022   0.0021   0.0107   0.0015   0.0013   0.0002 -10.00    8.9
2025/04/04 17:03:21.000   28.415259251  -16.528655930   127.0966   1   7   0.0022   0.0021   0.0107   0.0015   0.0013   0.0002  -9.00    8.5
2025/04/04 17:03:22.000   28.415259251  -16.528655930   127.0969   1   7   0.0022   0.0021   0.0107   0.0015   0.0013   0.0002  -8.00    8.1
2025/04/04 17:03:23.000   28.415259251  -16.528655929   127.0972   1   7   0.0022   0.0021   0.0107   0.0015   0.0014   0.0002  -7.00    7.6
2025/04/04 17:03:24.000   28.415259251  -16.528655929   127.0976   1   7   0.0022   0.0021   0.0107   0.0015   0.0014   0.0002  -6.00    7.1
2025/04/04 17:03:25.000   28.415259251  -16.528655928   127.0981   1   7   0.0022   0.0021   0.0107   0.0015   0.0014   0.0001  -5.00    6.4
2025/04/04 17:03:26.000   28.415259249  -16.528655927   127.1007   1   7   0.0022   0.0021   0.0107   0.0015   0.0014  -0.0002  -4.00    6.0
2025/04/04 17:03:27.000   28.415259249  -16.528655927   127.1008   1   7   0.0022   0.0021   0.0107   0.0015   0.0014  -0.0002  -3.00    5.0
2025/04/04 17:03:28.000   28.415259249  -16.528655926   127.1010   1   7   0.0022   0.0021   0.0108   0.0015   0.0014  -0.0001  -2.00  122.0
2025/04/04 17:03:29.000   28.415259250  -16.528655925   127.1012   1   7   0.0022   0.0021   0.0108   0.0015   0.0014  -0.0001  -1.00  122.6
2025/04/04 17:03:30.000   28.415259253  -16.528655932   127.0921   1   7   0.0022   0.0021   0.0106   0.0015   0.0013   0.0003   0.00   15.2
2025/04/04 17:03:31.000   28.415259253  -16.528655931   127.0927   1   7   0.0022   0.0021   0.0106   0.0015   0.0013   0.0003   1.00   15.0
2025/04/04 17:03:32.000   28.415259253  -16.528655929   127.0933   1   7   0.0022   0.0021   0.0106   0.0015   0.0013   0.0002   2.00   14.8
2025/04/04 17:03:33.000   28.415259253  -16.528655929   127.0938   1   7   0.0022   0.0021   0.0106   0.0015   0.0013   0.0002   3.00   14.6
2025/04/04 17:03:34.000   28.415259253  -16.528655928   127.0944   1   7   0.0022   0.0021   0.0106   0.0015   0.0013   0.0001   4.00   14.3
2025/04/04 17:03:35.000   28.415259253  -16.528655927   127.0949   1   7   0.0022   0.0021   0.0107   0.0015   0.0013   0.0001   5.00   14.1
2025/04/04 17:03:36.000   28.415259254  -16.528655926   127.0954   1   7   0.0022   0.0021   0.0107   0.0015   0.0013  -0.0001   6.00   13.8
2025/04/04 17:03:37.000   28.415259254  -16.528655926   127.0959   1   7   0.0022   0.0021   0.0107   0.0015   0.0013  -0.0001   7.00   13.6
2025/04/04 17:03:38.000   28.415259254  -16.528655925   127.0963   1   7   0.0022   0.0021   0.0107   0.0015   0.0013  -0.0001   8.00   13.3
2025/04/04 17:03:39.000   28.415259254  -16.528655925   127.0966   1   7   0.0022   0.0021   0.0107   0.0015   0.0013  -0.0001   9.00   13.1
2025/04/04 17:03:40.000   28.415259254  -16.528655925   127.0969   1   7   0.0022   0.0021   0.0107   0.0015   0.0013  -0.0002  10.00   12.8
2025/04/04 17:03:41.000   28.415259253  -16.528655924   127.0972   1   7   0.0022   0.0021   0.0107   0.0015   0.0013  -0.0002  11.00   12.5
2025/04/04 17:03:42.000   28.415259253  -16.528655924   127.0975   1   7   0.0022   0.0021   0.0107   0.0015   0.0013  -0.0002  12.00   12.2
2025/04/04 17:03:43.000   28.415259253  -16.528655924   127.0977   1   7   0.0022   0.0021   0.0107   0.0015   0.0013  -0.0002  13.00   12.0
2025/04/04 17:03:44.000   28.415259253  -16.528655924   127.0980   1   7   0.0022   0.0021   0.0107   0.0015   0.0013  -0.0002  14.00   11.7
2025/04/04 17:03:45.000   28.415259253  -16.528655923   127.0981   1   7   0.0022   0.0021   0.0107   0.0015   0.0013  -0.0002  15.00   11.4
2025/04/04 17:03:46.000   28.415259253  -16.528655923   127.0983   1   7   0.0022   0.0021   0.0107   0.0015   0.0014  -0.0002 -14.00   11.2
2025/04/04 17:03:47.000   28.415259253  -16.528655923   127.0985   1   7   0.0022   0.0021   0.0107   0.0015   0.0014  -0.0002 -13.00   10.9
2025/04/04 17:03:48.000   28.415259253  -16.528655923   127.0987   1   7   0.0022   0.0021   0.0107   0.0015   0.0014  -0.0002 -12.00   10.6
2025/04/04 17:03:49.000   28.415259253  -16.528655923   127.0990   1   7   0.0022   0.0021   0.0107   0.0015   0.0014  -0.0002 -11.00   10.3
2025/04/04 17:03:50.000   28.415259252  -16.528655923   127.0993   1   7   0.0022   0.0021   0.0107   0.0015   0.0014  -0.0002 -10.00    9.9
2025/04/04 17:03:51.000   28.415259252  -16.528655922   127.0996   1   7   0.0022   0.0021   0.0107   0.0015   0.0014  -0.0002  -9.00    9.5
2025/04/04 17:03:52.000   28.415259252  -16.528655922   127.0999   1   7   0.0022   0.0021   0.0107   0.0015   0.0014  -0.0002  -8.00    9.0
2025/04/04 17:03:53.000   28.415259252  -16.528655921   127.1003   1   7   0.0022   0.0021   0.0107   0.0015   0.0014  -0.0003  -7.00    8.4
2025/04/04 17:03:54.000   28.415259252  -16.528655921   127.1008   1   7   0.0022   0.0021   0.0107   0.0015   0.0014  -0.0003  -6.00    7.7
2025/04/04 17:03:55.000   28.415259252  -16.528655920   127.1013   1   7   0.0022   0.0021   0.0108   0.0015   0.0014  -0.0003  -5.00    7.0
2025/04/04 17:03:56.000   28.415259250  -16.528655919   127.1037   1   7   0.0022   0.0021   0.0108   0.0015   0.0014  -0.0004  -4.00    6.3
2025/04/04 17:03:57.000   28.415259250  -16.528655918   127.1040   1   7   0.0022   0.0021   0.0108   0.0015   0.0014  -0.0004  -3.00    5.3
2025/04/04 17:03:58.000   28.415259251  -16.528655917   127.1046   1   7   0.0022   0.0021   0.0109   0.0015   0.0015  -0.0003  -2.00  127.8
2025/04/04 17:03:59.000   28.415259251  -16.528655917   127.1049   1   7   0.0022   0.0021   0.0109   0.0015   0.0015  -0.0003  -1.00  127.6
2025/04/04 17:04:00.000   28.415259254  -16.528655922   127.0966   1   7   0.0022   0.0021   0.0106   0.0015   0.0013   0.0001   0.00   17.4
2025/04/04 17:04:01.000   28.415259253  -16.528655922   127.0973   1   7   0.0022   0.0021   0.0106   0.0015   0.0013  -0.0001   1.00   17.1
2025/04/04 17:04:02.000   28.415259254  -16.528655921   127.0978   1   7   0.0022   0.0021   0.0107   0.0015   0.0013  -0.0002   2.00   16.7
2025/04/04 17:04:03.000   28.415259253  -16.528655920   127.0984   1   7   0.0022   0.0021   0.0107   0.0015   0.0013  -0.0002   3.00   16.4
2025/04/04 17:04:04.000   28.415259253  -16.528655919   127.0990   1   7   0.0022   0.0021   0.0107   0.0015   0.0013  -0.0002   4.00   16.0
2025/04/04 17:04:05.000   28.415259253  -16.528655918   127.0994   1   7   0.0022   0.0021   0.0107   0.0015   0.0013  -0.0003   5.00   15.6
2025/04/04 17:04:06.000   28.415259253  -16.528655918   127.0999   1   7   0.0022   0.0021   0.0107   0.0015   0.0013  -0.0003   6.00   15.2
2025/04/04 17:04:07.000   28.415259253  -16.528655917   127.1002   1   7   0.0022   0.0021   0.0107   0.0015   0.0013  -0.0003   7.00   14.9
2025/04/04 17:04:08.000   28.415259253  -16.528655917   127.1006   1   7   0.0022   0.0021   0.0108   0.0015   0.0013  -0.0003   8.00   14.5
2025/04/04 17:04:09.000   28.415259252  -16.528655917   127.1009   1   7   0.0022   0.0021   0.0108   0.0015   0.0014  -0.0003   9.00   14.1
2025/04/04 17:04:10.000   28.415259252  -16.528655916   127.1011   1   7   0.0022   0.0021   0.0108   0.0015   0.0014  -0.0003  10.00   13.8
2025/04/04 17:04:11.000   28.415259252  -16.528655916   127.1013   1   7   0.0022   0.0021   0.0108   0.0015   0.0014  -0.0003  11.00   13.5
2025/04/04 17:04:12.000   28.415259252  -16.528655916   127.1016   1   7   0.0022   0.0021   0.0108   0.0015   0.0014  -0.0003  12.00   13.1
2025/04/04 17:04:13.000   28.415259252  -16.528655916   127.1018   1   7   0.0022   0.0021   0.0108   0.0015   0.0014  -0.0003  13.00   12.8
2025/04/04 17:04:14.000   28.415259252  -16.528655915   127.1020   1   7   0.0022   0.0021   0.0108   0.0015   0.0014  -0.0004  14.00   12.5
2025/04/04 17:04:15.000   28.415259251  -16.528655915   127.1022   1   7   0.0022   0.0021   0.0108   0.0015   0.0014  -0.0004  15.00   12.2
2025/04/04 17:04:16.000   28.415259251  -16.528655915   127.1024   1   7   0.0022   0.0021   0.0108   0.0015   0.0014  -0.0004 -14.00   11.9
2025/04/04 17:04:17.000   28.415259251  -16.528655915   127.1026   1   7   0.0022   0.0021   0.0108   0.0015   0.0014  -0.0004 -13.00   11.6
2025/04/04 17:04:18.000   28.415259251  -16.528655915   127.1028   1   7   0.0022   0.0021   0.0108   0.0015   0.0014  -0.0004 -12.00   11.2
2025/04/04 17:04:19.000   28.415259251  -16.528655914   127.1030   1   7   0.0022   0.0021   0.0108   0.0015   0.0014  -0.0004 -11.00   10.8
2025/04/04 17:04:20.000   28.415259251  -16.528655914   127.1033   1   7   0.0022   0.0021   0.0108   0.0015   0.0014  -0.0004 -10.00   10.3
2025/04/04 17:04:21.000   28.415259251  -16.528655914   127.1036   1   7   0.0022   0.0021   0.0108   0.0015   0.0014  -0.0004  -9.00    9.8
2025/04/04 17:04:22.000   28.415259250  -16.528655913   127.1040   1   7   0.0022   0.0021   0.0108   0.0015   0.0014  -0.0004  -8.00    9.3
2025/04/04 17:04:23.000   28.415259250  -16.528655913   127.1044   1   7   0.0022   0.0021   0.0108   0.0015   0.0014  -0.0004  -7.00    8.7
2025/04/04 17:04:24.000   28.415259250  -16.528655912   127.1048   1   7   0.0022   0.0021   0.0108   0.0015   0.0014  -0.0004  -6.00    7.9
2025/04/04 17:04:25.000   28.415259250  -16.528655912   127.1053   1   7   0.0022   0.0021   0.0108   0.0015   0.0014  -0.0004  -5.00    7.2
2025/04/04 17:04:26.000   28.415259248  -16.528655910   127.1076   1   7   0.0022   0.0021   0.0109   0.0015   0.0015  -0.0005  -4.00    6.4
2025/04/04 17:04:27.000   28.415259248  -16.528655909   127.1080   1   7   0.0022   0.0021   0.0109   0.0015   0.0015  -0.0005  -3.00    5.4
2025/04/04 17:04:28.000   28.415259248  -16.528655908   127.1086   1   7   0.0022   0.0021   0.0109   0.0015   0.0015  -0.0004  -2.00  128.3
2025/04/04 17:04:29.000   28.415259248  -16.528655908   127.1088   1   7   0.0022   0.0021   0.0109   0.0015   0.0015  -0.0005  -1.00  128.5
2025/04/04 17:04:30.000   28.415259251  -16.528655914   127.0999   1   7   0.0022   0.0021   0.0107   0.0015   0.0013  -0.0002   0.00   18.0
2025/04/04 17:04:31.000   28.415259250  -16.528655912   127.1006   1   7   0.0022   0.0021   0.0107   0.0015   0.0013  -0.0003   1.00   17.7
2025/04/04 17:04:32.000   28.415259250  -16.528655911   127.1012   1   7   0.0022   0.0021   0.0107   0.0015   0.0013  -0.0003   2.00   17.4
2025/04/04 17:04:33.000   28.415259250  -16.528655910   127.1018   1   7   0.0022   0.0021   0.0107   0.0015   0.0013  -0.0003   3.00   17.1
2025/04/04 17:04:34.000   28.415259250  -16.528655909   127.1023   1   7   0.0022   0.0021   0.0108   0.0015   0.0014  -0.0004   4.00   16.7
2025/04/04 17:04:35.000   28.415259250  -16.528655908   127.1028   1   7   0.0022   0.0021   0.0108   0.0015   0.0014  -0.0004   5.00   16.4
2025/04/04 17:04:36.000   28.415259249  -16.528655908   127.1034   1   7   0.0022   0.0021   0.0108   0.0015   0.0014  -0.0004   6.00   16.0
2025/04/04 17:04:37.000   28.415259249  -16.528655907   127.1038   1   7   0.0022   0.0021   0.0108   0.0015   0.0014  -0.0004   7.00   15.7
2025/04/04 17:04:38.000   28.415259249  -16.528655906   127.1042   1   7   0.0022   0.0021   0.0108   0.0015   0.0014  -0.0004   8.00   15.3
2025/04/04 17:04:39.000   28.415259249  -16.528655906   127.1046   1   7   0.0022   0.0021   0.0108   0.0015   0.0014  -0.0004   9.00   15.0
2025/04/04 17:04:40.000   28.415259249  -16.528655906   127.1049   1   7   0.0022   0.0021   0.0108   0.0015   0.0014  -0.0004  10.00   14.6
2025/04/04 17:04:41.000   28.415259249  -16.528655905   127.1053   1   7   0.0022   0.0021   0.0108   0.0015   0.0014  -0.0004  11.00   14.3
2025/04/04 17:04:42.000   28.415259248  -16.528655905   127.1056   1   7   0.0022   0.0021   0.0108   0.0015   0.0014  -0.0004  12.00   14.0
2025/04/04 17:04:43.000   28.415259248  -16.528655905   127.1058   1   7   0.0022   0.0021   0.0108   0.0015   0.0014  -0.0004  13.00   13.6
2025/04/04 17:04:44.000   28.415259248  -16.528655905   127.1061   1   7   0.0022   0.0021   0.0108   0.0015   0.0014  -0.0005  14.00   13.4
2025/04/04 17:04:45.000   28.415259248  -16.528655904   127.1064   1   7   0.0022   0.0021   0.0108   0.0015   0.0014  -0.0005  15.00   13.1
2025/04/04 17:04:46.000   28.415259248  -16.528655904   127.1066   1   7   0.0022   0.0021   0.0108   0.0015   0.0014  -0.0005 -14.00   12.8
2025/04/04 17:04:47.000   28.415259248  -16.528655904   127.1069   1   7   0.0022   0.0021   0.0108   0.0015   0.0014  -0.0005 -13.00   12.5
2025/04/04 17:04:48.000   28.415259248  -16.528655904   127.1071   1   7   0.0022   0.0021   0.0108   0.0015   0.0014  -0.0005 -12.00   12.1
2025/04/04 17:04:49.000   28.415259247  -16.528655903   127.1074   1   7   0.0022   0.0021   0.0108   0.0015   0.0014  -0.0005 -11.00   11.7
2025/04/04 17:04:50.000   28.415259247  -16.528655903   127.1077   1   7   0.0022   0.0021   0.0108   0.0015   0.0014  -0.0005 -10.00   11.2
2025/04/04 17:04:51.000   28.415259247  -16.528655903   127.1080   1   7   0.0022   0.0021   0.0108   0.0015   0.0014  -0.0005  -9.00   10.7
2025/04/04 17:04:52.000   28.415259247  -16.528655902   127.1084   1   7   0.0022   0.0021   0.0109   0.0015   0.0014  -0.0005  -8.00   10.1
2025/04/04 17:04:53.000   28.415259247  -16.528655902   127.1088   1   7   0.0022   0.0021   0.0109   0.0015   0.0015  -0.0005  -7.00    9.4
2025/04/04 17:04:54.000   28.415259247  -16.528655901   127.1092   1   7   0.0022   0.0021   0.0109   0.0015   0.0015  -0.0005  -6.00    8.7
2025/04/04 17:04:55.000   28.415259247  -16.528655901   127.1097   1   7   0.0022   0.0021   0.0109   0.0015   0.0015  -0.0005  -5.00    7.8
2025/04/04 17:04:56.000   28.415259245  -16.528655900   127.1118   1   7   0.0022   0.0021   0.0109   0.0015   0.0015  -0.0006  -4.00    6.9
2025/04/04 17:04:57.000   28.415259245  -16.528655899   127.1120   1   7   0.0022   0.0021   0.0109   0.0015   0.0015  -0.0006  -3.00    5.8
2025/04/04 17:04:58.000   28.415259245  -16.528655898   127.1125   1   7   0.0022   0.0021   0.0110   0.0015   0.0015  -0.0005  -2.00  130.3
2025/04/04 17:04:59.000   28.415259245  -16.528655898   127.1124   1   7   0.0022   0.0021   0.0110   0.0015   0.0015  -0.0005  -1.00  130.6
2025/04/04 17:05:00.000   28.415259249  -16.528655905   127.1026   1   7   0.0022   0.0021   0.0107   0.0015   0.0014  -0.0003   0.00   17.9
2025/04/04 17:05:01.000   28.415259249  -16.528655904   127.1032   1   7   0.0022   0.0021   0.0108   0.0015   0.0014  -0.0004   1.00   17.6
2025/04/04 17:05:02.000   28.415259249  -16.528655903   127.1037   1   7   0.0022   0.0021   0.0108   0.0015   0.0014  -0.0004   2.00   17.1
2025/04/04 17:05:03.000   28.415259249  -16.528655902   127.1042   1   7   0.0022   0.0021   0.0108   0.0015   0.0014  -0.0004   3.00   16.6
2025/04/04 17:05:04.000   28.415259250  -16.528655902   127.1048   1   7   0.0022   0.0021   0.0108   0.0015   0.0014  -0.0005   4.00   16.2
2025/04/04 17:05:05.000   28.415259249  -16.528655901   127.1053   1   7   0.0022   0.0021   0.0108   0.0015   0.0014  -0.0005   5.00   15.7
2025/04/04 17:05:06.000   28.415259249  -16.528655901   127.1057   1   7   0.0022   0.0021   0.0109   0.0015   0.0014  -0.0005   6.00   15.3
2025/04/04 17:05:07.000   28.415259249  -16.528655900   127.1061   1   7   0.0022   0.0021   0.0109   0.0015   0.0014  -0.0005   7.00   14.9
2025/04/04 17:05:08.000   28.415259249  -16.528655900   127.1064   1   7   0.0022   0.0021   0.0109   0.0015   0.0014  -0.0005   8.00   14.5
2025/04/04 17:05:09.000   28.415259249  -16.528655899   127.1068   1   7   0.0022   0.0021   0.0109   0.0015   0.0014  -0.0005   9.00   14.1
2025/04/04 17:05:10.000   28.415259249  -16.528655899   127.1070   1   7   0.0022   0.0021   0.0109   0.0015   0.0014  -0.0005  10.00   13.8
2025/04/04 17:05:11.000   28.415259249  -16.528655899   127.1073   1   7   0.0022   0.0021   0.0109   0.0015   0.0014  -0.0005  11.00   13.4
2025/04/04 17:05:12.000   28.415259249  -16.528655899   127.1075   1   7   0.0022   0.0021   0.0109   0.0015   0.0014  -0.0005  12.00   13.1
2025/04/04 17:05:13.000   28.415259249  -16.528655898   127.1078   1   7   0.0022   0.0021   0.0109   0.0015   0.0014  -0.0005  13.00   12.8
2025/04/04 17:05:14.000   28.415259249  -16.528655898   127.1080   1   7   0.0022   0.0021   0.0109   0.0015   0.0014  -0.0005  14.00   12.5
2025/04/04 17:05:15.000   28.415259248  -16.528655898   127.1082   1   7   0.0022   0.0021   0.0109   0.0015   0.0014  -0.0005  15.00   12.2
2025/04/04 17:05:16.000   28.415259248  -16.528655898   127.1084   1   7   0.0022   0.0021   0.0109   0.0015   0.0014  -0.0005 -14.00   12.0
2025/04/04 17:05:17.000   28.415259248  -16.528655898   127.1087   1   7   0.0022   0.0021   0.0109   0.0015   0.0015  -0.0005 -13.00   11.7
2025/04/04 17:05:18.000   28.415259248  -16.528655897   127.1089   1   7   0.0022   0.0021   0.0109   0.0015   0.0015  -0.0005 -12.00   11.4
2025/04/04 17:05:19.000   28.415259248  -16.528655897   127.1093   1   7   0.0022   0.0021   0.0109   0.0015   0.0015  -0.0005 -11.00   11.0
2025/04/04 17:05:20.000   28.415259248  -16.528655897   127.1096   1   7   0.0022   0.0021   0.0109   0.0015   0.0015  -0.0005 -10.00   10.6
2025/04/04 17:05:21.000   28.415259247  -16.528655897   127.1099   1   7   0.0022   0.0021   0.0109   0.0015   0.0015  -0.0005  -9.00   10.0
2025/04/04 17:05:22.000   28.415259247  -16.528655896   127.1103   1   7   0.0022   0.0021   0.0109   0.0015   0.0015  -0.0006  -8.00    9.5
2025/04/04 17:05:23.000   28.415259247  -16.528655896   127.1108   1   7   0.0022   0.0021   0.0109   0.0015   0.0015  -0.0006  -7.00    8.9
2025/04/04 17:05:24.000   28.415259247  -16.528655895   127.1114   1   7   0.0022   0.0021   0.0109   0.0015   0.0015  -0.0006  -6.00    8.3
2025/04/04 17:05:25.000   28.415259247  -16.528655895   127.1120   1   7   0.0022   0.0021   0.0109   0.0015   0.0015  -0.0006  -5.00    7.5
2025/04/04 17:05:26.000   28.415259244  -16.528655893   127.1149   1   7   0.0022   0.0021   0.0110   0.0015   0.0015  -0.0006  -4.00    7.1
2025/04/04 17:05:27.000   28.415259244  -16.528655893   127.1150   1   7   0.0022   0.0021   0.0110   0.0015   0.0015  -0.0006  -3.00    5.9
2025/04/04 17:05:28.000   28.415259245  -16.528655892   127.1158   1   7   0.0022   0.0021   0.0111   0.0015   0.0016  -0.0006  -2.00  135.3
2025/04/04 17:05:29.000   28.415259245  -16.528655891   127.1159   1   7   0.0022   0.0021   0.0111   0.0015   0.0016  -0.0006  -1.00  135.6
2025/04/04 17:05:30.000   28.415259249  -16.528655901   127.1031   1   7   0.0022   0.0021   0.0108   0.0015   0.0014  -0.0004   0.00   17.1
2025/04/04 17:05:31.000   28.415259249  -16.528655900   127.1037   1   7   0.0022   0.0021   0.0108   0.0015   0.0014  -0.0004   1.00   16.9
2025/04/04 17:05:32.000   28.415259249  -16.528655899   127.1043   1   7   0.0022   0.0021   0.0108   0.0015   0.0014  -0.0005   2.00   16.7
2025/04/04 17:05:33.000   28.415259248  -16.528655898   127.1049   1   7   0.0022   0.0021   0.0109   0.0015   0.0014  -0.0005   3.00   16.5
2025/04/04 17:05:34.000   28.415259248  -16.528655898   127.1056   1   7   0.0022   0.0021   0.0109   0.0015   0.0014  -0.0005   4.00   16.3
2025/04/04 17:05:35.000   28.415259248  -16.528655897   127.1063   1   7   0.0022   0.0021   0.0109   0.0015   0.0014  -0.0005   5.00   16.2
2025/04/04 17:05:36.000   28.415259247  -16.528655896   127.1069   1   7   0.0022   0.0021   0.0109   0.0015   0.0014  -0.0005   6.00   16.0
2025/04/04 17:05:37.000   28.415259247  -16.528655896   127.1074   1   7   0.0022   0.0021   0.0109   0.0015   0.0014  -0.0005   7.00   15.9
2025/04/04 17:05:38.000   28.415259247  -16.528655895   127.1079   1   7   0.0022   0.0021   0.0109   0.0015   0.0014  -0.0006   8.00   15.7
2025/04/04 17:05:39.000   28.415259247  -16.528655894   127.1084   1   7   0.0022   0.0021   0.0109   0.0015   0.0014  -0.0006   9.00   15.4
2025/04/04 17:05:40.000   28.415259246  -16.528655894   127.1089   1   7   0.0022   0.0021   0.0110   0.0015   0.0015  -0.0006  10.00   15.1
2025/04/04 17:05:41.000   28.415259246  -16.528655894   127.1093   1   7   0.0022   0.0021   0.0110   0.0015   0.0015  -0.0006  11.00   14.8
2025/04/04 17:05:42.000   28.415259246  -16.528655893   127.1096   1   7   0.0022   0.0021   0.0110   0.0015   0.0015  -0.0006  12.00   14.5
2025/04/04 17:05:43.000   28.415259246  -16.528655893   127.1100   1   7   0.0022   0.0021   0.0110   0.0015   0.0015  -0.0006  13.00   14.2
2025/04/04 17:05:44.000   28.415259246  -16.528655893   127.1103   1   7   0.0022   0.0021   0.0110   0.0015   0.0015  -0.0006  14.00   13.9
2025/04/04 17:05:45.000   28.415259245  -16.528655892   127.1105   1   7   0.0022   0.0021   0.0110   0.0015   0.0015  -0.0006  15.00   13.6
2025/04/04 17:05:46.000   28.415259245  -16.528655892   127.1107   1   7   0.0022   0.0021   0.0110   0.0015   0.0015  -0.0006 -14.00   13.3
2025/04/04 17:05:47.000   28.415259245  -16.528655892   127.1110   1   7   0.0022   0.0021   0.0110   0.0015   0.0015  -0.0006 -13.00   13.0
2025/04/04 17:05:48.000   28.415259245  -16.528655892   127.1112   1   7   0.0022   0.0021   0.0110   0.0015   0.0015  -0.0006 -12.00   12.7
2025/04/04 17:05:49.000   28.415259245  -16.528655892   127.1115   1   7   0.0022   0.0021   0.0110   0.0015   0.0015  -0.0006 -11.00   12.3
2025/04/04 17:05:50.000   28.415259244  -16.528655891   127.1118   1   7   0.0022   0.0021   0.0110   0.0015   0.0015  -0.0006 -10.00   11.8
2025/04/04 17:05:51.000   28.415259244  -16.528655891   127.1122   1   7   0.0022   0.0021   0.0110   0.0015   0.0015  -0.0006  -9.00   11.4
2025/04/04 17:05:52.000   28.415259244  -16.528655891   127.1125   1   7   0.0022   0.0021   0.0110   0.0015   0.0015  -0.0006  -8.00   10.9
2025/04/04 17:05:53.000   28.415259243  -16.528655890   127.1129   1   7   0.0022   0.0021   0.0110   0.0015   0.0015  -0.0006  -7.00   10.2
2025/04/04 17:05:54.000   28.415259243  -16.528655890   127.1134   1   7   0.0022   0.0021   0.0110   0.0015   0.0015  -0.0006  -6.00    9.5
2025/04/04 17:05:55.000   28.415259242  -16.528655889   127.1139   1   7   0.0022   0.0021   0.0110   0.0015   0.0015  -0.0006  -5.00    8.6
2025/04/04 17:05:56.000   28.415259241  -16.528655888   127.1161   1   7   0.0022   0.0021   0.0111   0.0015   0.0016  -0.0007  -4.00    7.7
2025/04/04 17:05:57.000   28.415259240  -16.528655888   127.1162   1   7   0.0022   0.0021   0.0111   0.0015   0.0016  -0.0007  -3.00    6.4
2025/04/04 17:05:58.000   28.415259240  -16.528655887   127.1172   1   7   0.0022   0.0021   0.0111   0.0015   0.0016  -0.0007  -2.00  143.0
2025/04/04 17:05:59.000   28.415259240  -16.528655886   127.1173   1   7   0.0022   0.0021   0.0111   0.0015   0.0016  -0.0007  -1.00  143.6
2025/04/04 17:06:00.000   28.415259243  -16.528655893   127.1084   1   7   0.0022   0.0021   0.0108   0.0015   0.0014  -0.0005   0.00   23.4
2025/04/04 17:06:01.000   28.415259243  -16.528655891   127.1092   1   7   0.0022   0.0021   0.0109   0.0015   0.0014  -0.0005   1.00   23.2
2025/04/04 17:06:02.000   28.415259243  -16.528655890   127.1098   1   7   0.0022   0.0021   0.0109   0.0015   0.0014  -0.0005   2.00   22.9
2025/04/04 17:06:03.000   28.415259243  -16.528655889   127.1105   1   7   0.0022   0.0021   0.0109   0.0015   0.0014  -0.0006   3.00   22.6
2025/04/04 17:06:04.000   28.415259242  -16.528655888   127.1112   1   7   0.0022   0.0021   0.0109   0.0015   0.0014  -0.0006   4.00   22.2
2025/04/04 17:06:05.000   28.415259242  -16.528655888   127.1117   1   7   0.0022   0.0021   0.0110   0.0015   0.0015  -0.0006   5.00   21.8
2025/04/04 17:06:06.000   28.415259242  -16.528655887   127.1122   1   7   0.0022   0.0021   0.0110   0.0015   0.0015  -0.0006   6.00   21.3
2025/04/04 17:06:07.000   28.415259242  -16.528655887   127.1126   1   7   0.0022   0.0021   0.0110   0.0015   0.0015  -0.0006   7.00   20.9
2025/04/04 17:06:08.000   28.415259242  -16.528655886   127.1131   1   7   0.0022   0.0021   0.0110   0.0015   0.0015  -0.0006   8.00   20.4
2025/04/04 17:06:09.000   28.415259241  -16.528655886   127.1135   1   7   0.0022   0.0021   0.0110   0.0015   0.0015  -0.0006   9.00   20.0
2025/04/04 17:06:10.000   28.415259241  -16.528655885   127.1138   1   7   0.0022   0.0021   0.0110   0.0015   0.0015  -0.0006  10.00   19.6
2025/04/04 17:06:11.000   28.415259241  -16.528655885   127.1141   1   7   0.0022   0.0021   0.0110   0.0015   0.0015  -0.0006  11.00   19.2
2025/04/04 17:06:12.000   28.415259241  -16.528655885   127.1144   1   7   0.0022   0.0021   0.0110   0.0015   0.0015  -0.0006  12.00   18.7
2025/04/04 17:06:13.000   28.415259241  -16.528655885   127.1146   1   7   0.0022   0.0021   0.0110   0.0015   0.0015  -0.0006  13.00   18.2
2025/04/04 17:06:14.000   28.415259241  -16.528655884   127.1149   1   7   0.0022   0.0021   0.0110   0.0015   0.0015  -0.0006  14.00   17.8
2025/04/04 17:06:15.000   28.415259240  -16.528655884   127.1152   1   7   0.0022   0.0021   0.0110   0.0015   0.0015  -0.0006  15.00   17.3
2025/04/04 17:06:16.000   28.415259240  -16.528655884   127.1154   1   7   0.0022   0.0021   0.0110   0.0015   0.0015  -0.0006 -14.00   16.9
2025/04/04 17:06:17.000   28.415259240  -16.528655884   127.1156   1   7   0.0022   0.0021   0.0110   0.0015   0.0015  -0.0006 -13.00   16.4
2025/04/04 17:06:18.000   28.415259240  -16.528655884   127.1159   1   7   0.0022   0.0021   0.0110   0.0015   0.0015  -0.0007 -12.00   16.0
2025/04/04 17:06:19.000   28.415259240  -16.528655883   127.1161   1   7   0.0022   0.0021   0.0110   0.0015   0.0015  -0.0007 -11.00   15.4
2025/04/04 17:06:20.000   28.415259240  -16.528655883   127.1164   1   7   0.0022   0.0021   0.0110   0.0015   0.0015  -0.0007 -10.00   14.8
2025/04/04 17:06:21.000   28.415259239  -16.528655883   127.1167   1   7   0.0022   0.0021   0.0110   0.0015   0.0015  -0.0007  -9.00   14.1
