% program   : RTKPOST-EX 2.5.0
% inp file  : C:\Users\SallyHenry\Desktop\Sally Internship\GNSS gravi\DATA\Survey Rover Obs\ORO07.25o
% inp file  : C:\Users\SallyHenry\Desktop\Sally Internship\GNSS gravi\DATA\BaseStations\TN02\TN0200ESP_R_20250940000_01D_30S_MO.rnx
% inp file  : C:\Users\SallyHenry\Desktop\Sally Internship\GNSS gravi\DATA\BaseStations\TN02\TN0200ESP_R_20250940000_01D_MN.rnx
% inp file  : C:\Users\SallyHenry\Desktop\Sally Internship\GNSS gravi\DATA\aux_files\Survey\IGS0OPSFIN_20250940000_01D_15M_ORB.SP3
% inp file  : C:\Users\SallyHenry\Desktop\Sally Internship\GNSS gravi\DATA\aux_files\Survey\IGS0OPSFIN_20250940000_01D_30S_CLK.CLK
% obs start : 2025/04/04 16:37:11.0 GPST (week2360 491831.0s)
% obs end   : 2025/04/04 16:52:41.0 GPST (week2360 492761.0s)
% pos mode  : Static
% freqs     : L1+L2/E5b
% solution  : Combined-No Phase Reset
% elev mask : 15.0 deg
% dynamics  : on
% tidecorr  : solid
% ionos opt : Estimate TEC
% tropo opt : Estimate ZTD+Grad
% ephemeris : Precise
% navi sys  : GPS GLONASS Galileo QZSS BDS
% amb res   : Fix and Hold
% amb glo   : Fix and Hold
% amb bds   : on
% val thres : 3.0
% antenna1  :                       ( 0.0000  0.0000  1.8000)
% antenna2  :                       ( 0.0000  0.0000  0.0771)
% ref pos   :  28.418257450  -16.550784480    54.4145
%
% (lat/lon/height=WGS84/ellipsoidal,Q=1:fix,2:float,3:sbas,4:dgps,5:single,6:ppp,ns=# of satellites)
%  GPST                  latitude(deg) longitude(deg)  height(m)   Q  ns   sdn(m)   sde(m)   sdu(m)  sdne(m)  sdeu(m)  sdun(m) age(s)  ratio
2025/04/04 16:37:11.000   28.406020267  -16.531432400   214.1192   1   5   0.0024   0.0021   0.0122   0.0015  -0.0009   0.0034  11.00  132.1
2025/04/04 16:37:12.000   28.406020268  -16.531432400   214.1192   1   5   0.0024   0.0021   0.0122   0.0015  -0.0009   0.0034  12.00  128.1
2025/04/04 16:37:13.000   28.406020268  -16.531432400   214.1192   1   5   0.0024   0.0021   0.0122   0.0015  -0.0009   0.0034  13.00  124.4
2025/04/04 16:37:14.000   28.406020268  -16.531432400   214.1192   1   5   0.0024   0.0021   0.0122   0.0015  -0.0009   0.0034  14.00  121.0
2025/04/04 16:37:15.000   28.406020268  -16.531432400   214.1192   1   5   0.0024   0.0021   0.0122   0.0015  -0.0009   0.0034  15.00  117.4
2025/04/04 16:37:16.000   28.406020268  -16.531432400   214.1192   1   5   0.0024   0.0021   0.0122   0.0015  -0.0009   0.0034 -14.00  114.1
2025/04/04 16:37:17.000   28.406020268  -16.531432400   214.1192   1   5   0.0024   0.0021   0.0122   0.0015  -0.0009   0.0034 -13.00  110.7
2025/04/04 16:37:18.000   28.406020268  -16.531432400   214.1192   1   5   0.0024   0.0021   0.0122   0.0015  -0.0009   0.0034 -12.00  107.1
2025/04/04 16:37:19.000   28.406020268  -16.531432400   214.1192   1   5   0.0024   0.0021   0.0121   0.0015  -0.0009   0.0034 -11.00  102.9
2025/04/04 16:37:20.000   28.406020268  -16.531432400   214.1192   1   5   0.0024   0.0021   0.0121   0.0015  -0.0009   0.0034 -10.00   98.4
2025/04/04 16:37:21.000   28.406020268  -16.531432400   214.1192   1   5   0.0024   0.0021   0.0121   0.0015  -0.0009   0.0034  -9.00   93.1
2025/04/04 16:37:22.000   28.406020268  -16.531432400   214.1192   1   5   0.0024   0.0021   0.0121   0.0015  -0.0009   0.0034  -8.00   87.5
2025/04/04 16:37:23.000   28.406020268  -16.531432400   214.1191   1   5   0.0024   0.0021   0.0121   0.0015  -0.0009   0.0034  -7.00   81.4
2025/04/04 16:37:24.000   28.406020268  -16.531432400   214.1191   1   5   0.0024   0.0021   0.0121   0.0015  -0.0009   0.0033  -6.00   73.9
2025/04/04 16:37:25.000   28.406020268  -16.531432399   214.1190   1   5   0.0024   0.0021   0.0121   0.0015  -0.0009   0.0033  -5.00   66.3
2025/04/04 16:37:26.000   28.406020268  -16.531432399   214.1190   1   5   0.0024   0.0021   0.0121   0.0015  -0.0009   0.0033  -4.00   56.9
2025/04/04 16:37:27.000   28.406020267  -16.531432399   214.1189   1   5   0.0024   0.0021   0.0121   0.0015  -0.0009   0.0034  -3.00   46.2
2025/04/04 16:37:28.000   28.406020267  -16.531432399   214.1188   1   5   0.0024   0.0021   0.0121   0.0015  -0.0009   0.0034  -2.00   33.3
2025/04/04 16:37:29.000   28.406020267  -16.531432399   214.1187   1   5   0.0024   0.0021   0.0121   0.0015  -0.0009   0.0034  -1.00   18.2
2025/04/04 16:37:30.000   28.406020268  -16.531432401   214.1188   1   5   0.0024   0.0021   0.0121   0.0015  -0.0009   0.0034   0.00  159.3
2025/04/04 16:37:31.000   28.406020268  -16.531432401   214.1186   1   5   0.0024   0.0021   0.0121   0.0015  -0.0009   0.0034   1.00  159.3
2025/04/04 16:37:32.000   28.406020267  -16.531432401   214.1185   1   5   0.0024   0.0021   0.0121   0.0015  -0.0009   0.0034   2.00  158.0
2025/04/04 16:37:33.000   28.406020267  -16.531432401   214.1184   1   5   0.0024   0.0021   0.0121   0.0015  -0.0009   0.0034   3.00  156.1
2025/04/04 16:37:34.000   28.406020267  -16.531432401   214.1183   1   5   0.0024   0.0021   0.0121   0.0015  -0.0009   0.0034   4.00  153.8
2025/04/04 16:37:35.000   28.406020267  -16.531432400   214.1182   1   5   0.0024   0.0021   0.0121   0.0015  -0.0009   0.0034   5.00  151.6
2025/04/04 16:37:36.000   28.406020267  -16.531432400   214.1181   1   5   0.0024   0.0021   0.0121   0.0015  -0.0009   0.0034   6.00  149.5
2025/04/04 16:37:37.000   28.406020267  -16.531432400   214.1181   1   5   0.0024   0.0021   0.0121   0.0015  -0.0009   0.0034   7.00  147.5
2025/04/04 16:37:38.000   28.406020267  -16.531432400   214.1180   1   5   0.0024   0.0021   0.0121   0.0015  -0.0009   0.0034   8.00  144.3
2025/04/04 16:37:39.000   28.406020267  -16.531432400   214.1180   1   5   0.0024   0.0021   0.0121   0.0015  -0.0009   0.0034   9.00  140.0
2025/04/04 16:37:40.000   28.406020267  -16.531432400   214.1180   1   5   0.0024   0.0021   0.0121   0.0015  -0.0009   0.0034  10.00  136.2
2025/04/04 16:37:41.000   28.406020267  -16.531432400   214.1179   1   5   0.0024   0.0021   0.0121   0.0015  -0.0009   0.0034  11.00  132.6
2025/04/04 16:37:42.000   28.406020267  -16.531432400   214.1179   1   5   0.0024   0.0021   0.0121   0.0015  -0.0009   0.0034  12.00  129.1
2025/04/04 16:37:43.000   28.406020267  -16.531432399   214.1179   1   5   0.0024   0.0021   0.0121   0.0015  -0.0009   0.0034  13.00  125.9
2025/04/04 16:37:44.000   28.406020267  -16.531432399   214.1179   1   5   0.0024   0.0021   0.0121   0.0015  -0.0009   0.0034  14.00  123.0
2025/04/04 16:37:45.000   28.406020267  -16.531432399   214.1179   1   5   0.0024   0.0021   0.0121   0.0015  -0.0009   0.0034  15.00  120.2
2025/04/04 16:37:46.000   28.406020267  -16.531432399   214.1179   1   5   0.0024   0.0021   0.0121   0.0015  -0.0009   0.0033 -14.00  117.7
2025/04/04 16:37:47.000   28.406020267  -16.531432399   214.1179   1   5   0.0024   0.0021   0.0121   0.0015  -0.0009   0.0033 -13.00  114.2
2025/04/04 16:37:48.000   28.406020267  -16.531432399   214.1179   1   5   0.0024   0.0021   0.0121   0.0015  -0.0009   0.0033 -12.00  110.2
2025/04/04 16:37:49.000   28.406020267  -16.531432399   214.1179   1   5   0.0024   0.0021   0.0121   0.0015  -0.0009   0.0033 -11.00  105.7
2025/04/04 16:37:50.000   28.406020267  -16.531432399   214.1179   1   5   0.0024   0.0021   0.0121   0.0015  -0.0009   0.0033 -10.00  100.6
2025/04/04 16:37:51.000   28.406020267  -16.531432399   214.1179   1   5   0.0024   0.0021   0.0121   0.0015  -0.0009   0.0033  -9.00   95.2
2025/04/04 16:37:52.000   28.406020267  -16.531432399   214.1179   1   5   0.0024   0.0021   0.0121   0.0015  -0.0009   0.0033  -8.00   89.3
2025/04/04 16:37:53.000   28.406020267  -16.531432399   214.1180   1   5   0.0024   0.0021   0.0121   0.0015  -0.0009   0.0033  -7.00   82.3
2025/04/04 16:37:54.000   28.406020268  -16.531432398   214.1180   1   5   0.0024   0.0021   0.0121   0.0015  -0.0009   0.0033  -6.00   74.9
2025/04/04 16:37:55.000   28.406020268  -16.531432398   214.1179   1   5   0.0024   0.0021   0.0121   0.0015  -0.0009   0.0033  -5.00   66.4
2025/04/04 16:37:56.000   28.406020268  -16.531432398   214.1179   1   5   0.0024   0.0021   0.0121   0.0015  -0.0009   0.0033  -4.00   56.7
2025/04/04 16:37:57.000   28.406020267  -16.531432398   214.1179   1   5   0.0024   0.0021   0.0121   0.0015  -0.0009   0.0033  -3.00   45.6
2025/04/04 16:37:58.000   28.406020267  -16.531432398   214.1179   1   5   0.0024   0.0021   0.0121   0.0015  -0.0009   0.0033  -2.00   32.7
2025/04/04 16:37:59.000   28.406020267  -16.531432398   214.1178   1   5   0.0024   0.0021   0.0121   0.0015  -0.0009   0.0033  -1.00   17.8
2025/04/04 16:38:00.000   28.406020268  -16.531432400   214.1181   1   5   0.0024   0.0021   0.0121   0.0015  -0.0008   0.0033   0.00  153.0
2025/04/04 16:38:01.000   28.406020268  -16.531432399   214.1181   1   5   0.0024   0.0021   0.0121   0.0015  -0.0009   0.0033   1.00  150.7
2025/04/04 16:38:02.000   28.406020268  -16.531432399   214.1181   1   5   0.0024   0.0021   0.0121   0.0015  -0.0009   0.0033   2.00  148.0
2025/04/04 16:38:03.000   28.406020268  -16.531432399   214.1181   1   5   0.0024   0.0021   0.0121   0.0015  -0.0009   0.0033   3.00  146.0
2025/04/04 16:38:04.000   28.406020268  -16.531432399   214.1181   1   5   0.0024   0.0021   0.0121   0.0015  -0.0009   0.0033   4.00  144.0
2025/04/04 16:38:05.000   28.406020268  -16.531432398   214.1181   1   5   0.0024   0.0021   0.0121   0.0015  -0.0009   0.0034   5.00  141.8
2025/04/04 16:38:06.000   28.406020268  -16.531432398   214.1180   1   5   0.0024   0.0021   0.0121   0.0015  -0.0009   0.0034   6.00  139.7
2025/04/04 16:38:07.000   28.406020268  -16.531432398   214.1180   1   5   0.0024   0.0021   0.0121   0.0015  -0.0009   0.0034   7.00  135.1
2025/04/04 16:38:08.000   28.406020268  -16.531432398   214.1180   1   5   0.0024   0.0021   0.0121   0.0015  -0.0009   0.0033   8.00  130.5
2025/04/04 16:38:09.000   28.406020269  -16.531432398   214.1180   1   5   0.0024   0.0021   0.0121   0.0015  -0.0009   0.0033   9.00  126.5
2025/04/04 16:38:10.000   28.406020269  -16.531432398   214.1179   1   5   0.0024   0.0021   0.0121   0.0015  -0.0009   0.0033  10.00  122.7
2025/04/04 16:38:11.000   28.406020269  -16.531432398   214.1179   1   5   0.0024   0.0021   0.0121   0.0015  -0.0009   0.0033  11.00  119.2
2025/04/04 16:38:12.000   28.406020269  -16.531432397   214.1179   1   5   0.0024   0.0021   0.0121   0.0015  -0.0009   0.0033  12.00  115.9
2025/04/04 16:38:13.000   28.406020269  -16.531432397   214.1179   1   5   0.0024   0.0021   0.0121   0.0015  -0.0008   0.0033  13.00  112.6
2025/04/04 16:38:14.000   28.406020269  -16.531432397   214.1179   1   5   0.0024   0.0021   0.0121   0.0015  -0.0008   0.0033  14.00  109.7
2025/04/04 16:38:15.000   28.406020269  -16.531432397   214.1180   1   5   0.0024   0.0021   0.0121   0.0015  -0.0008   0.0033  15.00  107.0
2025/04/04 16:38:16.000   28.406020269  -16.531432397   214.1180   1   5   0.0024   0.0021   0.0121   0.0015  -0.0008   0.0033 -14.00  104.5
2025/04/04 16:38:17.000   28.406020269  -16.531432397   214.1180   1   5   0.0024   0.0021   0.0121   0.0015  -0.0008   0.0033 -13.00  101.8
2025/04/04 16:38:18.000   28.406020269  -16.531432397   214.1180   1   5   0.0024   0.0021   0.0120   0.0015  -0.0008   0.0033 -12.00   98.8
2025/04/04 16:38:19.000   28.406020269  -16.531432397   214.1180   1   5   0.0024   0.0021   0.0120   0.0015  -0.0008   0.0033 -11.00   95.5
2025/04/04 16:38:20.000   28.406020269  -16.531432397   214.1180   1   5   0.0024   0.0021   0.0120   0.0015  -0.0008   0.0033 -10.00   91.4
2025/04/04 16:38:21.000   28.406020269  -16.531432397   214.1180   1   5   0.0024   0.0021   0.0120   0.0015  -0.0008   0.0033  -9.00   86.6
2025/04/04 16:38:22.000   28.406020269  -16.531432397   214.1180   1   5   0.0024   0.0021   0.0120   0.0015  -0.0008   0.0033  -8.00   81.2
2025/04/04 16:38:23.000   28.406020269  -16.531432397   214.1180   1   5   0.0024   0.0021   0.0120   0.0015  -0.0008   0.0033  -7.00   75.0
2025/04/04 16:38:24.000   28.406020269  -16.531432397   214.1180   1   5   0.0024   0.0021   0.0120   0.0015  -0.0008   0.0033  -6.00   68.0
2025/04/04 16:38:25.000   28.406020269  -16.531432397   214.1180   1   5   0.0024   0.0021   0.0120   0.0015  -0.0008   0.0033  -5.00   60.0
2025/04/04 16:38:26.000   28.406020269  -16.531432397   214.1180   1   5   0.0024   0.0021   0.0120   0.0015  -0.0008   0.0033  -4.00   51.2
2025/04/04 16:38:27.000   28.406020269  -16.531432396   214.1180   1   5   0.0024   0.0021   0.0120   0.0015  -0.0008   0.0033  -3.00   40.8
2025/04/04 16:38:28.000   28.406020269  -16.531432396   214.1180   1   5   0.0024   0.0021   0.0120   0.0015  -0.0008   0.0033  -2.00   29.1
2025/04/04 16:38:29.000   28.406020269  -16.531432396   214.1180   1   5   0.0024   0.0021   0.0120   0.0015  -0.0008   0.0033  -1.00   15.9
2025/04/04 16:38:30.000   28.406020301  -16.531432381   214.1462   1   6   0.0023   0.0021   0.0105   0.0015  -0.0016   0.0026   0.00   53.5
2025/04/04 16:38:31.000   28.406020301  -16.531432381   214.1460   1   6   0.0023   0.0021   0.0105   0.0015  -0.0016   0.0026   1.00   52.7
2025/04/04 16:38:32.000   28.406020301  -16.531432381   214.1459   1   6   0.0023   0.0021   0.0105   0.0015  -0.0016   0.0026   2.00   51.8
2025/04/04 16:38:33.000   28.406020301  -16.531432381   214.1457   1   6   0.0023   0.0021   0.0105   0.0015  -0.0016   0.0026   3.00   50.9
2025/04/04 16:38:34.000   28.406020301  -16.531432381   214.1455   1   6   0.0023   0.0021   0.0105   0.0015  -0.0016   0.0026   4.00   50.0
2025/04/04 16:38:35.000   28.406020301  -16.531432381   214.1453   1   6   0.0023   0.0021   0.0105   0.0015  -0.0016   0.0026   5.00   49.0
2025/04/04 16:38:36.000   28.406020301  -16.531432380   214.1452   1   6   0.0023   0.0021   0.0105   0.0015  -0.0016   0.0026   6.00   48.1
2025/04/04 16:38:37.000   28.406020301  -16.531432380   214.1451   1   6   0.0023   0.0021   0.0105   0.0015  -0.0016   0.0026   7.00   47.1
2025/04/04 16:38:38.000   28.406020301  -16.531432380   214.1450   1   6   0.0023   0.0021   0.0105   0.0015  -0.0016   0.0026   8.00   46.0
2025/04/04 16:38:39.000   28.406020301  -16.531432380   214.1449   1   6   0.0023   0.0021   0.0105   0.0015  -0.0016   0.0026   9.00   45.0
2025/04/04 16:38:40.000   28.406020301  -16.531432380   214.1448   1   6   0.0023   0.0021   0.0105   0.0015  -0.0016   0.0026  10.00   44.1
2025/04/04 16:38:41.000   28.406020301  -16.531432380   214.1448   1   6   0.0023   0.0021   0.0105   0.0015  -0.0016   0.0026  11.00   42.9
2025/04/04 16:38:42.000   28.406020301  -16.531432380   214.1447   1   6   0.0023   0.0021   0.0105   0.0015  -0.0016   0.0026  12.00   41.8
2025/04/04 16:38:43.000   28.406020301  -16.531432380   214.1447   1   6   0.0023   0.0021   0.0105   0.0015  -0.0016   0.0026  13.00   40.7
2025/04/04 16:38:44.000   28.406020301  -16.531432379   214.1446   1   6   0.0023   0.0021   0.0105   0.0015  -0.0016   0.0026  14.00   39.7
2025/04/04 16:38:45.000   28.406020301  -16.531432379   214.1446   1   6   0.0023   0.0021   0.0105   0.0015  -0.0016   0.0026  15.00   38.5
2025/04/04 16:38:46.000   28.406020301  -16.531432379   214.1446   1   6   0.0023   0.0021   0.0105   0.0015  -0.0016   0.0026 -14.00   37.3
2025/04/04 16:38:47.000   28.406020301  -16.531432379   214.1446   1   6   0.0023   0.0021   0.0105   0.0015  -0.0016   0.0026 -13.00   36.1
2025/04/04 16:38:48.000   28.406020301  -16.531432379   214.1445   1   6   0.0023   0.0021   0.0105   0.0015  -0.0016   0.0026 -12.00   34.7
2025/04/04 16:38:49.000   28.406020301  -16.531432379   214.1445   1   6   0.0023   0.0021   0.0105   0.0015  -0.0016   0.0026 -11.00   33.2
2025/04/04 16:38:50.000   28.406020301  -16.531432379   214.1445   1   6   0.0023   0.0021   0.0105   0.0015  -0.0016   0.0026 -10.00   31.5
2025/04/04 16:38:51.000   28.406020301  -16.531432379   214.1445   1   6   0.0023   0.0021   0.0105   0.0015  -0.0016   0.0026  -9.00   29.7
2025/04/04 16:38:52.000   28.406020301  -16.531432379   214.1445   1   6   0.0023   0.0021   0.0105   0.0015  -0.0016   0.0026  -8.00   27.7
2025/04/04 16:38:53.000   28.406020302  -16.531432379   214.1444   1   6   0.0023   0.0021   0.0105   0.0015  -0.0016   0.0026  -7.00   25.5
2025/04/04 16:38:54.000   28.406020302  -16.531432379   214.1444   1   6   0.0023   0.0021   0.0105   0.0015  -0.0016   0.0026  -6.00   23.1
2025/04/04 16:38:55.000   28.406020302  -16.531432379   214.1444   1   6   0.0023   0.0021   0.0105   0.0015  -0.0016   0.0026  -5.00   20.4
2025/04/04 16:38:56.000   28.406020302  -16.531432378   214.1444   1   6   0.0023   0.0021   0.0105   0.0015  -0.0016   0.0026  -4.00   17.4
2025/04/04 16:38:57.000   28.406020302  -16.531432378   214.1444   1   6   0.0023   0.0021   0.0105   0.0015  -0.0016   0.0026  -3.00   14.1
2025/04/04 16:38:58.000   28.406020302  -16.531432378   214.1444   1   6   0.0023   0.0021   0.0105   0.0015  -0.0016   0.0026  -2.00   10.3
2025/04/04 16:38:59.000   28.406020303  -16.531432377   214.1444   1   6   0.0023   0.0021   0.0105   0.0015  -0.0016   0.0026  -1.00    5.8
2025/04/04 16:39:00.000   28.406020302  -16.531432374   214.1437   1   6   0.0023   0.0021   0.0105   0.0015  -0.0016   0.0026   0.00   51.1
2025/04/04 16:39:01.000   28.406020303  -16.531432374   214.1438   1   6   0.0023   0.0021   0.0105   0.0015  -0.0016   0.0026   1.00   50.4
2025/04/04 16:39:02.000   28.406020303  -16.531432374   214.1439   1   6   0.0023   0.0021   0.0105   0.0015  -0.0016   0.0026   2.00   49.6
2025/04/04 16:39:03.000   28.406020304  -16.531432374   214.1439   1   6   0.0023   0.0021   0.0105   0.0015  -0.0016   0.0026   3.00   48.8
2025/04/04 16:39:04.000   28.406020304  -16.531432374   214.1440   1   6   0.0023   0.0021   0.0105   0.0015  -0.0016   0.0026   4.00   47.8
2025/04/04 16:39:05.000   28.406020305  -16.531432374   214.1441   1   6   0.0023   0.0021   0.0105   0.0015  -0.0016   0.0026   5.00   47.0
2025/04/04 16:39:06.000   28.406020305  -16.531432374   214.1441   1   6   0.0023   0.0021   0.0105   0.0015  -0.0016   0.0026   6.00   45.8
2025/04/04 16:39:07.000   28.406020305  -16.531432374   214.1442   1   6   0.0023   0.0021   0.0105   0.0015  -0.0016   0.0026   7.00   44.2
2025/04/04 16:39:08.000   28.406020306  -16.531432374   214.1442   1   6   0.0023   0.0021   0.0105   0.0015  -0.0016   0.0026   8.00   42.7
2025/04/04 16:39:09.000   28.406020306  -16.531432373   214.1443   1   6   0.0023   0.0021   0.0105   0.0015  -0.0016   0.0026   9.00   41.3
2025/04/04 16:39:10.000   28.406020306  -16.531432373   214.1443   1   6   0.0023   0.0021   0.0105   0.0015  -0.0016   0.0026  10.00   40.0
2025/04/04 16:39:11.000   28.406020306  -16.531432374   214.1443   1   6   0.0023   0.0021   0.0105   0.0015  -0.0016   0.0026  11.00   38.8
2025/04/04 16:39:12.000   28.406020306  -16.531432373   214.1444   1   6   0.0023   0.0021   0.0105   0.0015  -0.0016   0.0026  12.00   37.8
2025/04/04 16:39:13.000   28.406020306  -16.531432373   214.1444   1   6   0.0023   0.0021   0.0105   0.0015  -0.0016   0.0026  13.00   36.7
2025/04/04 16:39:14.000   28.406020306  -16.531432373   214.1444   1   6   0.0023   0.0021   0.0105   0.0015  -0.0016   0.0026  14.00   35.8
2025/04/04 16:39:15.000   28.406020306  -16.531432373   214.1444   1   6   0.0023   0.0021   0.0105   0.0015  -0.0016   0.0026  15.00   34.9
2025/04/04 16:39:16.000   28.406020307  -16.531432373   214.1444   1   6   0.0023   0.0021   0.0105   0.0015  -0.0016   0.0026 -14.00   34.0
2025/04/04 16:39:17.000   28.406020307  -16.531432373   214.1444   1   6   0.0023   0.0021   0.0105   0.0015  -0.0016   0.0026 -13.00   33.1
2025/04/04 16:39:18.000   28.406020307  -16.531432373   214.1445   1   6   0.0023   0.0021   0.0105   0.0015  -0.0016   0.0026 -12.00   32.2
2025/04/04 16:39:19.000   28.406020307  -16.531432373   214.1445   1   6   0.0023   0.0021   0.0105   0.0015  -0.0016   0.0026 -11.00   31.1
2025/04/04 16:39:20.000   28.406020307  -16.531432373   214.1445   1   6   0.0023   0.0021   0.0105   0.0015  -0.0016   0.0026 -10.00   29.9
2025/04/04 16:39:21.000   28.406020307  -16.531432373   214.1445   1   6   0.0023   0.0021   0.0105   0.0015  -0.0016   0.0026  -9.00   28.3
2025/04/04 16:39:22.000   28.406020307  -16.531432373   214.1446   1   6   0.0023   0.0021   0.0105   0.0015  -0.0016   0.0026  -8.00   26.5
2025/04/04 16:39:23.000   28.406020307  -16.531432373   214.1446   1   6   0.0023   0.0021   0.0105   0.0015  -0.0016   0.0026  -7.00   24.5
2025/04/04 16:39:24.000   28.406020308  -16.531432373   214.1447   1   6   0.0023   0.0021   0.0105   0.0015  -0.0016   0.0026  -6.00   22.2
2025/04/04 16:39:25.000   28.406020308  -16.531432374   214.1448   1   6   0.0023   0.0021   0.0105   0.0015  -0.0016   0.0026  -5.00   19.6
2025/04/04 16:39:26.000   28.406020308  -16.531432374   214.1449   1   6   0.0023   0.0021   0.0105   0.0015  -0.0016   0.0026  -4.00   16.7
2025/04/04 16:39:27.000   28.406020309  -16.531432374   214.1450   1   6   0.0023   0.0021   0.0105   0.0015  -0.0016   0.0026  -3.00   13.4
2025/04/04 16:39:28.000   28.406020309  -16.531432374   214.1452   1   6   0.0023   0.0021   0.0105   0.0015  -0.0016   0.0026  -2.00    9.8
2025/04/04 16:39:29.000   28.406020310  -16.531432374   214.1455   1   6   0.0023   0.0021   0.0105   0.0015  -0.0016   0.0026  -1.00    5.5
2025/04/04 16:39:30.000   28.406020307  -16.531432369   214.1442   1   6   0.0023   0.0021   0.0105   0.0015  -0.0015   0.0026   0.00   41.7
2025/04/04 16:39:31.000   28.406020308  -16.531432369   214.1445   1   6   0.0023   0.0021   0.0105   0.0015  -0.0015   0.0026   1.00   41.0
2025/04/04 16:39:32.000   28.406020308  -16.531432369   214.1447   1   6   0.0024   0.0021   0.0105   0.0015  -0.0015   0.0026   2.00   40.4
2025/04/04 16:39:33.000   28.406020309  -16.531432369   214.1450   1   6   0.0024   0.0021   0.0106   0.0015  -0.0015   0.0026   3.00   39.3
2025/04/04 16:39:34.000   28.406020309  -16.531432370   214.1452   1   6   0.0024   0.0021   0.0106   0.0015  -0.0015   0.0026   4.00   37.8
2025/04/04 16:39:35.000   28.406020310  -16.531432370   214.1454   1   6   0.0024   0.0021   0.0106   0.0015  -0.0015   0.0026   5.00   36.5
2025/04/04 16:39:36.000   28.406020310  -16.531432370   214.1456   1   6   0.0024   0.0021   0.0106   0.0015  -0.0015   0.0026   6.00   35.2
2025/04/04 16:39:37.000   28.406020311  -16.531432370   214.1457   1   6   0.0024   0.0021   0.0106   0.0015  -0.0015   0.0026   7.00   34.0
2025/04/04 16:39:38.000   28.406020311  -16.531432370   214.1459   1   6   0.0024   0.0021   0.0106   0.0015  -0.0015   0.0026   8.00   32.9
2025/04/04 16:39:39.000   28.406020311  -16.531432370   214.1460   1   6   0.0024   0.0021   0.0106   0.0015  -0.0015   0.0026   9.00   32.0
2025/04/04 16:39:40.000   28.406020312  -16.531432370   214.1461   1   6   0.0024   0.0021   0.0106   0.0015  -0.0015   0.0026  10.00   31.1
2025/04/04 16:39:41.000   28.406020312  -16.531432370   214.1462   1   6   0.0024   0.0021   0.0106   0.0015  -0.0015   0.0026  11.00   30.2
2025/04/04 16:39:42.000   28.406020312  -16.531432370   214.1463   1   6   0.0024   0.0021   0.0106   0.0015  -0.0015   0.0026  12.00   29.4
2025/04/04 16:39:43.000   28.406020312  -16.531432370   214.1463   1   6   0.0024   0.0021   0.0106   0.0015  -0.0015   0.0026  13.00   28.7
2025/04/04 16:39:44.000   28.406020312  -16.531432370   214.1464   1   6   0.0024   0.0021   0.0106   0.0015  -0.0015   0.0026  14.00   28.1
2025/04/04 16:39:45.000   28.406020312  -16.531432370   214.1464   1   6   0.0024   0.0021   0.0106   0.0015  -0.0015   0.0026  15.00   27.4
2025/04/04 16:39:46.000   28.406020313  -16.531432370   214.1465   1   6   0.0024   0.0021   0.0105   0.0015  -0.0015   0.0026 -14.00   26.8
2025/04/04 16:39:47.000   28.406020313  -16.531432370   214.1466   1   6   0.0024   0.0021   0.0105   0.0015  -0.0015   0.0026 -13.00   26.0
2025/04/04 16:39:48.000   28.406020313  -16.531432371   214.1467   1   6   0.0024   0.0021   0.0105   0.0015  -0.0015   0.0026 -12.00   25.2
2025/04/04 16:39:49.000   28.406020313  -16.531432371   214.1468   1   6   0.0023   0.0021   0.0105   0.0015  -0.0015   0.0026 -11.00   24.2
2025/04/04 16:39:50.000   28.406020313  -16.531432371   214.1469   1   6   0.0023   0.0021   0.0105   0.0015  -0.0015   0.0026 -10.00   23.2
2025/04/04 16:39:51.000   28.406020314  -16.531432371   214.1470   1   6   0.0023   0.0021   0.0105   0.0015  -0.0015   0.0026  -9.00   22.1
2025/04/04 16:39:52.000   28.406020314  -16.531432371   214.1471   1   6   0.0023   0.0021   0.0105   0.0015  -0.0015   0.0026  -8.00   20.7
2025/04/04 16:39:53.000   28.406020314  -16.531432371   214.1472   1   6   0.0023   0.0021   0.0105   0.0015  -0.0015   0.0026  -7.00   19.2
2025/04/04 16:39:54.000   28.406020315  -16.531432371   214.1474   1   6   0.0023   0.0021   0.0105   0.0015  -0.0015   0.0027  -6.00   17.6
2025/04/04 16:39:55.000   28.406020315  -16.531432372   214.1476   1   6   0.0023   0.0021   0.0105   0.0015  -0.0015   0.0027  -5.00   15.7
2025/04/04 16:39:56.000   28.406020316  -16.531432372   214.1478   1   6   0.0023   0.0021   0.0105   0.0015  -0.0015   0.0027  -4.00   13.5
2025/04/04 16:39:57.000   28.406020316  -16.531432372   214.1480   1   6   0.0023   0.0021   0.0105   0.0015  -0.0015   0.0027  -3.00   11.1
2025/04/04 16:39:58.000   28.406020317  -16.531432373   214.1483   1   6   0.0024   0.0021   0.0105   0.0015  -0.0015   0.0027  -2.00    8.3
2025/04/04 16:39:59.000   28.406020318  -16.531432373   214.1487   1   6   0.0024   0.0021   0.0105   0.0015  -0.0015   0.0027  -1.00    4.8
2025/04/04 16:40:00.000   28.406020315  -16.531432366   214.1470   1   6   0.0024   0.0021   0.0105   0.0015  -0.0015   0.0026   0.00   33.7
2025/04/04 16:40:01.000   28.406020316  -16.531432366   214.1474   1   6   0.0024   0.0021   0.0106   0.0015  -0.0015   0.0026   1.00   33.7
2025/04/04 16:40:02.000   28.406020317  -16.531432367   214.1477   1   6   0.0024   0.0021   0.0106   0.0015  -0.0015   0.0026   2.00   33.6
2025/04/04 16:40:03.000   28.406020318  -16.531432367   214.1480   1   6   0.0024   0.0021   0.0106   0.0015  -0.0015   0.0027   3.00   33.3
2025/04/04 16:40:04.000   28.406020319  -16.531432367   214.1483   1   6   0.0024   0.0021   0.0106   0.0015  -0.0015   0.0027   4.00   32.9
2025/04/04 16:40:05.000   28.406020319  -16.531432368   214.1487   1   6   0.0024   0.0021   0.0106   0.0015  -0.0015   0.0027   5.00   32.3
2025/04/04 16:40:06.000   28.406020320  -16.531432368   214.1489   1   6   0.0024   0.0021   0.0106   0.0015  -0.0015   0.0027   6.00   31.5
2025/04/04 16:40:07.000   28.406020320  -16.531432368   214.1492   1   6   0.0024   0.0021   0.0106   0.0015  -0.0015   0.0027   7.00   30.9
2025/04/04 16:40:08.000   28.406020321  -16.531432368   214.1494   1   6   0.0024   0.0021   0.0106   0.0015  -0.0015   0.0027   8.00   30.3
2025/04/04 16:40:09.000   28.406020321  -16.531432369   214.1496   1   6   0.0024   0.0021   0.0106   0.0015  -0.0015   0.0027   9.00   29.7
2025/04/04 16:40:10.000   28.406020322  -16.531432369   214.1498   1   6   0.0024   0.0021   0.0106   0.0015  -0.0015   0.0027  10.00   29.1
2025/04/04 16:40:11.000   28.406020322  -16.531432369   214.1500   1   6   0.0024   0.0021   0.0106   0.0015  -0.0015   0.0027  11.00   28.6
2025/04/04 16:40:12.000   28.406020322  -16.531432369   214.1501   1   6   0.0024   0.0021   0.0106   0.0015  -0.0015   0.0027  12.00   27.9
2025/04/04 16:40:13.000   28.406020323  -16.531432369   214.1503   1   6   0.0024   0.0021   0.0106   0.0015  -0.0015   0.0027  13.00   27.2
2025/04/04 16:40:14.000   28.406020323  -16.531432369   214.1504   1   6   0.0024   0.0021   0.0106   0.0015  -0.0015   0.0027  14.00   26.5
2025/04/04 16:40:15.000   28.406020323  -16.531432369   214.1505   1   6   0.0024   0.0021   0.0106   0.0015  -0.0015   0.0027  15.00   25.8
2025/04/04 16:40:16.000   28.406020323  -16.531432369   214.1506   1   6   0.0024   0.0021   0.0106   0.0015  -0.0015   0.0027 -14.00   25.2
2025/04/04 16:40:17.000   28.406020323  -16.531432370   214.1507   1   6   0.0024   0.0021   0.0106   0.0015  -0.0015   0.0027 -13.00   24.6
2025/04/04 16:40:18.000   28.406020324  -16.531432370   214.1508   1   6   0.0024   0.0021   0.0106   0.0015  -0.0015   0.0027 -12.00   23.8
2025/04/04 16:40:19.000   28.406020324  -16.531432370   214.1509   1   6   0.0024   0.0021   0.0106   0.0015  -0.0015   0.0027 -11.00   22.9
2025/04/04 16:40:20.000   28.406020324  -16.531432370   214.1510   1   6   0.0024   0.0021   0.0105   0.0015  -0.0015   0.0027 -10.00   21.9
2025/04/04 16:40:21.000   28.406020324  -16.531432370   214.1511   1   6   0.0024   0.0021   0.0105   0.0015  -0.0015   0.0027  -9.00   20.8
2025/04/04 16:40:22.000   28.406020325  -16.531432370   214.1512   1   6   0.0024   0.0021   0.0105   0.0015  -0.0015   0.0027  -8.00   19.7
2025/04/04 16:40:23.000   28.406020325  -16.531432370   214.1514   1   6   0.0024   0.0021   0.0105   0.0015  -0.0015   0.0027  -7.00   18.3
2025/04/04 16:40:24.000   28.406020325  -16.531432370   214.1516   1   6   0.0024   0.0021   0.0105   0.0015  -0.0015   0.0027  -6.00   16.8
2025/04/04 16:40:25.000   28.406020326  -16.531432371   214.1518   1   6   0.0024   0.0021   0.0105   0.0015  -0.0015   0.0027  -5.00   15.0
2025/04/04 16:40:26.000   28.406020326  -16.531432371   214.1519   1   6   0.0024   0.0021   0.0105   0.0015  -0.0015   0.0027  -4.00   12.9
2025/04/04 16:40:27.000   28.406020327  -16.531432371   214.1521   1   6   0.0024   0.0021   0.0106   0.0015  -0.0015   0.0027  -3.00   10.5
2025/04/04 16:40:28.000   28.406020328  -16.531432371   214.1524   1   6   0.0024   0.0021   0.0106   0.0015  -0.0015   0.0027  -2.00    7.8
2025/04/04 16:40:29.000   28.406020329  -16.531432371   214.1526   1   6   0.0024   0.0021   0.0106   0.0015  -0.0015   0.0027  -1.00    4.5
2025/04/04 16:40:30.000   28.406020325  -16.531432364   214.1511   1   6   0.0024   0.0021   0.0106   0.0015  -0.0015   0.0027   0.00   31.8
2025/04/04 16:40:31.000   28.406020327  -16.531432365   214.1514   1   6   0.0024   0.0021   0.0106   0.0015  -0.0015   0.0027   1.00   31.6
2025/04/04 16:40:32.000   28.406020328  -16.531432365   214.1516   1   6   0.0024   0.0021   0.0106   0.0015  -0.0015   0.0027   2.00   31.6
2025/04/04 16:40:33.000   28.406020329  -16.531432365   214.1519   1   6   0.0024   0.0021   0.0106   0.0015  -0.0015   0.0027   3.00   31.4
2025/04/04 16:40:34.000   28.406020330  -16.531432365   214.1521   1   6   0.0024   0.0021   0.0106   0.0015  -0.0015   0.0027   4.00   31.1
2025/04/04 16:40:35.000   28.406020330  -16.531432365   214.1523   1   6   0.0024   0.0021   0.0106   0.0015  -0.0015   0.0027   5.00   30.5
2025/04/04 16:40:36.000   28.406020331  -16.531432365   214.1525   1   6   0.0024   0.0021   0.0106   0.0015  -0.0015   0.0027   6.00   29.8
2025/04/04 16:40:37.000   28.406020332  -16.531432365   214.1527   1   6   0.0024   0.0021   0.0106   0.0015  -0.0015   0.0027   7.00   29.1
2025/04/04 16:40:38.000   28.406020332  -16.531432365   214.1528   1   6   0.0024   0.0021   0.0106   0.0015  -0.0015   0.0027   8.00   28.5
2025/04/04 16:40:39.000   28.406020332  -16.531432366   214.1530   1   6   0.0024   0.0021   0.0106   0.0015  -0.0015   0.0027   9.00   27.9
2025/04/04 16:40:40.000   28.406020333  -16.531432366   214.1531   1   6   0.0024   0.0021   0.0106   0.0015  -0.0015   0.0027  10.00   27.3
2025/04/04 16:40:41.000   28.406020333  -16.531432366   214.1533   1   6   0.0024   0.0021   0.0106   0.0015  -0.0015   0.0027  11.00   26.5
2025/04/04 16:40:42.000   28.406020333  -16.531432366   214.1534   1   6   0.0024   0.0021   0.0106   0.0015  -0.0015   0.0027  12.00   25.7
2025/04/04 16:40:43.000   28.406020334  -16.531432366   214.1535   1   6   0.0024   0.0021   0.0106   0.0015  -0.0015   0.0027  13.00   25.0
2025/04/04 16:40:44.000   28.406020334  -16.531432366   214.1536   1   6   0.0024   0.0021   0.0106   0.0015  -0.0015   0.0027  14.00   24.4
2025/04/04 16:40:45.000   28.406020334  -16.531432366   214.1537   1   6   0.0024   0.0021   0.0106   0.0015  -0.0015   0.0027  15.00   23.8
2025/04/04 16:40:46.000   28.406020334  -16.531432366   214.1538   1   6   0.0024   0.0021   0.0106   0.0015  -0.0015   0.0027 -14.00   23.2
2025/04/04 16:40:47.000   28.406020335  -16.531432366   214.1539   1   6   0.0024   0.0021   0.0106   0.0015  -0.0015   0.0027 -13.00   22.6
2025/04/04 16:40:48.000   28.406020335  -16.531432366   214.1540   1   6   0.0024   0.0021   0.0106   0.0015  -0.0015   0.0027 -12.00   21.9
2025/04/04 16:40:49.000   28.406020335  -16.531432366   214.1541   1   6   0.0024   0.0021   0.0106   0.0015  -0.0015   0.0027 -11.00   21.1
2025/04/04 16:40:50.000   28.406020335  -16.531432366   214.1542   1   6   0.0024   0.0021   0.0106   0.0015  -0.0015   0.0027 -10.00   20.2
2025/04/04 16:40:51.000   28.406020336  -16.531432367   214.1543   1   6   0.0024   0.0021   0.0106   0.0015  -0.0015   0.0027  -9.00   19.4
2025/04/04 16:40:52.000   28.406020336  -16.531432367   214.1544   1   6   0.0024   0.0021   0.0106   0.0015  -0.0015   0.0027  -8.00   18.3
2025/04/04 16:40:53.000   28.406020336  -16.531432367   214.1546   1   6   0.0024   0.0021   0.0106   0.0015  -0.0015   0.0027  -7.00   17.2
2025/04/04 16:40:54.000   28.406020337  -16.531432367   214.1548   1   6   0.0024   0.0021   0.0106   0.0015  -0.0015   0.0027  -6.00   15.8
2025/04/04 16:40:55.000   28.406020337  -16.531432367   214.1550   1   6   0.0024   0.0021   0.0106   0.0015  -0.0015   0.0027  -5.00   14.3
2025/04/04 16:40:56.000   28.406020338  -16.531432367   214.1552   1   6   0.0024   0.0021   0.0106   0.0015  -0.0015   0.0027  -4.00   12.5
2025/04/04 16:40:57.000   28.406020339  -16.531432367   214.1554   1   6   0.0024   0.0021   0.0106   0.0015  -0.0015   0.0027  -3.00   10.3
2025/04/04 16:40:58.000   28.406020340  -16.531432367   214.1555   1   6   0.0024   0.0021   0.0106   0.0015  -0.0015   0.0027  -2.00    7.6
2025/04/04 16:40:59.000   28.406020341  -16.531432367   214.1557   1   6   0.0024   0.0021   0.0106   0.0015  -0.0015   0.0027  -1.00    4.6
2025/04/04 16:41:00.000   28.406020338  -16.531432361   214.1546   1   6   0.0024   0.0021   0.0106   0.0015  -0.0014   0.0027   0.00   34.8
2025/04/04 16:41:01.000   28.406020339  -16.531432361   214.1548   1   6   0.0024   0.0021   0.0106   0.0015  -0.0015   0.0027   1.00   34.9
2025/04/04 16:41:02.000   28.406020340  -16.531432361   214.1550   1   6   0.0024   0.0021   0.0106   0.0015  -0.0015   0.0027   2.00   35.0
2025/04/04 16:41:03.000   28.406020341  -16.531432361   214.1552   1   6   0.0024   0.0021   0.0106   0.0015  -0.0015   0.0027   3.00   35.1
2025/04/04 16:41:04.000   28.406020342  -16.531432361   214.1553   1   6   0.0024   0.0021   0.0106   0.0015  -0.0015   0.0027   4.00   34.7
2025/04/04 16:41:05.000   28.406020343  -16.531432361   214.1555   1   6   0.0024   0.0021   0.0106   0.0015  -0.0015   0.0027   5.00   33.9
2025/04/04 16:41:06.000   28.406020343  -16.531432361   214.1556   1   6   0.0024   0.0021   0.0106   0.0015  -0.0015   0.0027   6.00   33.2
2025/04/04 16:41:07.000   28.406020344  -16.531432361   214.1558   1   6   0.0024   0.0021   0.0106   0.0015  -0.0015   0.0027   7.00   32.5
2025/04/04 16:41:08.000   28.406020344  -16.531432361   214.1559   1   6   0.0024   0.0021   0.0106   0.0015  -0.0015   0.0027   8.00   31.7
2025/04/04 16:41:09.000   28.406020345  -16.531432361   214.1560   1   6   0.0024   0.0021   0.0106   0.0015  -0.0015   0.0027   9.00   31.0
2025/04/04 16:41:10.000   28.406020345  -16.531432361   214.1561   1   6   0.0024   0.0021   0.0106   0.0015  -0.0015   0.0027  10.00   30.4
2025/04/04 16:41:11.000   28.406020345  -16.531432361   214.1561   1   6   0.0024   0.0021   0.0106   0.0015  -0.0015   0.0027  11.00   29.7
2025/04/04 16:41:12.000   28.406020345  -16.531432361   214.1562   1   6   0.0024   0.0021   0.0106   0.0015  -0.0015   0.0027  12.00   29.1
2025/04/04 16:41:13.000   28.406020346  -16.531432361   214.1563   1   6   0.0024   0.0021   0.0106   0.0015  -0.0015   0.0027  13.00   28.5
2025/04/04 16:41:14.000   28.406020346  -16.531432361   214.1564   1   6   0.0024   0.0021   0.0106   0.0015  -0.0015   0.0027  14.00   28.0
2025/04/04 16:41:15.000   28.406020346  -16.531432361   214.1564   1   6   0.0024   0.0021   0.0106   0.0015  -0.0015   0.0027  15.00   27.3
2025/04/04 16:41:16.000   28.406020346  -16.531432361   214.1565   1   6   0.0024   0.0021   0.0106   0.0015  -0.0015   0.0027 -14.00   26.6
2025/04/04 16:41:17.000   28.406020346  -16.531432361   214.1566   1   6   0.0024   0.0021   0.0106   0.0015  -0.0014   0.0027 -13.00   25.8
2025/04/04 16:41:18.000   28.406020347  -16.531432361   214.1566   1   6   0.0024   0.0021   0.0106   0.0015  -0.0014   0.0027 -12.00   25.0
2025/04/04 16:41:19.000   28.406020347  -16.531432361   214.1567   1   6   0.0024   0.0021   0.0106   0.0015  -0.0014   0.0027 -11.00   24.1
2025/04/04 16:41:20.000   28.406020347  -16.531432360   214.1567   1   6   0.0024   0.0021   0.0106   0.0015  -0.0014   0.0027 -10.00   23.1
2025/04/04 16:41:21.000   28.406020347  -16.531432360   214.1568   1   6   0.0024   0.0021   0.0106   0.0015  -0.0014   0.0027  -9.00   22.0
2025/04/04 16:41:22.000   28.406020348  -16.531432360   214.1569   1   6   0.0024   0.0021   0.0106   0.0015  -0.0014   0.0027  -8.00   20.7
2025/04/04 16:41:23.000   28.406020348  -16.531432360   214.1569   1   6   0.0024   0.0021   0.0106   0.0015  -0.0014   0.0027  -7.00   19.2
2025/04/04 16:41:24.000   28.406020348  -16.531432360   214.1570   1   6   0.0024   0.0021   0.0106   0.0015  -0.0014   0.0027  -6.00   17.5
2025/04/04 16:41:25.000   28.406020349  -16.531432360   214.1570   1   6   0.0024   0.0021   0.0106   0.0015  -0.0014   0.0027  -5.00   15.6
2025/04/04 16:41:26.000   28.406020349  -16.531432359   214.1571   1   6   0.0024   0.0021   0.0106   0.0015  -0.0014   0.0027  -4.00   13.4
2025/04/04 16:41:27.000   28.406020350  -16.531432359   214.1572   1   6   0.0024   0.0021   0.0106   0.0015  -0.0014   0.0027  -3.00   11.0
2025/04/04 16:41:28.000   28.406020351  -16.531432358   214.1572   1   6   0.0024   0.0021   0.0106   0.0015  -0.0014   0.0027  -2.00    8.2
2025/04/04 16:41:29.000   28.406020352  -16.531432357   214.1572   1   6   0.0024   0.0021   0.0106   0.0015  -0.0014   0.0027  -1.00    4.8
2025/04/04 16:41:30.000   28.406020351  -16.531432352   214.1566   1   6   0.0024   0.0021   0.0106   0.0015  -0.0014   0.0027   0.00   41.4
2025/04/04 16:41:31.000   28.406020353  -16.531432351   214.1567   1   6   0.0024   0.0021   0.0106   0.0015  -0.0014   0.0027   1.00   41.0
2025/04/04 16:41:32.000   28.406020354  -16.531432350   214.1567   1   6   0.0024   0.0021   0.0106   0.0015  -0.0014   0.0027   2.00   40.7
2025/04/04 16:41:33.000   28.406020355  -16.531432349   214.1567   1   6   0.0024   0.0021   0.0106   0.0015  -0.0014   0.0027   3.00   40.3
2025/04/04 16:41:34.000   28.406020356  -16.531432348   214.1568   1   6   0.0024   0.0021   0.0106   0.0015  -0.0014   0.0027   4.00   39.7
2025/04/04 16:41:35.000   28.406020356  -16.531432348   214.1569   1   6   0.0024   0.0021   0.0106   0.0015  -0.0014   0.0027   5.00   38.6
2025/04/04 16:41:36.000   28.406020357  -16.531432347   214.1571   1   6   0.0024   0.0021   0.0106   0.0015  -0.0014   0.0027   6.00   37.4
2025/04/04 16:41:37.000   28.406020358  -16.531432347   214.1572   1   6   0.0024   0.0021   0.0106   0.0015  -0.0014   0.0027   7.00   36.3
2025/04/04 16:41:38.000   28.406020358  -16.531432347   214.1574   1   6   0.0024   0.0021   0.0106   0.0015  -0.0014   0.0027   8.00   35.2
2025/04/04 16:41:39.000   28.406020359  -16.531432346   214.1575   1   6   0.0024   0.0021   0.0106   0.0015  -0.0014   0.0027   9.00   34.3
2025/04/04 16:41:40.000   28.406020359  -16.531432346   214.1576   1   6   0.0024   0.0021   0.0106   0.0015  -0.0014   0.0027  10.00   33.3
2025/04/04 16:41:41.000   28.406020359  -16.531432346   214.1578   1   6   0.0024   0.0021   0.0106   0.0015  -0.0014   0.0027  11.00   32.4
2025/04/04 16:41:42.000   28.406020360  -16.531432346   214.1579   1   6   0.0024   0.0021   0.0106   0.0015  -0.0014   0.0027  12.00   31.6
2025/04/04 16:41:43.000   28.406020360  -16.531432345   214.1580   1   6   0.0024   0.0021   0.0106   0.0015  -0.0014   0.0027  13.00   30.8
2025/04/04 16:41:44.000   28.406020360  -16.531432345   214.1581   1   6   0.0024   0.0021   0.0106   0.0015  -0.0014   0.0027  14.00   30.1
2025/04/04 16:41:45.000   28.406020360  -16.531432345   214.1582   1   6   0.0024   0.0021   0.0106   0.0015  -0.0014   0.0027  15.00   29.4
2025/04/04 16:41:46.000   28.406020360  -16.531432345   214.1583   1   6   0.0024   0.0021   0.0106   0.0015  -0.0014   0.0027 -14.00   28.7
2025/04/04 16:41:47.000   28.406020361  -16.531432345   214.1584   1   6   0.0024   0.0021   0.0106   0.0015  -0.0014   0.0027 -13.00   28.0
2025/04/04 16:41:48.000   28.406020361  -16.531432345   214.1585   1   6   0.0024   0.0021   0.0106   0.0015  -0.0014   0.0027 -12.00   27.2
2025/04/04 16:41:49.000   28.406020361  -16.531432344   214.1586   1   6   0.0024   0.0021   0.0106   0.0015  -0.0014   0.0027 -11.00   26.3
2025/04/04 16:41:50.000   28.406020361  -16.531432344   214.1587   1   6   0.0024   0.0021   0.0106   0.0015  -0.0014   0.0027 -10.00   25.3
2025/04/04 16:41:51.000   28.406020362  -16.531432344   214.1588   1   6   0.0024   0.0021   0.0106   0.0015  -0.0014   0.0027  -9.00   24.1
2025/04/04 16:41:52.000   28.406020362  -16.531432343   214.1589   1   6   0.0024   0.0021   0.0106   0.0015  -0.0014   0.0027  -8.00   22.6
2025/04/04 16:41:53.000   28.406020362  -16.531432343   214.1590   1   6   0.0024   0.0021   0.0106   0.0015  -0.0014   0.0027  -7.00   20.9
2025/04/04 16:41:54.000   28.406020362  -16.531432343   214.1591   1   6   0.0024   0.0021   0.0106   0.0015  -0.0014   0.0027  -6.00   19.0
2025/04/04 16:41:55.000   28.406020363  -16.531432342   214.1593   1   6   0.0024   0.0021   0.0106   0.0015  -0.0014   0.0027  -5.00   16.8
2025/04/04 16:41:56.000   28.406020363  -16.531432341   214.1594   1   6   0.0024   0.0021   0.0106   0.0015  -0.0014   0.0027  -4.00   14.4
2025/04/04 16:41:57.000   28.406020364  -16.531432341   214.1595   1   6   0.0024   0.0021   0.0106   0.0015  -0.0014   0.0027  -3.00   11.6
2025/04/04 16:41:58.000   28.406020364  -16.531432340   214.1597   1   6   0.0024   0.0021   0.0106   0.0015  -0.0014   0.0027  -2.00    8.6
2025/04/04 16:41:59.000   28.406020365  -16.531432338   214.1598   1   6   0.0024   0.0021   0.0106   0.0015  -0.0014   0.0027  -1.00    5.0
2025/04/04 16:42:00.000   28.406020364  -16.531432334   214.1595   1   6   0.0024   0.0021   0.0106   0.0015  -0.0014   0.0027   0.00   40.3
2025/04/04 16:42:01.000   28.406020365  -16.531432333   214.1596   1   6   0.0024   0.0021   0.0106   0.0015  -0.0014   0.0027   1.00   39.6
2025/04/04 16:42:02.000   28.406020366  -16.531432332   214.1596   1   6   0.0024   0.0021   0.0106   0.0015  -0.0014   0.0027   2.00   38.9
2025/04/04 16:42:03.000   28.406020367  -16.531432330   214.1597   1   6   0.0024   0.0021   0.0106   0.0015  -0.0014   0.0027   3.00   38.1
2025/04/04 16:42:04.000   28.406020367  -16.531432329   214.1598   1   6   0.0024   0.0021   0.0106   0.0015  -0.0014   0.0027   4.00   37.1
2025/04/04 16:42:05.000   28.406020368  -16.531432328   214.1599   1   6   0.0024   0.0021   0.0106   0.0015  -0.0014   0.0027   5.00   35.7
2025/04/04 16:42:06.000   28.406020368  -16.531432327   214.1600   1   6   0.0024   0.0021   0.0106   0.0015  -0.0014   0.0027   6.00   34.5
2025/04/04 16:42:07.000   28.406020369  -16.531432327   214.1600   1   6   0.0024   0.0021   0.0106   0.0015  -0.0014   0.0027   7.00   33.3
2025/04/04 16:42:08.000   28.406020369  -16.531432326   214.1601   1   6   0.0024   0.0021   0.0106   0.0015  -0.0014   0.0027   8.00   32.2
2025/04/04 16:42:09.000   28.406020369  -16.531432326   214.1602   1   6   0.0024   0.0021   0.0106   0.0015  -0.0014   0.0027   9.00   31.2
2025/04/04 16:42:10.000   28.406020370  -16.531432326   214.1602   1   6   0.0024   0.0021   0.0106   0.0015  -0.0014   0.0027  10.00   30.3
2025/04/04 16:42:11.000   28.406020370  -16.531432325   214.1603   1   6   0.0024   0.0021   0.0106   0.0015  -0.0014   0.0027  11.00   29.4
2025/04/04 16:42:12.000   28.406020370  -16.531432325   214.1603   1   6   0.0024   0.0021   0.0106   0.0015  -0.0014   0.0027  12.00   28.6
2025/04/04 16:42:13.000   28.406020370  -16.531432325   214.1603   1   6   0.0024   0.0021   0.0106   0.0015  -0.0014   0.0027  13.00   27.8
2025/04/04 16:42:14.000   28.406020370  -16.531432325   214.1603   1   6   0.0024   0.0021   0.0106   0.0015  -0.0014   0.0027  14.00   27.1
2025/04/04 16:42:15.000   28.406020370  -16.531432325   214.1604   1   6   0.0024   0.0021   0.0106   0.0015  -0.0014   0.0027  15.00   26.5
2025/04/04 16:42:16.000   28.406020371  -16.531432324   214.1604   1   6   0.0024   0.0021   0.0106   0.0015  -0.0014   0.0027 -14.00   25.9
2025/04/04 16:42:17.000   28.406020371  -16.531432324   214.1605   1   6   0.0024   0.0021   0.0106   0.0015  -0.0014   0.0027 -13.00   25.2
2025/04/04 16:42:18.000   28.406020371  -16.531432324   214.1605   1   6   0.0024   0.0021   0.0106   0.0015  -0.0014   0.0027 -12.00   24.3
2025/04/04 16:42:19.000   28.406020371  -16.531432324   214.1605   1   6   0.0024   0.0021   0.0106   0.0015  -0.0014   0.0027 -11.00   23.3
2025/04/04 16:42:20.000   28.406020371  -16.531432324   214.1606   1   6   0.0024   0.0021   0.0106   0.0015  -0.0014   0.0027 -10.00   22.2
2025/04/04 16:42:21.000   28.406020372  -16.531432323   214.1607   1   6   0.0024   0.0021   0.0106   0.0015  -0.0014   0.0027  -9.00   21.0
2025/04/04 16:42:22.000   28.406020372  -16.531432323   214.1607   1   6   0.0024   0.0021   0.0106   0.0015  -0.0014   0.0027  -8.00   19.7
2025/04/04 16:42:23.000   28.406020372  -16.531432323   214.1608   1   6   0.0024   0.0021   0.0106   0.0015  -0.0014   0.0027  -7.00   18.2
2025/04/04 16:42:24.000   28.406020373  -16.531432323   214.1608   1   6   0.0024   0.0021   0.0106   0.0015  -0.0014   0.0027  -6.00   16.6
2025/04/04 16:42:25.000   28.406020373  -16.531432322   214.1608   1   6   0.0024   0.0021   0.0106   0.0015  -0.0014   0.0027  -5.00   14.8
2025/04/04 16:42:26.000   28.406020374  -16.531432322   214.1609   1   6   0.0024   0.0021   0.0106   0.0015  -0.0014   0.0027  -4.00   12.7
2025/04/04 16:42:27.000   28.406020374  -16.531432321   214.1609   1   6   0.0024   0.0021   0.0106   0.0015  -0.0014   0.0027  -3.00   10.3
2025/04/04 16:42:28.000   28.406020375  -16.531432321   214.1610   1   6   0.0024   0.0021   0.0106   0.0015  -0.0014   0.0027  -2.00    7.6
2025/04/04 16:42:29.000   28.406020376  -16.531432320   214.1611   1   6   0.0024   0.0021   0.0106   0.0015  -0.0014   0.0027  -1.00    4.5
2025/04/04 16:42:30.000   28.406020374  -16.531432314   214.1605   1   6   0.0024   0.0021   0.0106   0.0015  -0.0014   0.0027   0.00   34.5
2025/04/04 16:42:31.000   28.406020375  -16.531432313   214.1606   1   6   0.0024   0.0021   0.0106   0.0015  -0.0014   0.0027   1.00   34.3
2025/04/04 16:42:32.000   28.406020376  -16.531432311   214.1606   1   6   0.0024   0.0021   0.0106   0.0015  -0.0014   0.0027   2.00   34.1
2025/04/04 16:42:33.000   28.406020377  -16.531432310   214.1605   1   6   0.0024   0.0021   0.0106   0.0015  -0.0014   0.0027   3.00   33.1
2025/04/04 16:42:34.000   28.406020378  -16.531432310   214.1606   1   6   0.0024   0.0021   0.0106   0.0015  -0.0014   0.0027   4.00   32.1
2025/04/04 16:42:35.000   28.406020379  -16.531432309   214.1606   1   6   0.0024   0.0021   0.0106   0.0015  -0.0014   0.0027   5.00   31.2
2025/04/04 16:42:36.000   28.406020380  -16.531432309   214.1606   1   6   0.0024   0.0021   0.0106   0.0015  -0.0014   0.0027   6.00   30.2
2025/04/04 16:42:37.000   28.406020380  -16.531432309   214.1606   1   6   0.0024   0.0021   0.0107   0.0015  -0.0014   0.0027   7.00   29.3
2025/04/04 16:42:38.000   28.406020381  -16.531432308   214.1606   1   6   0.0024   0.0021   0.0106   0.0015  -0.0014   0.0027   8.00   28.4
2025/04/04 16:42:39.000   28.406020381  -16.531432308   214.1606   1   6   0.0024   0.0021   0.0106   0.0015  -0.0014   0.0027   9.00   27.6
2025/04/04 16:42:40.000   28.406020381  -16.531432308   214.1606   1   6   0.0024   0.0021   0.0106   0.0015  -0.0014   0.0027  10.00   26.8
2025/04/04 16:42:41.000   28.406020381  -16.531432308   214.1606   1   6   0.0024   0.0021   0.0106   0.0015  -0.0014   0.0027  11.00   26.1
2025/04/04 16:42:42.000   28.406020382  -16.531432307   214.1606   1   6   0.0024   0.0021   0.0106   0.0015  -0.0014   0.0027  12.00   25.4
2025/04/04 16:42:43.000   28.406020382  -16.531432307   214.1606   1   6   0.0024   0.0021   0.0106   0.0015  -0.0014   0.0027  13.00   24.7
2025/04/04 16:42:44.000   28.406020382  -16.531432307   214.1606   1   6   0.0024   0.0021   0.0106   0.0015  -0.0014   0.0027  14.00   24.1
2025/04/04 16:42:45.000   28.406020382  -16.531432307   214.1606   1   6   0.0024   0.0021   0.0106   0.0015  -0.0014   0.0027  15.00   23.6
2025/04/04 16:42:46.000   28.406020382  -16.531432307   214.1606   1   6   0.0024   0.0021   0.0106   0.0015  -0.0014   0.0027 -14.00   23.1
2025/04/04 16:42:47.000   28.406020382  -16.531432307   214.1606   1   6   0.0024   0.0021   0.0106   0.0015  -0.0014   0.0027 -13.00   22.3
2025/04/04 16:42:48.000   28.406020383  -16.531432307   214.1606   1   6   0.0024   0.0021   0.0106   0.0015  -0.0014   0.0027 -12.00   21.6
2025/04/04 16:42:49.000   28.406020383  -16.531432307   214.1606   1   6   0.0024   0.0021   0.0106   0.0015  -0.0014   0.0027 -11.00   20.7
2025/04/04 16:42:50.000   28.406020383  -16.531432307   214.1606   1   6   0.0024   0.0021   0.0106   0.0015  -0.0014   0.0027 -10.00   19.8
2025/04/04 16:42:51.000   28.406020383  -16.531432307   214.1606   1   6   0.0024   0.0021   0.0106   0.0015  -0.0014   0.0027  -9.00   18.8
2025/04/04 16:42:52.000   28.406020384  -16.531432306   214.1605   1   6   0.0024   0.0021   0.0106   0.0015  -0.0014   0.0027  -8.00   17.7
2025/04/04 16:42:53.000   28.406020384  -16.531432306   214.1605   1   6   0.0024   0.0021   0.0106   0.0015  -0.0014   0.0027  -7.00   16.4
2025/04/04 16:42:54.000   28.406020384  -16.531432306   214.1605   1   6   0.0024   0.0021   0.0106   0.0015  -0.0014   0.0027  -6.00   15.0
2025/04/04 16:42:55.000   28.406020385  -16.531432306   214.1604   1   6   0.0024   0.0021   0.0106   0.0015  -0.0014   0.0027  -5.00   13.4
2025/04/04 16:42:56.000   28.406020385  -16.531432306   214.1604   1   6   0.0024   0.0021   0.0106   0.0015  -0.0014   0.0027  -4.00   11.5
2025/04/04 16:42:57.000   28.406020386  -16.531432306   214.1603   1   6   0.0024   0.0021   0.0106   0.0015  -0.0014   0.0027  -3.00    9.4
2025/04/04 16:42:58.000   28.406020387  -16.531432305   214.1603   1   6   0.0024   0.0021   0.0106   0.0015  -0.0014   0.0027  -2.00    7.0
2025/04/04 16:42:59.000   28.406020388  -16.531432305   214.1602   1   6   0.0024   0.0021   0.0106   0.0015  -0.0014   0.0027  -1.00    4.1
2025/04/04 16:43:00.000   28.406020385  -16.531432297   214.1597   1   6   0.0024   0.0021   0.0106   0.0015  -0.0014   0.0027   0.00   29.1
2025/04/04 16:43:01.000   28.406020386  -16.531432296   214.1595   1   6   0.0024   0.0021   0.0106   0.0015  -0.0014   0.0027   1.00   28.3
2025/04/04 16:43:02.000   28.406020387  -16.531432295   214.1594   1   6   0.0024   0.0021   0.0106   0.0015  -0.0014   0.0027   2.00   27.6
2025/04/04 16:43:03.000   28.406020388  -16.531432294   214.1593   1   6   0.0024   0.0021   0.0106   0.0015  -0.0014   0.0027   3.00   26.8
2025/04/04 16:43:04.000   28.406020389  -16.531432294   214.1593   1   6   0.0024   0.0021   0.0107   0.0015  -0.0014   0.0027   4.00   26.2
2025/04/04 16:43:05.000   28.406020389  -16.531432294   214.1593   1   6   0.0024   0.0021   0.0107   0.0015  -0.0014   0.0027   5.00   25.5
2025/04/04 16:43:06.000   28.406020390  -16.531432293   214.1593   1   6   0.0024   0.0021   0.0107   0.0015  -0.0014   0.0027   6.00   24.8
2025/04/04 16:43:07.000   28.406020390  -16.531432293   214.1593   1   6   0.0024   0.0021   0.0107   0.0015  -0.0014   0.0027   7.00   24.2
2025/04/04 16:43:08.000   28.406020391  -16.531432293   214.1594   1   6   0.0024   0.0021   0.0107   0.0015  -0.0014   0.0027   8.00   23.6
2025/04/04 16:43:09.000   28.406020391  -16.531432293   214.1594   1   6   0.0024   0.0021   0.0107   0.0015  -0.0014   0.0027   9.00   22.9
2025/04/04 16:43:10.000   28.406020391  -16.531432293   214.1595   1   6   0.0024   0.0021   0.0107   0.0015  -0.0014   0.0027  10.00   22.4
2025/04/04 16:43:11.000   28.406020392  -16.531432293   214.1595   1   6   0.0024   0.0021   0.0107   0.0015  -0.0014   0.0027  11.00   21.8
2025/04/04 16:43:12.000   28.406020392  -16.531432293   214.1595   1   6   0.0024   0.0021   0.0107   0.0015  -0.0014   0.0027  12.00   21.3
2025/04/04 16:43:13.000   28.406020392  -16.531432293   214.1596   1   6   0.0024   0.0021   0.0106   0.0015  -0.0014   0.0027  13.00   20.8
2025/04/04 16:43:14.000   28.406020392  -16.531432293   214.1596   1   6   0.0024   0.0021   0.0106   0.0015  -0.0014   0.0027  14.00   20.4
2025/04/04 16:43:15.000   28.406020392  -16.531432293   214.1597   1   6   0.0024   0.0021   0.0106   0.0015  -0.0014   0.0027  15.00   20.0
2025/04/04 16:43:16.000   28.406020392  -16.531432293   214.1597   1   6   0.0024   0.0021   0.0106   0.0015  -0.0013   0.0027 -14.00   19.5
2025/04/04 16:43:17.000   28.406020393  -16.531432293   214.1597   1   6   0.0024   0.0021   0.0106   0.0015  -0.0013   0.0027 -13.00   19.0
2025/04/04 16:43:18.000   28.406020393  -16.531432292   214.1598   1   6   0.0024   0.0021   0.0106   0.0015  -0.0013   0.0027 -12.00   18.4
2025/04/04 16:43:19.000   28.406020393  -16.531432292   214.1598   1   6   0.0024   0.0021   0.0106   0.0015  -0.0013   0.0027 -11.00   17.8
2025/04/04 16:43:20.000   28.406020393  -16.531432292   214.1598   1   6   0.0024   0.0021   0.0106   0.0015  -0.0013   0.0027 -10.00   17.1
2025/04/04 16:43:21.000   28.406020394  -16.531432292   214.1599   1   6   0.0024   0.0021   0.0106   0.0015  -0.0013   0.0027  -9.00   16.3
2025/04/04 16:43:22.000   28.406020394  -16.531432292   214.1599   1   6   0.0024   0.0021   0.0106   0.0015  -0.0013   0.0027  -8.00   15.5
2025/04/04 16:43:23.000   28.406020394  -16.531432292   214.1599   1   6   0.0024   0.0021   0.0106   0.0015  -0.0013   0.0027  -7.00   14.5
2025/04/04 16:43:24.000   28.406020394  -16.531432292   214.1599   1   6   0.0024   0.0021   0.0106   0.0015  -0.0013   0.0027  -6.00   13.4
2025/04/04 16:43:25.000   28.406020395  -16.531432292   214.1599   1   6   0.0024   0.0021   0.0106   0.0015  -0.0013   0.0027  -5.00   12.1
2025/04/04 16:43:26.000   28.406020395  -16.531432292   214.1599   1   6   0.0024   0.0021   0.0106   0.0015  -0.0013   0.0027  -4.00   10.5
2025/04/04 16:43:27.000   28.406020396  -16.531432292   214.1598   1   6   0.0024   0.0021   0.0106   0.0015  -0.0013   0.0027  -3.00    8.6
2025/04/04 16:43:28.000   28.406020396  -16.531432292   214.1597   1   6   0.0024   0.0021   0.0106   0.0015  -0.0013   0.0027  -2.00    6.5
2025/04/04 16:43:29.000   28.406020397  -16.531432292   214.1596   1   6   0.0024   0.0021   0.0106   0.0015  -0.0013   0.0027  -1.00    3.9
2025/04/04 16:43:30.000   28.406020393  -16.531432284   214.1593   1   6   0.0024   0.0021   0.0106   0.0015  -0.0013   0.0027   0.00   26.7
2025/04/04 16:43:31.000   28.406020394  -16.531432284   214.1592   1   6   0.0024   0.0021   0.0106   0.0015  -0.0013   0.0027   1.00   26.2
2025/04/04 16:43:32.000   28.406020394  -16.531432283   214.1592   1   6   0.0024   0.0021   0.0107   0.0015  -0.0013   0.0027   2.00   25.8
2025/04/04 16:43:33.000   28.406020395  -16.531432283   214.1592   1   6   0.0024   0.0021   0.0107   0.0015  -0.0013   0.0027   3.00   25.2
2025/04/04 16:43:34.000   28.406020396  -16.531432283   214.1593   1   6   0.0024   0.0021   0.0107   0.0015  -0.0013   0.0027   4.00   24.6
2025/04/04 16:43:35.000   28.406020396  -16.531432283   214.1594   1   6   0.0024   0.0021   0.0107   0.0015  -0.0013   0.0027   5.00   23.9
2025/04/04 16:43:36.000   28.406020396  -16.531432283   214.1595   1   6   0.0024   0.0021   0.0107   0.0015  -0.0013   0.0027   6.00   23.4
2025/04/04 16:43:37.000   28.406020397  -16.531432282   214.1595   1   6   0.0024   0.0021   0.0107   0.0015  -0.0013   0.0027   7.00   22.8
2025/04/04 16:43:38.000   28.406020397  -16.531432282   214.1595   1   6   0.0024   0.0021   0.0107   0.0015  -0.0013   0.0027   8.00   22.2
2025/04/04 16:43:39.000   28.406020397  -16.531432282   214.1595   1   6   0.0024   0.0021   0.0107   0.0015  -0.0013   0.0027   9.00   21.7
2025/04/04 16:43:40.000   28.406020397  -16.531432282   214.1595   1   6   0.0024   0.0021   0.0107   0.0015  -0.0013   0.0027  10.00   21.2
2025/04/04 16:43:41.000   28.406020398  -16.531432282   214.1595   1   6   0.0024   0.0021   0.0107   0.0015  -0.0013   0.0027  11.00   20.8
2025/04/04 16:43:42.000   28.406020398  -16.531432282   214.1595   1   6   0.0024   0.0021   0.0107   0.0015  -0.0013   0.0027  12.00   20.3
2025/04/04 16:43:43.000   28.406020398  -16.531432282   214.1595   1   6   0.0024   0.0021   0.0107   0.0015  -0.0013   0.0027  13.00   19.9
2025/04/04 16:43:44.000   28.406020398  -16.531432282   214.1595   1   6   0.0024   0.0021   0.0107   0.0015  -0.0013   0.0027  14.00   19.5
2025/04/04 16:43:45.000   28.406020398  -16.531432282   214.1595   1   6   0.0024   0.0021   0.0106   0.0015  -0.0013   0.0027  15.00   19.0
2025/04/04 16:43:46.000   28.406020398  -16.531432282   214.1595   1   6   0.0024   0.0021   0.0106   0.0015  -0.0013   0.0027 -14.00   18.6
2025/04/04 16:43:47.000   28.406020398  -16.531432282   214.1595   1   6   0.0024   0.0021   0.0106   0.0015  -0.0013   0.0027 -13.00   18.1
2025/04/04 16:43:48.000   28.406020398  -16.531432282   214.1596   1   6   0.0024   0.0021   0.0106   0.0015  -0.0013   0.0027 -12.00   17.6
2025/04/04 16:43:49.000   28.406020399  -16.531432282   214.1595   1   6   0.0024   0.0021   0.0106   0.0015  -0.0013   0.0027 -11.00   17.0
2025/04/04 16:43:50.000   28.406020399  -16.531432283   214.1595   1   6   0.0024   0.0021   0.0106   0.0015  -0.0013   0.0027 -10.00   16.2
2025/04/04 16:43:51.000   28.406020399  -16.531432283   214.1595   1   6   0.0024   0.0021   0.0106   0.0015  -0.0013   0.0027  -9.00   15.5
2025/04/04 16:43:52.000   28.406020399  -16.531432283   214.1595   1   6   0.0024   0.0021   0.0106   0.0015  -0.0013   0.0027  -8.00   14.6
2025/04/04 16:43:53.000   28.406020399  -16.531432283   214.1595   1   6   0.0024   0.0021   0.0106   0.0015  -0.0013   0.0027  -7.00   13.6
2025/04/04 16:43:54.000   28.406020400  -16.531432283   214.1594   1   6   0.0024   0.0021   0.0106   0.0015  -0.0013   0.0027  -6.00   12.5
2025/04/04 16:43:55.000   28.406020400  -16.531432283   214.1594   1   6   0.0024   0.0021   0.0106   0.0015  -0.0013   0.0027  -5.00   11.2
2025/04/04 16:43:56.000   28.406020400  -16.531432283   214.1593   1   6   0.0024   0.0021   0.0106   0.0015  -0.0013   0.0027  -4.00    9.7
2025/04/04 16:43:57.000   28.406020400  -16.531432283   214.1593   1   6   0.0024   0.0021   0.0106   0.0015  -0.0013   0.0027  -3.00    8.1
2025/04/04 16:43:58.000   28.406020401  -16.531432284   214.1592   1   6   0.0024   0.0021   0.0106   0.0015  -0.0013   0.0027  -2.00    6.1
2025/04/04 16:43:59.000   28.406020401  -16.531432284   214.1592   1   6   0.0024   0.0021   0.0106   0.0015  -0.0013   0.0027  -1.00    3.8
2025/04/04 16:44:00.000   28.406020398  -16.531432278   214.1592   1   6   0.0024   0.0021   0.0106   0.0015  -0.0013   0.0027   0.00   27.7
2025/04/04 16:44:01.000   28.406020399  -16.531432277   214.1591   1   6   0.0024   0.0021   0.0107   0.0015  -0.0013   0.0027   1.00   27.5
