% program   : RTKPOST-EX 2.5.0
% inp file  : C:\Users\SallyHenry\Desktop\Sally Internship\GNSS gravi\DATA\Survey Rover Obs\ORO06.25o
% inp file  : C:\Users\SallyHenry\Desktop\Sally Internship\GNSS gravi\DATA\BaseStations\TN02\TN0200ESP_R_20250940000_01D_30S_MO.rnx
% inp file  : C:\Users\SallyHenry\Desktop\Sally Internship\GNSS gravi\DATA\BaseStations\TN02\TN0200ESP_R_20250940000_01D_MN.rnx
% inp file  : C:\Users\SallyHenry\Desktop\Sally Internship\GNSS gravi\DATA\aux_files\Survey\IGS0OPSFIN_20250940000_01D_15M_ORB.SP3
% inp file  : C:\Users\SallyHenry\Desktop\Sally Internship\GNSS gravi\DATA\aux_files\Survey\IGS0OPSFIN_20250940000_01D_30S_CLK.CLK
% obs start : 2025/04/04 15:41:47.0 GPST (week2360 488507.0s)
% obs end   : 2025/04/04 15:56:53.0 GPST (week2360 489413.0s)
% pos mode  : Static
% freqs     : L1+L2/E5b
% solution  : Combined-No Phase Reset
% elev mask : 15.0 deg
% dynamics  : on
% tidecorr  : solid
% ionos opt : Estimate TEC
% tropo opt : Estimate ZTD+Grad
% ephemeris : Precise
% navi sys  : GPS GLONASS Galileo QZSS BDS
% amb res   : Fix and Hold
% amb glo   : Fix and Hold
% amb bds   : on
% val thres : 3.0
% antenna1  :                       ( 0.0000  0.0000  1.8000)
% antenna2  :                       ( 0.0000  0.0000  0.0771)
% ref pos   :  28.418257450  -16.550784480    54.4145
%
% (lat/lon/height=WGS84/ellipsoidal,Q=1:fix,2:float,3:sbas,4:dgps,5:single,6:ppp,ns=# of satellites)
%  GPST                  latitude(deg) longitude(deg)  height(m)   Q  ns   sdn(m)   sde(m)   sdu(m)  sdne(m)  sdeu(m)  sdun(m) age(s)  ratio
2025/04/04 15:41:47.000   28.388417394  -16.540544517   335.2884   1   4   0.0063   0.0042   0.1268   0.0031  -0.0217  -0.0150 -13.00  382.8
2025/04/04 15:41:48.000   28.388417394  -16.540544517   335.2881   1   4   0.0063   0.0042   0.1269   0.0031  -0.0217  -0.0150 -12.00  375.9
2025/04/04 15:41:49.000   28.388417395  -16.540544516   335.2878   1   4   0.0064   0.0042   0.1270   0.0031  -0.0217  -0.0151 -11.00  368.0
2025/04/04 15:41:50.000   28.388417395  -16.540544516   335.2876   1   4   0.0064   0.0042   0.1270   0.0031  -0.0217  -0.0151 -10.00  358.6
2025/04/04 15:41:51.000   28.388417396  -16.540544516   335.2871   1   4   0.0064   0.0042   0.1271   0.0031  -0.0218  -0.0152  -9.00  346.2
2025/04/04 15:41:52.000   28.388417396  -16.540544516   335.2865   1   4   0.0064   0.0042   0.1272   0.0032  -0.0218  -0.0153  -8.00  331.1
2025/04/04 15:41:53.000   28.388417397  -16.540544515   335.2861   1   4   0.0065   0.0042   0.1274   0.0032  -0.0218  -0.0154  -7.00  311.7
2025/04/04 15:41:54.000   28.388417398  -16.540544515   335.2849   1   4   0.0065   0.0043   0.1275   0.0032  -0.0219  -0.0155  -6.00  291.6
2025/04/04 15:41:55.000   28.388417398  -16.540544514   335.2835   1   4   0.0065   0.0043   0.1277   0.0032  -0.0219  -0.0156  -5.00  268.0
2025/04/04 15:41:56.000   28.388417399  -16.540544513   335.2822   1   4   0.0066   0.0043   0.1280   0.0033  -0.0220  -0.0158  -4.00  232.2
2025/04/04 15:41:57.000   28.388417401  -16.540544512   335.2801   1   4   0.0067   0.0043   0.1283   0.0033  -0.0220  -0.0160  -3.00  187.4
2025/04/04 15:41:58.000   28.388417404  -16.540544509   335.2741   1   4   0.0068   0.0043   0.1286   0.0034  -0.0221  -0.0162  -2.00  151.6
2025/04/04 15:41:59.000   28.388417406  -16.540544508   335.2703   1   4   0.0069   0.0043   0.1291   0.0035  -0.0222  -0.0165  -1.00   79.6
2025/04/04 15:42:00.000   28.388417380  -16.540544516   335.2844   1   4   0.0058   0.0042   0.1274   0.0028  -0.0217  -0.0140   0.00  515.4
2025/04/04 15:42:01.000   28.388417382  -16.540544514   335.2816   1   4   0.0059   0.0042   0.1277   0.0029  -0.0218  -0.0142   1.00  513.7
2025/04/04 15:42:02.000   28.388417383  -16.540544513   335.2787   1   4   0.0060   0.0042   0.1280   0.0029  -0.0218  -0.0144   2.00  507.6
2025/04/04 15:42:03.000   28.388417384  -16.540544511   335.2765   1   4   0.0060   0.0042   0.1283   0.0030  -0.0219  -0.0146   3.00  498.2
2025/04/04 15:42:04.000   28.388417385  -16.540544511   335.2755   1   4   0.0061   0.0043   0.1286   0.0030  -0.0220  -0.0148   4.00  485.2
2025/04/04 15:42:05.000   28.388417385  -16.540544510   335.2745   1   4   0.0061   0.0043   0.1288   0.0030  -0.0220  -0.0149   5.00  472.4
2025/04/04 15:42:06.000   28.388417387  -16.540544509   335.2723   1   4   0.0062   0.0043   0.1290   0.0031  -0.0221  -0.0151   6.00  471.5
2025/04/04 15:42:07.000   28.388417389  -16.540544508   335.2699   1   4   0.0062   0.0043   0.1292   0.0031  -0.0221  -0.0152   7.00  477.8
2025/04/04 15:42:08.000   28.388417390  -16.540544507   335.2686   1   4   0.0063   0.0043   0.1293   0.0031  -0.0222  -0.0153   8.00  469.3
2025/04/04 15:42:09.000   28.388417391  -16.540544506   335.2675   1   4   0.0063   0.0043   0.1295   0.0031  -0.0222  -0.0154   9.00  461.8
2025/04/04 15:42:10.000   28.388417391  -16.540544506   335.2669   1   4   0.0063   0.0043   0.1296   0.0032  -0.0222  -0.0154  10.00  452.6
2025/04/04 15:42:11.000   28.388417392  -16.540544506   335.2661   1   4   0.0063   0.0043   0.1296   0.0032  -0.0222  -0.0155  11.00  445.7
2025/04/04 15:42:12.000   28.388417392  -16.540544505   335.2655   1   4   0.0063   0.0043   0.1297   0.0032  -0.0222  -0.0155  12.00  439.0
2025/04/04 15:42:13.000   28.388417392  -16.540544505   335.2651   1   4   0.0064   0.0043   0.1298   0.0032  -0.0223  -0.0156  13.00  433.1
2025/04/04 15:42:14.000   28.388417393  -16.540544505   335.2645   1   4   0.0064   0.0043   0.1298   0.0032  -0.0223  -0.0156  14.00  427.6
2025/04/04 15:42:15.000   28.388417393  -16.540544504   335.2639   1   4   0.0064   0.0043   0.1299   0.0032  -0.0223  -0.0156  15.00  423.0
2025/04/04 15:42:16.000   28.388417394  -16.540544504   335.2636   1   4   0.0064   0.0043   0.1299   0.0032  -0.0223  -0.0157 -14.00  417.4
2025/04/04 15:42:17.000   28.388417394  -16.540544504   335.2630   1   4   0.0064   0.0043   0.1300   0.0032  -0.0223  -0.0157 -13.00  411.4
2025/04/04 15:42:18.000   28.388417394  -16.540544504   335.2628   1   4   0.0064   0.0043   0.1300   0.0032  -0.0223  -0.0157 -12.00  404.2
2025/04/04 15:42:19.000   28.388417395  -16.540544504   335.2626   1   4   0.0064   0.0043   0.1301   0.0033  -0.0223  -0.0158 -11.00  395.3
2025/04/04 15:42:20.000   28.388417396  -16.540544503   335.2620   1   4   0.0065   0.0043   0.1302   0.0033  -0.0224  -0.0158 -10.00  388.1
2025/04/04 15:42:21.000   28.388417397  -16.540544503   335.2613   1   4   0.0065   0.0043   0.1302   0.0033  -0.0224  -0.0159  -9.00  376.8
2025/04/04 15:42:22.000   28.388417397  -16.540544502   335.2611   1   4   0.0065   0.0043   0.1304   0.0033  -0.0224  -0.0160  -8.00  360.6
2025/04/04 15:42:23.000   28.388417398  -16.540544502   335.2607   1   4   0.0065   0.0044   0.1305   0.0033  -0.0224  -0.0161  -7.00  343.1
2025/04/04 15:42:24.000   28.388417400  -16.540544501   335.2593   1   4   0.0066   0.0044   0.1306   0.0033  -0.0225  -0.0162  -6.00  327.1
2025/04/04 15:42:25.000   28.388417401  -16.540544501   335.2585   1   4   0.0066   0.0044   0.1308   0.0034  -0.0225  -0.0163  -5.00  299.9
2025/04/04 15:42:26.000   28.388417402  -16.540544500   335.2573   1   4   0.0067   0.0044   0.1311   0.0034  -0.0226  -0.0165  -4.00  270.2
2025/04/04 15:42:27.000   28.388417405  -16.540544499   335.2567   1   4   0.0068   0.0044   0.1313   0.0035  -0.0227  -0.0167  -3.00  228.9
2025/04/04 15:42:28.000   28.388417408  -16.540544498   335.2540   1   4   0.0068   0.0044   0.1317   0.0035  -0.0227  -0.0169  -2.00  177.9
2025/04/04 15:42:29.000   28.388417412  -16.540544496   335.2524   1   4   0.0070   0.0045   0.1322   0.0036  -0.0229  -0.0172  -1.00  100.7
2025/04/04 15:42:30.000   28.388417374  -16.540544511   335.2794   1   4   0.0059   0.0043   0.1306   0.0030  -0.0223  -0.0148   0.00  459.4
2025/04/04 15:42:31.000   28.388417377  -16.540544510   335.2778   1   4   0.0060   0.0043   0.1309   0.0030  -0.0224  -0.0150   1.00  461.5
2025/04/04 15:42:32.000   28.388417380  -16.540544508   335.2757   1   4   0.0060   0.0043   0.1312   0.0031  -0.0225  -0.0152   2.00  466.6
2025/04/04 15:42:33.000   28.388417383  -16.540544507   335.2754   1   4   0.0061   0.0044   0.1315   0.0031  -0.0226  -0.0154   3.00  469.0
2025/04/04 15:42:34.000   28.388417386  -16.540544506   335.2745   1   4   0.0062   0.0044   0.1318   0.0031  -0.0226  -0.0156   4.00  478.9
2025/04/04 15:42:35.000   28.388417387  -16.540544506   335.2747   1   4   0.0062   0.0044   0.1320   0.0032  -0.0227  -0.0157   5.00  467.0
2025/04/04 15:42:36.000   28.388417388  -16.540544505   335.2734   1   4   0.0063   0.0044   0.1322   0.0032  -0.0227  -0.0158   6.00  461.2
2025/04/04 15:42:37.000   28.388417389  -16.540544505   335.2731   1   4   0.0063   0.0044   0.1324   0.0032  -0.0228  -0.0159   7.00  448.1
2025/04/04 15:42:38.000   28.388417390  -16.540544504   335.2731   1   4   0.0063   0.0044   0.1325   0.0033  -0.0228  -0.0160   8.00  438.0
2025/04/04 15:42:39.000   28.388417391  -16.540544504   335.2728   1   4   0.0064   0.0044   0.1326   0.0033  -0.0228  -0.0161   9.00  426.8
2025/04/04 15:42:40.000   28.388417392  -16.540544504   335.2728   1   4   0.0064   0.0044   0.1327   0.0033  -0.0228  -0.0162  10.00  418.2
2025/04/04 15:42:41.000   28.388417392  -16.540544504   335.2733   1   4   0.0064   0.0044   0.1328   0.0033  -0.0229  -0.0162  11.00  407.9
2025/04/04 15:42:42.000   28.388417393  -16.540544504   335.2734   1   4   0.0064   0.0044   0.1329   0.0033  -0.0229  -0.0163  12.00  400.3
2025/04/04 15:42:43.000   28.388417393  -16.540544504   335.2735   1   4   0.0064   0.0044   0.1329   0.0033  -0.0229  -0.0163  13.00  393.2
2025/04/04 15:42:44.000   28.388417393  -16.540544504   335.2735   1   4   0.0065   0.0044   0.1330   0.0033  -0.0229  -0.0163  14.00  386.4
2025/04/04 15:42:45.000   28.388417393  -16.540544504   335.2738   1   4   0.0065   0.0044   0.1330   0.0034  -0.0229  -0.0164  15.00  379.3
2025/04/04 15:42:46.000   28.388417394  -16.540544503   335.2739   1   4   0.0065   0.0044   0.1331   0.0034  -0.0229  -0.0164 -14.00  373.2
2025/04/04 15:42:47.000   28.388417394  -16.540544503   335.2740   1   4   0.0065   0.0044   0.1331   0.0034  -0.0229  -0.0164 -13.00  366.0
2025/04/04 15:42:48.000   28.388417395  -16.540544503   335.2739   1   4   0.0065   0.0044   0.1332   0.0034  -0.0230  -0.0165 -12.00  359.6
2025/04/04 15:42:49.000   28.388417395  -16.540544503   335.2738   1   4   0.0065   0.0044   0.1333   0.0034  -0.0230  -0.0165 -11.00  350.6
2025/04/04 15:42:50.000   28.388417396  -16.540544503   335.2733   1   4   0.0065   0.0045   0.1333   0.0034  -0.0230  -0.0166 -10.00  341.4
2025/04/04 15:42:51.000   28.388417397  -16.540544502   335.2726   1   4   0.0066   0.0045   0.1334   0.0034  -0.0230  -0.0166  -9.00  332.6
2025/04/04 15:42:52.000   28.388417397  -16.540544502   335.2730   1   4   0.0066   0.0045   0.1335   0.0034  -0.0230  -0.0167  -8.00  316.5
2025/04/04 15:42:53.000   28.388417398  -16.540544502   335.2733   1   4   0.0066   0.0045   0.1336   0.0035  -0.0231  -0.0168  -7.00  299.1
2025/04/04 15:42:54.000   28.388417399  -16.540544502   335.2726   1   4   0.0067   0.0045   0.1338   0.0035  -0.0231  -0.0169  -6.00  283.5
2025/04/04 15:42:55.000   28.388417401  -16.540544501   335.2719   1   4   0.0067   0.0045   0.1340   0.0035  -0.0232  -0.0170  -5.00  261.8
2025/04/04 15:42:56.000   28.388417403  -16.540544500   335.2712   1   4   0.0068   0.0045   0.1342   0.0036  -0.0232  -0.0171  -4.00  234.2
2025/04/04 15:42:57.000   28.388417405  -16.540544499   335.2694   1   4   0.0068   0.0045   0.1345   0.0036  -0.0233  -0.0173  -3.00  199.6
2025/04/04 15:42:58.000   28.388417410  -16.540544497   335.2667   1   4   0.0069   0.0045   0.1348   0.0037  -0.0234  -0.0176  -2.00  161.6
2025/04/04 15:42:59.000   28.388417415  -16.540544496   335.2650   1   4   0.0071   0.0046   0.1353   0.0037  -0.0235  -0.0178  -1.00   98.3
2025/04/04 15:43:00.000   28.388417365  -16.540544514   335.2979   1   4   0.0060   0.0044   0.1339   0.0031  -0.0230  -0.0156   0.00  424.9
2025/04/04 15:43:01.000   28.388417366  -16.540544514   335.2994   1   4   0.0060   0.0044   0.1342   0.0032  -0.0231  -0.0158   1.00  420.5
2025/04/04 15:43:02.000   28.388417370  -16.540544513   335.2984   1   4   0.0061   0.0045   0.1345   0.0032  -0.0231  -0.0160   2.00  425.2
2025/04/04 15:43:03.000   28.388417372  -16.540544512   335.2978   1   4   0.0062   0.0045   0.1348   0.0032  -0.0232  -0.0162   3.00  411.0
2025/04/04 15:43:04.000   28.388417374  -16.540544511   335.2973   1   4   0.0062   0.0045   0.1351   0.0033  -0.0233  -0.0163   4.00  404.9
2025/04/04 15:43:05.000   28.388417376  -16.540544510   335.2961   1   4   0.0063   0.0045   0.1353   0.0033  -0.0233  -0.0165   5.00  395.8
2025/04/04 15:43:06.000   28.388417377  -16.540544510   335.2965   1   4   0.0063   0.0045   0.1355   0.0034  -0.0234  -0.0166   6.00  382.2
2025/04/04 15:43:07.000   28.388417378  -16.540544510   335.2964   1   4   0.0064   0.0045   0.1357   0.0034  -0.0234  -0.0167   7.00  375.5
2025/04/04 15:43:08.000   28.388417379  -16.540544510   335.2971   1   4   0.0064   0.0045   0.1358   0.0034  -0.0234  -0.0168   8.00  365.6
2025/04/04 15:43:09.000   28.388417380  -16.540544509   335.2974   1   4   0.0064   0.0045   0.1359   0.0034  -0.0235  -0.0168   9.00  361.4
2025/04/04 15:43:10.000   28.388417381  -16.540544509   335.2978   1   4   0.0065   0.0045   0.1360   0.0034  -0.0235  -0.0169  10.00  357.4
2025/04/04 15:43:11.000   28.388417382  -16.540544509   335.2971   1   4   0.0065   0.0045   0.1361   0.0035  -0.0235  -0.0170  11.00  353.9
2025/04/04 15:43:12.000   28.388417383  -16.540544509   335.2973   1   4   0.0065   0.0045   0.1362   0.0035  -0.0235  -0.0170  12.00  347.3
2025/04/04 15:43:13.000   28.388417383  -16.540544509   335.2975   1   4   0.0065   0.0046   0.1362   0.0035  -0.0235  -0.0170  13.00  342.0
2025/04/04 15:43:14.000   28.388417384  -16.540544509   335.2973   1   4   0.0065   0.0046   0.1363   0.0035  -0.0236  -0.0171  14.00  337.9
2025/04/04 15:43:15.000   28.388417384  -16.540544508   335.2972   1   4   0.0066   0.0046   0.1363   0.0035  -0.0236  -0.0171  15.00  331.6
2025/04/04 15:43:16.000   28.388417385  -16.540544508   335.2974   1   4   0.0066   0.0046   0.1364   0.0035  -0.0236  -0.0171 -14.00  325.9
2025/04/04 15:43:17.000   28.388417385  -16.540544508   335.2976   1   4   0.0066   0.0046   0.1364   0.0035  -0.0236  -0.0172 -13.00  318.4
2025/04/04 15:43:18.000   28.388417385  -16.540544508   335.2975   1   4   0.0066   0.0046   0.1365   0.0035  -0.0236  -0.0172 -12.00  311.3
2025/04/04 15:43:19.000   28.388417386  -16.540544508   335.2975   1   4   0.0066   0.0046   0.1365   0.0035  -0.0236  -0.0172 -11.00  304.2
2025/04/04 15:43:20.000   28.388417387  -16.540544508   335.2976   1   4   0.0066   0.0046   0.1366   0.0035  -0.0236  -0.0173 -10.00  295.6
2025/04/04 15:43:21.000   28.388417387  -16.540544508   335.2978   1   4   0.0067   0.0046   0.1367   0.0036  -0.0237  -0.0173  -9.00  285.8
2025/04/04 15:43:22.000   28.388417388  -16.540544508   335.2980   1   4   0.0067   0.0046   0.1368   0.0036  -0.0237  -0.0174  -8.00  273.7
2025/04/04 15:43:23.000   28.388417390  -16.540544507   335.2973   1   4   0.0067   0.0046   0.1369   0.0036  -0.0237  -0.0175  -7.00  261.9
2025/04/04 15:43:24.000   28.388417392  -16.540544507   335.2965   1   4   0.0068   0.0046   0.1371   0.0036  -0.0238  -0.0176  -6.00  248.3
2025/04/04 15:43:25.000   28.388417394  -16.540544506   335.2951   1   4   0.0068   0.0046   0.1372   0.0037  -0.0238  -0.0177  -5.00  231.3
2025/04/04 15:43:26.000   28.388417398  -16.540544504   335.2926   1   4   0.0069   0.0046   0.1375   0.0037  -0.0239  -0.0178  -4.00  212.6
2025/04/04 15:43:27.000   28.388417402  -16.540544502   335.2891   1   4   0.0069   0.0046   0.1377   0.0037  -0.0239  -0.0180  -3.00  184.1
2025/04/04 15:43:28.000   28.388417407  -16.540544500   335.2857   1   4   0.0070   0.0047   0.1381   0.0038  -0.0240  -0.0182  -2.00  146.9
2025/04/04 15:43:29.000   28.388417416  -16.540544497   335.2807   1   4   0.0072   0.0047   0.1385   0.0039  -0.0241  -0.0185  -1.00   93.6
2025/04/04 15:43:30.000   28.388417338  -16.540544523   335.3255   1   4   0.0060   0.0045   0.1373   0.0033  -0.0237  -0.0165   0.00  291.3
2025/04/04 15:43:31.000   28.388417342  -16.540544522   335.3235   1   4   0.0061   0.0046   0.1377   0.0033  -0.0238  -0.0166   1.00  283.8
2025/04/04 15:43:32.000   28.388417345  -16.540544521   335.3224   1   4   0.0062   0.0046   0.1380   0.0034  -0.0238  -0.0168   2.00  277.1
2025/04/04 15:43:33.000   28.388417349  -16.540544519   335.3205   1   4   0.0063   0.0046   0.1383   0.0034  -0.0239  -0.0170   3.00  275.3
2025/04/04 15:43:34.000   28.388417352  -16.540544518   335.3191   1   4   0.0063   0.0046   0.1385   0.0034  -0.0240  -0.0171   4.00  268.2
2025/04/04 15:43:35.000   28.388417355  -16.540544517   335.3174   1   4   0.0064   0.0046   0.1387   0.0035  -0.0240  -0.0173   5.00  259.4
2025/04/04 15:43:36.000   28.388417356  -16.540544516   335.3176   1   4   0.0064   0.0046   0.1389   0.0035  -0.0241  -0.0174   6.00  252.0
2025/04/04 15:43:37.000   28.388417359  -16.540544515   335.3162   1   4   0.0065   0.0046   0.1391   0.0035  -0.0241  -0.0175   7.00  246.8
2025/04/04 15:43:38.000   28.388417361  -16.540544515   335.3152   1   4   0.0065   0.0047   0.1392   0.0036  -0.0241  -0.0175   8.00  240.2
2025/04/04 15:43:39.000   28.388417362  -16.540544514   335.3144   1   4   0.0065   0.0047   0.1393   0.0036  -0.0242  -0.0176   9.00  234.3
2025/04/04 15:43:40.000   28.388417363  -16.540544514   335.3141   1   4   0.0066   0.0047   0.1394   0.0036  -0.0242  -0.0177  10.00  228.3
2025/04/04 15:43:41.000   28.388417364  -16.540544513   335.3134   1   4   0.0066   0.0047   0.1395   0.0036  -0.0242  -0.0177  11.00  223.5
2025/04/04 15:43:42.000   28.388417365  -16.540544513   335.3133   1   4   0.0066   0.0047   0.1396   0.0036  -0.0242  -0.0178  12.00  218.4
2025/04/04 15:43:43.000   28.388417366  -16.540544513   335.3129   1   4   0.0066   0.0047   0.1396   0.0036  -0.0242  -0.0178  13.00  213.6
2025/04/04 15:43:44.000   28.388417367  -16.540544512   335.3123   1   4   0.0066   0.0047   0.1397   0.0036  -0.0242  -0.0178  14.00  210.1
2025/04/04 15:43:45.000   28.388417368  -16.540544512   335.3118   1   4   0.0066   0.0047   0.1397   0.0036  -0.0243  -0.0179  15.00  207.0
2025/04/04 15:43:46.000   28.388417368  -16.540544512   335.3115   1   4   0.0067   0.0047   0.1398   0.0037  -0.0243  -0.0179 -14.00  203.6
2025/04/04 15:43:47.000   28.388417369  -16.540544511   335.3109   1   4   0.0067   0.0047   0.1398   0.0037  -0.0243  -0.0179 -13.00  200.0
2025/04/04 15:43:48.000   28.388417370  -16.540544511   335.3102   1   4   0.0067   0.0047   0.1399   0.0037  -0.0243  -0.0179 -12.00  196.6
2025/04/04 15:43:49.000   28.388417371  -16.540544510   335.3098   1   4   0.0067   0.0047   0.1399   0.0037  -0.0243  -0.0180 -11.00  191.2
2025/04/04 15:43:50.000   28.388417372  -16.540544510   335.3089   1   4   0.0067   0.0047   0.1400   0.0037  -0.0243  -0.0180 -10.00  186.2
2025/04/04 15:43:51.000   28.388417374  -16.540544509   335.3083   1   4   0.0067   0.0047   0.1401   0.0037  -0.0243  -0.0181  -9.00  179.9
2025/04/04 15:43:52.000   28.388417375  -16.540544509   335.3077   1   4   0.0068   0.0047   0.1402   0.0037  -0.0244  -0.0181  -8.00  173.2
2025/04/04 15:43:53.000   28.388417377  -16.540544508   335.3067   1   4   0.0068   0.0047   0.1403   0.0038  -0.0244  -0.0182  -7.00  165.5
2025/04/04 15:43:54.000   28.388417381  -16.540544507   335.3039   1   4   0.0069   0.0047   0.1404   0.0038  -0.0244  -0.0183  -6.00  159.3
2025/04/04 15:43:55.000   28.388417385  -16.540544505   335.3004   1   4   0.0069   0.0047   0.1406   0.0038  -0.0245  -0.0184  -5.00  152.5
2025/04/04 15:43:56.000   28.388417391  -16.540544503   335.2976   1   4   0.0070   0.0047   0.1408   0.0038  -0.0245  -0.0186  -4.00  144.4
2025/04/04 15:43:57.000   28.388417398  -16.540544500   335.2932   1   4   0.0071   0.0048   0.1411   0.0039  -0.0246  -0.0187  -3.00  130.3
2025/04/04 15:43:58.000   28.388417406  -16.540544497   335.2892   1   4   0.0072   0.0048   0.1415   0.0040  -0.0247  -0.0189  -2.00  104.7
2025/04/04 15:43:59.000   28.388417417  -16.540544493   335.2826   1   4   0.0073   0.0048   0.1419   0.0040  -0.0248  -0.0192  -1.00   67.3
2025/04/04 15:44:00.000   28.388417347  -16.540544515   335.3176   1   4   0.0061   0.0047   0.1409   0.0034  -0.0244  -0.0173   0.00  320.2
2025/04/04 15:44:01.000   28.388417353  -16.540544512   335.3144   1   4   0.0062   0.0047   0.1412   0.0035  -0.0245  -0.0175   1.00  325.1
2025/04/04 15:44:02.000   28.388417360  -16.540544510   335.3104   1   4   0.0063   0.0047   0.1415   0.0035  -0.0245  -0.0176   2.00  331.0
2025/04/04 15:44:03.000   28.388417367  -16.540544506   335.3049   1   4   0.0063   0.0047   0.1418   0.0036  -0.0246  -0.0178   3.00  338.5
2025/04/04 15:44:04.000   28.388417373  -16.540544504   335.3008   1   4   0.0064   0.0047   0.1421   0.0036  -0.0247  -0.0179   4.00  344.1
2025/04/04 15:44:05.000   28.388417378  -16.540544501   335.2963   1   4   0.0065   0.0048   0.1423   0.0036  -0.0247  -0.0181   5.00  345.4
2025/04/04 15:44:06.000   28.388417383  -16.540544499   335.2929   1   4   0.0065   0.0048   0.1425   0.0037  -0.0248  -0.0182   6.00  342.7
2025/04/04 15:44:07.000   28.388417386  -16.540544497   335.2897   1   4   0.0066   0.0048   0.1426   0.0037  -0.0248  -0.0183   7.00  341.7
2025/04/04 15:44:08.000   28.388417389  -16.540544496   335.2875   1   4   0.0066   0.0048   0.1428   0.0037  -0.0248  -0.0183   8.00  338.7
2025/04/04 15:44:09.000   28.388417392  -16.540544495   335.2850   1   4   0.0066   0.0048   0.1429   0.0037  -0.0249  -0.0184   9.00  336.7
2025/04/04 15:44:10.000   28.388417394  -16.540544494   335.2833   1   4   0.0067   0.0048   0.1430   0.0038  -0.0249  -0.0185  10.00  333.6
2025/04/04 15:44:11.000   28.388417395  -16.540544493   335.2817   1   4   0.0067   0.0048   0.1431   0.0038  -0.0249  -0.0185  11.00  330.8
2025/04/04 15:44:12.000   28.388417397  -16.540544492   335.2803   1   4   0.0067   0.0048   0.1431   0.0038  -0.0249  -0.0185  12.00  328.5
2025/04/04 15:44:13.000   28.388417399  -16.540544491   335.2789   1   4   0.0067   0.0048   0.1432   0.0038  -0.0249  -0.0186  13.00  326.5
2025/04/04 15:44:14.000   28.388417400  -16.540544491   335.2777   1   4   0.0067   0.0048   0.1432   0.0038  -0.0250  -0.0186  14.00  323.4
2025/04/04 15:44:15.000   28.388417401  -16.540544490   335.2768   1   4   0.0067   0.0048   0.1433   0.0038  -0.0250  -0.0186  15.00  319.9
2025/04/04 15:44:16.000   28.388417402  -16.540544490   335.2761   1   4   0.0068   0.0048   0.1433   0.0038  -0.0250  -0.0187 -14.00  315.8
2025/04/04 15:44:17.000   28.388417403  -16.540544489   335.2750   1   4   0.0068   0.0048   0.1434   0.0038  -0.0250  -0.0187 -13.00  312.3
2025/04/04 15:44:18.000   28.388417404  -16.540544489   335.2740   1   4   0.0068   0.0048   0.1434   0.0038  -0.0250  -0.0187 -12.00  306.7
2025/04/04 15:44:19.000   28.388417405  -16.540544488   335.2727   1   4   0.0068   0.0048   0.1435   0.0038  -0.0250  -0.0188 -11.00  301.6
2025/04/04 15:44:20.000   28.388417406  -16.540544487   335.2716   1   4   0.0068   0.0048   0.1436   0.0039  -0.0250  -0.0188 -10.00  297.3
2025/04/04 15:44:21.000   28.388417408  -16.540544487   335.2710   1   4   0.0068   0.0048   0.1436   0.0039  -0.0251  -0.0189  -9.00  290.5
2025/04/04 15:44:22.000   28.388417410  -16.540544486   335.2692   1   4   0.0069   0.0048   0.1437   0.0039  -0.0251  -0.0189  -8.00  285.0
2025/04/04 15:44:23.000   28.388417413  -16.540544485   335.2678   1   4   0.0069   0.0048   0.1438   0.0039  -0.0251  -0.0190  -7.00  277.2
2025/04/04 15:44:24.000   28.388417415  -16.540544484   335.2658   1   4   0.0070   0.0049   0.1440   0.0039  -0.0251  -0.0191  -6.00  264.7
2025/04/04 15:44:25.000   28.388417419  -16.540544482   335.2632   1   4   0.0070   0.0049   0.1442   0.0040  -0.0252  -0.0192  -5.00  250.8
2025/04/04 15:44:26.000   28.388417422  -16.540544481   335.2601   1   4   0.0071   0.0049   0.1444   0.0040  -0.0252  -0.0193  -4.00  227.7
2025/04/04 15:44:27.000   28.388417427  -16.540544479   335.2572   1   4   0.0072   0.0049   0.1446   0.0040  -0.0253  -0.0195  -3.00  198.1
2025/04/04 15:44:28.000   28.388417432  -16.540544477   335.2526   1   4   0.0073   0.0049   0.1450   0.0041  -0.0254  -0.0197  -2.00  152.7
2025/04/04 15:44:29.000   28.388417437  -16.540544475   335.2497   1   4   0.0074   0.0049   0.1454   0.0042  -0.0255  -0.0199  -1.00   89.4
2025/04/04 15:44:30.000   28.388417393  -16.540544489   335.2716   1   4   0.0062   0.0048   0.1446   0.0036  -0.0251  -0.0182   0.00  533.8
2025/04/04 15:44:31.000   28.388417395  -16.540544488   335.2689   1   4   0.0063   0.0048   0.1449   0.0036  -0.0252  -0.0183   1.00  515.0
2025/04/04 15:44:32.000   28.388417400  -16.540544486   335.2643   1   4   0.0064   0.0048   0.1452   0.0037  -0.0253  -0.0185   2.00  499.0
2025/04/04 15:44:33.000   28.388417404  -16.540544483   335.2569   1   4   0.0064   0.0049   0.1455   0.0037  -0.0254  -0.0186   3.00  486.0
2025/04/04 15:44:34.000   28.388417408  -16.540544481   335.2530   1   4   0.0065   0.0049   0.1458   0.0038  -0.0254  -0.0188   4.00  470.4
2025/04/04 15:44:35.000   28.388417410  -16.540544479   335.2499   1   4   0.0066   0.0049   0.1460   0.0038  -0.0255  -0.0189   5.00  452.8
2025/04/04 15:44:36.000   28.388417412  -16.540544478   335.2480   1   4   0.0066   0.0049   0.1462   0.0038  -0.0255  -0.0190   6.00  438.9
2025/04/04 15:44:37.000   28.388417414  -16.540544477   335.2450   1   4   0.0067   0.0049   0.1463   0.0039  -0.0255  -0.0191   7.00  425.6
2025/04/04 15:44:38.000   28.388417416  -16.540544476   335.2427   1   4   0.0067   0.0049   0.1464   0.0039  -0.0256  -0.0191   8.00  416.7
2025/04/04 15:44:39.000   28.388417418  -16.540544475   335.2409   1   4   0.0067   0.0049   0.1465   0.0039  -0.0256  -0.0192   9.00  410.8
2025/04/04 15:44:40.000   28.388417419  -16.540544475   335.2401   1   4   0.0068   0.0049   0.1466   0.0039  -0.0256  -0.0193  10.00  403.6
2025/04/04 15:44:41.000   28.388417420  -16.540544474   335.2396   1   4   0.0068   0.0049   0.1467   0.0039  -0.0256  -0.0193  11.00  394.2
2025/04/04 15:44:42.000   28.388417421  -16.540544474   335.2392   1   4   0.0068   0.0049   0.1468   0.0039  -0.0257  -0.0193  12.00  385.4
2025/04/04 15:44:43.000   28.388417422  -16.540544474   335.2381   1   4   0.0068   0.0049   0.1468   0.0039  -0.0257  -0.0194  13.00  379.9
2025/04/04 15:44:44.000   28.388417422  -16.540544473   335.2374   1   4   0.0068   0.0049   0.1469   0.0040  -0.0257  -0.0194  14.00  372.4
2025/04/04 15:44:45.000   28.388417423  -16.540544473   335.2369   1   4   0.0068   0.0049   0.1469   0.0040  -0.0257  -0.0194  15.00  366.9
2025/04/04 15:44:46.000   28.388417423  -16.540544473   335.2366   1   4   0.0069   0.0049   0.1470   0.0040  -0.0257  -0.0195 -14.00  360.9
2025/04/04 15:44:47.000   28.388417424  -16.540544472   335.2360   1   4   0.0069   0.0050   0.1470   0.0040  -0.0257  -0.0195 -13.00  354.9
2025/04/04 15:44:48.000   28.388417425  -16.540544472   335.2354   1   4   0.0069   0.0050   0.1471   0.0040  -0.0257  -0.0195 -12.00  348.1
2025/04/04 15:44:49.000   28.388417426  -16.540544472   335.2347   1   4   0.0069   0.0050   0.1471   0.0040  -0.0257  -0.0195 -11.00  342.3
2025/04/04 15:44:50.000   28.388417427  -16.540544471   335.2340   1   4   0.0069   0.0050   0.1472   0.0040  -0.0258  -0.0196 -10.00  334.0
2025/04/04 15:44:51.000   28.388417428  -16.540544471   335.2332   1   4   0.0069   0.0050   0.1473   0.0040  -0.0258  -0.0196  -9.00  326.8
2025/04/04 15:44:52.000   28.388417429  -16.540544470   335.2322   1   4   0.0070   0.0050   0.1474   0.0040  -0.0258  -0.0197  -8.00  317.7
2025/04/04 15:44:53.000   28.388417431  -16.540544470   335.2315   1   4   0.0070   0.0050   0.1475   0.0041  -0.0258  -0.0198  -7.00  303.0
2025/04/04 15:44:54.000   28.388417432  -16.540544469   335.2300   1   4   0.0071   0.0050   0.1476   0.0041  -0.0259  -0.0198  -6.00  290.3
2025/04/04 15:44:55.000   28.388417435  -16.540544468   335.2297   1   4   0.0071   0.0050   0.1478   0.0041  -0.0259  -0.0199  -5.00  272.1
2025/04/04 15:44:56.000   28.388417438  -16.540544467   335.2277   1   4   0.0072   0.0050   0.1480   0.0041  -0.0260  -0.0201  -4.00  247.4
2025/04/04 15:44:57.000   28.388417442  -16.540544466   335.2257   1   4   0.0073   0.0050   0.1482   0.0042  -0.0260  -0.0202  -3.00  215.5
2025/04/04 15:44:58.000   28.388417445  -16.540544465   335.2253   1   4   0.0074   0.0050   0.1486   0.0043  -0.0261  -0.0204  -2.00  160.1
2025/04/04 15:44:59.000   28.388417448  -16.540544465   335.2258   1   4   0.0075   0.0051   0.1489   0.0043  -0.0262  -0.0206  -1.00   85.5
2025/04/04 15:45:00.000   28.388417436  -16.540544466   335.2218   1   4   0.0039   0.0050   0.1494   0.0035  -0.0263  -0.0209   0.00  999.9
2025/04/04 15:45:01.000   28.388417437  -16.540544465   335.2192   1   4   0.0039   0.0050   0.1497   0.0035  -0.0264  -0.0210   1.00  999.9
2025/04/04 15:45:02.000   28.388417438  -16.540544464   335.2175   1   4   0.0040   0.0050   0.1501   0.0035  -0.0264  -0.0211   2.00  999.9
2025/04/04 15:45:03.000   28.388417439  -16.540544464   335.2156   1   4   0.0040   0.0050   0.1505   0.0036  -0.0265  -0.0211   3.00  999.9
2025/04/04 15:45:04.000   28.388417440  -16.540544463   335.2129   1   4   0.0040   0.0050   0.1508   0.0036  -0.0266  -0.0212   4.00  999.9
2025/04/04 15:45:05.000   28.388417440  -16.540544463   335.2110   1   4   0.0040   0.0050   0.1510   0.0036  -0.0266  -0.0213   5.00  999.9
2025/04/04 15:45:06.000   28.388417441  -16.540544462   335.2095   1   4   0.0040   0.0051   0.1513   0.0036  -0.0267  -0.0213   6.00  999.9
2025/04/04 15:45:07.000   28.388417441  -16.540544462   335.2083   1   4   0.0040   0.0051   0.1514   0.0036  -0.0267  -0.0213   7.00  999.9
2025/04/04 15:45:08.000   28.388417441  -16.540544462   335.2078   1   4   0.0040   0.0051   0.1516   0.0036  -0.0267  -0.0214   8.00  999.9
2025/04/04 15:45:09.000   28.388417442  -16.540544461   335.2072   1   4   0.0040   0.0051   0.1517   0.0036  -0.0268  -0.0214   9.00  999.9
2025/04/04 15:45:10.000   28.388417442  -16.540544461   335.2062   1   4   0.0040   0.0051   0.1518   0.0036  -0.0268  -0.0214  10.00  999.9
2025/04/04 15:45:11.000   28.388417442  -16.540544461   335.2048   1   4   0.0040   0.0051   0.1519   0.0036  -0.0268  -0.0214  11.00  999.9
2025/04/04 15:45:12.000   28.388417442  -16.540544460   335.2040   1   4   0.0040   0.0051   0.1520   0.0036  -0.0268  -0.0214  12.00  999.9
2025/04/04 15:45:13.000   28.388417443  -16.540544460   335.2031   1   4   0.0040   0.0051   0.1521   0.0036  -0.0268  -0.0215  13.00  999.9
2025/04/04 15:45:14.000   28.388417443  -16.540544460   335.2027   1   4   0.0040   0.0051   0.1521   0.0036  -0.0268  -0.0215  14.00  999.9
2025/04/04 15:45:15.000   28.388417443  -16.540544460   335.2023   1   4   0.0040   0.0051   0.1522   0.0036  -0.0269  -0.0215  15.00  999.9
2025/04/04 15:45:16.000   28.388417443  -16.540544460   335.2017   1   4   0.0040   0.0051   0.1522   0.0036  -0.0269  -0.0215 -14.00  999.9
2025/04/04 15:45:17.000   28.388417443  -16.540544459   335.2012   1   4   0.0040   0.0051   0.1523   0.0036  -0.0269  -0.0215 -13.00  999.9
2025/04/04 15:45:18.000   28.388417443  -16.540544459   335.2007   1   4   0.0040   0.0051   0.1523   0.0036  -0.0269  -0.0215 -12.00  999.9
2025/04/04 15:45:19.000   28.388417444  -16.540544459   335.1999   1   4   0.0040   0.0051   0.1524   0.0036  -0.0269  -0.0215 -11.00  999.9
2025/04/04 15:45:20.000   28.388417444  -16.540544459   335.1998   1   4   0.0040   0.0051   0.1525   0.0036  -0.0269  -0.0215 -10.00  999.9
2025/04/04 15:45:21.000   28.388417444  -16.540544458   335.1990   1   4   0.0040   0.0051   0.1526   0.0036  -0.0269  -0.0216  -9.00  999.9
2025/04/04 15:45:22.000   28.388417444  -16.540544458   335.1971   1   4   0.0040   0.0051   0.1527   0.0036  -0.0270  -0.0216  -8.00  999.9
2025/04/04 15:45:23.000   28.388417445  -16.540544457   335.1955   1   4   0.0040   0.0051   0.1528   0.0036  -0.0270  -0.0216  -7.00  999.9
2025/04/04 15:45:24.000   28.388417445  -16.540544457   335.1945   1   4   0.0040   0.0051   0.1530   0.0037  -0.0270  -0.0216  -6.00  999.9
2025/04/04 15:45:25.000   28.388417445  -16.540544456   335.1932   1   4   0.0040   0.0051   0.1532   0.0037  -0.0270  -0.0217  -5.00  999.9
2025/04/04 15:45:26.000   28.388417446  -16.540544456   335.1918   1   4   0.0040   0.0051   0.1534   0.0037  -0.0271  -0.0217  -4.00  999.9
2025/04/04 15:45:27.000   28.388417446  -16.540544455   335.1909   1   4   0.0040   0.0051   0.1537   0.0037  -0.0271  -0.0218  -3.00  999.9
2025/04/04 15:45:28.000   28.388417447  -16.540544454   335.1874   1   4   0.0040   0.0051   0.1540   0.0037  -0.0272  -0.0218  -2.00  999.9
2025/04/04 15:45:29.000   28.388417449  -16.540544452   335.1827   1   4   0.0041   0.0052   0.1544   0.0037  -0.0273  -0.0219  -1.00  999.9
2025/04/04 15:45:30.000   28.388417450  -16.540544451   335.1795   1   4   0.0041   0.0052   0.1548   0.0037  -0.0274  -0.0220   0.00  999.9
2025/04/04 15:45:31.000   28.388417452  -16.540544449   335.1733   1   4   0.0041   0.0052   0.1552   0.0037  -0.0274  -0.0221   1.00  999.9
2025/04/04 15:45:32.000   28.388417453  -16.540544447   335.1689   1   4   0.0041   0.0052   0.1556   0.0038  -0.0275  -0.0221   2.00  999.9
2025/04/04 15:45:33.000   28.388417455  -16.540544445   335.1627   1   4   0.0041   0.0052   0.1560   0.0038  -0.0276  -0.0222   3.00  999.9
2025/04/04 15:45:34.000   28.388417456  -16.540544443   335.1582   1   4   0.0041   0.0052   0.1563   0.0038  -0.0277  -0.0223   4.00  999.9
2025/04/04 15:45:35.000   28.388417457  -16.540544442   335.1542   1   4   0.0041   0.0052   0.1566   0.0038  -0.0277  -0.0223   5.00  999.9
2025/04/04 15:45:36.000   28.388417458  -16.540544441   335.1510   1   4   0.0041   0.0052   0.1568   0.0038  -0.0278  -0.0224   6.00  999.9
2025/04/04 15:45:37.000   28.388417459  -16.540544440   335.1485   1   4   0.0041   0.0053   0.1570   0.0038  -0.0278  -0.0224   7.00  999.9
2025/04/04 15:45:38.000   28.388417459  -16.540544439   335.1474   1   4   0.0041   0.0053   0.1571   0.0038  -0.0278  -0.0224   8.00  999.9
2025/04/04 15:45:39.000   28.388417460  -16.540544439   335.1458   1   4   0.0041   0.0053   0.1573   0.0038  -0.0278  -0.0225   9.00  999.9
2025/04/04 15:45:40.000   28.388417460  -16.540544438   335.1444   1   4   0.0041   0.0053   0.1574   0.0038  -0.0279  -0.0225  10.00  999.9
2025/04/04 15:45:41.000   28.388417460  -16.540544438   335.1435   1   4   0.0041   0.0053   0.1575   0.0038  -0.0279  -0.0225  11.00  999.9
2025/04/04 15:45:42.000   28.388417461  -16.540544438   335.1426   1   4   0.0041   0.0053   0.1576   0.0038  -0.0279  -0.0225  12.00  999.9
2025/04/04 15:45:43.000   28.388417461  -16.540544438   335.1421   1   4   0.0041   0.0053   0.1577   0.0038  -0.0279  -0.0225  13.00  999.9
2025/04/04 15:45:44.000   28.388417461  -16.540544437   335.1415   1   4   0.0041   0.0053   0.1577   0.0038  -0.0279  -0.0225  14.00  999.9
2025/04/04 15:45:45.000   28.388417461  -16.540544437   335.1411   1   4   0.0041   0.0053   0.1578   0.0038  -0.0279  -0.0226  15.00  999.9
2025/04/04 15:45:46.000   28.388417461  -16.540544437   335.1406   1   4   0.0041   0.0053   0.1578   0.0038  -0.0280  -0.0226 -14.00  999.9
2025/04/04 15:45:47.000   28.388417461  -16.540544437   335.1400   1   4   0.0041   0.0053   0.1579   0.0038  -0.0280  -0.0226 -13.00  999.9
2025/04/04 15:45:48.000   28.388417461  -16.540544437   335.1394   1   4   0.0041   0.0053   0.1579   0.0038  -0.0280  -0.0226 -12.00  999.9
2025/04/04 15:45:49.000   28.388417461  -16.540544437   335.1393   1   4   0.0042   0.0053   0.1580   0.0038  -0.0280  -0.0226 -11.00  999.9
2025/04/04 15:45:50.000   28.388417462  -16.540544436   335.1383   1   4   0.0042   0.0053   0.1581   0.0038  -0.0280  -0.0226 -10.00  999.9
2025/04/04 15:45:51.000   28.388417462  -16.540544436   335.1374   1   4   0.0042   0.0053   0.1582   0.0039  -0.0280  -0.0226  -9.00  999.9
2025/04/04 15:45:52.000   28.388417462  -16.540544436   335.1369   1   4   0.0042   0.0053   0.1583   0.0039  -0.0280  -0.0227  -8.00  999.9
2025/04/04 15:45:53.000   28.388417462  -16.540544436   335.1361   1   4   0.0042   0.0053   0.1584   0.0039  -0.0281  -0.0227  -7.00  999.9
2025/04/04 15:45:54.000   28.388417463  -16.540544435   335.1343   1   4   0.0042   0.0053   0.1586   0.0039  -0.0281  -0.0227  -6.00  999.9
2025/04/04 15:45:55.000   28.388417463  -16.540544434   335.1323   1   4   0.0042   0.0053   0.1588   0.0039  -0.0281  -0.0227  -5.00  999.9
2025/04/04 15:45:56.000   28.388417464  -16.540544433   335.1292   1   4   0.0042   0.0053   0.1590   0.0039  -0.0282  -0.0228  -4.00  999.9
2025/04/04 15:45:57.000   28.388417465  -16.540544433   335.1267   1   4   0.0042   0.0053   0.1593   0.0039  -0.0282  -0.0228  -3.00  999.9
2025/04/04 15:45:58.000   28.388417466  -16.540544432   335.1232   1   4   0.0042   0.0053   0.1596   0.0039  -0.0283  -0.0229  -2.00  999.9
2025/04/04 15:45:59.000   28.388417467  -16.540544431   335.1206   1   4   0.0042   0.0054   0.1600   0.0039  -0.0284  -0.0230  -1.00  999.9
2025/04/04 15:46:00.000   28.388417467  -16.540544431   335.1188   1   4   0.0042   0.0054   0.1605   0.0039  -0.0285  -0.0231   0.00  999.9
2025/04/04 15:46:01.000   28.388417467  -16.540544431   335.1189   1   4   0.0042   0.0054   0.1609   0.0040  -0.0286  -0.0232   1.00  999.9
2025/04/04 15:46:02.000   28.388417469  -16.540544430   335.1154   1   4   0.0042   0.0054   0.1613   0.0040  -0.0286  -0.0232   2.00  999.9
2025/04/04 15:46:03.000   28.388417469  -16.540544430   335.1142   1   4   0.0043   0.0054   0.1617   0.0040  -0.0287  -0.0233   3.00  999.9
2025/04/04 15:46:04.000   28.388417470  -16.540544430   335.1122   1   4   0.0043   0.0054   0.1620   0.0040  -0.0288  -0.0234   4.00  999.9
2025/04/04 15:46:05.000   28.388417470  -16.540544430   335.1120   1   4   0.0043   0.0054   0.1623   0.0040  -0.0288  -0.0234   5.00  999.9
2025/04/04 15:46:06.000   28.388417470  -16.540544429   335.1105   1   4   0.0043   0.0055   0.1625   0.0040  -0.0289  -0.0235   6.00  999.9
2025/04/04 15:46:07.000   28.388417471  -16.540544429   335.1096   1   4   0.0043   0.0055   0.1627   0.0040  -0.0289  -0.0235   7.00  999.9
2025/04/04 15:46:08.000   28.388417471  -16.540544428   335.1076   1   4   0.0043   0.0055   0.1629   0.0040  -0.0289  -0.0235   8.00  999.9
2025/04/04 15:46:09.000   28.388417471  -16.540544428   335.1069   1   4   0.0043   0.0055   0.1630   0.0040  -0.0290  -0.0236   9.00  999.9
2025/04/04 15:46:10.000   28.388417472  -16.540544428   335.1056   1   4   0.0043   0.0055   0.1631   0.0040  -0.0290  -0.0236  10.00  999.9
2025/04/04 15:46:11.000   28.388417472  -16.540544428   335.1050   1   4   0.0043   0.0055   0.1632   0.0040  -0.0290  -0.0236  11.00  999.9
2025/04/04 15:46:12.000   28.388417472  -16.540544428   335.1046   1   4   0.0043   0.0055   0.1633   0.0040  -0.0290  -0.0236  12.00  999.9
2025/04/04 15:46:13.000   28.388417472  -16.540544427   335.1042   1   4   0.0043   0.0055   0.1634   0.0041  -0.0290  -0.0236  13.00  999.9
2025/04/04 15:46:14.000   28.388417472  -16.540544427   335.1039   1   4   0.0043   0.0055   0.1634   0.0041  -0.0290  -0.0236  14.00  999.9
2025/04/04 15:46:15.000   28.388417472  -16.540544427   335.1035   1   4   0.0043   0.0055   0.1635   0.0041  -0.0291  -0.0237  15.00  999.9
2025/04/04 15:46:16.000   28.388417472  -16.540544427   335.1032   1   4   0.0043   0.0055   0.1635   0.0041  -0.0291  -0.0237 -14.00  999.9
2025/04/04 15:46:17.000   28.388417472  -16.540544427   335.1030   1   4   0.0043   0.0055   0.1636   0.0041  -0.0291  -0.0237 -13.00  999.9
2025/04/04 15:46:18.000   28.388417472  -16.540544427   335.1027   1   4   0.0043   0.0055   0.1637   0.0041  -0.0291  -0.0237 -12.00  999.9
2025/04/04 15:46:19.000   28.388417473  -16.540544427   335.1024   1   4   0.0043   0.0055   0.1637   0.0041  -0.0291  -0.0237 -11.00  999.9
2025/04/04 15:46:20.000   28.388417473  -16.540544427   335.1014   1   4   0.0043   0.0055   0.1638   0.0041  -0.0291  -0.0237 -10.00  999.9
2025/04/04 15:46:21.000   28.388417473  -16.540544426   335.1005   1   4   0.0043   0.0055   0.1639   0.0041  -0.0291  -0.0237  -9.00  999.9
2025/04/04 15:46:22.000   28.388417473  -16.540544426   335.0997   1   4   0.0043   0.0055   0.1640   0.0041  -0.0292  -0.0238  -8.00  999.9
2025/04/04 15:46:23.000   28.388417474  -16.540544426   335.0985   1   4   0.0043   0.0055   0.1642   0.0041  -0.0292  -0.0238  -7.00  999.9
2025/04/04 15:46:24.000   28.388417474  -16.540544425   335.0977   1   4   0.0043   0.0055   0.1643   0.0041  -0.0292  -0.0238  -6.00  999.9
2025/04/04 15:46:25.000   28.388417474  -16.540544425   335.0969   1   4   0.0043   0.0055   0.1645   0.0041  -0.0293  -0.0238  -5.00  999.9
2025/04/04 15:46:26.000   28.388417474  -16.540544425   335.0956   1   4   0.0043   0.0055   0.1648   0.0041  -0.0293  -0.0239  -4.00  999.9
2025/04/04 15:46:27.000   28.388417475  -16.540544425   335.0948   1   4   0.0043   0.0055   0.1650   0.0041  -0.0294  -0.0239  -3.00  999.9
2025/04/04 15:46:28.000   28.388417475  -16.540544425   335.0947   1   4   0.0043   0.0056   0.1654   0.0041  -0.0294  -0.0240  -2.00  999.9
2025/04/04 15:46:29.000   28.388417475  -16.540544424   335.0923   1   4   0.0044   0.0056   0.1658   0.0041  -0.0295  -0.0241  -1.00  999.9
2025/04/04 15:46:30.000   28.388417476  -16.540544423   335.0907   1   4   0.0044   0.0056   0.1663   0.0042  -0.0296  -0.0242   0.00  999.9
2025/04/04 15:46:31.000   28.388417476  -16.540544424   335.0904   1   4   0.0044   0.0056   0.1667   0.0042  -0.0297  -0.0243   1.00  999.9
2025/04/04 15:46:32.000   28.388417477  -16.540544424   335.0904   1   4   0.0044   0.0056   0.1671   0.0042  -0.0298  -0.0243   2.00  999.9
2025/04/04 15:46:33.000   28.388417477  -16.540544424   335.0896   1   4   0.0044   0.0056   0.1675   0.0042  -0.0298  -0.0244   3.00  999.9
2025/04/04 15:46:34.000   28.388417477  -16.540544423   335.0890   1   4   0.0044   0.0056   0.1678   0.0042  -0.0299  -0.0245   4.00  999.9
2025/04/04 15:46:35.000   28.388417477  -16.540544424   335.0907   1   4   0.0044   0.0057   0.1681   0.0042  -0.0300  -0.0245   5.00  999.9
2025/04/04 15:46:36.000   28.388417477  -16.540544424   335.0901   1   4   0.0044   0.0057   0.1683   0.0042  -0.0300  -0.0246   6.00  999.9
2025/04/04 15:46:37.000   28.388417477  -16.540544424   335.0917   1   4   0.0044   0.0057   0.1685   0.0042  -0.0300  -0.0246   7.00  999.9
2025/04/04 15:46:38.000   28.388417476  -16.540544425   335.0924   1   4   0.0044   0.0057   0.1687   0.0043  -0.0301  -0.0247   8.00  999.9
2025/04/04 15:46:39.000   28.388417477  -16.540544425   335.0927   1   4   0.0044   0.0057   0.1688   0.0043  -0.0301  -0.0247   9.00  999.9
2025/04/04 15:46:40.000   28.388417477  -16.540544425   335.0927   1   4   0.0045   0.0057   0.1690   0.0043  -0.0301  -0.0247  10.00  999.9
2025/04/04 15:46:41.000   28.388417477  -16.540544425   335.0923   1   4   0.0045   0.0057   0.1691   0.0043  -0.0301  -0.0247  11.00  999.9
2025/04/04 15:46:42.000   28.388417477  -16.540544425   335.0926   1   4   0.0045   0.0057   0.1692   0.0043  -0.0302  -0.0247  12.00  999.9
2025/04/04 15:46:43.000   28.388417477  -16.540544425   335.0926   1   4   0.0045   0.0057   0.1692   0.0043  -0.0302  -0.0248  13.00  999.9
2025/04/04 15:46:44.000   28.388417477  -16.540544425   335.0926   1   4   0.0045   0.0057   0.1693   0.0043  -0.0302  -0.0248  14.00  999.9
2025/04/04 15:46:45.000   28.388417477  -16.540544425   335.0925   1   4   0.0045   0.0057   0.1694   0.0043  -0.0302  -0.0248  15.00  999.9
2025/04/04 15:46:46.000   28.388417477  -16.540544425   335.0926   1   4   0.0045   0.0057   0.1694   0.0043  -0.0302  -0.0248 -14.00  999.9
2025/04/04 15:46:47.000   28.388417477  -16.540544425   335.0924   1   4   0.0045   0.0057   0.1695   0.0043  -0.0302  -0.0248 -13.00  999.9
2025/04/04 15:46:48.000   28.388417476  -16.540544425   335.0928   1   4   0.0045   0.0057   0.1695   0.0043  -0.0302  -0.0248 -12.00  999.9
2025/04/04 15:46:49.000   28.388417476  -16.540544425   335.0934   1   4   0.0045   0.0057   0.1696   0.0043  -0.0303  -0.0248 -11.00  999.9
2025/04/04 15:46:50.000   28.388417476  -16.540544425   335.0944   1   4   0.0045   0.0057   0.1697   0.0043  -0.0303  -0.0248 -10.00  999.9
2025/04/04 15:46:51.000   28.388417476  -16.540544425   335.0949   1   4   0.0045   0.0057   0.1698   0.0043  -0.0303  -0.0249  -9.00  999.9
2025/04/04 15:46:52.000   28.388417476  -16.540544426   335.0955   1   4   0.0045   0.0057   0.1699   0.0043  -0.0303  -0.0249  -8.00  999.9
2025/04/04 15:46:53.000   28.388417476  -16.540544426   335.0962   1   4   0.0045   0.0057   0.1701   0.0043  -0.0303  -0.0249  -7.00  999.9
2025/04/04 15:46:54.000   28.388417475  -16.540544426   335.0972   1   4   0.0045   0.0057   0.1702   0.0043  -0.0304  -0.0249  -6.00  999.9
2025/04/04 15:46:55.000   28.388417475  -16.540544426   335.0980   1   4   0.0045   0.0057   0.1704   0.0043  -0.0304  -0.0250  -5.00  999.9
2025/04/04 15:46:56.000   28.388417475  -16.540544427   335.1002   1   4   0.0045   0.0057   0.1707   0.0043  -0.0305  -0.0250  -4.00  999.9
2025/04/04 15:46:57.000   28.388417475  -16.540544427   335.1004   1   4   0.0045   0.0058   0.1710   0.0043  -0.0305  -0.0251  -3.00  999.9
2025/04/04 15:46:58.000   28.388417475  -16.540544427   335.0996   1   4   0.0045   0.0058   0.1714   0.0044  -0.0306  -0.0252  -2.00  999.9
2025/04/04 15:46:59.000   28.388417474  -16.540544427   335.1004   1   4   0.0045   0.0058   0.1718   0.0044  -0.0307  -0.0252  -1.00  999.9
2025/04/04 15:47:00.000   28.388417474  -16.540544428   335.1036   1   4   0.0045   0.0058   0.1723   0.0044  -0.0308  -0.0253   0.00  999.9
2025/04/04 15:47:01.000   28.388417473  -16.540544430   335.1085   1   4   0.0046   0.0058   0.1728   0.0044  -0.0309  -0.0254   1.00  999.9
2025/04/04 15:47:02.000   28.388417472  -16.540544432   335.1124   1   4   0.0046   0.0058   0.1732   0.0044  -0.0310  -0.0255   2.00  999.9
2025/04/04 15:47:03.000   28.388417471  -16.540544432   335.1142   1   4   0.0046   0.0058   0.1736   0.0044  -0.0310  -0.0256   3.00  999.9
2025/04/04 15:47:04.000   28.388417471  -16.540544433   335.1173   1   4   0.0046   0.0059   0.1739   0.0045  -0.0311  -0.0257   4.00  999.9
2025/04/04 15:47:05.000   28.388417470  -16.540544434   335.1203   1   4   0.0046   0.0059   0.1742   0.0045  -0.0312  -0.0257   5.00  999.9
2025/04/04 15:47:06.000   28.388417470  -16.540544434   335.1207   1   4   0.0046   0.0059   0.1745   0.0045  -0.0312  -0.0258   6.00  999.9
2025/04/04 15:47:07.000   28.388417469  -16.540544435   335.1230   1   4   0.0046   0.0059   0.1747   0.0045  -0.0313  -0.0258   7.00  999.9
2025/04/04 15:47:08.000   28.388417469  -16.540544436   335.1256   1   4   0.0046   0.0059   0.1749   0.0045  -0.0313  -0.0258   8.00  999.9
2025/04/04 15:47:09.000   28.388417468  -16.540544437   335.1279   1   4   0.0046   0.0059   0.1751   0.0045  -0.0313  -0.0259   9.00  999.9
2025/04/04 15:47:10.000   28.388417467  -16.540544438   335.1302   1   4   0.0046   0.0059   0.1752   0.0045  -0.0314  -0.0259  10.00  999.9
2025/04/04 15:47:11.000   28.388417467  -16.540544438   335.1316   1   4   0.0046   0.0059   0.1753   0.0045  -0.0314  -0.0259  11.00  999.9
2025/04/04 15:47:12.000   28.388417467  -16.540544439   335.1333   1   4   0.0046   0.0059   0.1754   0.0045  -0.0314  -0.0259  12.00  999.9
2025/04/04 15:47:13.000   28.388417466  -16.540544439   335.1347   1   4   0.0046   0.0059   0.1755   0.0045  -0.0314  -0.0260  13.00  999.9
2025/04/04 15:47:14.000   28.388417466  -16.540544440   335.1357   1   4   0.0046   0.0059   0.1756   0.0045  -0.0314  -0.0260  14.00  999.9
2025/04/04 15:47:15.000   28.388417466  -16.540544440   335.1366   1   4   0.0046   0.0059   0.1756   0.0045  -0.0314  -0.0260  15.00  999.9
2025/04/04 15:47:16.000   28.388417466  -16.540544440   335.1375   1   4   0.0046   0.0059   0.1757   0.0045  -0.0314  -0.0260 -14.00  999.9
2025/04/04 15:47:17.000   28.388417465  -16.540544441   335.1384   1   4   0.0046   0.0059   0.1758   0.0045  -0.0315  -0.0260 -13.00  999.9
2025/04/04 15:47:18.000   28.388417465  -16.540544441   335.1396   1   4   0.0046   0.0059   0.1758   0.0045  -0.0315  -0.0260 -12.00  999.9
2025/04/04 15:47:19.000   28.388417464  -16.540544442   335.1414   1   4   0.0046   0.0059   0.1759   0.0045  -0.0315  -0.0260 -11.00  999.9
2025/04/04 15:47:20.000   28.388417464  -16.540544442   335.1437   1   4   0.0046   0.0059   0.1760   0.0045  -0.0315  -0.0261 -10.00  999.9
2025/04/04 15:47:21.000   28.388417463  -16.540544443   335.1459   1   4   0.0046   0.0059   0.1761   0.0045  -0.0315  -0.0261  -9.00  999.9
2025/04/04 15:47:22.000   28.388417463  -16.540544444   335.1491   1   4   0.0046   0.0059   0.1762   0.0045  -0.0316  -0.0261  -8.00  999.9
2025/04/04 15:47:23.000   28.388417462  -16.540544445   335.1527   1   4   0.0047   0.0059   0.1764   0.0046  -0.0316  -0.0261  -7.00  999.9
2025/04/04 15:47:24.000   28.388417460  -16.540544447   335.1574   1   4   0.0047   0.0060   0.1766   0.0046  -0.0316  -0.0262  -6.00  999.9
2025/04/04 15:47:25.000   28.388417459  -16.540544449   335.1616   1   4   0.0047   0.0060   0.1768   0.0046  -0.0317  -0.0262  -5.00  999.9
2025/04/04 15:47:26.000   28.388417458  -16.540544451   335.1673   1   4   0.0047   0.0060   0.1771   0.0046  -0.0317  -0.0263  -4.00  999.9
2025/04/04 15:47:27.000   28.388417456  -16.540544453   335.1738   1   4   0.0047   0.0060   0.1774   0.0046  -0.0318  -0.0263  -3.00  999.9
2025/04/04 15:47:28.000   28.388417454  -16.540544456   335.1824   1   4   0.0047   0.0060   0.1778   0.0046  -0.0319  -0.0264  -2.00  999.9
2025/04/04 15:47:29.000   28.388417450  -16.540544460   335.1957   1   4   0.0047   0.0060   0.1782   0.0046  -0.0319  -0.0265  -1.00  999.9
2025/04/04 15:47:30.000   28.388417448  -16.540544463   335.2049   1   4   0.0047   0.0060   0.1788   0.0046  -0.0320  -0.0266   0.00  999.9
2025/04/04 15:47:31.000   28.388417445  -16.540544467   335.2155   1   4   0.0047   0.0061   0.1792   0.0047  -0.0321  -0.0267   1.00  999.9
2025/04/04 15:47:32.000   28.388417442  -16.540544470   335.2255   1   4   0.0048   0.0061   0.1796   0.0047  -0.0322  -0.0267   2.00  999.9
2025/04/04 15:47:33.000   28.388417440  -16.540544473   335.2336   1   4   0.0048   0.0061   0.1800   0.0047  -0.0323  -0.0268   3.00  999.9
2025/04/04 15:47:34.000   28.388417437  -16.540544477   335.2444   1   4   0.0048   0.0061   0.1804   0.0047  -0.0324  -0.0269   4.00  999.9
2025/04/04 15:47:35.000   28.388417435  -16.540544480   335.2530   1   4   0.0048   0.0061   0.1807   0.0047  -0.0324  -0.0270   5.00  999.9
2025/04/04 15:47:36.000   28.388417433  -16.540544482   335.2597   1   4   0.0048   0.0061   0.1810   0.0047  -0.0325  -0.0270   6.00  999.9
2025/04/04 15:47:37.000   28.388417432  -16.540544483   335.2633   1   4   0.0048   0.0061   0.1812   0.0047  -0.0325  -0.0270   7.00  999.9
2025/04/04 15:47:38.000   28.388417431  -16.540544485   335.2687   1   4   0.0048   0.0061   0.1814   0.0047  -0.0326  -0.0271   8.00  999.9
2025/04/04 15:47:39.000   28.388417430  -16.540544486   335.2719   1   4   0.0048   0.0061   0.1815   0.0048  -0.0326  -0.0271   9.00  999.9
2025/04/04 15:47:40.000   28.388417429  -16.540544487   335.2755   1   4   0.0048   0.0061   0.1816   0.0048  -0.0326  -0.0271  10.00  999.9
2025/04/04 15:47:41.000   28.388417428  -16.540544488   335.2784   1   4   0.0048   0.0062   0.1818   0.0048  -0.0326  -0.0272  11.00  999.9
2025/04/04 15:47:42.000   28.388417427  -16.540544489   335.2804   1   4   0.0048   0.0062   0.1818   0.0048  -0.0327  -0.0272  12.00  999.9
2025/04/04 15:47:43.000   28.388417427  -16.540544490   335.2825   1   4   0.0048   0.0062   0.1819   0.0048  -0.0327  -0.0272  13.00  999.9
2025/04/04 15:47:44.000   28.388417426  -16.540544490   335.2844   1   4   0.0048   0.0062   0.1820   0.0048  -0.0327  -0.0272  14.00  999.9
2025/04/04 15:47:45.000   28.388417426  -16.540544491   335.2862   1   4   0.0048   0.0062   0.1821   0.0048  -0.0327  -0.0272  15.00  999.9
2025/04/04 15:47:46.000   28.388417426  -16.540544492   335.2874   1   4   0.0048   0.0062   0.1821   0.0048  -0.0327  -0.0272 -14.00  999.9
2025/04/04 15:47:47.000   28.388417425  -16.540544492   335.2890   1   4   0.0048   0.0062   0.1822   0.0048  -0.0327  -0.0272 -13.00  999.9
2025/04/04 15:47:48.000   28.388417425  -16.540544493   335.2906   1   4   0.0048   0.0062   0.1823   0.0048  -0.0327  -0.0273 -12.00  999.9
2025/04/04 15:47:49.000   28.388417424  -16.540544493   335.2920   1   4   0.0048   0.0062   0.1823   0.0048  -0.0328  -0.0273 -11.00  999.9
2025/04/04 15:47:50.000   28.388417424  -16.540544494   335.2938   1   4   0.0048   0.0062   0.1824   0.0048  -0.0328  -0.0273 -10.00  999.9
2025/04/04 15:47:51.000   28.388417423  -16.540544494   335.2957   1   4   0.0048   0.0062   0.1825   0.0048  -0.0328  -0.0273  -9.00  999.9
2025/04/04 15:47:52.000   28.388417423  -16.540544495   335.2985   1   4   0.0048   0.0062   0.1827   0.0048  -0.0328  -0.0273  -8.00  999.9
2025/04/04 15:47:53.000   28.388417422  -16.540544496   335.3006   1   4   0.0048   0.0062   0.1828   0.0048  -0.0329  -0.0274  -7.00  999.9
2025/04/04 15:47:54.000   28.388417421  -16.540544497   335.3034   1   4   0.0048   0.0062   0.1830   0.0048  -0.0329  -0.0274  -6.00  999.9
2025/04/04 15:47:55.000   28.388417420  -16.540544499   335.3075   1   4   0.0049   0.0062   0.1832   0.0048  -0.0329  -0.0274  -5.00  999.9
2025/04/04 15:47:56.000   28.388417419  -16.540544500   335.3120   1   4   0.0049   0.0062   0.1834   0.0048  -0.0330  -0.0275  -4.00  999.9
2025/04/04 15:47:57.000   28.388417417  -16.540544502   335.3166   1   4   0.0049   0.0062   0.1838   0.0048  -0.0330  -0.0276  -3.00  999.9
2025/04/04 15:47:58.000   28.388417415  -16.540544505   335.3259   1   4   0.0049   0.0062   0.1841   0.0049  -0.0331  -0.0276  -2.00  999.9
2025/04/04 15:47:59.000   28.388417413  -16.540544508   335.3340   1   4   0.0049   0.0063   0.1846   0.0049  -0.0332  -0.0277  -1.00  999.9
2025/04/04 15:48:00.000   28.388417410  -16.540544512   335.3442   1   4   0.0049   0.0063   0.1851   0.0049  -0.0333  -0.0278   0.00  999.9
2025/04/04 15:48:01.000   28.388417407  -16.540544515   335.3551   1   4   0.0049   0.0063   0.1855   0.0049  -0.0334  -0.0279   1.00  999.9
2025/04/04 15:48:02.000   28.388417404  -16.540544520   335.3687   1   4   0.0049   0.0063   0.1859   0.0049  -0.0335  -0.0280   2.00  999.9
2025/04/04 15:48:03.000   28.388417401  -16.540544523   335.3780   1   4   0.0050   0.0063   0.1863   0.0049  -0.0336  -0.0281   3.00  999.9
2025/04/04 15:48:04.000   28.388417399  -16.540544526   335.3864   1   4   0.0050   0.0063   0.1866   0.0050  -0.0336  -0.0281   4.00  999.9
2025/04/04 15:48:05.000   28.388417397  -16.540544529   335.3957   1   4   0.0050   0.0063   0.1869   0.0050  -0.0337  -0.0282   5.00  999.9
2025/04/04 15:48:06.000   28.388417395  -16.540544532   335.4027   1   4   0.0050   0.0064   0.1872   0.0050  -0.0337  -0.0282   6.00  999.9
2025/04/04 15:48:07.000   28.388417394  -16.540544534   335.4078   1   4   0.0050   0.0064   0.1874   0.0050  -0.0338  -0.0283   7.00  999.9
2025/04/04 15:48:08.000   28.388417393  -16.540544535   335.4115   1   4   0.0050   0.0064   0.1876   0.0050  -0.0338  -0.0283   8.00  999.9
2025/04/04 15:48:09.000   28.388417392  -16.540544536   335.4137   1   4   0.0050   0.0064   0.1877   0.0050  -0.0338  -0.0283   9.00  999.9
2025/04/04 15:48:10.000   28.388417391  -16.540544537   335.4167   1   4   0.0050   0.0064   0.1878   0.0050  -0.0339  -0.0284  10.00  999.9
2025/04/04 15:48:11.000   28.388417390  -16.540544537   335.4188   1   4   0.0050   0.0064   0.1879   0.0050  -0.0339  -0.0284  11.00  999.9
2025/04/04 15:48:12.000   28.388417390  -16.540544538   335.4205   1   4   0.0050   0.0064   0.1880   0.0050  -0.0339  -0.0284  12.00  999.9
2025/04/04 15:48:13.000   28.388417389  -16.540544539   335.4224   1   4   0.0050   0.0064   0.1881   0.0050  -0.0339  -0.0284  13.00  999.9
2025/04/04 15:48:14.000   28.388417389  -16.540544539   335.4239   1   4   0.0050   0.0064   0.1882   0.0050  -0.0339  -0.0284  14.00  999.9
2025/04/04 15:48:15.000   28.388417389  -16.540544540   335.4251   1   4   0.0050   0.0064   0.1882   0.0050  -0.0339  -0.0284  15.00  999.6
2025/04/04 15:48:16.000   28.388417388  -16.540544540   335.4260   1   4   0.0050   0.0064   0.1883   0.0050  -0.0340  -0.0284 -14.00  993.8
2025/04/04 15:48:17.000   28.388417388  -16.540544541   335.4274   1   4   0.0050   0.0064   0.1883   0.0050  -0.0340  -0.0285 -13.00  988.2
2025/04/04 15:48:18.000   28.388417388  -16.540544541   335.4287   1   4   0.0050   0.0064   0.1884   0.0050  -0.0340  -0.0285 -12.00  983.2
2025/04/04 15:48:19.000   28.388417387  -16.540544542   335.4304   1   4   0.0050   0.0064   0.1885   0.0050  -0.0340  -0.0285 -11.00  977.8
2025/04/04 15:48:20.000   28.388417387  -16.540544542   335.4322   1   4   0.0050   0.0064   0.1886   0.0050  -0.0340  -0.0285 -10.00  971.9
2025/04/04 15:48:21.000   28.388417386  -16.540544543   335.4337   1   4   0.0050   0.0064   0.1887   0.0050  -0.0340  -0.0285  -9.00  965.9
2025/04/04 15:48:22.000   28.388417385  -16.540544544   335.4362   1   4   0.0050   0.0064   0.1888   0.0050  -0.0341  -0.0285  -8.00  959.7
2025/04/04 15:48:23.000   28.388417385  -16.540544545   335.4385   1   4   0.0050   0.0064   0.1889   0.0051  -0.0341  -0.0286  -7.00  952.8
2025/04/04 15:48:24.000   28.388417384  -16.540544546   335.4414   1   4   0.0050   0.0064   0.1891   0.0051  -0.0341  -0.0286  -6.00  946.2
2025/04/04 15:48:25.000   28.388417383  -16.540544547   335.4447   1   4   0.0051   0.0064   0.1893   0.0051  -0.0342  -0.0286  -5.00  939.1
2025/04/04 15:48:26.000   28.388417382  -16.540544549   335.4495   1   4   0.0051   0.0064   0.1895   0.0051  -0.0342  -0.0287  -4.00  930.6
2025/04/04 15:48:27.000   28.388417380  -16.540544551   335.4564   1   4   0.0051   0.0065   0.1898   0.0051  -0.0343  -0.0288  -3.00  920.8
2025/04/04 15:48:28.000   28.388417379  -16.540544552   335.4581   1   4   0.0051   0.0065   0.1902   0.0051  -0.0343  -0.0288  -2.00  910.2
2025/04/04 15:48:29.000   28.388417377  -16.540544554   335.4646   1   4   0.0051   0.0065   0.1906   0.0051  -0.0344  -0.0289  -1.00  899.4
2025/04/04 15:48:30.000   28.388417376  -16.540544555   335.4671   1   4   0.0051   0.0065   0.1911   0.0051  -0.0345  -0.0290   0.00  887.5
2025/04/04 15:48:31.000   28.388417374  -16.540544558   335.4741   1   4   0.0051   0.0065   0.1915   0.0052  -0.0346  -0.0291   1.00  874.7
2025/04/04 15:48:32.000   28.388417371  -16.540544560   335.4813   1   4   0.0051   0.0065   0.1919   0.0052  -0.0347  -0.0292   2.00  863.8
2025/04/04 15:48:33.000   28.388417370  -16.540544562   335.4873   1   4   0.0052   0.0066   0.1922   0.0052  -0.0347  -0.0292   3.00  852.3
2025/04/04 15:48:34.000   28.388417368  -16.540544565   335.4930   1   4   0.0052   0.0066   0.1925   0.0052  -0.0348  -0.0293   4.00  841.5
2025/04/04 15:48:35.000   28.388417366  -16.540544567   335.5000   1   4   0.0052   0.0066   0.1928   0.0052  -0.0349  -0.0294   5.00  832.1
2025/04/04 15:48:36.000   28.388417364  -16.540544569   335.5057   1   4   0.0052   0.0066   0.1930   0.0052  -0.0349  -0.0294   6.00  823.3
2025/04/04 15:48:37.000   28.388417363  -16.540544571   335.5090   1   4   0.0052   0.0066   0.1932   0.0052  -0.0350  -0.0294   7.00  816.6
