% program   : RTKPOST-EX 2.5.0
% inp file  : C:\Users\SallyHenry\Desktop\Sally Internship\GNSS gravi\DATA\Survey Rover Obs\ORO05.25o
% inp file  : C:\Users\SallyHenry\Desktop\Sally Internship\GNSS gravi\DATA\BaseStations\TN02\TN0200ESP_R_20250940000_01D_30S_MO.rnx
% inp file  : C:\Users\SallyHenry\Desktop\Sally Internship\GNSS gravi\DATA\BaseStations\TN02\TN0200ESP_R_20250940000_01D_MN.rnx
% inp file  : C:\Users\SallyHenry\Desktop\Sally Internship\GNSS gravi\DATA\aux_files\Survey\IGS0OPSFIN_20250940000_01D_15M_ORB.SP3
% inp file  : C:\Users\SallyHenry\Desktop\Sally Internship\GNSS gravi\DATA\aux_files\Survey\IGS0OPSFIN_20250940000_01D_30S_CLK.CLK
% obs start : 2025/04/04 15:12:16.0 GPST (week2360 486736.0s)
% obs end   : 2025/04/04 15:29:18.0 GPST (week2360 487758.0s)
% pos mode  : Static
% freqs     : L1+L2/E5b
% solution  : Combined-No Phase Reset
% elev mask : 15.0 deg
% dynamics  : on
% tidecorr  : solid
% ionos opt : Estimate TEC
% tropo opt : Estimate ZTD+Grad
% ephemeris : Precise
% navi sys  : GPS GLONASS Galileo QZSS BDS
% amb res   : Fix and Hold
% amb glo   : Fix and Hold
% amb bds   : on
% val thres : 3.0
% antenna1  :                       ( 0.0000  0.0000  1.8000)
% antenna2  :                       ( 0.0000  0.0000  0.0771)
% ref pos   :  28.418257450  -16.550784480    54.4145
%
% (lat/lon/height=WGS84/ellipsoidal,Q=1:fix,2:float,3:sbas,4:dgps,5:single,6:ppp,ns=# of satellites)
%  GPST                  latitude(deg) longitude(deg)  height(m)   Q  ns   sdn(m)   sde(m)   sdu(m)  sdne(m)  sdeu(m)  sdun(m) age(s)  ratio
2025/04/04 15:12:16.000   28.381335002  -16.532591568   463.0776   2   5   0.0214   0.0347   0.0983   0.0136  -0.0197  -0.0397 -14.00    0.0
2025/04/04 15:12:17.000   28.381335003  -16.532591569   463.0770   2   5   0.0214   0.0347   0.0983   0.0136  -0.0196  -0.0397 -13.00    0.0
2025/04/04 15:12:18.000   28.381335003  -16.532591570   463.0766   2   5   0.0214   0.0347   0.0983   0.0136  -0.0196  -0.0397 -12.00    0.0
2025/04/04 15:12:19.000   28.381335003  -16.532591571   463.0760   2   5   0.0214   0.0347   0.0983   0.0136  -0.0196  -0.0397 -11.00    0.0
2025/04/04 15:12:20.000   28.381335004  -16.532591573   463.0754   2   5   0.0214   0.0347   0.0983   0.0136  -0.0196  -0.0397 -10.00    0.0
2025/04/04 15:12:21.000   28.381335004  -16.532591574   463.0748   2   5   0.0214   0.0347   0.0983   0.0136  -0.0196  -0.0397  -9.00    0.0
2025/04/04 15:12:22.000   28.381335004  -16.532591576   463.0741   2   5   0.0214   0.0347   0.0983   0.0136  -0.0195  -0.0397  -8.00    0.0
2025/04/04 15:12:23.000   28.381335004  -16.532591578   463.0731   2   5   0.0214   0.0347   0.0983   0.0136  -0.0195  -0.0397  -7.00    0.0
2025/04/04 15:12:24.000   28.381335005  -16.532591580   463.0717   2   5   0.0214   0.0347   0.0984   0.0136  -0.0195  -0.0397  -6.00    0.0
2025/04/04 15:12:25.000   28.381335005  -16.532591583   463.0698   2   5   0.0214   0.0347   0.0984   0.0136  -0.0195  -0.0397  -5.00    0.0
2025/04/04 15:12:26.000   28.381335006  -16.532591586   463.0679   2   5   0.0215   0.0347   0.0984   0.0136  -0.0194  -0.0397  -4.00    0.0
2025/04/04 15:12:27.000   28.381335005  -16.532591589   463.0662   2   5   0.0215   0.0347   0.0985   0.0136  -0.0194  -0.0398  -3.00    0.0
2025/04/04 15:12:28.000   28.381335004  -16.532591592   463.0642   2   5   0.0215   0.0347   0.0985   0.0135  -0.0193  -0.0398  -2.00    0.0
2025/04/04 15:12:29.000   28.381335004  -16.532591596   463.0614   2   5   0.0215   0.0347   0.0986   0.0135  -0.0193  -0.0398  -1.00    0.0
2025/04/04 15:12:30.000   28.381335004  -16.532591600   463.0581   2   5   0.0215   0.0347   0.0987   0.0135  -0.0192  -0.0398   0.00    0.0
2025/04/04 15:12:31.000   28.381335001  -16.532591607   463.0571   2   5   0.0215   0.0347   0.0988   0.0135  -0.0192  -0.0399   1.00    0.0
2025/04/04 15:12:32.000   28.381334999  -16.532591610   463.0566   2   5   0.0215   0.0347   0.0989   0.0135  -0.0191  -0.0399   2.00    0.0
2025/04/04 15:12:33.000   28.381334997  -16.532591613   463.0557   2   5   0.0216   0.0347   0.0990   0.0135  -0.0190  -0.0399   3.00    0.0
2025/04/04 15:12:34.000   28.381334996  -16.532591616   463.0549   2   5   0.0216   0.0347   0.0990   0.0134  -0.0190  -0.0400   4.00    0.0
2025/04/04 15:12:35.000   28.381334994  -16.532591617   463.0550   2   5   0.0216   0.0347   0.0991   0.0134  -0.0189  -0.0400   5.00    0.0
2025/04/04 15:12:36.000   28.381334993  -16.532591619   463.0545   2   5   0.0216   0.0347   0.0991   0.0134  -0.0189  -0.0400   6.00    0.0
2025/04/04 15:12:37.000   28.381334993  -16.532591621   463.0538   2   5   0.0216   0.0347   0.0992   0.0134  -0.0189  -0.0400   7.00    0.0
2025/04/04 15:12:38.000   28.381334992  -16.532591622   463.0537   2   5   0.0216   0.0347   0.0992   0.0134  -0.0189  -0.0400   8.00    0.0
2025/04/04 15:12:39.000   28.381334991  -16.532591624   463.0534   2   5   0.0216   0.0347   0.0992   0.0134  -0.0188  -0.0400   9.00    0.0
2025/04/04 15:12:40.000   28.381334991  -16.532591625   463.0529   2   5   0.0216   0.0347   0.0992   0.0134  -0.0188  -0.0400  10.00    0.0
2025/04/04 15:12:41.000   28.381334991  -16.532591627   463.0529   2   5   0.0216   0.0347   0.0992   0.0134  -0.0188  -0.0400  11.00    0.0
2025/04/04 15:12:42.000   28.381334990  -16.532591627   463.0528   2   5   0.0216   0.0347   0.0993   0.0134  -0.0188  -0.0400  12.00    0.0
2025/04/04 15:12:43.000   28.381334990  -16.532591628   463.0528   2   5   0.0216   0.0347   0.0993   0.0134  -0.0188  -0.0400  13.00    0.0
2025/04/04 15:12:44.000   28.381334990  -16.532591629   463.0526   2   5   0.0216   0.0347   0.0993   0.0134  -0.0188  -0.0400  14.00    0.0
2025/04/04 15:12:45.000   28.381334989  -16.532591630   463.0527   2   5   0.0216   0.0347   0.0993   0.0134  -0.0188  -0.0400 -15.00    0.0
2025/04/04 15:12:46.000   28.381334989  -16.532591632   463.0528   2   5   0.0216   0.0347   0.0993   0.0134  -0.0187  -0.0400 -14.00    0.0
2025/04/04 15:12:47.000   28.381334988  -16.532591633   463.0529   2   5   0.0216   0.0346   0.0993   0.0134  -0.0187  -0.0400 -13.00    0.0
2025/04/04 15:12:48.000   28.381334988  -16.532591633   463.0529   2   5   0.0216   0.0346   0.0993   0.0134  -0.0187  -0.0400 -12.00    0.0
2025/04/04 15:12:49.000   28.381334988  -16.532591634   463.0528   2   5   0.0216   0.0346   0.0993   0.0133  -0.0187  -0.0400 -11.00    0.0
2025/04/04 15:12:50.000   28.381334988  -16.532591634   463.0527   2   5   0.0216   0.0346   0.0993   0.0133  -0.0187  -0.0400 -10.00    0.0
2025/04/04 15:12:51.000   28.381334988  -16.532591634   463.0527   2   5   0.0216   0.0346   0.0993   0.0133  -0.0187  -0.0401  -9.00    0.0
2025/04/04 15:12:52.000   28.381334988  -16.532591635   463.0527   2   5   0.0216   0.0346   0.0994   0.0133  -0.0187  -0.0401  -8.00    0.0
2025/04/04 15:12:53.000   28.381334988  -16.532591634   463.0526   2   5   0.0216   0.0346   0.0994   0.0133  -0.0187  -0.0401  -7.00    0.0
2025/04/04 15:12:54.000   28.381334988  -16.532591636   463.0521   2   5   0.0216   0.0346   0.0994   0.0133  -0.0187  -0.0401  -6.00    0.0
2025/04/04 15:12:55.000   28.381334989  -16.532591637   463.0515   2   5   0.0217   0.0346   0.0994   0.0133  -0.0186  -0.0401  -5.00    0.0
2025/04/04 15:12:56.000   28.381334988  -16.532591638   463.0514   2   5   0.0217   0.0346   0.0995   0.0133  -0.0186  -0.0401  -4.00    0.0
2025/04/04 15:12:57.000   28.381334988  -16.532591636   463.0512   2   5   0.0217   0.0346   0.0995   0.0133  -0.0186  -0.0401  -3.00    0.0
2025/04/04 15:12:58.000   28.381334988  -16.532591637   463.0512   2   5   0.0217   0.0346   0.0996   0.0133  -0.0186  -0.0401  -2.00    0.0
2025/04/04 15:12:59.000   28.381334989  -16.532591637   463.0505   2   5   0.0217   0.0346   0.0997   0.0133  -0.0185  -0.0402  -1.00    0.0
2025/04/04 15:13:00.000   28.381334991  -16.532591637   463.0498   2   5   0.0217   0.0346   0.0998   0.0133  -0.0185  -0.0402   0.00    0.0
2025/04/04 15:13:01.000   28.381334993  -16.532591637   463.0481   2   5   0.0217   0.0346   0.0998   0.0132  -0.0184  -0.0402   1.00    0.0
2025/04/04 15:13:02.000   28.381334994  -16.532591636   463.0469   2   5   0.0218   0.0346   0.0999   0.0132  -0.0183  -0.0403   2.00    0.0
2025/04/04 15:13:03.000   28.381334995  -16.532591637   463.0460   2   5   0.0218   0.0346   0.1000   0.0132  -0.0182  -0.0403   3.00    0.0
2025/04/04 15:13:04.000   28.381334996  -16.532591638   463.0448   2   5   0.0218   0.0346   0.1001   0.0132  -0.0182  -0.0403   4.00    0.0
2025/04/04 15:13:05.000   28.381334997  -16.532591639   463.0440   2   5   0.0218   0.0346   0.1002   0.0132  -0.0181  -0.0403   5.00    0.0
2025/04/04 15:13:06.000   28.381334998  -16.532591639   463.0435   2   5   0.0218   0.0346   0.1002   0.0132  -0.0181  -0.0403   6.00    0.0
2025/04/04 15:13:07.000   28.381334999  -16.532591640   463.0429   2   5   0.0218   0.0346   0.1002   0.0131  -0.0181  -0.0404   7.00    0.0
2025/04/04 15:13:08.000   28.381334999  -16.532591640   463.0423   2   5   0.0218   0.0346   0.1003   0.0131  -0.0181  -0.0404   8.00    0.0
2025/04/04 15:13:09.000   28.381334999  -16.532591641   463.0418   2   5   0.0218   0.0346   0.1003   0.0131  -0.0180  -0.0404   9.00    0.0
2025/04/04 15:13:10.000   28.381335000  -16.532591642   463.0416   2   5   0.0218   0.0346   0.1003   0.0131  -0.0180  -0.0404  10.00    0.0
2025/04/04 15:13:11.000   28.381335001  -16.532591643   463.0413   2   5   0.0218   0.0346   0.1003   0.0131  -0.0180  -0.0404  11.00    0.0
2025/04/04 15:13:12.000   28.381335001  -16.532591643   463.0409   2   5   0.0218   0.0346   0.1003   0.0131  -0.0180  -0.0404  12.00    0.0
2025/04/04 15:13:13.000   28.381335001  -16.532591644   463.0408   2   5   0.0218   0.0346   0.1004   0.0131  -0.0180  -0.0404  13.00    0.0
2025/04/04 15:13:14.000   28.381335002  -16.532591645   463.0406   2   5   0.0218   0.0346   0.1004   0.0131  -0.0180  -0.0404  14.00    0.0
2025/04/04 15:13:15.000   28.381335002  -16.532591646   463.0405   2   5   0.0218   0.0346   0.1004   0.0131  -0.0180  -0.0404 -15.00    0.0
2025/04/04 15:13:16.000   28.381335002  -16.532591647   463.0405   2   5   0.0218   0.0346   0.1004   0.0131  -0.0180  -0.0404 -14.00    0.0
2025/04/04 15:13:17.000   28.381335002  -16.532591649   463.0404   2   5   0.0218   0.0346   0.1004   0.0131  -0.0180  -0.0404 -13.00    0.0
2025/04/04 15:13:18.000   28.381335002  -16.532591649   463.0401   2   5   0.0218   0.0346   0.1004   0.0131  -0.0179  -0.0404 -12.00    0.0
2025/04/04 15:13:19.000   28.381335003  -16.532591649   463.0396   2   5   0.0218   0.0346   0.1004   0.0131  -0.0179  -0.0404 -11.00    0.0
2025/04/04 15:13:20.000   28.381335003  -16.532591651   463.0394   2   5   0.0218   0.0345   0.1004   0.0131  -0.0179  -0.0404 -10.00    0.0
2025/04/04 15:13:21.000   28.381335003  -16.532591651   463.0391   2   5   0.0218   0.0345   0.1004   0.0131  -0.0179  -0.0404  -9.00    0.0
2025/04/04 15:13:22.000   28.381335004  -16.532591653   463.0385   2   5   0.0219   0.0345   0.1005   0.0131  -0.0179  -0.0404  -8.00    0.0
2025/04/04 15:13:23.000   28.381335004  -16.532591653   463.0379   2   5   0.0219   0.0345   0.1005   0.0131  -0.0179  -0.0404  -7.00    0.0
2025/04/04 15:13:24.000   28.381335005  -16.532591653   463.0374   2   5   0.0219   0.0345   0.1005   0.0131  -0.0179  -0.0404  -6.00    0.0
2025/04/04 15:13:25.000   28.381335005  -16.532591654   463.0368   2   5   0.0219   0.0345   0.1005   0.0131  -0.0179  -0.0404  -5.00    0.0
2025/04/04 15:13:26.000   28.381335006  -16.532591656   463.0359   2   5   0.0219   0.0345   0.1006   0.0131  -0.0178  -0.0405  -4.00    0.0
2025/04/04 15:13:27.000   28.381335007  -16.532591657   463.0343   2   5   0.0219   0.0345   0.1006   0.0130  -0.0178  -0.0405  -3.00    0.0
2025/04/04 15:13:28.000   28.381335009  -16.532591658   463.0324   2   5   0.0219   0.0345   0.1007   0.0130  -0.0178  -0.0405  -2.00    0.0
2025/04/04 15:13:29.000   28.381335013  -16.532591663   463.0296   2   5   0.0219   0.0345   0.1008   0.0130  -0.0177  -0.0405  -1.00    0.0
2025/04/04 15:13:30.000   28.381335016  -16.532591665   463.0272   2   5   0.0219   0.0345   0.1009   0.0130  -0.0177  -0.0406   0.00    0.0
2025/04/04 15:13:31.000   28.381335018  -16.532591668   463.0249   2   5   0.0219   0.0345   0.1010   0.0130  -0.0176  -0.0406   1.00    0.0
2025/04/04 15:13:32.000   28.381335021  -16.532591673   463.0224   2   5   0.0220   0.0345   0.1011   0.0130  -0.0175  -0.0406   2.00    0.0
2025/04/04 15:13:33.000   28.381335024  -16.532591677   463.0200   2   5   0.0220   0.0345   0.1011   0.0129  -0.0174  -0.0406   3.00    0.0
2025/04/04 15:13:34.000   28.381335027  -16.532591680   463.0180   2   5   0.0220   0.0345   0.1012   0.0129  -0.0174  -0.0407   4.00    0.0
2025/04/04 15:13:35.000   28.381335029  -16.532591683   463.0164   2   5   0.0220   0.0345   0.1013   0.0129  -0.0173  -0.0407   5.00    0.0
2025/04/04 15:13:36.000   28.381335031  -16.532591685   463.0151   2   5   0.0220   0.0345   0.1013   0.0129  -0.0173  -0.0407   6.00    0.0
2025/04/04 15:13:37.000   28.381335032  -16.532591687   463.0144   2   5   0.0220   0.0345   0.1013   0.0129  -0.0173  -0.0407   7.00    0.0
2025/04/04 15:13:38.000   28.381335034  -16.532591689   463.0133   2   5   0.0220   0.0345   0.1014   0.0129  -0.0172  -0.0407   8.00    0.0
2025/04/04 15:13:39.000   28.381335035  -16.532591690   463.0128   2   5   0.0220   0.0345   0.1014   0.0129  -0.0172  -0.0407   9.00    0.0
2025/04/04 15:13:40.000   28.381335035  -16.532591691   463.0127   2   5   0.0220   0.0345   0.1014   0.0129  -0.0172  -0.0407  10.00    0.0
2025/04/04 15:13:41.000   28.381335035  -16.532591692   463.0124   2   5   0.0220   0.0345   0.1014   0.0129  -0.0172  -0.0408  11.00    0.0
2025/04/04 15:13:42.000   28.381335036  -16.532591692   463.0122   2   5   0.0220   0.0345   0.1015   0.0129  -0.0172  -0.0408  12.00    0.0
2025/04/04 15:13:43.000   28.381335036  -16.532591693   463.0116   2   5   0.0220   0.0345   0.1015   0.0129  -0.0172  -0.0408  13.00    0.0
2025/04/04 15:13:44.000   28.381335036  -16.532591694   463.0114   2   5   0.0220   0.0345   0.1015   0.0129  -0.0172  -0.0408  14.00    0.0
2025/04/04 15:13:45.000   28.381335037  -16.532591694   463.0111   2   5   0.0220   0.0345   0.1015   0.0129  -0.0172  -0.0408 -15.00    0.0
2025/04/04 15:13:46.000   28.381335038  -16.532591694   463.0108   2   5   0.0220   0.0345   0.1015   0.0129  -0.0171  -0.0408 -14.00    0.0
2025/04/04 15:13:47.000   28.381335038  -16.532591694   463.0107   2   5   0.0221   0.0345   0.1015   0.0129  -0.0171  -0.0408 -13.00    0.0
2025/04/04 15:13:48.000   28.381335038  -16.532591695   463.0106   2   5   0.0221   0.0345   0.1015   0.0128  -0.0171  -0.0408 -12.00    0.0
2025/04/04 15:13:49.000   28.381335038  -16.532591695   463.0103   2   5   0.0221   0.0345   0.1015   0.0128  -0.0171  -0.0408 -11.00    0.0
2025/04/04 15:13:50.000   28.381335038  -16.532591695   463.0100   2   5   0.0221   0.0345   0.1015   0.0128  -0.0171  -0.0408 -10.00    0.0
2025/04/04 15:13:51.000   28.381335038  -16.532591696   463.0097   2   5   0.0221   0.0345   0.1016   0.0128  -0.0171  -0.0408  -9.00    0.0
2025/04/04 15:13:52.000   28.381335038  -16.532591696   463.0097   2   5   0.0221   0.0344   0.1016   0.0128  -0.0171  -0.0408  -8.00    0.0
2025/04/04 15:13:53.000   28.381335038  -16.532591697   463.0096   2   5   0.0221   0.0344   0.1016   0.0128  -0.0171  -0.0408  -7.00    0.0
2025/04/04 15:13:54.000   28.381335038  -16.532591696   463.0092   2   5   0.0221   0.0344   0.1016   0.0128  -0.0171  -0.0408  -6.00    0.0
2025/04/04 15:13:55.000   28.381335039  -16.532591697   463.0087   2   5   0.0221   0.0344   0.1017   0.0128  -0.0170  -0.0408  -5.00    0.0
2025/04/04 15:13:56.000   28.381335040  -16.532591697   463.0082   2   5   0.0221   0.0344   0.1017   0.0128  -0.0170  -0.0408  -4.00    0.0
2025/04/04 15:13:57.000   28.381335042  -16.532591699   463.0073   2   5   0.0221   0.0344   0.1017   0.0128  -0.0170  -0.0408  -3.00    0.0
2025/04/04 15:13:58.000   28.381335043  -16.532591701   463.0064   2   5   0.0221   0.0344   0.1018   0.0128  -0.0169  -0.0409  -2.00    0.0
2025/04/04 15:13:59.000   28.381335045  -16.532591703   463.0054   2   5   0.0221   0.0344   0.1019   0.0128  -0.0169  -0.0409  -1.00    0.0
2025/04/04 15:14:00.000   28.381335047  -16.532591704   463.0046   2   5   0.0221   0.0344   0.1020   0.0128  -0.0168  -0.0409   0.00    0.0
2025/04/04 15:14:01.000   28.381335048  -16.532591708   463.0050   2   5   0.0222   0.0344   0.1021   0.0127  -0.0167  -0.0410   1.00    0.0
2025/04/04 15:14:02.000   28.381335051  -16.532591711   463.0041   2   5   0.0222   0.0344   0.1022   0.0127  -0.0167  -0.0410   2.00    0.0
2025/04/04 15:14:03.000   28.381335053  -16.532591713   463.0029   2   5   0.0222   0.0344   0.1022   0.0127  -0.0166  -0.0410   3.00    0.0
2025/04/04 15:14:04.000   28.381335056  -16.532591715   463.0021   2   5   0.0222   0.0344   0.1023   0.0127  -0.0165  -0.0410   4.00    0.0
2025/04/04 15:14:05.000   28.381335056  -16.532591717   463.0019   2   5   0.0222   0.0344   0.1024   0.0127  -0.0165  -0.0411   5.00    0.0
2025/04/04 15:14:06.000   28.381335057  -16.532591718   463.0015   2   5   0.0222   0.0344   0.1024   0.0127  -0.0165  -0.0411   6.00    0.0
2025/04/04 15:14:07.000   28.381335059  -16.532591718   463.0012   2   5   0.0222   0.0344   0.1025   0.0127  -0.0164  -0.0411   7.00    0.0
2025/04/04 15:14:08.000   28.381335059  -16.532591718   463.0009   2   5   0.0222   0.0344   0.1025   0.0126  -0.0164  -0.0411   8.00    0.0
2025/04/04 15:14:09.000   28.381335059  -16.532591718   463.0010   2   5   0.0222   0.0344   0.1025   0.0126  -0.0164  -0.0411   9.00    0.0
2025/04/04 15:14:10.000   28.381335059  -16.532591719   463.0008   2   5   0.0222   0.0344   0.1025   0.0126  -0.0164  -0.0411  10.00    0.0
2025/04/04 15:14:11.000   28.381335060  -16.532591719   463.0005   2   5   0.0223   0.0344   0.1025   0.0126  -0.0164  -0.0411  11.00    0.0
2025/04/04 15:14:12.000   28.381335060  -16.532591719   463.0003   2   5   0.0223   0.0344   0.1026   0.0126  -0.0163  -0.0411  12.00    0.0
2025/04/04 15:14:13.000   28.381335060  -16.532591720   463.0001   2   5   0.0223   0.0344   0.1026   0.0126  -0.0163  -0.0411  13.00    0.0
2025/04/04 15:14:14.000   28.381335061  -16.532591721   463.0000   2   5   0.0223   0.0344   0.1026   0.0126  -0.0163  -0.0411  14.00    0.0
2025/04/04 15:14:15.000   28.381335061  -16.532591721   462.9999   2   5   0.0223   0.0344   0.1026   0.0126  -0.0163  -0.0411 -15.00    0.0
2025/04/04 15:14:16.000   28.381335061  -16.532591721   462.9997   2   5   0.0223   0.0344   0.1026   0.0126  -0.0163  -0.0411 -14.00    0.0
2025/04/04 15:14:17.000   28.381335061  -16.532591722   462.9996   2   5   0.0223   0.0344   0.1026   0.0126  -0.0163  -0.0411 -13.00    0.0
2025/04/04 15:14:18.000   28.381335061  -16.532591722   462.9995   2   5   0.0223   0.0344   0.1026   0.0126  -0.0163  -0.0411 -12.00    0.0
2025/04/04 15:14:19.000   28.381335062  -16.532591722   462.9994   2   5   0.0223   0.0344   0.1026   0.0126  -0.0163  -0.0411 -11.00    0.0
2025/04/04 15:14:20.000   28.381335062  -16.532591722   462.9992   2   5   0.0223   0.0344   0.1026   0.0126  -0.0163  -0.0411 -10.00    0.0
2025/04/04 15:14:21.000   28.381335062  -16.532591721   462.9990   2   5   0.0223   0.0344   0.1027   0.0126  -0.0163  -0.0412  -9.00    0.0
2025/04/04 15:14:22.000   28.381335062  -16.532591720   462.9988   2   5   0.0223   0.0344   0.1027   0.0126  -0.0162  -0.0412  -8.00    0.0
2025/04/04 15:14:23.000   28.381335062  -16.532591718   462.9987   2   5   0.0223   0.0344   0.1027   0.0126  -0.0162  -0.0412  -7.00    0.0
2025/04/04 15:14:24.000   28.381335063  -16.532591716   462.9984   2   5   0.0223   0.0344   0.1027   0.0126  -0.0162  -0.0412  -6.00    0.0
2025/04/04 15:14:25.000   28.381335064  -16.532591714   462.9980   2   5   0.0223   0.0343   0.1028   0.0126  -0.0162  -0.0412  -5.00    0.0
2025/04/04 15:14:26.000   28.381335064  -16.532591710   462.9977   2   5   0.0223   0.0343   0.1028   0.0126  -0.0162  -0.0412  -4.00    0.0
2025/04/04 15:14:27.000   28.381335065  -16.532591708   462.9972   2   5   0.0223   0.0343   0.1029   0.0126  -0.0161  -0.0412  -3.00    0.0
2025/04/04 15:14:28.000   28.381335066  -16.532591703   462.9970   2   5   0.0223   0.0343   0.1029   0.0125  -0.0161  -0.0412  -2.00    0.0
2025/04/04 15:14:29.000   28.381335064  -16.532591698   462.9978   2   5   0.0223   0.0343   0.1030   0.0125  -0.0160  -0.0413  -1.00    0.0
2025/04/04 15:14:30.000   28.381335063  -16.532591690   462.9985   2   5   0.0223   0.0343   0.1031   0.0125  -0.0160  -0.0413   0.00    0.0
2025/04/04 15:14:31.000   28.381335062  -16.532591686   462.9993   2   5   0.0224   0.0343   0.1032   0.0125  -0.0159  -0.0413   1.00    0.0
2025/04/04 15:14:32.000   28.381335062  -16.532591681   462.9994   2   5   0.0224   0.0343   0.1033   0.0125  -0.0158  -0.0414   2.00    0.0
2025/04/04 15:14:33.000   28.381335062  -16.532591678   462.9995   2   5   0.0224   0.0343   0.1033   0.0125  -0.0157  -0.0414   3.00    0.0
2025/04/04 15:14:34.000   28.381335062  -16.532591675   462.9995   2   5   0.0224   0.0343   0.1034   0.0124  -0.0157  -0.0414   4.00    0.0
2025/04/04 15:14:35.000   28.381335063  -16.532591672   462.9992   2   5   0.0224   0.0343   0.1035   0.0124  -0.0156  -0.0414   5.00    0.0
2025/04/04 15:14:36.000   28.381335063  -16.532591669   462.9991   2   5   0.0224   0.0343   0.1035   0.0124  -0.0156  -0.0414   6.00    0.0
2025/04/04 15:14:37.000   28.381335063  -16.532591667   462.9992   2   5   0.0224   0.0343   0.1035   0.0124  -0.0156  -0.0414   7.00    0.0
2025/04/04 15:14:38.000   28.381335063  -16.532591664   462.9992   2   5   0.0224   0.0343   0.1036   0.0124  -0.0155  -0.0415   8.00    0.0
2025/04/04 15:14:39.000   28.381335063  -16.532591661   462.9995   2   5   0.0225   0.0343   0.1036   0.0124  -0.0155  -0.0415   9.00    0.0
2025/04/04 15:14:40.000   28.381335063  -16.532591659   462.9997   2   5   0.0225   0.0343   0.1036   0.0124  -0.0155  -0.0415  10.00    0.0
2025/04/04 15:14:41.000   28.381335063  -16.532591658   462.9996   2   5   0.0225   0.0343   0.1036   0.0124  -0.0155  -0.0415  11.00    0.0
2025/04/04 15:14:42.000   28.381335063  -16.532591657   462.9998   2   5   0.0225   0.0343   0.1037   0.0124  -0.0155  -0.0415  12.00    0.0
2025/04/04 15:14:43.000   28.381335063  -16.532591656   462.9996   2   5   0.0225   0.0343   0.1037   0.0124  -0.0155  -0.0415  13.00    0.0
2025/04/04 15:14:44.000   28.381335064  -16.532591655   462.9995   2   5   0.0225   0.0343   0.1037   0.0124  -0.0155  -0.0415  14.00    0.0
2025/04/04 15:14:45.000   28.381335064  -16.532591654   462.9992   2   5   0.0225   0.0343   0.1037   0.0124  -0.0155  -0.0415 -15.00    0.0
2025/04/04 15:14:46.000   28.381335064  -16.532591654   462.9992   2   5   0.0225   0.0343   0.1037   0.0124  -0.0154  -0.0415 -14.00    0.0
2025/04/04 15:14:47.000   28.381335065  -16.532591653   462.9990   2   5   0.0225   0.0343   0.1037   0.0124  -0.0154  -0.0415 -13.00    0.0
2025/04/04 15:14:48.000   28.381335064  -16.532591652   462.9990   2   5   0.0225   0.0343   0.1037   0.0124  -0.0154  -0.0415 -12.00    0.0
2025/04/04 15:14:49.000   28.381335065  -16.532591651   462.9989   2   5   0.0225   0.0343   0.1037   0.0124  -0.0154  -0.0415 -11.00    0.0
2025/04/04 15:14:50.000   28.381335065  -16.532591650   462.9989   2   5   0.0225   0.0343   0.1037   0.0124  -0.0154  -0.0415 -10.00    0.0
2025/04/04 15:14:51.000   28.381335065  -16.532591649   462.9988   2   5   0.0225   0.0343   0.1038   0.0124  -0.0154  -0.0415  -9.00    0.0
2025/04/04 15:14:52.000   28.381335065  -16.532591649   462.9987   2   5   0.0225   0.0343   0.1038   0.0124  -0.0154  -0.0415  -8.00    0.0
2025/04/04 15:14:53.000   28.381335065  -16.532591648   462.9985   2   5   0.0225   0.0343   0.1038   0.0124  -0.0154  -0.0415  -7.00    0.0
2025/04/04 15:14:54.000   28.381335065  -16.532591647   462.9984   2   5   0.0225   0.0343   0.1038   0.0123  -0.0153  -0.0415  -6.00    0.0
2025/04/04 15:14:55.000   28.381335064  -16.532591646   462.9978   2   5   0.0225   0.0343   0.1038   0.0123  -0.0153  -0.0415  -5.00    0.0
2025/04/04 15:14:56.000   28.381335063  -16.532591645   462.9976   2   5   0.0225   0.0343   0.1039   0.0123  -0.0153  -0.0416  -4.00    0.0
2025/04/04 15:14:57.000   28.381335062  -16.532591644   462.9972   2   5   0.0225   0.0342   0.1039   0.0123  -0.0153  -0.0416  -3.00    0.0
2025/04/04 15:14:58.000   28.381335062  -16.532591642   462.9967   2   5   0.0225   0.0342   0.1040   0.0123  -0.0152  -0.0416  -2.00    0.0
2025/04/04 15:14:59.000   28.381335061  -16.532591641   462.9962   2   5   0.0225   0.0342   0.1041   0.0123  -0.0152  -0.0416  -1.00    0.0
2025/04/04 15:15:00.000   28.381335061  -16.532591641   462.9951   2   5   0.0226   0.0342   0.1041   0.0123  -0.0151  -0.0416   0.00    0.0
2025/04/04 15:15:01.000   28.381335062  -16.532591640   462.9934   2   5   0.0226   0.0342   0.1042   0.0123  -0.0150  -0.0417   1.00    0.0
2025/04/04 15:15:02.000   28.381335061  -16.532591640   462.9926   2   5   0.0226   0.0342   0.1043   0.0122  -0.0149  -0.0417   2.00    0.0
2025/04/04 15:15:03.000   28.381335063  -16.532591641   462.9916   2   5   0.0226   0.0342   0.1044   0.0122  -0.0149  -0.0417   3.00    0.0
2025/04/04 15:15:04.000   28.381335064  -16.532591640   462.9902   2   5   0.0226   0.0342   0.1045   0.0122  -0.0148  -0.0418   4.00    0.0
2025/04/04 15:15:05.000   28.381335064  -16.532591639   462.9901   2   5   0.0226   0.0342   0.1045   0.0122  -0.0147  -0.0418   5.00    0.0
2025/04/04 15:15:06.000   28.381335063  -16.532591638   462.9898   2   5   0.0226   0.0342   0.1046   0.0122  -0.0147  -0.0418   6.00    0.0
2025/04/04 15:15:07.000   28.381335064  -16.532591638   462.9893   2   5   0.0226   0.0342   0.1046   0.0122  -0.0147  -0.0418   7.00    0.0
2025/04/04 15:15:08.000   28.381335064  -16.532591637   462.9890   2   5   0.0226   0.0342   0.1046   0.0122  -0.0147  -0.0418   8.00    0.0
2025/04/04 15:15:09.000   28.381335064  -16.532591636   462.9888   2   5   0.0227   0.0342   0.1047   0.0122  -0.0146  -0.0418   9.00    0.0
2025/04/04 15:15:10.000   28.381335063  -16.532591635   462.9888   2   5   0.0227   0.0342   0.1047   0.0122  -0.0146  -0.0418  10.00    0.0
2025/04/04 15:15:11.000   28.381335063  -16.532591635   462.9885   2   5   0.0227   0.0342   0.1047   0.0122  -0.0146  -0.0418  11.00    0.0
2025/04/04 15:15:12.000   28.381335063  -16.532591634   462.9882   2   5   0.0227   0.0342   0.1047   0.0122  -0.0146  -0.0418  12.00    0.0
2025/04/04 15:15:13.000   28.381335064  -16.532591633   462.9882   2   5   0.0227   0.0342   0.1047   0.0122  -0.0146  -0.0418  13.00    0.0
2025/04/04 15:15:14.000   28.381335064  -16.532591633   462.9881   2   5   0.0227   0.0342   0.1047   0.0122  -0.0146  -0.0418  14.00    0.0
2025/04/04 15:15:15.000   28.381335064  -16.532591631   462.9880   2   5   0.0227   0.0342   0.1047   0.0122  -0.0146  -0.0418 -15.00    0.0
2025/04/04 15:15:16.000   28.381335064  -16.532591631   462.9880   2   5   0.0227   0.0342   0.1047   0.0121  -0.0145  -0.0418 -14.00    0.0
2025/04/04 15:15:17.000   28.381335064  -16.532591630   462.9879   2   5   0.0227   0.0342   0.1048   0.0121  -0.0145  -0.0418 -13.00    0.0
2025/04/04 15:15:18.000   28.381335064  -16.532591629   462.9878   2   5   0.0227   0.0342   0.1048   0.0121  -0.0145  -0.0418 -12.00    0.0
2025/04/04 15:15:19.000   28.381335064  -16.532591627   462.9877   2   5   0.0227   0.0342   0.1048   0.0121  -0.0145  -0.0419 -11.00    0.0
2025/04/04 15:15:20.000   28.381335065  -16.532591626   462.9876   2   5   0.0227   0.0342   0.1048   0.0121  -0.0145  -0.0419 -10.00    0.0
2025/04/04 15:15:21.000   28.381335065  -16.532591625   462.9875   2   5   0.0227   0.0342   0.1048   0.0121  -0.0145  -0.0419  -9.00    0.0
2025/04/04 15:15:22.000   28.381335065  -16.532591624   462.9875   2   5   0.0227   0.0342   0.1048   0.0121  -0.0145  -0.0419  -8.00    0.0
2025/04/04 15:15:23.000   28.381335065  -16.532591622   462.9876   2   5   0.0227   0.0342   0.1048   0.0121  -0.0145  -0.0419  -7.00    0.0
2025/04/04 15:15:24.000   28.381335065  -16.532591619   462.9875   2   5   0.0227   0.0342   0.1049   0.0121  -0.0144  -0.0419  -6.00    0.0
2025/04/04 15:15:25.000   28.381335065  -16.532591617   462.9873   2   5   0.0227   0.0342   0.1049   0.0121  -0.0144  -0.0419  -5.00    0.0
2025/04/04 15:15:26.000   28.381335066  -16.532591615   462.9870   2   5   0.0227   0.0342   0.1049   0.0121  -0.0144  -0.0419  -4.00    0.0
2025/04/04 15:15:27.000   28.381335067  -16.532591611   462.9867   2   5   0.0227   0.0342   0.1050   0.0121  -0.0144  -0.0419  -3.00    0.0
2025/04/04 15:15:28.000   28.381335068  -16.532591608   462.9862   2   5   0.0227   0.0342   0.1050   0.0121  -0.0143  -0.0419  -2.00    0.0
2025/04/04 15:15:29.000   28.381335070  -16.532591606   462.9854   2   5   0.0227   0.0341   0.1051   0.0121  -0.0143  -0.0420  -1.00    0.0
2025/04/04 15:15:30.000   28.381335071  -16.532591603   462.9850   2   5   0.0227   0.0341   0.1052   0.0121  -0.0142  -0.0420   0.00    0.0
2025/04/04 15:15:31.000   28.381335072  -16.532591600   462.9842   2   5   0.0228   0.0341   0.1053   0.0120  -0.0141  -0.0420   1.00    0.0
2025/04/04 15:15:32.000   28.381335071  -16.532591596   462.9844   2   5   0.0228   0.0341   0.1053   0.0120  -0.0140  -0.0420   2.00    0.0
2025/04/04 15:15:33.000   28.381335071  -16.532591594   462.9843   2   5   0.0228   0.0341   0.1054   0.0120  -0.0139  -0.0421   3.00    0.0
2025/04/04 15:15:34.000   28.381335071  -16.532591593   462.9843   2   5   0.0228   0.0341   0.1055   0.0120  -0.0139  -0.0421   4.00    0.0
2025/04/04 15:15:35.000   28.381335074  -16.532591592   462.9833   2   5   0.0228   0.0341   0.1055   0.0120  -0.0138  -0.0421   5.00    0.0
2025/04/04 15:15:36.000   28.381335075  -16.532591589   462.9828   2   5   0.0228   0.0341   0.1056   0.0120  -0.0138  -0.0421   6.00    0.0
2025/04/04 15:15:37.000   28.381335077  -16.532591588   462.9821   2   5   0.0228   0.0341   0.1056   0.0120  -0.0138  -0.0421   7.00    0.0
2025/04/04 15:15:38.000   28.381335078  -16.532591587   462.9813   2   5   0.0228   0.0341   0.1056   0.0120  -0.0137  -0.0421   8.00    0.0
2025/04/04 15:15:39.000   28.381335079  -16.532591586   462.9811   2   5   0.0228   0.0341   0.1057   0.0120  -0.0137  -0.0422   9.00    0.0
2025/04/04 15:15:40.000   28.381335080  -16.532591584   462.9808   2   5   0.0228   0.0341   0.1057   0.0120  -0.0137  -0.0422  10.00    0.0
2025/04/04 15:15:41.000   28.381335081  -16.532591582   462.9805   2   5   0.0229   0.0341   0.1057   0.0119  -0.0137  -0.0422  11.00    0.0
2025/04/04 15:15:42.000   28.381335081  -16.532591581   462.9802   2   5   0.0229   0.0341   0.1057   0.0119  -0.0137  -0.0422  12.00    0.0
2025/04/04 15:15:43.000   28.381335082  -16.532591580   462.9800   2   5   0.0229   0.0341   0.1057   0.0119  -0.0137  -0.0422  13.00    0.0
2025/04/04 15:15:44.000   28.381335082  -16.532591579   462.9799   2   5   0.0229   0.0341   0.1057   0.0119  -0.0136  -0.0422  14.00    0.0
2025/04/04 15:15:45.000   28.381335083  -16.532591577   462.9795   2   5   0.0229   0.0341   0.1057   0.0119  -0.0136  -0.0422 -15.00    0.0
2025/04/04 15:15:46.000   28.381335084  -16.532591576   462.9792   2   5   0.0229   0.0341   0.1057   0.0119  -0.0136  -0.0422 -14.00    0.0
2025/04/04 15:15:47.000   28.381335084  -16.532591576   462.9789   2   5   0.0229   0.0341   0.1058   0.0119  -0.0136  -0.0422 -13.00    0.0
2025/04/04 15:15:48.000   28.381335085  -16.532591575   462.9784   2   5   0.0229   0.0341   0.1058   0.0119  -0.0136  -0.0422 -12.00    0.0
2025/04/04 15:15:49.000   28.381335086  -16.532591574   462.9779   2   5   0.0229   0.0341   0.1058   0.0119  -0.0136  -0.0422 -11.00    0.0
2025/04/04 15:15:50.000   28.381335087  -16.532591574   462.9775   2   5   0.0229   0.0341   0.1058   0.0119  -0.0136  -0.0422 -10.00    0.0
2025/04/04 15:15:51.000   28.381335088  -16.532591572   462.9769   2   5   0.0229   0.0341   0.1058   0.0119  -0.0136  -0.0422  -9.00    0.0
2025/04/04 15:15:52.000   28.381335089  -16.532591572   462.9763   2   5   0.0229   0.0341   0.1058   0.0119  -0.0136  -0.0422  -8.00    0.0
2025/04/04 15:15:53.000   28.381335089  -16.532591572   462.9756   2   5   0.0229   0.0341   0.1058   0.0119  -0.0135  -0.0422  -7.00    0.0
2025/04/04 15:15:54.000   28.381335091  -16.532591572   462.9747   2   5   0.0229   0.0341   0.1059   0.0119  -0.0135  -0.0422  -6.00    0.0
2025/04/04 15:15:55.000   28.381335093  -16.532591572   462.9735   2   5   0.0229   0.0341   0.1059   0.0119  -0.0135  -0.0422  -5.00    0.0
2025/04/04 15:15:56.000   28.381335095  -16.532591572   462.9721   2   5   0.0229   0.0341   0.1059   0.0119  -0.0135  -0.0422  -4.00    0.0
2025/04/04 15:15:57.000   28.381335098  -16.532591572   462.9701   2   5   0.0229   0.0341   0.1060   0.0119  -0.0134  -0.0422  -3.00    0.0
2025/04/04 15:15:58.000   28.381335101  -16.532591573   462.9680   2   5   0.0229   0.0341   0.1060   0.0119  -0.0134  -0.0423  -2.00    0.0
2025/04/04 15:15:59.000   28.381335104  -16.532591574   462.9653   2   5   0.0229   0.0341   0.1061   0.0119  -0.0133  -0.0423  -1.00    0.0
2025/04/04 15:16:00.000   28.381335108  -16.532591576   462.9620   2   5   0.0229   0.0341   0.1061   0.0119  -0.0133  -0.0423   0.00    0.0
2025/04/04 15:16:01.000   28.381335113  -16.532591581   462.9586   2   6   0.0229   0.0341   0.1062   0.0118  -0.0132  -0.0423   1.00    0.0
2025/04/04 15:16:02.000   28.381335114  -16.532591593   462.9557   2   6   0.0230   0.0340   0.1063   0.0118  -0.0131  -0.0424   2.00    0.0
2025/04/04 15:16:03.000   28.381335120  -16.532591592   462.9524   2   6   0.0230   0.0340   0.1064   0.0118  -0.0130  -0.0424   3.00    0.0
2025/04/04 15:16:04.000   28.381335127  -16.532591587   462.9491   2   6   0.0230   0.0340   0.1064   0.0118  -0.0129  -0.0424   4.00    0.0
2025/04/04 15:16:05.000   28.381335131  -16.532591589   462.9465   2   6   0.0230   0.0340   0.1065   0.0118  -0.0129  -0.0424   5.00    0.0
2025/04/04 15:16:06.000   28.381335133  -16.532591591   462.9447   2   6   0.0230   0.0340   0.1065   0.0118  -0.0128  -0.0424   6.00    0.0
2025/04/04 15:16:07.000   28.381335135  -16.532591591   462.9429   2   6   0.0230   0.0340   0.1066   0.0118  -0.0128  -0.0424   7.00    0.0
2025/04/04 15:16:08.000   28.381335135  -16.532591594   462.9418   2   6   0.0230   0.0340   0.1066   0.0118  -0.0128  -0.0425   8.00    0.0
2025/04/04 15:16:09.000   28.381335137  -16.532591593   462.9406   2   6   0.0230   0.0340   0.1066   0.0117  -0.0128  -0.0425   9.00    0.0
2025/04/04 15:16:10.000   28.381335139  -16.532591593   462.9395   2   6   0.0230   0.0340   0.1066   0.0117  -0.0127  -0.0425  10.00    0.0
2025/04/04 15:16:11.000   28.381335140  -16.532591593   462.9386   2   6   0.0230   0.0340   0.1066   0.0117  -0.0127  -0.0425  11.00    0.0
2025/04/04 15:16:12.000   28.381335142  -16.532591592   462.9376   2   6   0.0230   0.0340   0.1066   0.0117  -0.0127  -0.0425  12.00    0.0
2025/04/04 15:16:13.000   28.381335142  -16.532591592   462.9369   2   6   0.0230   0.0340   0.1067   0.0117  -0.0127  -0.0425  13.00    0.0
2025/04/04 15:16:14.000   28.381335144  -16.532591590   462.9363   2   6   0.0230   0.0340   0.1067   0.0117  -0.0127  -0.0425  14.00    0.0
2025/04/04 15:16:15.000   28.381335144  -16.532591589   462.9358   2   6   0.0230   0.0340   0.1067   0.0117  -0.0127  -0.0425 -15.00    0.0
2025/04/04 15:16:16.000   28.381335145  -16.532591590   462.9353   2   6   0.0230   0.0340   0.1067   0.0117  -0.0127  -0.0425 -14.00    0.0
2025/04/04 15:16:17.000   28.381335145  -16.532591590   462.9347   2   6   0.0230   0.0340   0.1067   0.0117  -0.0126  -0.0425 -13.00    0.0
2025/04/04 15:16:18.000   28.381335146  -16.532591591   462.9344   2   6   0.0230   0.0340   0.1067   0.0117  -0.0126  -0.0425 -12.00    0.0
2025/04/04 15:16:19.000   28.381335146  -16.532591590   462.9341   2   6   0.0230   0.0340   0.1067   0.0117  -0.0126  -0.0425 -11.00    0.0
2025/04/04 15:16:20.000   28.381335147  -16.532591590   462.9336   2   6   0.0230   0.0340   0.1067   0.0117  -0.0126  -0.0425 -10.00    0.0
2025/04/04 15:16:21.000   28.381335149  -16.532591589   462.9328   2   6   0.0230   0.0340   0.1067   0.0117  -0.0126  -0.0425  -9.00    0.0
2025/04/04 15:16:22.000   28.381335150  -16.532591589   462.9321   2   6   0.0230   0.0340   0.1067   0.0117  -0.0126  -0.0425  -8.00    0.0
2025/04/04 15:16:23.000   28.381335151  -16.532591588   462.9316   2   6   0.0230   0.0340   0.1068   0.0117  -0.0126  -0.0425  -7.00    0.0
2025/04/04 15:16:24.000   28.381335153  -16.532591589   462.9309   2   6   0.0230   0.0340   0.1068   0.0117  -0.0125  -0.0425  -6.00    0.0
2025/04/04 15:16:25.000   28.381335155  -16.532591590   462.9297   2   6   0.0231   0.0340   0.1068   0.0117  -0.0125  -0.0425  -5.00    0.0
2025/04/04 15:16:26.000   28.381335159  -16.532591591   462.9283   2   6   0.0231   0.0340   0.1068   0.0117  -0.0125  -0.0425  -4.00    0.0
2025/04/04 15:16:27.000   28.381335163  -16.532591595   462.9266   2   6   0.0231   0.0340   0.1069   0.0117  -0.0124  -0.0425  -3.00    0.0
2025/04/04 15:16:28.000   28.381335167  -16.532591597   462.9248   2   6   0.0231   0.0340   0.1069   0.0117  -0.0124  -0.0425  -2.00    0.0
2025/04/04 15:16:29.000   28.381335170  -16.532591600   462.9233   2   6   0.0231   0.0340   0.1070   0.0117  -0.0123  -0.0426  -1.00    0.0
2025/04/04 15:16:30.000   28.381335174  -16.532591603   462.9219   2   6   0.0231   0.0340   0.1070   0.0116  -0.0123  -0.0426   0.00    0.0
2025/04/04 15:16:31.000   28.381335180  -16.532591606   462.9201   2   6   0.0231   0.0340   0.1071   0.0116  -0.0122  -0.0426   1.00    0.0
2025/04/04 15:16:32.000   28.381335184  -16.532591608   462.9185   2   6   0.0231   0.0340   0.1072   0.0116  -0.0121  -0.0426   2.00    0.0
2025/04/04 15:16:33.000   28.381335189  -16.532591612   462.9165   2   6   0.0231   0.0339   0.1072   0.0116  -0.0120  -0.0427   3.00    0.0
2025/04/04 15:16:34.000   28.381335193  -16.532591614   462.9145   2   6   0.0232   0.0339   0.1073   0.0116  -0.0119  -0.0427   4.00    0.0
2025/04/04 15:16:35.000   28.381335195  -16.532591615   462.9134   2   6   0.0232   0.0339   0.1073   0.0116  -0.0119  -0.0427   5.00    0.0
2025/04/04 15:16:36.000   28.381335197  -16.532591617   462.9127   2   6   0.0232   0.0339   0.1074   0.0116  -0.0118  -0.0427   6.00    0.0
2025/04/04 15:16:37.000   28.381335198  -16.532591617   462.9118   2   6   0.0232   0.0339   0.1074   0.0116  -0.0118  -0.0427   7.00    0.0
2025/04/04 15:16:38.000   28.381335200  -16.532591617   462.9109   2   6   0.0232   0.0339   0.1074   0.0116  -0.0118  -0.0427   8.00    0.0
2025/04/04 15:16:39.000   28.381335201  -16.532591617   462.9103   2   6   0.0232   0.0339   0.1075   0.0115  -0.0118  -0.0427   9.00    0.0
2025/04/04 15:16:40.000   28.381335202  -16.532591619   462.9099   2   6   0.0232   0.0339   0.1075   0.0115  -0.0117  -0.0427  10.00    0.0
2025/04/04 15:16:41.000   28.381335202  -16.532591619   462.9094   2   6   0.0232   0.0339   0.1075   0.0115  -0.0117  -0.0427  11.00    0.0
2025/04/04 15:16:42.000   28.381335202  -16.532591620   462.9092   2   6   0.0232   0.0339   0.1075   0.0115  -0.0117  -0.0427  12.00    0.0
2025/04/04 15:16:43.000   28.381335203  -16.532591620   462.9089   2   6   0.0232   0.0339   0.1075   0.0115  -0.0117  -0.0427  13.00    0.0
2025/04/04 15:16:44.000   28.381335203  -16.532591621   462.9087   2   6   0.0232   0.0339   0.1075   0.0115  -0.0117  -0.0427  14.00    0.0
2025/04/04 15:16:45.000   28.381335203  -16.532591621   462.9086   2   6   0.0232   0.0339   0.1075   0.0115  -0.0117  -0.0428 -15.00    0.0
2025/04/04 15:16:46.000   28.381335203  -16.532591621   462.9084   2   6   0.0232   0.0339   0.1075   0.0115  -0.0117  -0.0428 -14.00    0.0
2025/04/04 15:16:47.000   28.381335203  -16.532591622   462.9084   2   6   0.0232   0.0339   0.1075   0.0115  -0.0116  -0.0428 -13.00    0.0
2025/04/04 15:16:48.000   28.381335204  -16.532591621   462.9083   2   6   0.0232   0.0339   0.1075   0.0115  -0.0116  -0.0428 -12.00    0.0
2025/04/04 15:16:49.000   28.381335204  -16.532591622   462.9082   2   6   0.0232   0.0339   0.1075   0.0115  -0.0116  -0.0428 -11.00    0.0
2025/04/04 15:16:50.000   28.381335203  -16.532591624   462.9081   2   6   0.0232   0.0339   0.1076   0.0115  -0.0116  -0.0428 -10.00    0.0
2025/04/04 15:16:51.000   28.381335203  -16.532591625   462.9083   2   6   0.0232   0.0339   0.1076   0.0115  -0.0116  -0.0428  -9.00    0.0
2025/04/04 15:16:52.000   28.381335202  -16.532591625   462.9087   2   6   0.0232   0.0339   0.1076   0.0115  -0.0116  -0.0428  -8.00    0.0
2025/04/04 15:16:53.000   28.381335201  -16.532591626   462.9089   2   6   0.0232   0.0339   0.1076   0.0115  -0.0116  -0.0428  -7.00    0.0
2025/04/04 15:16:54.000   28.381335201  -16.532591626   462.9089   2   6   0.0232   0.0339   0.1076   0.0115  -0.0115  -0.0428  -6.00    0.0
2025/04/04 15:16:55.000   28.381335200  -16.532591628   462.9088   2   6   0.0232   0.0339   0.1076   0.0115  -0.0115  -0.0428  -5.00    0.0
2025/04/04 15:16:56.000   28.381335199  -16.532591629   462.9088   2   6   0.0232   0.0339   0.1077   0.0115  -0.0115  -0.0428  -4.00    0.0
2025/04/04 15:16:57.000   28.381335197  -16.532591627   462.9090   2   6   0.0232   0.0339   0.1077   0.0115  -0.0114  -0.0428  -3.00    0.0
2025/04/04 15:16:58.000   28.381335195  -16.532591624   462.9095   2   6   0.0232   0.0339   0.1077   0.0115  -0.0114  -0.0428  -2.00    0.0
2025/04/04 15:16:59.000   28.381335193  -16.532591622   462.9101   2   6   0.0232   0.0339   0.1078   0.0115  -0.0113  -0.0428  -1.00    1.1
2025/04/04 15:17:00.000   28.381335192  -16.532591621   462.9096   2   6   0.0232   0.0339   0.1078   0.0115  -0.0113  -0.0428   0.00    1.1
2025/04/04 15:17:01.000   28.381335184  -16.532591632   462.9102   2   6   0.0233   0.0339   0.1079   0.0114  -0.0112  -0.0429   1.00    1.4
2025/04/04 15:17:02.000   28.381335176  -16.532591639   462.9121   2   6   0.0233   0.0339   0.1080   0.0114  -0.0111  -0.0429   2.00    1.0
2025/04/04 15:17:03.000   28.381335171  -16.532591644   462.9133   2   6   0.0233   0.0339   0.1080   0.0114  -0.0110  -0.0429   3.00    1.3
2025/04/04 15:17:04.000   28.381335167  -16.532591647   462.9146   2   6   0.0233   0.0339   0.1081   0.0114  -0.0110  -0.0429   4.00    1.3
2025/04/04 15:17:05.000   28.381335174  -16.532591630   462.9140   2   5   0.0233   0.0338   0.1081   0.0114  -0.0109  -0.0429   5.00    1.3
2025/04/04 15:17:06.000   28.381335180  -16.532591617   462.9125   2   6   0.0233   0.0338   0.1081   0.0114  -0.0109  -0.0430   6.00    1.3
2025/04/04 15:17:07.000   28.381335185  -16.532591612   462.9107   2   6   0.0233   0.0338   0.1082   0.0114  -0.0108  -0.0430   7.00    1.3
2025/04/04 15:17:08.000   28.381335174  -16.532591627   462.9116   2   5   0.0233   0.0338   0.1082   0.0114  -0.0108  -0.0430   8.00    1.3
2025/04/04 15:17:09.000   28.381335173  -16.532591627   462.9117   2   5   0.0233   0.0338   0.1082   0.0114  -0.0108  -0.0430   9.00    1.3
2025/04/04 15:17:10.000   28.381335176  -16.532591621   462.9110   2   6   0.0233   0.0338   0.1082   0.0114  -0.0108  -0.0430  10.00    1.2
2025/04/04 15:17:11.000   28.381335181  -16.532591613   462.9096   2   6   0.0233   0.0338   0.1082   0.0114  -0.0107  -0.0430  11.00    1.0
2025/04/04 15:17:12.000   28.381335174  -16.532591622   462.9102   2   6   0.0233   0.0338   0.1083   0.0114  -0.0107  -0.0430  12.00    1.2
2025/04/04 15:17:13.000   28.381335173  -16.532591624   462.9103   2   5   0.0233   0.0338   0.1083   0.0114  -0.0107  -0.0430  13.00    1.3
2025/04/04 15:17:14.000   28.381335170  -16.532591629   462.9107   2   6   0.0233   0.0338   0.1083   0.0114  -0.0107  -0.0430  14.00    1.3
2025/04/04 15:17:15.000   28.381335355  -16.532590548   463.0778   1   6   0.0439   0.0080   0.0666  -0.0184   0.0185  -0.0451 -15.00    3.7
2025/04/04 15:17:16.000   28.381335294  -16.532590537   463.0907   1   5   0.0446   0.0081   0.0681  -0.0187   0.0190  -0.0463 -14.00    3.5
2025/04/04 15:17:17.000   28.381335295  -16.532590537   463.0902   1   5   0.0445   0.0081   0.0676  -0.0186   0.0189  -0.0461 -13.00    3.6
2025/04/04 15:17:18.000   28.381335348  -16.532590546   463.0780   1   6   0.0437   0.0080   0.0655  -0.0184   0.0184  -0.0447 -12.00    3.8
2025/04/04 15:17:19.000   28.381335282  -16.532590534   463.0925   1   5   0.0442   0.0081   0.0665  -0.0185   0.0187  -0.0456 -11.00    3.8
2025/04/04 15:17:20.000   28.381335279  -16.532590534   463.0928   1   5   0.0441   0.0081   0.0658  -0.0185   0.0186  -0.0453 -10.00    3.8
2025/04/04 15:17:21.000   28.381335276  -16.532590533   463.0937   1   5   0.0439   0.0080   0.0652  -0.0184   0.0185  -0.0450  -9.00    3.8
2025/04/04 15:17:22.000   28.381335273  -16.532590532   463.0945   1   5   0.0437   0.0080   0.0644  -0.0183   0.0184  -0.0447  -8.00    3.8
2025/04/04 15:17:23.000   28.381335270  -16.532590531   463.0957   1   5   0.0436   0.0080   0.0636  -0.0183   0.0183  -0.0443  -7.00    3.8
2025/04/04 15:17:24.000   28.381335272  -16.532590532   463.0961   1   5   0.0433   0.0079   0.0628  -0.0182   0.0181  -0.0439  -6.00    3.9
2025/04/04 15:17:25.000   28.381335269  -16.532590531   463.0977   1   5   0.0431   0.0079   0.0619  -0.0181   0.0180  -0.0435  -5.00    3.9
2025/04/04 15:17:26.000   28.381335277  -16.532590532   463.0987   1   5   0.0429   0.0079   0.0609  -0.0180   0.0178  -0.0431  -4.00    3.9
2025/04/04 15:17:27.000   28.381335171  -16.532590511   463.1102   1   5   0.0174   0.0037   0.0488  -0.0072   0.0084  -0.0216  -3.00    3.1
2025/04/04 15:17:28.000   28.381335168  -16.532590510   463.1123   1   5   0.0173   0.0037   0.0478  -0.0072   0.0083  -0.0212  -2.00    3.2
2025/04/04 15:17:29.000   28.381335165  -16.532590509   463.1143   1   5   0.0173   0.0037   0.0469  -0.0071   0.0082  -0.0208  -1.00    3.2
2025/04/04 15:17:30.000   28.381335162  -16.532590508   463.1169   1   5   0.0172   0.0036   0.0460  -0.0071   0.0081  -0.0205   0.00    3.3
2025/04/04 15:17:31.000   28.381335156  -16.532591632   462.9075   2   5   0.0234   0.0338   0.1086   0.0113  -0.0103  -0.0431   1.00    2.6
2025/04/04 15:17:32.000   28.381335154  -16.532591633   462.9070   2   5   0.0234   0.0338   0.1087   0.0113  -0.0102  -0.0431   2.00    2.6
2025/04/04 15:17:33.000   28.381335154  -16.532591634   462.9055   2   5   0.0234   0.0338   0.1087   0.0113  -0.0101  -0.0431   3.00    1.5
2025/04/04 15:17:34.000   28.381335153  -16.532591635   462.9047   2   5   0.0234   0.0338   0.1088   0.0113  -0.0101  -0.0432   4.00    1.5
2025/04/04 15:17:35.000   28.381335151  -16.532591635   462.9050   2   5   0.0234   0.0338   0.1088   0.0112  -0.0100  -0.0432   5.00    1.7
2025/04/04 15:17:36.000   28.381335151  -16.532591635   462.9052   2   5   0.0234   0.0338   0.1088   0.0112  -0.0100  -0.0432   6.00    1.7
2025/04/04 15:17:37.000   28.381335150  -16.532591636   462.9052   2   5   0.0234   0.0338   0.1089   0.0112  -0.0099  -0.0432   7.00    1.5
2025/04/04 15:17:38.000   28.381335150  -16.532591637   462.9049   2   5   0.0234   0.0338   0.1089   0.0112  -0.0099  -0.0432   8.00    1.5
2025/04/04 15:17:39.000   28.381335150  -16.532591638   462.9045   2   5   0.0234   0.0338   0.1089   0.0112  -0.0099  -0.0432   9.00    1.5
2025/04/04 15:17:40.000   28.381335150  -16.532591638   462.9044   2   5   0.0234   0.0337   0.1089   0.0112  -0.0099  -0.0432  10.00    1.5
2025/04/04 15:17:41.000   28.381335149  -16.532591639   462.9044   2   5   0.0235   0.0337   0.1089   0.0112  -0.0098  -0.0432  11.00    1.5
2025/04/04 15:17:42.000   28.381335149  -16.532591639   462.9043   2   5   0.0235   0.0337   0.1089   0.0112  -0.0098  -0.0432  12.00    1.5
2025/04/04 15:17:43.000   28.381335149  -16.532591640   462.9043   2   5   0.0235   0.0337   0.1089   0.0112  -0.0098  -0.0432  13.00    1.5
2025/04/04 15:17:44.000   28.381335149  -16.532591641   462.9043   2   5   0.0235   0.0337   0.1089   0.0112  -0.0098  -0.0432  14.00    1.5
2025/04/04 15:17:45.000   28.381335149  -16.532591641   462.9043   2   5   0.0235   0.0337   0.1089   0.0112  -0.0098  -0.0432 -15.00    1.5
2025/04/04 15:17:46.000   28.381335149  -16.532591641   462.9043   2   5   0.0235   0.0337   0.1089   0.0112  -0.0098  -0.0432 -14.00    1.6
2025/04/04 15:17:47.000   28.381335148  -16.532591642   462.9044   2   5   0.0235   0.0337   0.1090   0.0112  -0.0098  -0.0432 -13.00    1.6
2025/04/04 15:17:48.000   28.381335148  -16.532591642   462.9046   2   5   0.0235   0.0337   0.1090   0.0112  -0.0098  -0.0432 -12.00    1.6
2025/04/04 15:17:49.000   28.381335147  -16.532591643   462.9047   2   5   0.0235   0.0337   0.1090   0.0112  -0.0098  -0.0432 -11.00    1.6
2025/04/04 15:17:50.000   28.381335147  -16.532591643   462.9048   2   5   0.0235   0.0337   0.1090   0.0112  -0.0098  -0.0432 -10.00    1.6
2025/04/04 15:17:51.000   28.381335146  -16.532591643   462.9051   2   5   0.0235   0.0337   0.1090   0.0112  -0.0097  -0.0432  -9.00    1.6
2025/04/04 15:17:52.000   28.381335146  -16.532591644   462.9056   2   5   0.0235   0.0337   0.1090   0.0112  -0.0097  -0.0432  -8.00    1.6
2025/04/04 15:17:53.000   28.381335145  -16.532591644   462.9060   2   5   0.0235   0.0337   0.1090   0.0112  -0.0097  -0.0432  -7.00    1.6
2025/04/04 15:17:54.000   28.381335144  -16.532591644   462.9062   2   5   0.0235   0.0337   0.1090   0.0112  -0.0097  -0.0432  -6.00    1.6
2025/04/04 15:17:55.000   28.381335142  -16.532591644   462.9065   2   5   0.0235   0.0337   0.1090   0.0112  -0.0097  -0.0432  -5.00    1.6
2025/04/04 15:17:56.000   28.381335140  -16.532591644   462.9073   2   5   0.0235   0.0337   0.1090   0.0112  -0.0096  -0.0432  -4.00    1.6
2025/04/04 15:17:57.000   28.381335138  -16.532591644   462.9078   2   5   0.0235   0.0337   0.1091   0.0112  -0.0096  -0.0432  -3.00    1.6
2025/04/04 15:17:58.000   28.381335136  -16.532591643   462.9082   2   5   0.0235   0.0337   0.1091   0.0112  -0.0096  -0.0433  -2.00    1.6
2025/04/04 15:17:59.000   28.381335133  -16.532591642   462.9087   2   5   0.0235   0.0337   0.1091   0.0112  -0.0095  -0.0433  -1.00    1.6
2025/04/04 15:18:00.000   28.381335129  -16.532591642   462.9095   2   5   0.0235   0.0337   0.1092   0.0112  -0.0095  -0.0433   0.00    1.7
2025/04/04 15:18:01.000   28.381335126  -16.532591643   462.9104   2   5   0.0235   0.0337   0.1092   0.0112  -0.0094  -0.0433   1.00    1.7
2025/04/04 15:18:02.000   28.381335123  -16.532591644   462.9107   2   5   0.0235   0.0337   0.1093   0.0111  -0.0093  -0.0433   2.00    1.6
2025/04/04 15:18:03.000   28.381335120  -16.532591644   462.9114   2   5   0.0235   0.0337   0.1093   0.0111  -0.0093  -0.0433   3.00    1.6
2025/04/04 15:18:04.000   28.381335117  -16.532591644   462.9120   2   5   0.0235   0.0337   0.1093   0.0111  -0.0092  -0.0433   4.00    1.6
2025/04/04 15:18:05.000   28.381335115  -16.532591644   462.9124   2   5   0.0235   0.0337   0.1094   0.0111  -0.0092  -0.0434   5.00    1.6
2025/04/04 15:18:06.000   28.381335114  -16.532591644   462.9126   2   5   0.0235   0.0337   0.1094   0.0111  -0.0091  -0.0434   6.00    1.6
2025/04/04 15:18:07.000   28.381335112  -16.532591645   462.9135   2   5   0.0235   0.0337   0.1094   0.0111  -0.0091  -0.0434   7.00    1.6
2025/04/04 15:18:08.000   28.381335111  -16.532591645   462.9140   2   5   0.0235   0.0337   0.1094   0.0111  -0.0091  -0.0434   8.00    1.5
2025/04/04 15:18:09.000   28.381335110  -16.532591644   462.9144   2   5   0.0235   0.0337   0.1094   0.0111  -0.0090  -0.0434   9.00    1.5
2025/04/04 15:18:10.000   28.381335109  -16.532591645   462.9148   2   5   0.0236   0.0337   0.1095   0.0111  -0.0090  -0.0434  10.00    1.5
2025/04/04 15:18:11.000   28.381335109  -16.532591645   462.9152   2   5   0.0236   0.0337   0.1095   0.0111  -0.0090  -0.0434  11.00    1.5
2025/04/04 15:18:12.000   28.381335108  -16.532591646   462.9154   2   5   0.0236   0.0337   0.1095   0.0111  -0.0090  -0.0434  12.00    1.5
2025/04/04 15:18:13.000   28.381335108  -16.532591646   462.9157   2   5   0.0236   0.0337   0.1095   0.0111  -0.0090  -0.0434  13.00    1.5
2025/04/04 15:18:14.000   28.381335107  -16.532591646   462.9161   2   5   0.0236   0.0336   0.1095   0.0111  -0.0090  -0.0434  14.00    1.5
2025/04/04 15:18:15.000   28.381335107  -16.532591646   462.9163   2   5   0.0236   0.0336   0.1095   0.0111  -0.0090  -0.0434 -15.00    1.5
2025/04/04 15:18:16.000   28.381335106  -16.532591647   462.9167   2   5   0.0236   0.0336   0.1095   0.0111  -0.0090  -0.0434 -14.00    1.5
2025/04/04 15:18:17.000   28.381335106  -16.532591647   462.9171   2   5   0.0236   0.0336   0.1095   0.0111  -0.0089  -0.0434 -13.00    1.5
2025/04/04 15:18:18.000   28.381335105  -16.532591647   462.9174   2   5   0.0236   0.0336   0.1095   0.0111  -0.0089  -0.0434 -12.00    1.5
2025/04/04 15:18:19.000   28.381335104  -16.532591647   462.9179   2   5   0.0236   0.0336   0.1095   0.0111  -0.0089  -0.0434 -11.00    1.5
2025/04/04 15:18:20.000   28.381335104  -16.532591647   462.9184   2   5   0.0236   0.0336   0.1095   0.0111  -0.0089  -0.0434 -10.00    1.5
2025/04/04 15:18:21.000   28.381335103  -16.532591648   462.9189   2   5   0.0236   0.0336   0.1095   0.0111  -0.0089  -0.0434  -9.00    1.5
2025/04/04 15:18:22.000   28.381335103  -16.532591648   462.9195   2   5   0.0236   0.0336   0.1095   0.0111  -0.0089  -0.0434  -8.00    1.4
2025/04/04 15:18:23.000   28.381335102  -16.532591648   462.9203   2   5   0.0236   0.0336   0.1095   0.0111  -0.0089  -0.0434  -7.00    1.4
2025/04/04 15:18:24.000   28.381335100  -16.532591648   462.9215   2   5   0.0236   0.0336   0.1095   0.0111  -0.0089  -0.0434  -6.00    1.4
2025/04/04 15:18:25.000   28.381335098  -16.532591647   462.9234   2   5   0.0236   0.0336   0.1095   0.0111  -0.0089  -0.0434  -5.00    1.4
2025/04/04 15:18:26.000   28.381335095  -16.532591645   462.9258   2   5   0.0236   0.0336   0.1096   0.0111  -0.0088  -0.0434  -4.00    1.4
2025/04/04 15:18:27.000   28.381335091  -16.532591643   462.9287   2   5   0.0236   0.0336   0.1096   0.0111  -0.0088  -0.0434  -3.00    1.4
2025/04/04 15:18:28.000   28.381335088  -16.532591641   462.9320   2   5   0.0236   0.0336   0.1096   0.0111  -0.0088  -0.0434  -2.00    1.3
2025/04/04 15:18:29.000   28.381335084  -16.532591637   462.9354   2   5   0.0236   0.0336   0.1096   0.0111  -0.0087  -0.0434  -1.00    1.3
2025/04/04 15:18:30.000   28.381335080  -16.532591634   462.9392   2   5   0.0236   0.0336   0.1096   0.0111  -0.0087  -0.0434   0.00    1.3
2025/04/04 15:18:31.000   28.381335073  -16.532591632   462.9433   2   5   0.0236   0.0336   0.1097   0.0111  -0.0086  -0.0435   1.00    1.3
2025/04/04 15:18:32.000   28.381335067  -16.532591628   462.9472   2   5   0.0236   0.0336   0.1097   0.0110  -0.0086  -0.0435   2.00    1.3
2025/04/04 15:18:33.000   28.381335062  -16.532591626   462.9507   2   5   0.0236   0.0336   0.1098   0.0110  -0.0085  -0.0435   3.00    1.2
2025/04/04 15:18:34.000   28.381335059  -16.532591624   462.9533   2   5   0.0236   0.0336   0.1098   0.0110  -0.0084  -0.0435   4.00    1.2
2025/04/04 15:18:35.000   28.381335056  -16.532591624   462.9560   2   5   0.0236   0.0336   0.1098   0.0110  -0.0084  -0.0435   5.00    1.2
2025/04/04 15:18:36.000   28.381335053  -16.532591623   462.9583   2   5   0.0236   0.0336   0.1098   0.0110  -0.0084  -0.0435   6.00    1.2
2025/04/04 15:18:37.000   28.381335051  -16.532591622   462.9600   2   5   0.0236   0.0336   0.1099   0.0110  -0.0083  -0.0435   7.00    1.2
2025/04/04 15:18:38.000   28.381335050  -16.532591622   462.9613   2   5   0.0236   0.0336   0.1099   0.0110  -0.0083  -0.0435   8.00    1.2
2025/04/04 15:18:39.000   28.381335049  -16.532591621   462.9627   2   5   0.0236   0.0336   0.1099   0.0110  -0.0083  -0.0435   9.00    1.2
2025/04/04 15:18:40.000   28.381335048  -16.532591620   462.9638   2   5   0.0236   0.0336   0.1099   0.0110  -0.0083  -0.0435  10.00    1.2
2025/04/04 15:18:41.000   28.381335047  -16.532591619   462.9647   2   5   0.0236   0.0336   0.1099   0.0110  -0.0083  -0.0435  11.00    1.1
2025/04/04 15:18:42.000   28.381335046  -16.532591619   462.9656   2   5   0.0236   0.0336   0.1099   0.0110  -0.0082  -0.0435  12.00    1.1
2025/04/04 15:18:43.000   28.381335046  -16.532591619   462.9661   2   5   0.0236   0.0336   0.1099   0.0110  -0.0082  -0.0435  13.00    1.1
2025/04/04 15:18:44.000   28.381335046  -16.532591619   462.9666   2   5   0.0236   0.0336   0.1099   0.0110  -0.0082  -0.0435  14.00    1.1
2025/04/04 15:18:45.000   28.381335046  -16.532591618   462.9669   2   5   0.0236   0.0336   0.1099   0.0110  -0.0082  -0.0435 -15.00    1.1
2025/04/04 15:18:46.000   28.381335046  -16.532591618   462.9673   2   5   0.0236   0.0336   0.1099   0.0110  -0.0082  -0.0435 -14.00    1.1
2025/04/04 15:18:47.000   28.381335045  -16.532591619   462.9678   2   5   0.0236   0.0336   0.1099   0.0110  -0.0082  -0.0435 -13.00    1.1
2025/04/04 15:18:48.000   28.381335045  -16.532591619   462.9683   2   5   0.0236   0.0336   0.1099   0.0110  -0.0082  -0.0435 -12.00    1.1
2025/04/04 15:18:49.000   28.381335044  -16.532591618   462.9690   2   5   0.0236   0.0336   0.1099   0.0110  -0.0082  -0.0435 -11.00    1.1
2025/04/04 15:18:50.000   28.381335044  -16.532591617   462.9697   2   5   0.0236   0.0335   0.1099   0.0110  -0.0082  -0.0435 -10.00    1.1
2025/04/04 15:18:51.000   28.381335044  -16.532591618   462.9707   2   5   0.0236   0.0335   0.1099   0.0110  -0.0082  -0.0435  -9.00    1.1
2025/04/04 15:18:52.000   28.381335044  -16.532591618   462.9718   2   5   0.0236   0.0335   0.1099   0.0110  -0.0082  -0.0435  -8.00    1.1
2025/04/04 15:18:53.000   28.381335044  -16.532591618   462.9730   2   5   0.0236   0.0335   0.1099   0.0110  -0.0082  -0.0435  -7.00    1.1
2025/04/04 15:18:54.000   28.381335044  -16.532591618   462.9742   2   5   0.0236   0.0335   0.1099   0.0110  -0.0082  -0.0435  -6.00    1.1
2025/04/04 15:18:55.000   28.381335045  -16.532591618   462.9756   2   5   0.0236   0.0335   0.1099   0.0110  -0.0081  -0.0435  -5.00    1.1
2025/04/04 15:18:56.000   28.381335046  -16.532591617   462.9770   2   5   0.0236   0.0335   0.1099   0.0110  -0.0081  -0.0435  -4.00    1.1
2025/04/04 15:18:57.000   28.381335046  -16.532591617   462.9786   2   5   0.0236   0.0335   0.1100   0.0110  -0.0081  -0.0435  -3.00    1.1
2025/04/04 15:18:58.000   28.381335047  -16.532591618   462.9802   2   5   0.0236   0.0335   0.1100   0.0110  -0.0081  -0.0435  -2.00    1.1
2025/04/04 15:18:59.000   28.381335048  -16.532591618   462.9825   2   5   0.0236   0.0335   0.1100   0.0110  -0.0081  -0.0435  -1.00    1.1
2025/04/04 15:19:00.000   28.381335047  -16.532591616   462.9857   2   5   0.0236   0.0335   0.1100   0.0110  -0.0080  -0.0436   0.00    1.1
2025/04/04 15:19:01.000   28.381335045  -16.532591615   462.9892   2   5   0.0236   0.0335   0.1100   0.0110  -0.0080  -0.0436   1.00    1.0
2025/04/04 15:19:02.000   28.381335044  -16.532591614   462.9916   2   5   0.0237   0.0335   0.1101   0.0110  -0.0079  -0.0436   2.00    1.0
2025/04/04 15:19:03.000   28.381335044  -16.532591614   462.9937   2   5   0.0237   0.0335   0.1101   0.0110  -0.0079  -0.0436   3.00    1.0
2025/04/04 15:19:04.000   28.381335043  -16.532591613   462.9960   2   5   0.0237   0.0335   0.1101   0.0110  -0.0078  -0.0436   4.00    1.0
2025/04/04 15:19:05.000   28.381335043  -16.532591612   462.9975   2   5   0.0237   0.0335   0.1101   0.0110  -0.0078  -0.0436   5.00    1.0
2025/04/04 15:19:06.000   28.381335042  -16.532591612   462.9990   2   5   0.0237   0.0335   0.1101   0.0110  -0.0077  -0.0436   6.00    1.0
