% program   : RTKPOST-EX 2.5.0
% inp file  : C:\Users\SallyHenry\Desktop\Sally Internship\GNSS gravi\DATA\Survey Rover Obs\ORO02.25o
% inp file  : C:\Users\SallyHenry\Desktop\Sally Internship\GNSS gravi\DATA\BaseStations\TN02\TN0200ESP_R_20250940000_01D_30S_MO.rnx
% inp file  : C:\Users\SallyHenry\Desktop\Sally Internship\GNSS gravi\DATA\BaseStations\TN02\TN0200ESP_R_20250940000_01D_MN.rnx
% inp file  : C:\Users\SallyHenry\Desktop\Sally Internship\GNSS gravi\DATA\aux_files\Survey\IGS0OPSFIN_20250940000_01D_15M_ORB.SP3
% inp file  : C:\Users\SallyHenry\Desktop\Sally Internship\GNSS gravi\DATA\aux_files\Survey\IGS0OPSFIN_20250940000_01D_30S_CLK.CLK
% obs start : 2025/04/04 17:44:39.0 GPST (week2360 495879.0s)
% obs end   : 2025/04/04 18:00:25.0 GPST (week2360 496825.0s)
% pos mode  : Static
% freqs     : L1+L2/E5b
% solution  : Combined-No Phase Reset
% elev mask : 15.0 deg
% dynamics  : on
% tidecorr  : solid
% ionos opt : Estimate TEC
% tropo opt : Estimate ZTD+Grad
% ephemeris : Precise
% navi sys  : GPS GLONASS Galileo QZSS BDS
% amb res   : Fix and Hold
% amb glo   : Fix and Hold
% amb bds   : on
% val thres : 3.0
% antenna1  :                       ( 0.0000  0.0000  1.8000)
% antenna2  :                       ( 0.0000  0.0000  0.0771)
% ref pos   :  28.418257450  -16.550784480    54.4145
%
% (lat/lon/height=WGS84/ellipsoidal,Q=1:fix,2:float,3:sbas,4:dgps,5:single,6:ppp,ns=# of satellites)
%  GPST                  latitude(deg) longitude(deg)  height(m)   Q  ns   sdn(m)   sde(m)   sdu(m)  sdne(m)  sdeu(m)  sdun(m) age(s)  ratio
2025/04/04 17:44:39.000   28.404622387  -16.514082337   275.3866   2   6   0.0219   0.0297   0.1460   0.0102   0.0374   0.0461 -21.00    0.0
2025/04/04 17:44:40.000   28.404622388  -16.514082339   275.3870   2   6   0.0219   0.0297   0.1459   0.0102   0.0374   0.0460 -20.00    0.0
2025/04/04 17:44:41.000   28.404622389  -16.514082341   275.3880   2   6   0.0219   0.0297   0.1458   0.0102   0.0374   0.0460 -19.00    0.0
2025/04/04 17:44:42.000   28.404622390  -16.514082343   275.3883   2   6   0.0219   0.0297   0.1457   0.0102   0.0373   0.0459 -18.00    0.0
2025/04/04 17:44:43.000   28.404622391  -16.514082344   275.3889   2   6   0.0219   0.0297   0.1456   0.0102   0.0373   0.0459 -17.00    0.0
2025/04/04 17:44:44.000   28.404622392  -16.514082345   275.3894   2   6   0.0219   0.0297   0.1455   0.0102   0.0373   0.0459 -16.00    0.0
2025/04/04 17:44:45.000   28.404622392  -16.514082346   275.3892   2   6   0.0219   0.0297   0.1455   0.0102   0.0373   0.0459 -15.00    0.0
2025/04/04 17:44:46.000   28.404622391  -16.514082348   275.3884   2   6   0.0219   0.0297   0.1454   0.0102   0.0372   0.0458 -14.00    0.0
2025/04/04 17:44:47.000   28.404622391  -16.514082350   275.3877   2   6   0.0219   0.0297   0.1453   0.0102   0.0372   0.0458 -13.00    0.0
2025/04/04 17:44:48.000   28.404622390  -16.514082353   275.3864   2   6   0.0219   0.0297   0.1453   0.0102   0.0372   0.0458 -12.00    0.0
2025/04/04 17:44:49.000   28.404622390  -16.514082355   275.3851   2   6   0.0219   0.0297   0.1452   0.0101   0.0372   0.0458 -11.00    0.0
2025/04/04 17:44:50.000   28.404622389  -16.514082358   275.3835   2   6   0.0219   0.0297   0.1452   0.0101   0.0372   0.0457 -10.00    0.0
2025/04/04 17:44:51.000   28.404622388  -16.514082361   275.3812   2   6   0.0219   0.0297   0.1451   0.0101   0.0372   0.0457  -9.00    0.0
2025/04/04 17:44:52.000   28.404622386  -16.514082365   275.3786   2   6   0.0219   0.0297   0.1451   0.0101   0.0371   0.0457  -8.00    0.0
2025/04/04 17:44:53.000   28.404622385  -16.514082370   275.3757   2   6   0.0219   0.0297   0.1450   0.0101   0.0371   0.0457  -7.00    0.0
2025/04/04 17:44:54.000   28.404622384  -16.514082376   275.3726   2   6   0.0219   0.0297   0.1450   0.0101   0.0371   0.0457  -6.00    0.0
2025/04/04 17:44:55.000   28.404622383  -16.514082381   275.3697   2   6   0.0219   0.0297   0.1449   0.0101   0.0371   0.0457  -5.00    0.0
2025/04/04 17:44:56.000   28.404622381  -16.514082388   275.3649   2   6   0.0219   0.0297   0.1449   0.0101   0.0371   0.0457  -4.00    0.0
2025/04/04 17:44:57.000   28.404622380  -16.514082395   275.3614   2   6   0.0219   0.0297   0.1449   0.0101   0.0371   0.0457  -3.00    0.0
2025/04/04 17:44:58.000   28.404622382  -16.514082403   275.3586   2   6   0.0219   0.0297   0.1449   0.0101   0.0371   0.0457  -2.00    0.0
2025/04/04 17:44:59.000   28.404622384  -16.514082414   275.3550   2   6   0.0219   0.0297   0.1449   0.0101   0.0371   0.0457  -1.00    0.0
2025/04/04 17:45:00.000   28.404622383  -16.514082425   275.3504   2   6   0.0219   0.0298   0.1449   0.0101   0.0371   0.0457   0.00    0.0
2025/04/04 17:45:01.000   28.404622388  -16.514082435   275.3503   2   6   0.0219   0.0298   0.1449   0.0101   0.0371   0.0457   1.00    0.0
2025/04/04 17:45:02.000   28.404622392  -16.514082446   275.3495   2   6   0.0219   0.0298   0.1449   0.0101   0.0371   0.0456   2.00    0.0
2025/04/04 17:45:03.000   28.404622396  -16.514082454   275.3497   2   6   0.0219   0.0298   0.1448   0.0101   0.0371   0.0456   3.00    0.0
2025/04/04 17:45:04.000   28.404622400  -16.514082461   275.3499   2   6   0.0220   0.0298   0.1448   0.0101   0.0370   0.0456   4.00    0.0
2025/04/04 17:45:05.000   28.404622402  -16.514082467   275.3498   2   6   0.0220   0.0298   0.1448   0.0101   0.0370   0.0456   5.00    0.0
2025/04/04 17:45:06.000   28.404622403  -16.514082472   275.3500   2   6   0.0220   0.0298   0.1448   0.0101   0.0370   0.0456   6.00    0.0
2025/04/04 17:45:07.000   28.404622405  -16.514082475   275.3511   2   6   0.0220   0.0298   0.1448   0.0101   0.0370   0.0456   7.00    0.0
2025/04/04 17:45:08.000   28.404622405  -16.514082479   275.3513   2   6   0.0220   0.0298   0.1448   0.0101   0.0370   0.0456   8.00    0.0
2025/04/04 17:45:09.000   28.404622406  -16.514082480   275.3525   2   6   0.0220   0.0298   0.1448   0.0101   0.0370   0.0456   9.00    0.0
2025/04/04 17:45:10.000   28.404622406  -16.514082482   275.3530   2   6   0.0220   0.0299   0.1447   0.0101   0.0370   0.0456  10.00    0.0
2025/04/04 17:45:11.000   28.404622407  -16.514082484   275.3537   2   6   0.0220   0.0299   0.1447   0.0101   0.0370   0.0456  11.00    0.0
2025/04/04 17:45:12.000   28.404622408  -16.514082485   275.3548   2   6   0.0220   0.0299   0.1447   0.0101   0.0370   0.0456  12.00    0.0
2025/04/04 17:45:13.000   28.404622408  -16.514082486   275.3553   2   6   0.0220   0.0299   0.1447   0.0101   0.0370   0.0456  13.00    0.0
2025/04/04 17:45:14.000   28.404622409  -16.514082487   275.3565   2   6   0.0220   0.0299   0.1447   0.0101   0.0370   0.0456  14.00    0.0
2025/04/04 17:45:15.000   28.404622409  -16.514082488   275.3570   2   6   0.0220   0.0299   0.1447   0.0101   0.0370   0.0456 -15.00    0.0
2025/04/04 17:45:16.000   28.404622410  -16.514082488   275.3581   2   6   0.0220   0.0299   0.1447   0.0101   0.0370   0.0456 -14.00    0.0
2025/04/04 17:45:17.000   28.404622410  -16.514082488   275.3589   2   6   0.0220   0.0299   0.1447   0.0101   0.0370   0.0456 -13.00    0.0
2025/04/04 17:45:18.000   28.404622410  -16.514082490   275.3596   2   6   0.0220   0.0299   0.1446   0.0101   0.0370   0.0456 -12.00    0.0
2025/04/04 17:45:19.000   28.404622411  -16.514082490   275.3604   2   6   0.0220   0.0299   0.1446   0.0101   0.0370   0.0456 -11.00    0.0
2025/04/04 17:45:20.000   28.404622411  -16.514082489   275.3610   2   6   0.0220   0.0299   0.1446   0.0101   0.0370   0.0456 -10.00    0.0
2025/04/04 17:45:21.000   28.404622411  -16.514082489   275.3619   2   6   0.0220   0.0299   0.1446   0.0101   0.0370   0.0456  -9.00    0.0
2025/04/04 17:45:22.000   28.404622411  -16.514082489   275.3620   2   6   0.0220   0.0299   0.1446   0.0101   0.0370   0.0456  -8.00    0.0
2025/04/04 17:45:23.000   28.404622412  -16.514082490   275.3621   2   6   0.0220   0.0299   0.1446   0.0101   0.0370   0.0456  -7.00    0.0
2025/04/04 17:45:24.000   28.404622413  -16.514082491   275.3616   2   6   0.0220   0.0299   0.1446   0.0101   0.0369   0.0456  -6.00    0.0
2025/04/04 17:45:25.000   28.404622413  -16.514082492   275.3614   2   6   0.0220   0.0299   0.1446   0.0101   0.0369   0.0456  -5.00    0.0
2025/04/04 17:45:26.000   28.404622413  -16.514082495   275.3605   2   6   0.0220   0.0299   0.1446   0.0101   0.0369   0.0456  -4.00    0.0
2025/04/04 17:45:27.000   28.404622413  -16.514082499   275.3587   2   6   0.0220   0.0299   0.1446   0.0101   0.0369   0.0456  -3.00    0.0
2025/04/04 17:45:28.000   28.404622412  -16.514082504   275.3558   2   6   0.0220   0.0299   0.1446   0.0101   0.0369   0.0456  -2.00    0.0
2025/04/04 17:45:29.000   28.404622411  -16.514082508   275.3527   2   6   0.0220   0.0299   0.1446   0.0102   0.0369   0.0456  -1.00    0.0
2025/04/04 17:45:30.000   28.404622411  -16.514082513   275.3471   2   6   0.0220   0.0299   0.1447   0.0102   0.0370   0.0456   0.00    0.0
2025/04/04 17:45:31.000   28.404622422  -16.514082512   275.3525   2   6   0.0221   0.0299   0.1446   0.0102   0.0369   0.0456   1.00    0.0
2025/04/04 17:45:32.000   28.404622430  -16.514082514   275.3556   2   6   0.0221   0.0299   0.1446   0.0101   0.0369   0.0456   2.00    0.0
2025/04/04 17:45:33.000   28.404622437  -16.514082514   275.3578   2   6   0.0221   0.0300   0.1446   0.0101   0.0369   0.0456   3.00    0.0
2025/04/04 17:45:34.000   28.404622443  -16.514082515   275.3588   2   6   0.0221   0.0300   0.1446   0.0101   0.0369   0.0456   4.00    0.0
2025/04/04 17:45:35.000   28.404622446  -16.514082515   275.3590   2   6   0.0221   0.0300   0.1446   0.0101   0.0369   0.0456   5.00    0.0
2025/04/04 17:45:36.000   28.404622450  -16.514082514   275.3596   2   6   0.0221   0.0300   0.1446   0.0101   0.0369   0.0456   6.00    0.0
2025/04/04 17:45:37.000   28.404622452  -16.514082515   275.3596   2   6   0.0221   0.0300   0.1446   0.0101   0.0369   0.0456   7.00    0.0
2025/04/04 17:45:38.000   28.404622454  -16.514082515   275.3601   2   6   0.0221   0.0300   0.1446   0.0102   0.0369   0.0456   8.00    0.0
2025/04/04 17:45:39.000   28.404622456  -16.514082516   275.3603   2   6   0.0221   0.0300   0.1446   0.0102   0.0369   0.0456   9.00    0.0
2025/04/04 17:45:40.000   28.404622456  -16.514082516   275.3602   2   6   0.0221   0.0300   0.1446   0.0102   0.0369   0.0456  10.00    0.0
2025/04/04 17:45:41.000   28.404622457  -16.514082515   275.3604   2   6   0.0221   0.0300   0.1446   0.0102   0.0369   0.0456  11.00    0.0
2025/04/04 17:45:42.000   28.404622459  -16.514082516   275.3605   2   6   0.0221   0.0300   0.1446   0.0102   0.0369   0.0456  12.00    0.0
2025/04/04 17:45:43.000   28.404622459  -16.514082516   275.3608   2   6   0.0221   0.0300   0.1446   0.0102   0.0369   0.0456  13.00    0.0
2025/04/04 17:45:44.000   28.404622460  -16.514082516   275.3611   2   6   0.0221   0.0300   0.1446   0.0102   0.0369   0.0456  14.00    0.0
2025/04/04 17:45:45.000   28.404622460  -16.514082516   275.3612   2   6   0.0221   0.0300   0.1446   0.0102   0.0369   0.0456 -15.00    0.0
2025/04/04 17:45:46.000   28.404622461  -16.514082516   275.3615   2   6   0.0221   0.0300   0.1446   0.0102   0.0369   0.0456 -14.00    0.0
2025/04/04 17:45:47.000   28.404622462  -16.514082516   275.3617   2   6   0.0221   0.0300   0.1446   0.0102   0.0369   0.0455 -13.00    0.0
2025/04/04 17:45:48.000   28.404622462  -16.514082517   275.3617   2   6   0.0221   0.0300   0.1446   0.0102   0.0369   0.0455 -12.00    0.0
2025/04/04 17:45:49.000   28.404622462  -16.514082517   275.3620   2   6   0.0221   0.0300   0.1446   0.0102   0.0369   0.0455 -11.00    0.0
2025/04/04 17:45:50.000   28.404622463  -16.514082516   275.3623   2   6   0.0221   0.0300   0.1446   0.0102   0.0369   0.0455 -10.00    0.0
2025/04/04 17:45:51.000   28.404622464  -16.514082514   275.3627   2   6   0.0221   0.0300   0.1446   0.0102   0.0369   0.0455  -9.00    0.0
2025/04/04 17:45:52.000   28.404622464  -16.514082515   275.3629   2   6   0.0221   0.0300   0.1446   0.0102   0.0369   0.0455  -8.00    0.0
2025/04/04 17:45:53.000   28.404622464  -16.514082515   275.3634   2   6   0.0221   0.0300   0.1446   0.0102   0.0369   0.0455  -7.00    0.0
2025/04/04 17:45:54.000   28.404622465  -16.514082514   275.3634   2   6   0.0221   0.0300   0.1446   0.0102   0.0369   0.0455  -6.00    0.0
2025/04/04 17:45:55.000   28.404622465  -16.514082515   275.3630   2   6   0.0221   0.0300   0.1446   0.0102   0.0369   0.0455  -5.00    0.0
2025/04/04 17:45:56.000   28.404622466  -16.514082516   275.3631   2   6   0.0221   0.0300   0.1446   0.0102   0.0369   0.0455  -4.00    0.0
2025/04/04 17:45:57.000   28.404622468  -16.514082517   275.3626   2   6   0.0221   0.0300   0.1446   0.0102   0.0369   0.0456  -3.00    0.0
2025/04/04 17:45:58.000   28.404622469  -16.514082518   275.3634   2   6   0.0221   0.0300   0.1446   0.0102   0.0369   0.0456  -2.00    0.0
2025/04/04 17:45:59.000   28.404622471  -16.514082518   275.3640   2   6   0.0222   0.0300   0.1447   0.0102   0.0369   0.0456  -1.00    0.0
2025/04/04 17:46:00.000   28.404622474  -16.514082516   275.3628   2   6   0.0222   0.0301   0.1447   0.0102   0.0369   0.0456   0.00    0.0
2025/04/04 17:46:01.000   28.404622477  -16.514082514   275.3634   2   6   0.0222   0.0301   0.1447   0.0102   0.0369   0.0456   1.00    0.0
2025/04/04 17:46:02.000   28.404622478  -16.514082516   275.3633   2   6   0.0222   0.0301   0.1447   0.0102   0.0368   0.0456   2.00    0.0
2025/04/04 17:46:03.000   28.404622482  -16.514082516   275.3635   2   6   0.0222   0.0301   0.1447   0.0102   0.0368   0.0456   3.00    0.0
2025/04/04 17:46:04.000   28.404622487  -16.514082513   275.3646   2   6   0.0222   0.0301   0.1447   0.0102   0.0368   0.0456   4.00    0.0
2025/04/04 17:46:05.000   28.404622490  -16.514082512   275.3658   2   6   0.0222   0.0301   0.1447   0.0102   0.0368   0.0456   5.00    0.0
2025/04/04 17:46:06.000   28.404622492  -16.514082512   275.3660   2   6   0.0222   0.0301   0.1447   0.0102   0.0368   0.0456   6.00    0.0
2025/04/04 17:46:07.000   28.404622493  -16.514082513   275.3660   2   6   0.0222   0.0301   0.1447   0.0102   0.0368   0.0456   7.00    0.0
2025/04/04 17:46:08.000   28.404622493  -16.514082513   275.3662   2   6   0.0222   0.0301   0.1447   0.0102   0.0368   0.0456   8.00    0.0
2025/04/04 17:46:09.000   28.404622495  -16.514082511   275.3667   2   6   0.0222   0.0301   0.1447   0.0102   0.0368   0.0456   9.00    0.0
2025/04/04 17:46:10.000   28.404622496  -16.514082510   275.3671   2   6   0.0222   0.0301   0.1447   0.0102   0.0368   0.0456  10.00    0.0
2025/04/04 17:46:11.000   28.404622497  -16.514082509   275.3674   2   6   0.0222   0.0301   0.1447   0.0102   0.0368   0.0456  11.00    0.0
2025/04/04 17:46:12.000   28.404622498  -16.514082508   275.3675   2   6   0.0222   0.0301   0.1447   0.0102   0.0368   0.0456  12.00    0.0
2025/04/04 17:46:13.000   28.404622498  -16.514082507   275.3679   2   6   0.0222   0.0301   0.1447   0.0102   0.0368   0.0456  13.00    0.0
2025/04/04 17:46:14.000   28.404622498  -16.514082507   275.3679   2   6   0.0222   0.0301   0.1447   0.0102   0.0368   0.0456  14.00    0.0
2025/04/04 17:46:15.000   28.404622499  -16.514082506   275.3680   2   6   0.0222   0.0301   0.1447   0.0102   0.0368   0.0456 -15.00    0.0
2025/04/04 17:46:16.000   28.404622499  -16.514082505   275.3681   2   6   0.0222   0.0301   0.1447   0.0102   0.0368   0.0456 -14.00    0.0
2025/04/04 17:46:17.000   28.404622499  -16.514082504   275.3683   2   6   0.0222   0.0301   0.1447   0.0102   0.0368   0.0455 -13.00    0.0
2025/04/04 17:46:18.000   28.404622500  -16.514082504   275.3685   2   6   0.0222   0.0301   0.1447   0.0102   0.0368   0.0455 -12.00    0.0
2025/04/04 17:46:19.000   28.404622500  -16.514082504   275.3684   2   6   0.0222   0.0301   0.1447   0.0102   0.0368   0.0455 -11.00    0.0
2025/04/04 17:46:20.000   28.404622500  -16.514082503   275.3684   2   6   0.0222   0.0301   0.1447   0.0102   0.0368   0.0455 -10.00    0.0
2025/04/04 17:46:21.000   28.404622500  -16.514082503   275.3684   2   6   0.0222   0.0301   0.1447   0.0102   0.0368   0.0455  -9.00    0.0
2025/04/04 17:46:22.000   28.404622500  -16.514082503   275.3682   2   6   0.0222   0.0301   0.1447   0.0102   0.0368   0.0455  -8.00    0.0
2025/04/04 17:46:23.000   28.404622501  -16.514082503   275.3677   2   6   0.0222   0.0301   0.1447   0.0102   0.0368   0.0455  -7.00    0.0
2025/04/04 17:46:24.000   28.404622502  -16.514082502   275.3674   2   6   0.0222   0.0301   0.1447   0.0102   0.0368   0.0455  -6.00    0.0
2025/04/04 17:46:25.000   28.404622502  -16.514082501   275.3676   2   6   0.0222   0.0301   0.1447   0.0102   0.0368   0.0455  -5.00    0.0
2025/04/04 17:46:26.000   28.404622503  -16.514082502   275.3666   2   6   0.0223   0.0301   0.1447   0.0102   0.0368   0.0456  -4.00    0.0
2025/04/04 17:46:27.000   28.404622504  -16.514082503   275.3660   2   6   0.0223   0.0302   0.1447   0.0102   0.0368   0.0456  -3.00    0.0
2025/04/04 17:46:28.000   28.404622504  -16.514082506   275.3644   2   6   0.0223   0.0302   0.1448   0.0102   0.0368   0.0456  -2.00    0.0
2025/04/04 17:46:29.000   28.404622505  -16.514082507   275.3641   2   6   0.0223   0.0302   0.1448   0.0102   0.0368   0.0456  -1.00    0.0
2025/04/04 17:46:30.000   28.404622508  -16.514082505   275.3615   2   6   0.0223   0.0302   0.1449   0.0102   0.0368   0.0456   0.00    0.0
2025/04/04 17:46:31.000   28.404622513  -16.514082503   275.3611   2   6   0.0223   0.0302   0.1448   0.0102   0.0368   0.0456   1.00    0.0
2025/04/04 17:46:32.000   28.404622519  -16.514082499   275.3629   2   6   0.0223   0.0302   0.1448   0.0102   0.0368   0.0456   2.00    0.0
2025/04/04 17:46:33.000   28.404622523  -16.514082498   275.3628   2   6   0.0223   0.0302   0.1448   0.0102   0.0368   0.0455   3.00    0.0
2025/04/04 17:46:34.000   28.404622524  -16.514082496   275.3628   2   6   0.0223   0.0302   0.1448   0.0102   0.0367   0.0455   4.00    0.0
2025/04/04 17:46:35.000   28.404622524  -16.514082496   275.3621   2   6   0.0223   0.0302   0.1448   0.0102   0.0367   0.0455   5.00    0.0
2025/04/04 17:46:36.000   28.404622526  -16.514082494   275.3628   2   6   0.0223   0.0302   0.1448   0.0102   0.0367   0.0455   6.00    0.0
2025/04/04 17:46:37.000   28.404622527  -16.514082493   275.3627   2   6   0.0223   0.0303   0.1448   0.0102   0.0367   0.0455   7.00    0.0
2025/04/04 17:46:38.000   28.404622528  -16.514082491   275.3627   2   6   0.0223   0.0303   0.1448   0.0102   0.0367   0.0455   8.00    0.0
2025/04/04 17:46:39.000   28.404622528  -16.514082491   275.3625   2   6   0.0223   0.0303   0.1448   0.0102   0.0367   0.0455   9.00    0.0
2025/04/04 17:46:40.000   28.404622527  -16.514082492   275.3626   2   6   0.0223   0.0303   0.1448   0.0102   0.0367   0.0455  10.00    0.0
2025/04/04 17:46:41.000   28.404622528  -16.514082490   275.3628   2   6   0.0223   0.0303   0.1448   0.0102   0.0367   0.0455  11.00    0.0
2025/04/04 17:46:42.000   28.404622527  -16.514082490   275.3628   2   6   0.0223   0.0303   0.1448   0.0102   0.0367   0.0455  12.00    0.0
2025/04/04 17:46:43.000   28.404622527  -16.514082489   275.3629   2   6   0.0223   0.0303   0.1448   0.0102   0.0367   0.0455  13.00    0.0
2025/04/04 17:46:44.000   28.404622527  -16.514082489   275.3631   2   6   0.0223   0.0303   0.1448   0.0102   0.0367   0.0455  14.00    0.0
2025/04/04 17:46:45.000   28.404622527  -16.514082488   275.3631   2   6   0.0223   0.0303   0.1448   0.0103   0.0367   0.0455 -15.00    0.0
2025/04/04 17:46:46.000   28.404622527  -16.514082488   275.3629   2   6   0.0223   0.0303   0.1448   0.0103   0.0367   0.0455 -14.00    0.0
2025/04/04 17:46:47.000   28.404622527  -16.514082487   275.3630   2   6   0.0223   0.0303   0.1448   0.0103   0.0367   0.0455 -13.00    0.0
2025/04/04 17:46:48.000   28.404622526  -16.514082486   275.3631   2   6   0.0223   0.0303   0.1448   0.0103   0.0367   0.0455 -12.00    0.0
2025/04/04 17:46:49.000   28.404622526  -16.514082486   275.3629   2   6   0.0223   0.0303   0.1448   0.0103   0.0367   0.0455 -11.00    0.0
2025/04/04 17:46:50.000   28.404622525  -16.514082487   275.3626   2   6   0.0223   0.0303   0.1448   0.0103   0.0367   0.0455 -10.00    0.0
2025/04/04 17:46:51.000   28.404622524  -16.514082486   275.3623   2   6   0.0224   0.0303   0.1448   0.0103   0.0367   0.0455  -9.00    0.0
2025/04/04 17:46:52.000   28.404622524  -16.514082486   275.3619   2   6   0.0224   0.0303   0.1449   0.0103   0.0367   0.0455  -8.00    0.0
2025/04/04 17:46:53.000   28.404622523  -16.514082484   275.3613   2   6   0.0224   0.0303   0.1449   0.0103   0.0367   0.0455  -7.00    0.0
2025/04/04 17:46:54.000   28.404622523  -16.514082483   275.3611   2   6   0.0224   0.0303   0.1449   0.0103   0.0367   0.0455  -6.00    0.0
2025/04/04 17:46:55.000   28.404622522  -16.514082482   275.3606   2   6   0.0224   0.0303   0.1449   0.0103   0.0367   0.0455  -5.00    0.0
2025/04/04 17:46:56.000   28.404622519  -16.514082483   275.3593   2   6   0.0224   0.0303   0.1449   0.0103   0.0367   0.0455  -4.00    0.0
2025/04/04 17:46:57.000   28.404622517  -16.514082484   275.3582   2   6   0.0224   0.0303   0.1449   0.0103   0.0367   0.0455  -3.00    0.0
2025/04/04 17:46:58.000   28.404622515  -16.514082483   275.3567   2   6   0.0224   0.0303   0.1449   0.0103   0.0367   0.0455  -2.00    0.0
2025/04/04 17:46:59.000   28.404622512  -16.514082481   275.3548   2   6   0.0224   0.0303   0.1449   0.0103   0.0367   0.0456  -1.00    0.0
2025/04/04 17:47:00.000   28.404622509  -16.514082480   275.3521   2   6   0.0224   0.0303   0.1450   0.0103   0.0367   0.0456   0.00    0.0
2025/04/04 17:47:01.000   28.404622508  -16.514082477   275.3533   2   6   0.0224   0.0303   0.1450   0.0103   0.0367   0.0455   1.00    0.0
2025/04/04 17:47:02.000   28.404622506  -16.514082477   275.3530   2   6   0.0224   0.0303   0.1450   0.0103   0.0367   0.0455   2.00    0.0
2025/04/04 17:47:03.000   28.404622506  -16.514082476   275.3535   2   6   0.0224   0.0303   0.1450   0.0103   0.0367   0.0455   3.00    0.0
2025/04/04 17:47:04.000   28.404622508  -16.514082475   275.3545   2   6   0.0224   0.0303   0.1450   0.0103   0.0366   0.0455   4.00    0.0
2025/04/04 17:47:05.000   28.404622508  -16.514082472   275.3545   2   6   0.0224   0.0304   0.1450   0.0103   0.0366   0.0455   5.00    0.0
2025/04/04 17:47:06.000   28.404622509  -16.514082470   275.3544   2   6   0.0224   0.0304   0.1450   0.0103   0.0366   0.0455   6.00    0.0
2025/04/04 17:47:07.000   28.404622510  -16.514082469   275.3549   2   6   0.0224   0.0304   0.1450   0.0103   0.0366   0.0455   7.00    0.0
2025/04/04 17:47:08.000   28.404622511  -16.514082467   275.3554   2   6   0.0224   0.0304   0.1450   0.0103   0.0366   0.0455   8.00    0.0
2025/04/04 17:47:09.000   28.404622512  -16.514082466   275.3554   2   6   0.0224   0.0304   0.1450   0.0103   0.0366   0.0455   9.00    0.0
2025/04/04 17:47:10.000   28.404622512  -16.514082466   275.3553   2   6   0.0224   0.0304   0.1450   0.0103   0.0366   0.0455  10.00    0.0
2025/04/04 17:47:11.000   28.404622511  -16.514082466   275.3552   2   6   0.0224   0.0304   0.1450   0.0103   0.0366   0.0455  11.00    0.0
2025/04/04 17:47:12.000   28.404622512  -16.514082464   275.3558   2   6   0.0224   0.0304   0.1450   0.0103   0.0366   0.0455  12.00    0.0
2025/04/04 17:47:13.000   28.404622513  -16.514082464   275.3559   2   6   0.0224   0.0304   0.1450   0.0103   0.0366   0.0455  13.00    0.0
2025/04/04 17:47:14.000   28.404622513  -16.514082463   275.3562   2   6   0.0224   0.0304   0.1450   0.0103   0.0366   0.0455  14.00    0.0
2025/04/04 17:47:15.000   28.404622514  -16.514082463   275.3566   2   6   0.0224   0.0304   0.1450   0.0103   0.0366   0.0455 -15.00    0.0
2025/04/04 17:47:16.000   28.404622514  -16.514082463   275.3567   2   6   0.0224   0.0304   0.1450   0.0103   0.0366   0.0455 -14.00    0.0
2025/04/04 17:47:17.000   28.404622515  -16.514082462   275.3569   2   6   0.0224   0.0304   0.1450   0.0103   0.0366   0.0455 -13.00    0.0
2025/04/04 17:47:18.000   28.404622516  -16.514082461   275.3574   2   6   0.0224   0.0304   0.1450   0.0103   0.0366   0.0455 -12.00    0.0
2025/04/04 17:47:19.000   28.404622516  -16.514082461   275.3575   2   6   0.0224   0.0304   0.1450   0.0103   0.0366   0.0455 -11.00    0.0
2025/04/04 17:47:20.000   28.404622516  -16.514082460   275.3574   2   6   0.0224   0.0304   0.1450   0.0103   0.0366   0.0455 -10.00    0.0
2025/04/04 17:47:21.000   28.404622517  -16.514082460   275.3578   2   6   0.0224   0.0304   0.1450   0.0103   0.0366   0.0455  -9.00    0.0
2025/04/04 17:47:22.000   28.404622517  -16.514082458   275.3577   2   6   0.0224   0.0304   0.1450   0.0103   0.0366   0.0455  -8.00    0.0
2025/04/04 17:47:23.000   28.404622517  -16.514082456   275.3577   2   6   0.0224   0.0304   0.1450   0.0103   0.0366   0.0455  -7.00    0.0
2025/04/04 17:47:24.000   28.404622517  -16.514082454   275.3579   2   6   0.0225   0.0304   0.1450   0.0103   0.0366   0.0455  -6.00    0.0
2025/04/04 17:47:25.000   28.404622518  -16.514082450   275.3583   2   6   0.0225   0.0304   0.1450   0.0103   0.0366   0.0455  -5.00    0.0
2025/04/04 17:47:26.000   28.404622520  -16.514082445   275.3590   2   6   0.0225   0.0304   0.1450   0.0103   0.0366   0.0455  -4.00    0.0
2025/04/04 17:47:27.000   28.404622520  -16.514082443   275.3585   2   6   0.0225   0.0304   0.1450   0.0103   0.0366   0.0455  -3.00    0.0
2025/04/04 17:47:28.000   28.404622519  -16.514082443   275.3577   2   6   0.0225   0.0304   0.1451   0.0103   0.0366   0.0455  -2.00    0.0
2025/04/04 17:47:29.000   28.404622518  -16.514082440   275.3574   2   6   0.0225   0.0304   0.1451   0.0103   0.0366   0.0455  -1.00    0.0
2025/04/04 17:47:30.000   28.404622515  -16.514082436   275.3547   2   6   0.0225   0.0304   0.1452   0.0103   0.0366   0.0455   0.00    0.0
2025/04/04 17:47:31.000   28.404622515  -16.514082429   275.3554   2   6   0.0225   0.0304   0.1451   0.0103   0.0366   0.0455   1.00    0.0
2025/04/04 17:47:32.000   28.404622516  -16.514082423   275.3567   2   6   0.0225   0.0304   0.1451   0.0103   0.0365   0.0455   2.00    0.0
2025/04/04 17:47:33.000   28.404622517  -16.514082416   275.3587   2   6   0.0225   0.0304   0.1451   0.0103   0.0365   0.0455   3.00    0.0
2025/04/04 17:47:34.000   28.404622516  -16.514082412   275.3588   2   6   0.0225   0.0304   0.1451   0.0103   0.0365   0.0455   4.00    0.0
2025/04/04 17:47:35.000   28.404622518  -16.514082408   275.3601   2   6   0.0225   0.0304   0.1451   0.0103   0.0365   0.0455   5.00    0.0
2025/04/04 17:47:36.000   28.404622519  -16.514082405   275.3606   2   6   0.0225   0.0305   0.1451   0.0103   0.0365   0.0455   6.00    0.0
2025/04/04 17:47:37.000   28.404622519  -16.514082402   275.3614   2   6   0.0225   0.0305   0.1452   0.0103   0.0365   0.0455   7.00    0.0
2025/04/04 17:47:38.000   28.404622520  -16.514082401   275.3617   2   6   0.0225   0.0305   0.1452   0.0103   0.0365   0.0455   8.00    0.0
2025/04/04 17:47:39.000   28.404622520  -16.514082399   275.3617   2   6   0.0225   0.0305   0.1452   0.0103   0.0365   0.0455   9.00    0.0
2025/04/04 17:47:40.000   28.404622520  -16.514082397   275.3621   2   6   0.0225   0.0305   0.1452   0.0103   0.0365   0.0455  10.00    0.0
2025/04/04 17:47:41.000   28.404622521  -16.514082395   275.3628   2   6   0.0225   0.0305   0.1452   0.0103   0.0365   0.0455  11.00    0.0
2025/04/04 17:47:42.000   28.404622522  -16.514082395   275.3633   2   6   0.0225   0.0305   0.1452   0.0103   0.0365   0.0455  12.00    0.0
2025/04/04 17:47:43.000   28.404622522  -16.514082393   275.3633   2   6   0.0225   0.0305   0.1452   0.0103   0.0365   0.0455  13.00    0.0
2025/04/04 17:47:44.000   28.404622522  -16.514082392   275.3634   2   6   0.0225   0.0305   0.1452   0.0103   0.0365   0.0455  14.00    0.0
2025/04/04 17:47:45.000   28.404622523  -16.514082392   275.3637   2   6   0.0225   0.0305   0.1452   0.0103   0.0365   0.0455 -15.00    0.0
2025/04/04 17:47:46.000   28.404622523  -16.514082392   275.3637   2   6   0.0225   0.0305   0.1452   0.0103   0.0365   0.0455 -14.00    0.0
2025/04/04 17:47:47.000   28.404622523  -16.514082391   275.3641   2   6   0.0225   0.0305   0.1452   0.0103   0.0365   0.0455 -13.00    0.0
2025/04/04 17:47:48.000   28.404622524  -16.514082391   275.3644   2   6   0.0225   0.0305   0.1452   0.0103   0.0365   0.0455 -12.00    0.0
2025/04/04 17:47:49.000   28.404622524  -16.514082391   275.3647   2   6   0.0225   0.0305   0.1452   0.0103   0.0365   0.0455 -11.00    0.0
2025/04/04 17:47:50.000   28.404622524  -16.514082389   275.3650   2   6   0.0225   0.0305   0.1452   0.0103   0.0365   0.0455 -10.00    0.0
2025/04/04 17:47:51.000   28.404622524  -16.514082389   275.3650   2   6   0.0225   0.0305   0.1452   0.0103   0.0365   0.0455  -9.00    0.0
2025/04/04 17:47:52.000   28.404622524  -16.514082388   275.3654   2   6   0.0225   0.0305   0.1452   0.0103   0.0365   0.0455  -8.00    0.0
2025/04/04 17:47:53.000   28.404622523  -16.514082387   275.3655   2   6   0.0225   0.0305   0.1452   0.0103   0.0365   0.0455  -7.00    0.0
2025/04/04 17:47:54.000   28.404622523  -16.514082384   275.3652   2   6   0.0225   0.0305   0.1452   0.0103   0.0365   0.0455  -6.00    0.0
2025/04/04 17:47:55.000   28.404622520  -16.514082383   275.3646   2   6   0.0225   0.0305   0.1452   0.0103   0.0365   0.0455  -5.00    0.0
2025/04/04 17:47:56.000   28.404622518  -16.514082381   275.3645   2   6   0.0225   0.0305   0.1452   0.0103   0.0364   0.0455  -4.00    0.0
2025/04/04 17:47:57.000   28.404622517  -16.514082377   275.3643   2   6   0.0225   0.0305   0.1452   0.0103   0.0364   0.0455  -3.00    0.0
2025/04/04 17:47:58.000   28.404622514  -16.514082372   275.3629   2   6   0.0225   0.0305   0.1452   0.0103   0.0364   0.0455  -2.00    0.0
2025/04/04 17:47:59.000   28.404622511  -16.514082369   275.3616   2   6   0.0226   0.0305   0.1453   0.0103   0.0364   0.0455  -1.00    0.0
2025/04/04 17:48:00.000   28.404622509  -16.514082367   275.3618   2   6   0.0226   0.0305   0.1453   0.0103   0.0364   0.0455   0.00    0.0
2025/04/04 17:48:01.000   28.404622513  -16.514082361   275.3651   2   6   0.0226   0.0305   0.1453   0.0103   0.0364   0.0455   1.00    0.0
2025/04/04 17:48:02.000   28.404622514  -16.514082360   275.3647   2   6   0.0226   0.0305   0.1453   0.0103   0.0364   0.0454   2.00    0.0
2025/04/04 17:48:03.000   28.404622515  -16.514082358   275.3642   2   6   0.0226   0.0305   0.1453   0.0103   0.0364   0.0454   3.00    0.0
2025/04/04 17:48:04.000   28.404622517  -16.514082353   275.3646   2   6   0.0226   0.0305   0.1453   0.0103   0.0364   0.0454   4.00    0.0
2025/04/04 17:48:05.000   28.404622517  -16.514082352   275.3647   2   6   0.0226   0.0305   0.1453   0.0103   0.0364   0.0454   5.00    0.0
2025/04/04 17:48:06.000   28.404622517  -16.514082351   275.3646   2   6   0.0226   0.0305   0.1453   0.0103   0.0364   0.0454   6.00    0.0
2025/04/04 17:48:07.000   28.404622518  -16.514082349   275.3649   2   6   0.0226   0.0305   0.1453   0.0103   0.0364   0.0454   7.00    0.0
2025/04/04 17:48:08.000   28.404622518  -16.514082348   275.3646   2   6   0.0226   0.0305   0.1453   0.0103   0.0364   0.0454   8.00    0.0
2025/04/04 17:48:09.000   28.404622518  -16.514082348   275.3647   2   6   0.0226   0.0305   0.1454   0.0103   0.0364   0.0454   9.00    0.0
2025/04/04 17:48:10.000   28.404622518  -16.514082346   275.3648   2   6   0.0226   0.0305   0.1454   0.0103   0.0363   0.0454  10.00    0.0
2025/04/04 17:48:11.000   28.404622518  -16.514082347   275.3646   2   6   0.0226   0.0305   0.1454   0.0103   0.0363   0.0454  11.00    0.0
2025/04/04 17:48:12.000   28.404622517  -16.514082345   275.3647   2   6   0.0226   0.0305   0.1454   0.0103   0.0363   0.0454  12.00    0.0
2025/04/04 17:48:13.000   28.404622517  -16.514082345   275.3646   2   6   0.0226   0.0305   0.1454   0.0103   0.0363   0.0454  13.00    0.0
2025/04/04 17:48:14.000   28.404622518  -16.514082343   275.3650   2   6   0.0226   0.0305   0.1454   0.0103   0.0363   0.0454  14.00    0.0
2025/04/04 17:48:15.000   28.404622518  -16.514082343   275.3649   2   6   0.0226   0.0305   0.1454   0.0103   0.0363   0.0454 -15.00    0.0
2025/04/04 17:48:16.000   28.404622518  -16.514082343   275.3650   2   6   0.0226   0.0305   0.1454   0.0103   0.0363   0.0454 -14.00    0.0
2025/04/04 17:48:17.000   28.404622518  -16.514082342   275.3653   2   6   0.0226   0.0305   0.1454   0.0103   0.0363   0.0454 -13.00    0.0
2025/04/04 17:48:18.000   28.404622517  -16.514082342   275.3651   2   6   0.0226   0.0305   0.1454   0.0103   0.0363   0.0454 -12.00    0.0
2025/04/04 17:48:19.000   28.404622517  -16.514082341   275.3652   2   6   0.0226   0.0305   0.1454   0.0103   0.0363   0.0454 -11.00    0.0
2025/04/04 17:48:20.000   28.404622518  -16.514082340   275.3655   2   6   0.0226   0.0305   0.1454   0.0103   0.0363   0.0454 -10.00    0.0
2025/04/04 17:48:21.000   28.404622517  -16.514082340   275.3652   2   6   0.0226   0.0305   0.1454   0.0103   0.0363   0.0454  -9.00    0.0
2025/04/04 17:48:22.000   28.404622517  -16.514082339   275.3654   2   6   0.0226   0.0305   0.1454   0.0103   0.0363   0.0454  -8.00    0.0
2025/04/04 17:48:23.000   28.404622517  -16.514082338   275.3655   2   6   0.0226   0.0305   0.1454   0.0103   0.0363   0.0454  -7.00    0.0
2025/04/04 17:48:24.000   28.404622516  -16.514082337   275.3658   2   6   0.0226   0.0305   0.1454   0.0103   0.0363   0.0454  -6.00    0.0
2025/04/04 17:48:25.000   28.404622516  -16.514082334   275.3661   2   6   0.0226   0.0305   0.1454   0.0103   0.0363   0.0454  -5.00    0.0
2025/04/04 17:48:26.000   28.404622514  -16.514082332   275.3652   2   6   0.0226   0.0305   0.1454   0.0103   0.0363   0.0454  -4.00    0.0
2025/04/04 17:48:27.000   28.404622513  -16.514082332   275.3659   2   6   0.0226   0.0305   0.1454   0.0103   0.0363   0.0454  -3.00    0.0
2025/04/04 17:48:28.000   28.404622513  -16.514082329   275.3676   2   6   0.0226   0.0305   0.1454   0.0103   0.0363   0.0454  -2.00    0.0
2025/04/04 17:48:29.000   28.404622509  -16.514082325   275.3668   2   6   0.0226   0.0306   0.1454   0.0103   0.0363   0.0454  -1.00    0.0
2025/04/04 17:48:30.000   28.404622508  -16.514082322   275.3700   2   6   0.0226   0.0306   0.1455   0.0103   0.0363   0.0454   0.00    0.0
2025/04/04 17:48:31.000   28.404622504  -16.514082322   275.3684   2   6   0.0226   0.0306   0.1455   0.0103   0.0363   0.0454   1.00    0.0
2025/04/04 17:48:32.000   28.404622499  -16.514082319   275.3680   2   6   0.0226   0.0306   0.1455   0.0103   0.0362   0.0454   2.00    0.0
2025/04/04 17:48:33.000   28.404622492  -16.514082321   275.3658   2   6   0.0226   0.0306   0.1455   0.0103   0.0362   0.0454   3.00    0.0
2025/04/04 17:48:34.000   28.404622488  -16.514082321   275.3643   2   6   0.0226   0.0306   0.1455   0.0103   0.0362   0.0454   4.00    0.0
2025/04/04 17:48:35.000   28.404622485  -16.514082318   275.3630   2   6   0.0226   0.0306   0.1455   0.0103   0.0362   0.0454   5.00    0.0
2025/04/04 17:48:36.000   28.404622484  -16.514082317   275.3634   2   6   0.0226   0.0306   0.1455   0.0103   0.0362   0.0454   6.00    0.0
2025/04/04 17:48:37.000   28.404622480  -16.514082318   275.3625   2   6   0.0226   0.0306   0.1455   0.0103   0.0362   0.0453   7.00    0.0
2025/04/04 17:48:38.000   28.404622478  -16.514082316   275.3629   2   6   0.0227   0.0306   0.1455   0.0103   0.0362   0.0453   8.00    0.0
2025/04/04 17:48:39.000   28.404622476  -16.514082317   275.3632   2   6   0.0227   0.0306   0.1456   0.0103   0.0362   0.0453   9.00    0.0
2025/04/04 17:48:40.000   28.404622474  -16.514082318   275.3633   2   6   0.0227   0.0306   0.1456   0.0103   0.0362   0.0453  10.00    0.0
2025/04/04 17:48:41.000   28.404622473  -16.514082317   275.3638   2   6   0.0227   0.0306   0.1456   0.0103   0.0362   0.0453  11.00    0.0
2025/04/04 17:48:42.000   28.404622472  -16.514082316   275.3641   2   6   0.0227   0.0306   0.1456   0.0103   0.0362   0.0453  12.00    0.0
2025/04/04 17:48:43.000   28.404622470  -16.514082316   275.3645   2   6   0.0227   0.0306   0.1456   0.0103   0.0362   0.0453  13.00    0.0
2025/04/04 17:48:44.000   28.404622469  -16.514082315   275.3645   2   6   0.0227   0.0306   0.1456   0.0103   0.0362   0.0453  14.00    0.0
2025/04/04 17:48:45.000   28.404622468  -16.514082315   275.3647   2   6   0.0227   0.0306   0.1456   0.0103   0.0362   0.0453 -15.00    0.0
2025/04/04 17:48:46.000   28.404622467  -16.514082316   275.3646   2   6   0.0227   0.0306   0.1456   0.0103   0.0362   0.0453 -14.00    0.0
2025/04/04 17:48:47.000   28.404622466  -16.514082317   275.3648   2   6   0.0227   0.0306   0.1456   0.0103   0.0362   0.0453 -13.00    0.0
2025/04/04 17:48:48.000   28.404622466  -16.514082316   275.3651   2   6   0.0227   0.0306   0.1456   0.0103   0.0362   0.0453 -12.00    0.0
2025/04/04 17:48:49.000   28.404622465  -16.514082317   275.3651   2   6   0.0227   0.0306   0.1456   0.0103   0.0362   0.0453 -11.00    0.0
2025/04/04 17:48:50.000   28.404622463  -16.514082317   275.3654   2   6   0.0227   0.0306   0.1456   0.0103   0.0362   0.0453 -10.00    0.0
2025/04/04 17:48:51.000   28.404622462  -16.514082317   275.3654   2   6   0.0227   0.0306   0.1456   0.0103   0.0361   0.0453  -9.00    0.0
2025/04/04 17:48:52.000   28.404622462  -16.514082317   275.3659   2   6   0.0227   0.0306   0.1456   0.0103   0.0361   0.0453  -8.00    0.0
2025/04/04 17:48:53.000   28.404622461  -16.514082314   275.3662   2   6   0.0227   0.0306   0.1456   0.0103   0.0361   0.0453  -7.00    0.0
2025/04/04 17:48:54.000   28.404622460  -16.514082315   275.3661   2   6   0.0227   0.0306   0.1456   0.0103   0.0361   0.0453  -6.00    0.0
2025/04/04 17:48:55.000   28.404622459  -16.514082316   275.3666   2   6   0.0227   0.0306   0.1456   0.0103   0.0361   0.0453  -5.00    0.0
2025/04/04 17:48:56.000   28.404622456  -16.514082319   275.3671   2   6   0.0227   0.0306   0.1456   0.0103   0.0361   0.0453  -4.00    0.0
2025/04/04 17:48:57.000   28.404622454  -16.514082321   275.3683   2   6   0.0227   0.0306   0.1456   0.0103   0.0361   0.0453  -3.00    0.0
2025/04/04 17:48:58.000   28.404622450  -16.514082323   275.3676   2   6   0.0227   0.0306   0.1456   0.0103   0.0361   0.0453  -2.00    0.0
2025/04/04 17:48:59.000   28.404622446  -16.514082327   275.3675   2   6   0.0227   0.0306   0.1456   0.0103   0.0361   0.0453  -1.00    0.0
2025/04/04 17:49:00.000   28.404622441  -16.514082329   275.3676   2   6   0.0227   0.0306   0.1457   0.0103   0.0361   0.0453   0.00    0.0
2025/04/04 17:49:01.000   28.404622440  -16.514082328   275.3722   2   6   0.0227   0.0306   0.1457   0.0103   0.0361   0.0453   1.00    0.0
2025/04/04 17:49:02.000   28.404622434  -16.514082333   275.3734   2   6   0.0227   0.0306   0.1457   0.0103   0.0361   0.0453   2.00    0.0
2025/04/04 17:49:03.000   28.404622432  -16.514082332   275.3741   2   6   0.0227   0.0306   0.1457   0.0103   0.0361   0.0453   3.00    0.0
2025/04/04 17:49:04.000   28.404622432  -16.514082330   275.3768   2   6   0.0227   0.0306   0.1457   0.0103   0.0360   0.0453   4.00    0.0
2025/04/04 17:49:05.000   28.404622430  -16.514082331   275.3780   2   6   0.0227   0.0306   0.1457   0.0103   0.0360   0.0453   5.00    0.0
2025/04/04 17:49:06.000   28.404622430  -16.514082332   275.3798   2   6   0.0227   0.0306   0.1457   0.0103   0.0360   0.0453   6.00    0.0
2025/04/04 17:49:07.000   28.404622430  -16.514082331   275.3809   2   6   0.0227   0.0306   0.1458   0.0103   0.0360   0.0453   7.00    0.0
2025/04/04 17:49:08.000   28.404622430  -16.514082331   275.3815   2   6   0.0227   0.0306   0.1458   0.0103   0.0360   0.0453   8.00    0.0
2025/04/04 17:49:09.000   28.404622430  -16.514082331   275.3822   2   6   0.0227   0.0306   0.1458   0.0103   0.0360   0.0453   9.00    0.0
2025/04/04 17:49:10.000   28.404622430  -16.514082332   275.3825   2   6   0.0227   0.0306   0.1458   0.0103   0.0360   0.0453  10.00    0.0
2025/04/04 17:49:11.000   28.404622430  -16.514082331   275.3832   2   6   0.0227   0.0306   0.1458   0.0103   0.0360   0.0453  11.00    0.0
2025/04/04 17:49:12.000   28.404622431  -16.514082329   275.3839   2   6   0.0227   0.0306   0.1458   0.0103   0.0360   0.0453  12.00    0.0
2025/04/04 17:49:13.000   28.404622432  -16.514082328   275.3846   2   6   0.0227   0.0306   0.1458   0.0103   0.0360   0.0453  13.00    0.0
2025/04/04 17:49:14.000   28.404622432  -16.514082329   275.3849   2   6   0.0227   0.0306   0.1458   0.0103   0.0360   0.0453  14.00    0.0
2025/04/04 17:49:15.000   28.404622432  -16.514082328   275.3856   2   6   0.0227   0.0306   0.1458   0.0103   0.0360   0.0453 -15.00    0.0
2025/04/04 17:49:16.000   28.404622433  -16.514082328   275.3860   2   6   0.0227   0.0306   0.1458   0.0103   0.0360   0.0453 -14.00    0.0
2025/04/04 17:49:17.000   28.404622434  -16.514082328   275.3868   2   6   0.0227   0.0306   0.1458   0.0103   0.0360   0.0453 -13.00    0.0
2025/04/04 17:49:18.000   28.404622435  -16.514082326   275.3876   2   6   0.0227   0.0306   0.1458   0.0103   0.0360   0.0453 -12.00    0.0
2025/04/04 17:49:19.000   28.404622436  -16.514082326   275.3883   2   6   0.0227   0.0306   0.1458   0.0103   0.0360   0.0452 -11.00    0.0
2025/04/04 17:49:20.000   28.404622436  -16.514082325   275.3889   2   6   0.0227   0.0306   0.1458   0.0103   0.0360   0.0452 -10.00    0.0
2025/04/04 17:49:21.000   28.404622437  -16.514082324   275.3898   2   6   0.0227   0.0306   0.1458   0.0103   0.0360   0.0452  -9.00    0.0
2025/04/04 17:49:22.000   28.404622438  -16.514082323   275.3906   2   6   0.0227   0.0306   0.1458   0.0103   0.0360   0.0452  -8.00    0.0
2025/04/04 17:49:23.000   28.404622439  -16.514082321   275.3916   2   6   0.0227   0.0306   0.1458   0.0103   0.0360   0.0452  -7.00    0.0
2025/04/04 17:49:24.000   28.404622439  -16.514082321   275.3929   2   6   0.0227   0.0306   0.1458   0.0103   0.0360   0.0452  -6.00    0.0
2025/04/04 17:49:25.000   28.404622439  -16.514082321   275.3944   2   6   0.0227   0.0306   0.1458   0.0103   0.0360   0.0452  -5.00    0.0
2025/04/04 17:49:26.000   28.404622438  -16.514082320   275.3958   2   6   0.0227   0.0306   0.1458   0.0103   0.0359   0.0452  -4.00    0.0
2025/04/04 17:49:27.000   28.404622438  -16.514082320   275.3978   2   6   0.0227   0.0306   0.1458   0.0103   0.0359   0.0452  -3.00    0.0
2025/04/04 17:49:28.000   28.404622436  -16.514082319   275.3999   2   6   0.0227   0.0306   0.1458   0.0103   0.0359   0.0452  -2.00    0.0
2025/04/04 17:49:29.000   28.404622432  -16.514082318   275.4006   2   6   0.0227   0.0306   0.1459   0.0103   0.0359   0.0452  -1.00    0.0
2025/04/04 17:49:30.000   28.404622428  -16.514082318   275.4025   2   7   0.0227   0.0306   0.1459   0.0103   0.0359   0.0452   0.00    0.0
2025/04/04 17:49:31.000   28.404622423  -16.514082320   275.4023   2   7   0.0227   0.0306   0.1459   0.0103   0.0359   0.0452   1.00    0.0
2025/04/04 17:49:32.000   28.404622418  -16.514082322   275.4042   2   7   0.0227   0.0306   0.1459   0.0103   0.0359   0.0452   2.00    0.0
2025/04/04 17:49:33.000   28.404622411  -16.514082326   275.4041   2   7   0.0227   0.0307   0.1460   0.0103   0.0359   0.0452   3.00    0.0
2025/04/04 17:49:34.000   28.404622411  -16.514082324   275.4081   2   7   0.0227   0.0307   0.1460   0.0103   0.0359   0.0452   4.00    1.0
2025/04/04 17:49:35.000   28.404622408  -16.514082324   275.4086   2   7   0.0227   0.0307   0.1460   0.0103   0.0359   0.0452   5.00    1.1
2025/04/04 17:49:36.000   28.404622406  -16.514082323   275.4095   2   7   0.0227   0.0307   0.1461   0.0103   0.0359   0.0452   6.00    1.0
2025/04/04 17:49:37.000   28.404622405  -16.514082324   275.4103   2   7   0.0227   0.0307   0.1461   0.0103   0.0359   0.0452   7.00    1.3
2025/04/04 17:49:38.000   28.404622404  -16.514082324   275.4106   2   7   0.0227   0.0307   0.1461   0.0103   0.0359   0.0452   8.00    1.1
2025/04/04 17:49:39.000   28.404622402  -16.514082324   275.4099   2   7   0.0227   0.0307   0.1461   0.0104   0.0359   0.0452   9.00    1.5
2025/04/04 17:49:40.000   28.404622400  -16.514082325   275.4090   2   7   0.0227   0.0307   0.1461   0.0104   0.0359   0.0452  10.00    1.0
2025/04/04 17:49:41.000   28.404622398  -16.514082326   275.4085   2   7   0.0227   0.0307   0.1461   0.0104   0.0359   0.0452  11.00    1.0
2025/04/04 17:49:42.000   28.404622397  -16.514082327   275.4080   2   7   0.0227   0.0307   0.1461   0.0103   0.0359   0.0452  12.00    1.0
2025/04/04 17:49:43.000   28.404622395  -16.514082328   275.4069   2   7   0.0227   0.0307   0.1461   0.0103   0.0359   0.0452  13.00    1.0
2025/04/04 17:49:44.000   28.404622394  -16.514082329   275.4063   2   7   0.0227   0.0307   0.1461   0.0103   0.0359   0.0452  14.00    1.3
2025/04/04 17:49:45.000   28.404622393  -16.514082329   275.4059   2   7   0.0227   0.0307   0.1460   0.0103   0.0358   0.0452 -15.00    1.1
2025/04/04 17:49:46.000   28.404622392  -16.514082329   275.4050   2   7   0.0227   0.0307   0.1460   0.0103   0.0358   0.0452 -14.00    1.6
2025/04/04 17:49:47.000   28.404622390  -16.514082330   275.4040   2   7   0.0227   0.0307   0.1459   0.0103   0.0358   0.0452 -13.00    1.1
2025/04/04 17:49:48.000   28.404622389  -16.514082331   275.4034   2   7   0.0227   0.0306   0.1459   0.0103   0.0358   0.0451 -12.00    1.0
2025/04/04 17:49:49.000   28.404622388  -16.514082332   275.4019   2   7   0.0227   0.0306   0.1458   0.0103   0.0358   0.0451 -11.00    1.0
2025/04/04 17:49:50.000   28.404622386  -16.514082332   275.4013   2   7   0.0227   0.0306   0.1457   0.0103   0.0357   0.0451 -10.00    1.1
2025/04/04 17:49:51.000   28.404622384  -16.514082334   275.3990   2   7   0.0227   0.0306   0.1456   0.0103   0.0357   0.0450  -9.00    1.1
2025/04/04 17:49:52.000   28.404622382  -16.514082335   275.3976   2   7   0.0227   0.0306   0.1455   0.0103   0.0357   0.0450  -8.00    1.0
2025/04/04 17:49:53.000   28.404622379  -16.514082337   275.3953   2   7   0.0227   0.0306   0.1454   0.0103   0.0356   0.0449  -7.00    1.6
2025/04/04 17:49:54.000   28.404622374  -16.514082341   275.3930   2   7   0.0227   0.0306   0.1453   0.0103   0.0356   0.0449  -6.00    1.2
2025/04/04 17:49:55.000   28.404622369  -16.514082343   275.3914   2   7   0.0227   0.0306   0.1451   0.0102   0.0355   0.0449  -5.00    1.6
2025/04/04 17:49:56.000   28.404622363  -16.514082343   275.3903   2   7   0.0226   0.0306   0.1450   0.0102   0.0355   0.0448  -4.00    1.1
2025/04/04 17:49:57.000   28.404622357  -16.514082344   275.3892   2   7   0.0226   0.0306   0.1449   0.0102   0.0355   0.0448  -3.00    1.6
2025/04/04 17:49:58.000   28.404622351  -16.514082344   275.3892   2   7   0.0226   0.0306   0.1447   0.0102   0.0354   0.0447  -2.00    1.1
2025/04/04 17:49:59.000   28.404622340  -16.514082348   275.3867   2   7   0.0226   0.0306   0.1447   0.0102   0.0354   0.0447  -1.00    1.6
2025/04/04 17:50:00.000   28.404622333  -16.514082349   275.3864   2   7   0.0226   0.0306   0.1446   0.0102   0.0353   0.0446   0.00    1.0
2025/04/04 17:50:01.000   28.404622329  -16.514082347   275.3873   2   7   0.0226   0.0306   0.1446   0.0102   0.0353   0.0446   1.00    1.1
2025/04/04 17:50:02.000   28.404622323  -16.514082348   275.3858   2   7   0.0226   0.0306   0.1447   0.0102   0.0353   0.0446   2.00    1.1
2025/04/04 17:50:03.000   28.404622319  -16.514082347   275.3865   2   7   0.0226   0.0306   0.1447   0.0102   0.0353   0.0446   3.00    1.0
2025/04/04 17:50:04.000   28.404622315  -16.514082348   275.3881   2   7   0.0226   0.0306   0.1448   0.0102   0.0353   0.0446   4.00    1.5
2025/04/04 17:50:05.000   28.404622311  -16.514082351   275.3875   2   7   0.0226   0.0306   0.1448   0.0102   0.0353   0.0446   5.00    1.1
2025/04/04 17:50:06.000   28.404622308  -16.514082352   275.3877   2   7   0.0226   0.0306   0.1448   0.0102   0.0353   0.0446   6.00    1.5
2025/04/04 17:50:07.000   28.404622307  -16.514082352   275.3879   2   7   0.0226   0.0306   0.1449   0.0102   0.0353   0.0446   7.00    1.0
2025/04/04 17:50:08.000   28.404622306  -16.514082352   275.3884   2   7   0.0226   0.0306   0.1449   0.0102   0.0353   0.0447   8.00    1.5
2025/04/04 17:50:09.000   28.404622305  -16.514082353   275.3883   2   7   0.0226   0.0306   0.1449   0.0102   0.0353   0.0447   9.00    1.0
2025/04/04 17:50:10.000   28.404622305  -16.514082353   275.3888   2   7   0.0226   0.0306   0.1449   0.0102   0.0353   0.0447  10.00    1.5
2025/04/04 17:50:11.000   28.404622304  -16.514082352   275.3890   2   7   0.0226   0.0306   0.1449   0.0102   0.0353   0.0447  11.00    1.1
2025/04/04 17:50:12.000   28.404622304  -16.514082353   275.3886   2   7   0.0226   0.0306   0.1449   0.0102   0.0353   0.0447  12.00    1.5
2025/04/04 17:50:13.000   28.404622304  -16.514082352   275.3885   2   7   0.0226   0.0306   0.1449   0.0102   0.0353   0.0446  13.00    1.6
2025/04/04 17:50:14.000   28.404622303  -16.514082352   275.3883   2   7   0.0226   0.0306   0.1449   0.0102   0.0353   0.0446  14.00    1.1
2025/04/04 17:50:15.000   28.404622302  -16.514082354   275.3880   2   7   0.0226   0.0306   0.1449   0.0102   0.0353   0.0446 -15.00    1.0
2025/04/04 17:50:16.000   28.404622302  -16.514082354   275.3877   2   7   0.0226   0.0306   0.1449   0.0102   0.0353   0.0446 -14.00    1.5
2025/04/04 17:50:17.000   28.404622301  -16.514082354   275.3873   2   7   0.0226   0.0306   0.1448   0.0102   0.0353   0.0446 -13.00    1.1
2025/04/04 17:50:18.000   28.404622301  -16.514082355   275.3866   2   7   0.0226   0.0306   0.1448   0.0102   0.0353   0.0446 -12.00    1.1
2025/04/04 17:50:19.000   28.404622299  -16.514082356   275.3857   2   7   0.0226   0.0306   0.1448   0.0102   0.0352   0.0446 -11.00    1.2
2025/04/04 17:50:20.000   28.404622298  -16.514082357   275.3852   2   7   0.0226   0.0306   0.1447   0.0102   0.0352   0.0446 -10.00    1.3
2025/04/04 17:50:21.000   28.404622297  -16.514082359   275.3851   2   7   0.0226   0.0306   0.1447   0.0102   0.0352   0.0446  -9.00    1.1
2025/04/04 17:50:22.000   28.404622296  -16.514082360   275.3846   2   7   0.0226   0.0306   0.1446   0.0102   0.0352   0.0445  -8.00    1.1
2025/04/04 17:50:23.000   28.404622295  -16.514082361   275.3829   2   7   0.0226   0.0306   0.1446   0.0102   0.0352   0.0445  -7.00    1.5
2025/04/04 17:50:24.000   28.404622294  -16.514082361   275.3823   2   7   0.0226   0.0306   0.1445   0.0102   0.0352   0.0445  -6.00    1.2
2025/04/04 17:50:25.000   28.404622292  -16.514082362   275.3809   2   7   0.0226   0.0306   0.1445   0.0101   0.0351   0.0445  -5.00    1.2
2025/04/04 17:50:26.000   28.404622291  -16.514082362   275.3800   2   7   0.0226   0.0306   0.1444   0.0101   0.0351   0.0444  -4.00    1.3
2025/04/04 17:50:27.000   28.404622289  -16.514082361   275.3792   2   7   0.0226   0.0306   0.1444   0.0101   0.0351   0.0444  -3.00    1.3
2025/04/04 17:50:28.000   28.404622287  -16.514082359   275.3773   2   7   0.0226   0.0306   0.1443   0.0101   0.0351   0.0444  -2.00    1.1
2025/04/04 17:50:29.000   28.404622285  -16.514082359   275.3776   2   7   0.0226   0.0306   0.1443   0.0101   0.0351   0.0444  -1.00    1.1
2025/04/04 17:50:30.000   28.404622280  -16.514082361   275.3762   2   7   0.0226   0.0306   0.1443   0.0101   0.0350   0.0444   0.00    1.5
2025/04/04 17:50:31.000   28.404622277  -16.514082359   275.3748   2   7   0.0226   0.0306   0.1443   0.0101   0.0350   0.0444   1.00    1.0
2025/04/04 17:50:32.000   28.404622274  -16.514082357   275.3754   2   7   0.0226   0.0306   0.1443   0.0101   0.0350   0.0444   2.00    1.1
2025/04/04 17:50:33.000   28.404622270  -16.514082355   275.3762   2   7   0.0226   0.0306   0.1444   0.0101   0.0350   0.0444   3.00    1.1
2025/04/04 17:50:34.000   28.404622269  -16.514082353   275.3777   2   7   0.0226   0.0306   0.1444   0.0101   0.0350   0.0444   4.00    1.2
2025/04/04 17:50:35.000   28.404622266  -16.514082353   275.3778   2   7   0.0226   0.0306   0.1445   0.0101   0.0350   0.0444   5.00    1.1
2025/04/04 17:50:36.000   28.404622266  -16.514082354   275.3781   2   7   0.0226   0.0306   0.1445   0.0101   0.0350   0.0444   6.00    1.0
2025/04/04 17:50:37.000   28.404622266  -16.514082353   275.3791   2   7   0.0226   0.0306   0.1446   0.0101   0.0350   0.0444   7.00    1.5
2025/04/04 17:50:38.000   28.404622266  -16.514082354   275.3799   2   7   0.0226   0.0306   0.1446   0.0101   0.0350   0.0444   8.00    1.2
2025/04/04 17:50:39.000   28.404622266  -16.514082354   275.3802   2   7   0.0226   0.0306   0.1446   0.0101   0.0350   0.0444   9.00    1.2
2025/04/04 17:50:40.000   28.404622266  -16.514082355   275.3810   2   7   0.0226   0.0306   0.1446   0.0101   0.0350   0.0444  10.00    1.2
2025/04/04 17:50:41.000   28.404622267  -16.514082355   275.3816   2   7   0.0226   0.0306   0.1446   0.0101   0.0350   0.0444  11.00    1.2
2025/04/04 17:50:42.000   28.404622267  -16.514082355   275.3812   2   7   0.0226   0.0306   0.1446   0.0101   0.0350   0.0444  12.00    1.1
2025/04/04 17:50:43.000   28.404622266  -16.514082357   275.3808   2   7   0.0226   0.0306   0.1446   0.0101   0.0350   0.0444  13.00    1.1
2025/04/04 17:50:44.000   28.404622266  -16.514082356   275.3806   2   7   0.0226   0.0306   0.1446   0.0101   0.0350   0.0444  14.00    1.5
2025/04/04 17:50:45.000   28.404622266  -16.514082357   275.3801   2   7   0.0226   0.0306   0.1446   0.0101   0.0350   0.0444 -15.00    1.3
2025/04/04 17:50:46.000   28.404622265  -16.514082357   275.3794   2   7   0.0226   0.0306   0.1446   0.0101   0.0350   0.0444 -14.00    1.3
2025/04/04 17:50:47.000   28.404622264  -16.514082357   275.3785   2   7   0.0226   0.0306   0.1446   0.0101   0.0350   0.0444 -13.00    1.2
2025/04/04 17:50:48.000   28.404622263  -16.514082357   275.3777   2   7   0.0226   0.0306   0.1446   0.0101   0.0350   0.0444 -12.00    1.3
2025/04/04 17:50:49.000   28.404622262  -16.514082357   275.3771   2   7   0.0226   0.0306   0.1445   0.0101   0.0350   0.0444 -11.00    1.1
2025/04/04 17:50:50.000   28.404622261  -16.514082357   275.3774   2   7   0.0226   0.0306   0.1445   0.0101   0.0350   0.0443 -10.00    1.1
2025/04/04 17:50:51.000   28.404622260  -16.514082358   275.3777   2   7   0.0226   0.0306   0.1445   0.0101   0.0350   0.0443  -9.00    1.6
2025/04/04 17:50:52.000   28.404622259  -16.514082357   275.3776   2   7   0.0226   0.0306   0.1444   0.0101   0.0349   0.0443  -8.00    1.3
2025/04/04 17:50:53.000   28.404622256  -16.514082358   275.3762   2   7   0.0226   0.0306   0.1444   0.0101   0.0349   0.0443  -7.00    1.3
2025/04/04 17:50:54.000   28.404622253  -16.514082361   275.3757   2   7   0.0226   0.0306   0.1443   0.0101   0.0349   0.0443  -6.00    1.3
2025/04/04 17:50:55.000   28.404622251  -16.514082363   275.3746   2   7   0.0226   0.0306   0.1443   0.0101   0.0349   0.0443  -5.00    1.3
2025/04/04 17:50:56.000   28.404622248  -16.514082364   275.3739   2   7   0.0226   0.0306   0.1442   0.0101   0.0349   0.0442  -4.00    1.2
2025/04/04 17:50:57.000   28.404622246  -16.514082365   275.3754   2   7   0.0226   0.0306   0.1442   0.0101   0.0349   0.0442  -3.00    1.1
2025/04/04 17:50:58.000   28.404622243  -16.514082367   275.3749   2   7   0.0226   0.0306   0.1441   0.0101   0.0348   0.0442  -2.00    1.6
2025/04/04 17:50:59.000   28.404622239  -16.514082371   275.3737   2   7   0.0226   0.0306   0.1441   0.0101   0.0348   0.0442  -1.00    1.3
2025/04/04 17:51:00.000   28.404622234  -16.514082374   275.3744   2   7   0.0225   0.0306   0.1441   0.0101   0.0348   0.0442   0.00    1.3
2025/04/04 17:51:01.000   28.404622233  -16.514082374   275.3763   2   7   0.0225   0.0306   0.1441   0.0101   0.0348   0.0442   1.00    1.0
2025/04/04 17:51:02.000   28.404622232  -16.514082376   275.3761   2   7   0.0225   0.0306   0.1442   0.0101   0.0348   0.0442   2.00    1.2
2025/04/04 17:51:03.000   28.404622231  -16.514082377   275.3766   2   7   0.0226   0.0306   0.1442   0.0101   0.0348   0.0442   3.00    1.1
2025/04/04 17:51:04.000   28.404622230  -16.514082378   275.3773   2   7   0.0226   0.0306   0.1443   0.0101   0.0348   0.0442   4.00    1.1
2025/04/04 17:51:05.000   28.404622229  -16.514082378   275.3764   2   7   0.0226   0.0306   0.1443   0.0101   0.0348   0.0442   5.00    1.6
2025/04/04 17:51:06.000   28.404622230  -16.514082378   275.3757   2   7   0.0226   0.0306   0.1443   0.0101   0.0348   0.0442   6.00    1.2
2025/04/04 17:51:07.000   28.404622230  -16.514082378   275.3750   2   7   0.0226   0.0306   0.1444   0.0101   0.0348   0.0442   7.00    1.2
2025/04/04 17:51:08.000   28.404622229  -16.514082379   275.3737   2   7   0.0226   0.0306   0.1444   0.0101   0.0348   0.0442   8.00    1.2
2025/04/04 17:51:09.000   28.404622228  -16.514082380   275.3733   2   7   0.0226   0.0306   0.1444   0.0101   0.0348   0.0442   9.00    1.3
2025/04/04 17:51:10.000   28.404622228  -16.514082381   275.3730   2   7   0.0226   0.0306   0.1444   0.0101   0.0348   0.0442  10.00    1.1
2025/04/04 17:51:11.000   28.404622228  -16.514082382   275.3723   2   7   0.0226   0.0306   0.1444   0.0101   0.0348   0.0442  11.00    1.1
2025/04/04 17:51:12.000   28.404622228  -16.514082384   275.3721   2   7   0.0226   0.0306   0.1445   0.0101   0.0348   0.0442  12.00    1.6
2025/04/04 17:51:13.000   28.404622227  -16.514082385   275.3719   2   7   0.0226   0.0306   0.1445   0.0101   0.0348   0.0442  13.00    1.2
2025/04/04 17:51:14.000   28.404622227  -16.514082386   275.3716   2   7   0.0226   0.0306   0.1445   0.0101   0.0348   0.0442  14.00    1.2
2025/04/04 17:51:15.000   28.404622227  -16.514082386   275.3720   2   7   0.0226   0.0305   0.1444   0.0101   0.0348   0.0442 -15.00    1.2
2025/04/04 17:51:16.000   28.404622227  -16.514082386   275.3721   2   7   0.0226   0.0305   0.1444   0.0101   0.0348   0.0442 -14.00    1.3
2025/04/04 17:51:17.000   28.404622227  -16.514082387   275.3716   2   7   0.0226   0.0305   0.1444   0.0101   0.0348   0.0442 -13.00    1.1
2025/04/04 17:51:18.000   28.404622226  -16.514082388   275.3718   2   7   0.0226   0.0305   0.1444   0.0101   0.0348   0.0442 -12.00    1.1
2025/04/04 17:51:19.000   28.404622226  -16.514082388   275.3716   2   7   0.0226   0.0305   0.1444   0.0101   0.0348   0.0442 -11.00    1.6
2025/04/04 17:51:20.000   28.404622225  -16.514082389   275.3716   2   7   0.0225   0.0305   0.1443   0.0101   0.0348   0.0441 -10.00    1.3
2025/04/04 17:51:21.000   28.404622226  -16.514082389   275.3725   2   7   0.0225   0.0305   0.1443   0.0101   0.0347   0.0441  -9.00    1.2
2025/04/04 17:51:22.000   28.404622226  -16.514082390   275.3737   2   7   0.0225   0.0305   0.1443   0.0101   0.0347   0.0441  -8.00    1.2
2025/04/04 17:51:23.000   28.404622225  -16.514082390   275.3747   2   7   0.0225   0.0305   0.1442   0.0101   0.0347   0.0441  -7.00    1.3
2025/04/04 17:51:24.000   28.404622224  -16.514082391   275.3754   2   7   0.0225   0.0305   0.1442   0.0101   0.0347   0.0441  -6.00    1.2
2025/04/04 17:51:25.000   28.404622222  -16.514082393   275.3757   2   7   0.0225   0.0305   0.1441   0.0101   0.0347   0.0441  -5.00    1.1
2025/04/04 17:51:26.000   28.404622221  -16.514082393   275.3764   2   7   0.0225   0.0305   0.1441   0.0101   0.0347   0.0440  -4.00    1.7
2025/04/04 17:51:27.000   28.404622220  -16.514082396   275.3765   2   7   0.0225   0.0305   0.1440   0.0100   0.0346   0.0440  -3.00    1.3
2025/04/04 17:51:28.000   28.404622219  -16.514082399   275.3775   2   7   0.0225   0.0305   0.1440   0.0100   0.0346   0.0440  -2.00    1.3
2025/04/04 17:51:29.000   28.404622218  -16.514082399   275.3782   2   7   0.0225   0.0305   0.1440   0.0100   0.0346   0.0440  -1.00    1.3
