% program   : RTKPOST-EX 2.5.0
% inp file  : C:\Users\SallyHenry\Desktop\Sally Internship\GNSS gravi\DATA\Survey Rover Obs\ORO03.25o
% inp file  : C:\Users\SallyHenry\Desktop\Sally Internship\GNSS gravi\DATA\BaseStations\TN02\TN0200ESP_R_20250940000_01D_30S_MO.rnx
% inp file  : C:\Users\SallyHenry\Desktop\Sally Internship\GNSS gravi\DATA\BaseStations\TN02\TN0200ESP_R_20250940000_01D_MN.rnx
% inp file  : C:\Users\SallyHenry\Desktop\Sally Internship\GNSS gravi\DATA\aux_files\Survey\IGS0OPSFIN_20250940000_01D_15M_ORB.SP3
% inp file  : C:\Users\SallyHenry\Desktop\Sally Internship\GNSS gravi\DATA\aux_files\Survey\IGS0OPSFIN_20250940000_01D_30S_CLK.CLK
% obs start : 2025/04/04 14:01:36.0 GPST (week2360 482496.0s)
% obs end   : 2025/04/04 14:16:58.0 GPST (week2360 483418.0s)
% pos mode  : Static
% freqs     : L1+L2/E5b
% solution  : Combined-No Phase Reset
% elev mask : 15.0 deg
% dynamics  : on
% tidecorr  : solid
% ionos opt : Estimate TEC
% tropo opt : Estimate ZTD+Grad
% ephemeris : Precise
% navi sys  : GPS GLONASS Galileo QZSS BDS
% amb res   : Fix and Hold
% amb glo   : Fix and Hold
% amb bds   : on
% val thres : 3.0
% antenna1  :                       ( 0.0000  0.0000  1.8000)
% antenna2  :                       ( 0.0000  0.0000  0.0771)
% ref pos   :  28.418257450  -16.550784480    54.4145
%
% (lat/lon/height=WGS84/ellipsoidal,Q=1:fix,2:float,3:sbas,4:dgps,5:single,6:ppp,ns=# of satellites)
%  GPST                  latitude(deg) longitude(deg)  height(m)   Q  ns   sdn(m)   sde(m)   sdu(m)  sdne(m)  sdeu(m)  sdun(m) age(s)  ratio
2025/04/04 14:01:36.000   28.402941730  -16.501034041   626.7199   1   7   0.0020   0.0020   0.0201   0.0011   0.0022   0.0028   6.00  175.9
2025/04/04 14:01:37.000   28.402941729  -16.501034041   626.7188   1   7   0.0020   0.0020   0.0201   0.0011   0.0022   0.0028   7.00  176.7
2025/04/04 14:01:38.000   28.402941729  -16.501034041   626.7179   1   7   0.0020   0.0020   0.0202   0.0011   0.0022   0.0028   8.00  176.4
2025/04/04 14:01:39.000   28.402941729  -16.501034041   626.7171   1   7   0.0020   0.0020   0.0202   0.0011   0.0022   0.0029   9.00  175.7
2025/04/04 14:01:40.000   28.402941729  -16.501034041   626.7164   1   7   0.0020   0.0020   0.0202   0.0011   0.0022   0.0029  10.00  175.4
2025/04/04 14:01:41.000   28.402941728  -16.501034041   626.7158   1   7   0.0020   0.0020   0.0202   0.0011   0.0022   0.0029  11.00  174.6
2025/04/04 14:01:42.000   28.402941728  -16.501034041   626.7154   1   7   0.0020   0.0020   0.0202   0.0011   0.0022   0.0029  12.00  172.7
2025/04/04 14:01:43.000   28.402941728  -16.501034040   626.7149   1   7   0.0020   0.0020   0.0202   0.0011   0.0022   0.0029  13.00  171.1
2025/04/04 14:01:44.000   28.402941728  -16.501034040   626.7146   1   7   0.0020   0.0020   0.0202   0.0011   0.0022   0.0029  14.00  167.3
2025/04/04 14:01:45.000   28.402941728  -16.501034040   626.7143   1   7   0.0020   0.0020   0.0202   0.0011   0.0022   0.0029  15.00  165.3
2025/04/04 14:01:46.000   28.402941728  -16.501034040   626.7140   1   7   0.0020   0.0020   0.0202   0.0011   0.0022   0.0029 -14.00  162.4
2025/04/04 14:01:47.000   28.402941728  -16.501034040   626.7137   1   7   0.0020   0.0020   0.0202   0.0011   0.0022   0.0029 -13.00  159.2
2025/04/04 14:01:48.000   28.402941727  -16.501034040   626.7134   1   7   0.0020   0.0020   0.0202   0.0011   0.0022   0.0029 -12.00  156.0
2025/04/04 14:01:49.000   28.402941727  -16.501034040   626.7130   1   7   0.0020   0.0020   0.0202   0.0011   0.0022   0.0029 -11.00  153.4
2025/04/04 14:01:50.000   28.402941727  -16.501034040   626.7126   1   7   0.0020   0.0020   0.0202   0.0011   0.0022   0.0029 -10.00  151.2
2025/04/04 14:01:51.000   28.402941727  -16.501034040   626.7121   1   7   0.0020   0.0020   0.0202   0.0011   0.0022   0.0029  -9.00  149.1
2025/04/04 14:01:52.000   28.402941727  -16.501034040   626.7115   1   7   0.0020   0.0020   0.0202   0.0011   0.0022   0.0029  -8.00  146.7
2025/04/04 14:01:53.000   28.402941727  -16.501034040   626.7108   1   7   0.0020   0.0020   0.0203   0.0011   0.0022   0.0029  -7.00  144.2
2025/04/04 14:01:54.000   28.402941726  -16.501034040   626.7099   1   7   0.0020   0.0020   0.0203   0.0011   0.0023   0.0030  -6.00  140.9
2025/04/04 14:01:55.000   28.402941726  -16.501034039   626.7089   1   7   0.0020   0.0020   0.0203   0.0011   0.0023   0.0030  -5.00  141.3
2025/04/04 14:01:56.000   28.402941725  -16.501034039   626.7077   1   7   0.0020   0.0020   0.0203   0.0011   0.0023   0.0030  -4.00  141.9
2025/04/04 14:01:57.000   28.402941725  -16.501034039   626.7064   1   7   0.0021   0.0020   0.0204   0.0011   0.0023   0.0030  -3.00  128.9
2025/04/04 14:01:58.000   28.402941724  -16.501034039   626.7046   1   7   0.0021   0.0020   0.0204   0.0011   0.0023   0.0030  -2.00  102.4
2025/04/04 14:01:59.000   28.402941723  -16.501034039   626.7025   1   7   0.0021   0.0020   0.0205   0.0011   0.0023   0.0030  -1.00   56.4
2025/04/04 14:02:00.000   28.402941731  -16.501034035   626.7107   1   7   0.0020   0.0020   0.0201   0.0011   0.0022   0.0028   0.00  169.6
2025/04/04 14:02:01.000   28.402941730  -16.501034035   626.7089   1   7   0.0020   0.0020   0.0201   0.0011   0.0022   0.0028   1.00  172.2
2025/04/04 14:02:02.000   28.402941729  -16.501034034   626.7070   1   7   0.0020   0.0020   0.0202   0.0011   0.0022   0.0028   2.00  173.7
2025/04/04 14:02:03.000   28.402941728  -16.501034034   626.7053   1   7   0.0020   0.0020   0.0202   0.0011   0.0022   0.0028   3.00  176.9
2025/04/04 14:02:04.000   28.402941728  -16.501034033   626.7037   1   7   0.0020   0.0020   0.0203   0.0011   0.0022   0.0028   4.00  181.1
2025/04/04 14:02:05.000   28.402941727  -16.501034033   626.7025   1   7   0.0020   0.0020   0.0203   0.0011   0.0022   0.0028   5.00  181.4
2025/04/04 14:02:06.000   28.402941727  -16.501034033   626.7014   1   7   0.0020   0.0020   0.0203   0.0011   0.0023   0.0028   6.00  182.0
2025/04/04 14:02:07.000   28.402941727  -16.501034033   626.7006   1   7   0.0020   0.0020   0.0204   0.0011   0.0023   0.0029   7.00  181.3
2025/04/04 14:02:08.000   28.402941726  -16.501034033   626.6999   1   7   0.0020   0.0020   0.0204   0.0011   0.0023   0.0029   8.00  180.7
2025/04/04 14:02:09.000   28.402941726  -16.501034033   626.6992   1   7   0.0020   0.0020   0.0204   0.0011   0.0023   0.0029   9.00  181.3
2025/04/04 14:02:10.000   28.402941726  -16.501034033   626.6986   1   7   0.0020   0.0020   0.0204   0.0011   0.0023   0.0029  10.00  181.5
2025/04/04 14:02:11.000   28.402941726  -16.501034033   626.6981   1   7   0.0020   0.0020   0.0204   0.0011   0.0023   0.0029  11.00  181.4
2025/04/04 14:02:12.000   28.402941725  -16.501034033   626.6976   1   7   0.0020   0.0020   0.0204   0.0011   0.0023   0.0029  12.00  180.7
2025/04/04 14:02:13.000   28.402941725  -16.501034033   626.6973   1   7   0.0020   0.0020   0.0204   0.0011   0.0023   0.0029  13.00  179.3
2025/04/04 14:02:14.000   28.402941725  -16.501034032   626.6969   1   7   0.0020   0.0020   0.0204   0.0011   0.0023   0.0029  14.00  178.8
2025/04/04 14:02:15.000   28.402941725  -16.501034032   626.6966   1   7   0.0020   0.0020   0.0204   0.0011   0.0023   0.0029  15.00  177.3
2025/04/04 14:02:16.000   28.402941725  -16.501034032   626.6963   1   7   0.0020   0.0020   0.0204   0.0011   0.0023   0.0029 -14.00  175.9
2025/04/04 14:02:17.000   28.402941725  -16.501034032   626.6960   1   7   0.0020   0.0020   0.0205   0.0011   0.0023   0.0029 -13.00  173.8
2025/04/04 14:02:18.000   28.402941725  -16.501034032   626.6956   1   7   0.0020   0.0020   0.0205   0.0011   0.0023   0.0029 -12.00  171.7
2025/04/04 14:02:19.000   28.402941724  -16.501034032   626.6953   1   7   0.0020   0.0020   0.0205   0.0011   0.0023   0.0029 -11.00  170.3
2025/04/04 14:02:20.000   28.402941724  -16.501034032   626.6948   1   7   0.0020   0.0020   0.0205   0.0011   0.0023   0.0029 -10.00  169.2
2025/04/04 14:02:21.000   28.402941724  -16.501034032   626.6943   1   7   0.0020   0.0020   0.0205   0.0011   0.0023   0.0030  -9.00  166.6
2025/04/04 14:02:22.000   28.402941724  -16.501034032   626.6938   1   7   0.0020   0.0020   0.0205   0.0011   0.0023   0.0030  -8.00  164.1
2025/04/04 14:02:23.000   28.402941724  -16.501034032   626.6931   1   7   0.0020   0.0020   0.0205   0.0011   0.0024   0.0030  -7.00  161.6
2025/04/04 14:02:24.000   28.402941724  -16.501034031   626.6923   1   7   0.0020   0.0020   0.0205   0.0011   0.0024   0.0030  -6.00  159.4
2025/04/04 14:02:25.000   28.402941723  -16.501034031   626.6913   1   7   0.0020   0.0020   0.0206   0.0011   0.0024   0.0030  -5.00  161.0
2025/04/04 14:02:26.000   28.402941723  -16.501034031   626.6901   1   7   0.0021   0.0020   0.0206   0.0011   0.0024   0.0030  -4.00  159.3
2025/04/04 14:02:27.000   28.402941722  -16.501034030   626.6885   1   7   0.0021   0.0020   0.0206   0.0011   0.0024   0.0030  -3.00  150.7
2025/04/04 14:02:28.000   28.402941722  -16.501034030   626.6868   1   7   0.0021   0.0020   0.0207   0.0011   0.0024   0.0030  -2.00  120.5
2025/04/04 14:02:29.000   28.402941721  -16.501034030   626.6849   1   7   0.0021   0.0020   0.0208   0.0011   0.0024   0.0031  -1.00   66.7
2025/04/04 14:02:30.000   28.402941728  -16.501034028   626.6906   1   7   0.0020   0.0020   0.0203   0.0011   0.0023   0.0028   0.00  182.8
2025/04/04 14:02:31.000   28.402941727  -16.501034027   626.6888   1   7   0.0020   0.0020   0.0203   0.0011   0.0023   0.0028   1.00  185.3
2025/04/04 14:02:32.000   28.402941727  -16.501034027   626.6871   1   7   0.0020   0.0020   0.0204   0.0011   0.0023   0.0028   2.00  183.3
2025/04/04 14:02:33.000   28.402941726  -16.501034026   626.6855   1   7   0.0020   0.0020   0.0205   0.0011   0.0023   0.0028   3.00  187.3
2025/04/04 14:02:34.000   28.402941726  -16.501034026   626.6841   1   7   0.0020   0.0020   0.0205   0.0011   0.0023   0.0028   4.00  186.2
2025/04/04 14:02:35.000   28.402941725  -16.501034026   626.6830   1   7   0.0020   0.0020   0.0206   0.0011   0.0023   0.0029   5.00  185.1
2025/04/04 14:02:36.000   28.402941725  -16.501034025   626.6821   1   7   0.0020   0.0020   0.0206   0.0011   0.0024   0.0029   6.00  184.8
2025/04/04 14:02:37.000   28.402941724  -16.501034025   626.6815   1   7   0.0020   0.0020   0.0206   0.0011   0.0024   0.0029   7.00  181.5
2025/04/04 14:02:38.000   28.402941724  -16.501034025   626.6809   1   7   0.0020   0.0020   0.0206   0.0011   0.0024   0.0029   8.00  179.0
2025/04/04 14:02:39.000   28.402941724  -16.501034025   626.6804   1   7   0.0020   0.0020   0.0207   0.0011   0.0024   0.0029   9.00  177.8
2025/04/04 14:02:40.000   28.402941724  -16.501034025   626.6799   1   7   0.0020   0.0020   0.0207   0.0011   0.0024   0.0029  10.00  174.5
2025/04/04 14:02:41.000   28.402941723  -16.501034025   626.6796   1   7   0.0020   0.0020   0.0207   0.0011   0.0024   0.0029  11.00  172.6
2025/04/04 14:02:42.000   28.402941723  -16.501034024   626.6793   1   7   0.0020   0.0020   0.0207   0.0011   0.0024   0.0029  12.00  169.4
2025/04/04 14:02:43.000   28.402941723  -16.501034024   626.6791   1   7   0.0020   0.0020   0.0207   0.0011   0.0024   0.0029  13.00  165.4
2025/04/04 14:02:44.000   28.402941723  -16.501034024   626.6789   1   7   0.0020   0.0020   0.0207   0.0011   0.0024   0.0029  14.00  162.3
2025/04/04 14:02:45.000   28.402941723  -16.501034024   626.6787   1   7   0.0020   0.0020   0.0207   0.0011   0.0024   0.0029  15.00  159.3
2025/04/04 14:02:46.000   28.402941723  -16.501034024   626.6786   1   7   0.0020   0.0020   0.0207   0.0011   0.0024   0.0030 -14.00  156.1
2025/04/04 14:02:47.000   28.402941722  -16.501034024   626.6784   1   7   0.0020   0.0020   0.0207   0.0011   0.0024   0.0030 -13.00  153.3
2025/04/04 14:02:48.000   28.402941722  -16.501034024   626.6782   1   7   0.0020   0.0020   0.0207   0.0011   0.0024   0.0030 -12.00  151.1
2025/04/04 14:02:49.000   28.402941722  -16.501034024   626.6780   1   7   0.0020   0.0020   0.0207   0.0011   0.0024   0.0030 -11.00  148.4
2025/04/04 14:02:50.000   28.402941722  -16.501034024   626.6778   1   7   0.0020   0.0020   0.0207   0.0011   0.0024   0.0030 -10.00  145.1
2025/04/04 14:02:51.000   28.402941722  -16.501034023   626.6776   1   7   0.0020   0.0020   0.0207   0.0011   0.0024   0.0030  -9.00  142.4
2025/04/04 14:02:52.000   28.402941721  -16.501034023   626.6773   1   7   0.0020   0.0020   0.0207   0.0011   0.0025   0.0030  -8.00  139.6
2025/04/04 14:02:53.000   28.402941721  -16.501034023   626.6770   1   7   0.0020   0.0020   0.0208   0.0011   0.0025   0.0030  -7.00  134.9
2025/04/04 14:02:54.000   28.402941721  -16.501034023   626.6765   1   7   0.0020   0.0020   0.0208   0.0011   0.0025   0.0030  -6.00  130.8
2025/04/04 14:02:55.000   28.402941721  -16.501034023   626.6760   1   7   0.0021   0.0020   0.0208   0.0011   0.0025   0.0030  -5.00  126.9
2025/04/04 14:02:56.000   28.402941720  -16.501034022   626.6753   1   7   0.0021   0.0020   0.0209   0.0011   0.0025   0.0030  -4.00  124.6
2025/04/04 14:02:57.000   28.402941720  -16.501034022   626.6746   1   7   0.0021   0.0020   0.0209   0.0012   0.0025   0.0031  -3.00  105.5
2025/04/04 14:02:58.000   28.402941719  -16.501034022   626.6736   1   7   0.0021   0.0020   0.0210   0.0012   0.0025   0.0031  -2.00   83.8
2025/04/04 14:02:59.000   28.402941718  -16.501034021   626.6725   1   7   0.0021   0.0020   0.0210   0.0012   0.0026   0.0031  -1.00   50.6
2025/04/04 14:03:00.000   28.402941727  -16.501034018   626.6822   1   7   0.0020   0.0020   0.0205   0.0011   0.0024   0.0028   0.00  125.9
2025/04/04 14:03:01.000   28.402941727  -16.501034018   626.6810   1   7   0.0020   0.0020   0.0206   0.0011   0.0024   0.0028   1.00  127.1
2025/04/04 14:03:02.000   28.402941726  -16.501034017   626.6800   1   7   0.0020   0.0020   0.0207   0.0011   0.0024   0.0028   2.00  127.5
2025/04/04 14:03:03.000   28.402941726  -16.501034017   626.6790   1   7   0.0020   0.0020   0.0207   0.0011   0.0024   0.0029   3.00  127.9
2025/04/04 14:03:04.000   28.402941726  -16.501034017   626.6781   1   7   0.0020   0.0020   0.0208   0.0011   0.0024   0.0029   4.00  128.9
2025/04/04 14:03:05.000   28.402941725  -16.501034017   626.6773   1   7   0.0020   0.0020   0.0208   0.0011   0.0025   0.0029   5.00  130.3
2025/04/04 14:03:06.000   28.402941725  -16.501034016   626.6764   1   7   0.0020   0.0020   0.0208   0.0011   0.0025   0.0029   6.00  132.4
2025/04/04 14:03:07.000   28.402941725  -16.501034016   626.6757   1   7   0.0020   0.0020   0.0209   0.0011   0.0025   0.0029   7.00  132.7
2025/04/04 14:03:08.000   28.402941724  -16.501034016   626.6751   1   7   0.0020   0.0020   0.0209   0.0011   0.0025   0.0029   8.00  133.0
2025/04/04 14:03:09.000   28.402941724  -16.501034016   626.6745   1   7   0.0021   0.0020   0.0209   0.0011   0.0025   0.0029   9.00  133.3
2025/04/04 14:03:10.000   28.402941724  -16.501034016   626.6741   1   7   0.0021   0.0020   0.0209   0.0011   0.0025   0.0029  10.00  132.2
2025/04/04 14:03:11.000   28.402941724  -16.501034016   626.6738   1   7   0.0021   0.0020   0.0209   0.0011   0.0025   0.0030  11.00  131.7
2025/04/04 14:03:12.000   28.402941724  -16.501034016   626.6734   1   7   0.0021   0.0020   0.0209   0.0011   0.0025   0.0030  12.00  131.3
2025/04/04 14:03:13.000   28.402941724  -16.501034016   626.6730   1   7   0.0021   0.0020   0.0209   0.0011   0.0025   0.0030  13.00  130.3
2025/04/04 14:03:14.000   28.402941724  -16.501034016   626.6728   1   7   0.0021   0.0020   0.0210   0.0011   0.0025   0.0030  14.00  129.2
2025/04/04 14:03:15.000   28.402941723  -16.501034015   626.6725   1   7   0.0021   0.0020   0.0210   0.0011   0.0025   0.0030  15.00  127.6
2025/04/04 14:03:16.000   28.402941723  -16.501034015   626.6722   1   7   0.0020   0.0020   0.0210   0.0011   0.0025   0.0030 -14.00  126.3
2025/04/04 14:03:17.000   28.402941723  -16.501034015   626.6720   1   7   0.0020   0.0020   0.0210   0.0011   0.0025   0.0030 -13.00  124.5
2025/04/04 14:03:18.000   28.402941723  -16.501034015   626.6717   1   7   0.0020   0.0020   0.0210   0.0011   0.0025   0.0030 -12.00  122.6
2025/04/04 14:03:19.000   28.402941723  -16.501034015   626.6713   1   7   0.0020   0.0020   0.0210   0.0011   0.0025   0.0030 -11.00  121.4
2025/04/04 14:03:20.000   28.402941723  -16.501034015   626.6710   1   7   0.0020   0.0020   0.0210   0.0011   0.0026   0.0030 -10.00  120.6
2025/04/04 14:03:21.000   28.402941722  -16.501034015   626.6705   1   7   0.0020   0.0020   0.0210   0.0011   0.0026   0.0030  -9.00  120.4
2025/04/04 14:03:22.000   28.402941722  -16.501034015   626.6699   1   7   0.0020   0.0020   0.0210   0.0012   0.0026   0.0030  -8.00  119.9
2025/04/04 14:03:23.000   28.402941722  -16.501034015   626.6693   1   7   0.0021   0.0020   0.0210   0.0012   0.0026   0.0030  -7.00  119.2
2025/04/04 14:03:24.000   28.402941722  -16.501034015   626.6684   1   7   0.0021   0.0020   0.0211   0.0012   0.0026   0.0030  -6.00  119.5
2025/04/04 14:03:25.000   28.402941721  -16.501034014   626.6675   1   7   0.0021   0.0020   0.0211   0.0012   0.0026   0.0031  -5.00  119.3
2025/04/04 14:03:26.000   28.402941721  -16.501034014   626.6665   1   7   0.0021   0.0020   0.0211   0.0012   0.0026   0.0031  -4.00  116.4
2025/04/04 14:03:27.000   28.402941720  -16.501034014   626.6652   1   7   0.0021   0.0020   0.0212   0.0012   0.0026   0.0031  -3.00  103.4
2025/04/04 14:03:28.000   28.402941719  -16.501034014   626.6637   1   7   0.0021   0.0020   0.0212   0.0012   0.0027   0.0031  -2.00   79.1
2025/04/04 14:03:29.000   28.402941719  -16.501034013   626.6620   1   7   0.0021   0.0020   0.0213   0.0012   0.0027   0.0031  -1.00   47.2
2025/04/04 14:03:30.000   28.402941728  -16.501034010   626.6725   1   7   0.0020   0.0020   0.0208   0.0011   0.0025   0.0028   0.00  105.8
2025/04/04 14:03:31.000   28.402941727  -16.501034009   626.6712   1   7   0.0020   0.0020   0.0208   0.0011   0.0025   0.0028   1.00  105.3
2025/04/04 14:03:32.000   28.402941727  -16.501034008   626.6697   1   7   0.0020   0.0020   0.0209   0.0011   0.0025   0.0029   2.00  106.4
2025/04/04 14:03:33.000   28.402941726  -16.501034008   626.6681   1   7   0.0020   0.0020   0.0210   0.0011   0.0025   0.0029   3.00  107.7
2025/04/04 14:03:34.000   28.402941726  -16.501034007   626.6666   1   7   0.0020   0.0020   0.0210   0.0011   0.0025   0.0029   4.00  109.2
2025/04/04 14:03:35.000   28.402941725  -16.501034007   626.6655   1   7   0.0020   0.0020   0.0211   0.0011   0.0026   0.0029   5.00  109.1
2025/04/04 14:03:36.000   28.402941725  -16.501034007   626.6645   1   7   0.0020   0.0020   0.0211   0.0011   0.0026   0.0029   6.00  108.6
2025/04/04 14:03:37.000   28.402941725  -16.501034007   626.6636   1   7   0.0021   0.0020   0.0211   0.0011   0.0026   0.0029   7.00  109.6
2025/04/04 14:03:38.000   28.402941724  -16.501034006   626.6628   1   7   0.0021   0.0020   0.0212   0.0011   0.0026   0.0030   8.00  110.2
2025/04/04 14:03:39.000   28.402941724  -16.501034006   626.6621   1   7   0.0021   0.0020   0.0212   0.0012   0.0026   0.0030   9.00  110.7
2025/04/04 14:03:40.000   28.402941724  -16.501034006   626.6614   1   7   0.0021   0.0020   0.0212   0.0012   0.0026   0.0030  10.00  110.7
2025/04/04 14:03:41.000   28.402941724  -16.501034006   626.6609   1   7   0.0021   0.0020   0.0212   0.0012   0.0026   0.0030  11.00  111.2
2025/04/04 14:03:42.000   28.402941723  -16.501034006   626.6604   1   7   0.0021   0.0020   0.0212   0.0012   0.0026   0.0030  12.00  110.8
2025/04/04 14:03:43.000   28.402941723  -16.501034006   626.6600   1   7   0.0021   0.0020   0.0212   0.0012   0.0026   0.0030  13.00  110.3
2025/04/04 14:03:44.000   28.402941723  -16.501034006   626.6596   1   7   0.0021   0.0020   0.0212   0.0012   0.0026   0.0030  14.00  109.4
2025/04/04 14:03:45.000   28.402941723  -16.501034006   626.6593   1   7   0.0021   0.0020   0.0212   0.0012   0.0026   0.0030  15.00  107.8
2025/04/04 14:03:46.000   28.402941723  -16.501034006   626.6591   1   7   0.0021   0.0020   0.0212   0.0012   0.0026   0.0030 -14.00  106.5
2025/04/04 14:03:47.000   28.402941723  -16.501034006   626.6587   1   7   0.0021   0.0020   0.0212   0.0012   0.0026   0.0030 -13.00  105.2
2025/04/04 14:03:48.000   28.402941723  -16.501034006   626.6584   1   7   0.0021   0.0020   0.0212   0.0012   0.0027   0.0030 -12.00  104.5
2025/04/04 14:03:49.000   28.402941723  -16.501034006   626.6580   1   7   0.0021   0.0020   0.0212   0.0012   0.0027   0.0030 -11.00  103.1
2025/04/04 14:03:50.000   28.402941722  -16.501034005   626.6576   1   7   0.0021   0.0020   0.0213   0.0012   0.0027   0.0030 -10.00  102.4
2025/04/04 14:03:51.000   28.402941722  -16.501034005   626.6571   1   7   0.0021   0.0020   0.0213   0.0012   0.0027   0.0031  -9.00  101.8
2025/04/04 14:03:52.000   28.402941722  -16.501034005   626.6566   1   7   0.0021   0.0020   0.0213   0.0012   0.0027   0.0031  -8.00  101.4
2025/04/04 14:03:53.000   28.402941722  -16.501034005   626.6560   1   7   0.0021   0.0020   0.0213   0.0012   0.0027   0.0031  -7.00  101.8
2025/04/04 14:03:54.000   28.402941722  -16.501034005   626.6553   1   7   0.0021   0.0020   0.0213   0.0012   0.0027   0.0031  -6.00  100.8
2025/04/04 14:03:55.000   28.402941721  -16.501034005   626.6545   1   7   0.0021   0.0020   0.0214   0.0012   0.0027   0.0031  -5.00  100.5
2025/04/04 14:03:56.000   28.402941721  -16.501034004   626.6536   1   7   0.0021   0.0020   0.0214   0.0012   0.0027   0.0031  -4.00   98.8
2025/04/04 14:03:57.000   28.402941721  -16.501034004   626.6524   1   7   0.0021   0.0021   0.0214   0.0012   0.0027   0.0031  -3.00   87.9
2025/04/04 14:03:58.000   28.402941720  -16.501034004   626.6512   1   7   0.0021   0.0021   0.0215   0.0012   0.0028   0.0032  -2.00   66.2
2025/04/04 14:03:59.000   28.402941720  -16.501034003   626.6497   1   7   0.0021   0.0021   0.0216   0.0012   0.0028   0.0032  -1.00   39.5
2025/04/04 14:04:00.000   28.402941727  -16.501034001   626.6579   1   7   0.0020   0.0020   0.0210   0.0011   0.0026   0.0029   0.00  121.8
2025/04/04 14:04:01.000   28.402941727  -16.501034001   626.6564   1   7   0.0020   0.0020   0.0211   0.0011   0.0026   0.0029   1.00  125.5
2025/04/04 14:04:02.000   28.402941726  -16.501034000   626.6551   1   7   0.0020   0.0020   0.0212   0.0011   0.0026   0.0029   2.00  129.7
2025/04/04 14:04:03.000   28.402941726  -16.501034000   626.6540   1   7   0.0020   0.0020   0.0212   0.0011   0.0026   0.0029   3.00  130.3
2025/04/04 14:04:04.000   28.402941726  -16.501034000   626.6529   1   7   0.0020   0.0021   0.0213   0.0011   0.0026   0.0029   4.00  133.6
2025/04/04 14:04:05.000   28.402941725  -16.501033999   626.6521   1   7   0.0021   0.0021   0.0213   0.0012   0.0027   0.0030   5.00  136.7
2025/04/04 14:04:06.000   28.402941725  -16.501033999   626.6515   1   7   0.0021   0.0021   0.0214   0.0012   0.0027   0.0030   6.00  137.4
2025/04/04 14:04:07.000   28.402941725  -16.501033999   626.6508   1   7   0.0021   0.0021   0.0214   0.0012   0.0027   0.0030   7.00  138.8
2025/04/04 14:04:08.000   28.402941725  -16.501033998   626.6501   1   7   0.0021   0.0021   0.0214   0.0012   0.0027   0.0030   8.00  139.8
2025/04/04 14:04:09.000   28.402941724  -16.501033998   626.6495   1   7   0.0021   0.0021   0.0214   0.0012   0.0027   0.0030   9.00  141.4
2025/04/04 14:04:10.000   28.402941724  -16.501033998   626.6489   1   7   0.0021   0.0021   0.0215   0.0012   0.0027   0.0030  10.00  142.4
2025/04/04 14:04:11.000   28.402941724  -16.501033998   626.6485   1   7   0.0021   0.0021   0.0215   0.0012   0.0027   0.0030  11.00  143.2
2025/04/04 14:04:12.000   28.402941724  -16.501033998   626.6481   1   7   0.0021   0.0021   0.0215   0.0012   0.0027   0.0030  12.00  144.1
2025/04/04 14:04:13.000   28.402941724  -16.501033998   626.6478   1   7   0.0021   0.0021   0.0215   0.0012   0.0027   0.0030  13.00  143.5
2025/04/04 14:04:14.000   28.402941724  -16.501033998   626.6475   1   7   0.0021   0.0021   0.0215   0.0012   0.0027   0.0030  14.00  142.5
2025/04/04 14:04:15.000   28.402941724  -16.501033998   626.6472   1   7   0.0021   0.0021   0.0215   0.0012   0.0028   0.0030  15.00  141.8
2025/04/04 14:04:16.000   28.402941724  -16.501033998   626.6470   1   7   0.0021   0.0021   0.0215   0.0012   0.0028   0.0031 -14.00  140.3
2025/04/04 14:04:17.000   28.402941723  -16.501033998   626.6467   1   7   0.0021   0.0021   0.0215   0.0012   0.0028   0.0031 -13.00  139.6
2025/04/04 14:04:18.000   28.402941723  -16.501033998   626.6464   1   7   0.0021   0.0021   0.0215   0.0012   0.0028   0.0031 -12.00  138.5
2025/04/04 14:04:19.000   28.402941723  -16.501033998   626.6461   1   7   0.0021   0.0021   0.0215   0.0012   0.0028   0.0031 -11.00  136.7
2025/04/04 14:04:20.000   28.402941723  -16.501033998   626.6458   1   7   0.0021   0.0021   0.0215   0.0012   0.0028   0.0031 -10.00  135.0
2025/04/04 14:04:21.000   28.402941723  -16.501033998   626.6455   1   7   0.0021   0.0021   0.0215   0.0012   0.0028   0.0031  -9.00  134.5
2025/04/04 14:04:22.000   28.402941723  -16.501033998   626.6451   1   7   0.0021   0.0021   0.0216   0.0012   0.0028   0.0031  -8.00  133.2
2025/04/04 14:04:23.000   28.402941723  -16.501033998   626.6447   1   7   0.0021   0.0021   0.0216   0.0012   0.0028   0.0031  -7.00  132.3
2025/04/04 14:04:24.000   28.402941723  -16.501033998   626.6444   1   7   0.0021   0.0021   0.0216   0.0012   0.0028   0.0031  -6.00  129.8
2025/04/04 14:04:25.000   28.402941723  -16.501033998   626.6441   1   7   0.0021   0.0021   0.0216   0.0012   0.0028   0.0031  -5.00  127.6
2025/04/04 14:04:26.000   28.402941722  -16.501033998   626.6435   1   7   0.0021   0.0021   0.0217   0.0012   0.0028   0.0032  -4.00  125.6
2025/04/04 14:04:27.000   28.402941722  -16.501033998   626.6428   1   7   0.0021   0.0021   0.0217   0.0012   0.0029   0.0032  -3.00  112.9
2025/04/04 14:04:28.000   28.402941722  -16.501033999   626.6419   1   7   0.0021   0.0021   0.0218   0.0012   0.0029   0.0032  -2.00   88.0
2025/04/04 14:04:29.000   28.402941721  -16.501033999   626.6410   1   7   0.0021   0.0021   0.0219   0.0012   0.0029   0.0032  -1.00   52.9
2025/04/04 14:04:30.000   28.402941725  -16.501033997   626.6450   1   7   0.0020   0.0020   0.0213   0.0011   0.0027   0.0029   0.00  267.8
2025/04/04 14:04:31.000   28.402941725  -16.501033997   626.6443   1   7   0.0020   0.0021   0.0214   0.0011   0.0027   0.0029   1.00  268.6
2025/04/04 14:04:32.000   28.402941724  -16.501033997   626.6436   1   7   0.0020   0.0021   0.0214   0.0012   0.0027   0.0029   2.00  269.4
2025/04/04 14:04:33.000   28.402941724  -16.501033997   626.6433   1   7   0.0020   0.0021   0.0215   0.0012   0.0027   0.0030   3.00  266.2
2025/04/04 14:04:34.000   28.402941724  -16.501033997   626.6430   1   7   0.0021   0.0021   0.0215   0.0012   0.0028   0.0030   4.00  261.7
2025/04/04 14:04:35.000   28.402941724  -16.501033997   626.6427   1   7   0.0021   0.0021   0.0216   0.0012   0.0028   0.0030   5.00  257.7
2025/04/04 14:04:36.000   28.402941724  -16.501033997   626.6425   1   7   0.0021   0.0021   0.0216   0.0012   0.0028   0.0030   6.00  252.6
2025/04/04 14:04:37.000   28.402941724  -16.501033997   626.6423   1   7   0.0021   0.0021   0.0217   0.0012   0.0028   0.0030   7.00  247.0
2025/04/04 14:04:38.000   28.402941723  -16.501033997   626.6422   1   7   0.0021   0.0021   0.0217   0.0012   0.0028   0.0030   8.00  241.3
2025/04/04 14:04:39.000   28.402941723  -16.501033997   626.6420   1   7   0.0021   0.0021   0.0217   0.0012   0.0028   0.0030   9.00  236.6
2025/04/04 14:04:40.000   28.402941723  -16.501033997   626.6419   1   7   0.0021   0.0021   0.0217   0.0012   0.0028   0.0031  10.00  231.8
2025/04/04 14:04:41.000   28.402941723  -16.501033997   626.6418   1   7   0.0021   0.0021   0.0217   0.0012   0.0028   0.0031  11.00  227.2
2025/04/04 14:04:42.000   28.402941723  -16.501033997   626.6416   1   7   0.0021   0.0021   0.0218   0.0012   0.0028   0.0031  12.00  222.8
2025/04/04 14:04:43.000   28.402941723  -16.501033997   626.6416   1   7   0.0021   0.0021   0.0218   0.0012   0.0029   0.0031  13.00  217.6
2025/04/04 14:04:44.000   28.402941723  -16.501033997   626.6416   1   7   0.0021   0.0021   0.0218   0.0012   0.0029   0.0031  14.00  212.7
2025/04/04 14:04:45.000   28.402941723  -16.501033997   626.6415   1   7   0.0021   0.0021   0.0218   0.0012   0.0029   0.0031  15.00  208.0
2025/04/04 14:04:46.000   28.402941723  -16.501033997   626.6415   1   7   0.0021   0.0021   0.0218   0.0012   0.0029   0.0031 -14.00  203.7
2025/04/04 14:04:47.000   28.402941723  -16.501033997   626.6414   1   7   0.0021   0.0021   0.0218   0.0012   0.0029   0.0031 -13.00  199.6
2025/04/04 14:04:48.000   28.402941723  -16.501033997   626.6413   1   7   0.0021   0.0021   0.0218   0.0012   0.0029   0.0031 -12.00  195.2
2025/04/04 14:04:49.000   28.402941722  -16.501033997   626.6412   1   7   0.0021   0.0021   0.0218   0.0012   0.0029   0.0031 -11.00  190.9
2025/04/04 14:04:50.000   28.402941722  -16.501033997   626.6411   1   7   0.0021   0.0021   0.0218   0.0012   0.0029   0.0031 -10.00  186.7
2025/04/04 14:04:51.000   28.402941722  -16.501033997   626.6409   1   7   0.0021   0.0021   0.0218   0.0012   0.0029   0.0031  -9.00  182.5
2025/04/04 14:04:52.000   28.402941722  -16.501033997   626.6407   1   7   0.0021   0.0021   0.0218   0.0012   0.0029   0.0031  -8.00  177.7
2025/04/04 14:04:53.000   28.402941722  -16.501033997   626.6405   1   7   0.0021   0.0021   0.0219   0.0012   0.0029   0.0032  -7.00  173.6
2025/04/04 14:04:54.000   28.402941722  -16.501033997   626.6403   1   7   0.0021   0.0021   0.0219   0.0012   0.0029   0.0032  -6.00  168.8
2025/04/04 14:04:55.000   28.402941722  -16.501033997   626.6402   1   7   0.0021   0.0021   0.0219   0.0012   0.0029   0.0032  -5.00  162.0
2025/04/04 14:04:56.000   28.402941722  -16.501033998   626.6401   1   7   0.0021   0.0021   0.0220   0.0012   0.0030   0.0032  -4.00  152.9
2025/04/04 14:04:57.000   28.402941722  -16.501033998   626.6399   1   7   0.0021   0.0021   0.0220   0.0012   0.0030   0.0032  -3.00  135.0
2025/04/04 14:04:58.000   28.402941722  -16.501033998   626.6396   1   7   0.0021   0.0021   0.0221   0.0012   0.0030   0.0032  -2.00  102.3
2025/04/04 14:04:59.000   28.402941721  -16.501033999   626.6390   1   7   0.0021   0.0021   0.0222   0.0012   0.0030   0.0033  -1.00   55.2
2025/04/04 14:05:00.000   28.402941725  -16.501033994   626.6454   1   7   0.0020   0.0021   0.0215   0.0012   0.0028   0.0029   0.00  235.3
2025/04/04 14:05:01.000   28.402941725  -16.501033995   626.6449   1   7   0.0020   0.0021   0.0216   0.0012   0.0028   0.0029   1.00  235.4
2025/04/04 14:05:02.000   28.402941725  -16.501033995   626.6444   1   7   0.0020   0.0021   0.0217   0.0012   0.0028   0.0030   2.00  237.2
2025/04/04 14:05:03.000   28.402941725  -16.501033996   626.6440   1   7   0.0021   0.0021   0.0218   0.0012   0.0028   0.0030   3.00  237.2
2025/04/04 14:05:04.000   28.402941725  -16.501033996   626.6436   1   7   0.0021   0.0021   0.0218   0.0012   0.0029   0.0030   4.00  236.4
2025/04/04 14:05:05.000   28.402941725  -16.501033997   626.6431   1   7   0.0021   0.0021   0.0219   0.0012   0.0029   0.0030   5.00  236.7
2025/04/04 14:05:06.000   28.402941725  -16.501033997   626.6427   1   7   0.0021   0.0021   0.0219   0.0012   0.0029   0.0031   6.00  235.8
2025/04/04 14:05:07.000   28.402941724  -16.501033997   626.6423   1   7   0.0021   0.0021   0.0220   0.0012   0.0029   0.0031   7.00  235.2
2025/04/04 14:05:08.000   28.402941724  -16.501033997   626.6419   1   7   0.0021   0.0021   0.0220   0.0012   0.0029   0.0031   8.00  234.1
2025/04/04 14:05:09.000   28.402941724  -16.501033998   626.6418   1   7   0.0021   0.0021   0.0220   0.0012   0.0029   0.0031   9.00  231.3
2025/04/04 14:05:10.000   28.402941724  -16.501033998   626.6416   1   7   0.0021   0.0021   0.0220   0.0012   0.0030   0.0031  10.00  227.8
2025/04/04 14:05:11.000   28.402941724  -16.501033998   626.6414   1   7   0.0021   0.0021   0.0220   0.0012   0.0030   0.0031  11.00  223.9
2025/04/04 14:05:12.000   28.402941724  -16.501033998   626.6413   1   7   0.0021   0.0021   0.0220   0.0012   0.0030   0.0031  12.00  220.2
2025/04/04 14:05:13.000   28.402941723  -16.501033998   626.6412   1   7   0.0021   0.0021   0.0221   0.0012   0.0030   0.0031  13.00  216.2
2025/04/04 14:05:14.000   28.402941723  -16.501033998   626.6410   1   7   0.0021   0.0021   0.0221   0.0012   0.0030   0.0031  14.00  212.6
2025/04/04 14:05:15.000   28.402941723  -16.501033998   626.6409   1   7   0.0021   0.0021   0.0221   0.0012   0.0030   0.0031  15.00  208.9
2025/04/04 14:05:16.000   28.402941723  -16.501033998   626.6408   1   7   0.0021   0.0021   0.0221   0.0012   0.0030   0.0031 -14.00  205.3
2025/04/04 14:05:17.000   28.402941723  -16.501033999   626.6406   1   7   0.0021   0.0021   0.0221   0.0012   0.0030   0.0032 -13.00  201.1
2025/04/04 14:05:18.000   28.402941723  -16.501033999   626.6405   1   7   0.0021   0.0021   0.0221   0.0012   0.0030   0.0032 -12.00  197.1
2025/04/04 14:05:19.000   28.402941723  -16.501033999   626.6403   1   7   0.0021   0.0021   0.0221   0.0012   0.0030   0.0032 -11.00  194.1
2025/04/04 14:05:20.000   28.402941723  -16.501033999   626.6402   1   7   0.0021   0.0021   0.0221   0.0012   0.0030   0.0032 -10.00  189.8
2025/04/04 14:05:21.000   28.402941722  -16.501033999   626.6401   1   7   0.0021   0.0021   0.0221   0.0012   0.0030   0.0032  -9.00  185.4
2025/04/04 14:05:22.000   28.402941722  -16.501033999   626.6399   1   7   0.0021   0.0021   0.0221   0.0012   0.0030   0.0032  -8.00  179.8
2025/04/04 14:05:23.000   28.402941722  -16.501033999   626.6396   1   7   0.0021   0.0021   0.0222   0.0012   0.0030   0.0032  -7.00  175.9
2025/04/04 14:05:24.000   28.402941722  -16.501034000   626.6393   1   7   0.0021   0.0021   0.0222   0.0012   0.0030   0.0032  -6.00  172.2
2025/04/04 14:05:25.000   28.402941721  -16.501034000   626.6391   1   7   0.0021   0.0021   0.0222   0.0012   0.0031   0.0032  -5.00  166.7
2025/04/04 14:05:26.000   28.402941721  -16.501034000   626.6388   1   7   0.0021   0.0021   0.0223   0.0012   0.0031   0.0033  -4.00  158.4
2025/04/04 14:05:27.000   28.402941721  -16.501034001   626.6386   1   7   0.0021   0.0021   0.0223   0.0012   0.0031   0.0033  -3.00  141.4
2025/04/04 14:05:28.000   28.402941720  -16.501034001   626.6383   1   7   0.0021   0.0021   0.0224   0.0012   0.0031   0.0033  -2.00  103.6
2025/04/04 14:05:29.000   28.402941720  -16.501034002   626.6379   1   7   0.0021   0.0021   0.0225   0.0012   0.0032   0.0033  -1.00   63.2
2025/04/04 14:05:30.000   28.402941726  -16.501033998   626.6473   1   7   0.0020   0.0021   0.0218   0.0012   0.0029   0.0030   0.00  198.2
2025/04/04 14:05:31.000   28.402941725  -16.501033998   626.6472   1   7   0.0020   0.0021   0.0219   0.0012   0.0029   0.0030   1.00  195.7
2025/04/04 14:05:32.000   28.402941725  -16.501033999   626.6469   1   7   0.0021   0.0021   0.0220   0.0012   0.0029   0.0030   2.00  196.4
2025/04/04 14:05:33.000   28.402941724  -16.501034000   626.6466   1   7   0.0021   0.0021   0.0221   0.0012   0.0030   0.0030   3.00  195.0
2025/04/04 14:05:34.000   28.402941724  -16.501034000   626.6460   1   7   0.0021   0.0021   0.0221   0.0012   0.0030   0.0031   4.00  197.1
2025/04/04 14:05:35.000   28.402941723  -16.501034001   626.6454   1   7   0.0021   0.0021   0.0222   0.0012   0.0030   0.0031   5.00  197.8
2025/04/04 14:05:36.000   28.402941723  -16.501034001   626.6450   1   7   0.0021   0.0021   0.0222   0.0012   0.0030   0.0031   6.00  199.2
2025/04/04 14:05:37.000   28.402941723  -16.501034002   626.6447   1   7   0.0021   0.0021   0.0222   0.0012   0.0030   0.0031   7.00  197.7
2025/04/04 14:05:38.000   28.402941723  -16.501034002   626.6444   1   7   0.0021   0.0021   0.0223   0.0012   0.0030   0.0031   8.00  197.6
2025/04/04 14:05:39.000   28.402941723  -16.501034002   626.6441   1   7   0.0021   0.0021   0.0223   0.0012   0.0031   0.0031   9.00  196.5
2025/04/04 14:05:40.000   28.402941723  -16.501034002   626.6437   1   7   0.0021   0.0021   0.0223   0.0012   0.0031   0.0032  10.00  195.0
2025/04/04 14:05:41.000   28.402941723  -16.501034003   626.6434   1   7   0.0021   0.0021   0.0223   0.0012   0.0031   0.0032  11.00  194.4
2025/04/04 14:05:42.000   28.402941722  -16.501034003   626.6431   1   7   0.0021   0.0021   0.0223   0.0012   0.0031   0.0032  12.00  193.2
2025/04/04 14:05:43.000   28.402941722  -16.501034003   626.6429   1   7   0.0021   0.0021   0.0224   0.0012   0.0031   0.0032  13.00  191.6
2025/04/04 14:05:44.000   28.402941722  -16.501034003   626.6427   1   7   0.0021   0.0021   0.0224   0.0012   0.0031   0.0032  14.00  189.4
2025/04/04 14:05:45.000   28.402941722  -16.501034003   626.6424   1   7   0.0021   0.0021   0.0224   0.0012   0.0031   0.0032  15.00  188.1
2025/04/04 14:05:46.000   28.402941722  -16.501034003   626.6423   1   7   0.0021   0.0021   0.0224   0.0012   0.0031   0.0032 -14.00  185.7
2025/04/04 14:05:47.000   28.402941722  -16.501034003   626.6421   1   7   0.0021   0.0021   0.0224   0.0012   0.0031   0.0032 -13.00  183.0
2025/04/04 14:05:48.000   28.402941722  -16.501034004   626.6419   1   7   0.0021   0.0021   0.0224   0.0012   0.0031   0.0032 -12.00  180.6
2025/04/04 14:05:49.000   28.402941722  -16.501034004   626.6418   1   7   0.0021   0.0021   0.0224   0.0012   0.0031   0.0032 -11.00  178.8
2025/04/04 14:05:50.000   28.402941722  -16.501034004   626.6416   1   7   0.0021   0.0021   0.0224   0.0012   0.0031   0.0032 -10.00  177.1
2025/04/04 14:05:51.000   28.402941722  -16.501034004   626.6413   1   7   0.0021   0.0021   0.0224   0.0012   0.0031   0.0032  -9.00  176.5
2025/04/04 14:05:52.000   28.402941721  -16.501034004   626.6411   1   7   0.0021   0.0021   0.0224   0.0012   0.0031   0.0032  -8.00  176.8
2025/04/04 14:05:53.000   28.402941721  -16.501034004   626.6409   1   7   0.0021   0.0021   0.0225   0.0012   0.0032   0.0033  -7.00  176.9
2025/04/04 14:05:54.000   28.402941721  -16.501034004   626.6406   1   7   0.0021   0.0021   0.0225   0.0012   0.0032   0.0033  -6.00  176.2
2025/04/04 14:05:55.000   28.402941721  -16.501034004   626.6405   1   7   0.0021   0.0021   0.0225   0.0012   0.0032   0.0033  -5.00  175.3
2025/04/04 14:05:56.000   28.402941721  -16.501034004   626.6403   1   7   0.0021   0.0021   0.0226   0.0012   0.0032   0.0033  -4.00  172.8
2025/04/04 14:05:57.000   28.402941721  -16.501034005   626.6402   1   7   0.0021   0.0021   0.0227   0.0012   0.0032   0.0033  -3.00  152.9
2025/04/04 14:05:58.000   28.402941720  -16.501034005   626.6401   1   7   0.0021   0.0021   0.0227   0.0012   0.0033   0.0034  -2.00  112.8
2025/04/04 14:05:59.000   28.402941720  -16.501034005   626.6398   1   7   0.0021   0.0021   0.0228   0.0012   0.0033   0.0034  -1.00   72.5
2025/04/04 14:06:00.000   28.402941725  -16.501034001   626.6479   1   7   0.0020   0.0021   0.0221   0.0012   0.0030   0.0030   0.00  254.8
2025/04/04 14:06:01.000   28.402941725  -16.501034002   626.6480   1   7   0.0021   0.0021   0.0222   0.0012   0.0030   0.0030   1.00  260.9
2025/04/04 14:06:02.000   28.402941725  -16.501034002   626.6482   1   7   0.0021   0.0021   0.0223   0.0012   0.0030   0.0031   2.00  264.0
2025/04/04 14:06:03.000   28.402941724  -16.501034002   626.6484   1   7   0.0021   0.0021   0.0223   0.0012   0.0031   0.0031   3.00  266.6
2025/04/04 14:06:04.000   28.402941724  -16.501034002   626.6486   1   7   0.0021   0.0021   0.0224   0.0012   0.0031   0.0031   4.00  262.8
2025/04/04 14:06:05.000   28.402941724  -16.501034002   626.6488   1   7   0.0021   0.0021   0.0225   0.0012   0.0031   0.0031   5.00  257.3
2025/04/04 14:06:06.000   28.402941723  -16.501034002   626.6489   1   7   0.0021   0.0021   0.0225   0.0012   0.0031   0.0032   6.00  258.2
2025/04/04 14:06:07.000   28.402941723  -16.501034002   626.6491   1   7   0.0021   0.0021   0.0226   0.0012   0.0032   0.0032   7.00  255.2
2025/04/04 14:06:08.000   28.402941723  -16.501034002   626.6490   1   7   0.0021   0.0021   0.0226   0.0012   0.0032   0.0032   8.00  253.4
2025/04/04 14:06:09.000   28.402941722  -16.501034003   626.6489   1   7   0.0021   0.0021   0.0226   0.0012   0.0032   0.0032   9.00  252.0
2025/04/04 14:06:10.000   28.402941722  -16.501034003   626.6488   1   7   0.0021   0.0021   0.0226   0.0012   0.0032   0.0032  10.00  250.6
2025/04/04 14:06:11.000   28.402941722  -16.501034003   626.6488   1   7   0.0021   0.0021   0.0226   0.0012   0.0032   0.0032  11.00  247.8
2025/04/04 14:06:12.000   28.402941722  -16.501034003   626.6487   1   7   0.0021   0.0021   0.0227   0.0012   0.0032   0.0032  12.00  247.2
2025/04/04 14:06:13.000   28.402941722  -16.501034003   626.6486   1   7   0.0021   0.0021   0.0227   0.0012   0.0032   0.0032  13.00  244.5
2025/04/04 14:06:14.000   28.402941721  -16.501034003   626.6486   1   7   0.0021   0.0021   0.0227   0.0012   0.0032   0.0032  14.00  241.1
2025/04/04 14:06:15.000   28.402941721  -16.501034003   626.6486   1   7   0.0021   0.0021   0.0227   0.0012   0.0032   0.0032  15.00  236.6
2025/04/04 14:06:16.000   28.402941721  -16.501034003   626.6485   1   7   0.0021   0.0021   0.0227   0.0012   0.0032   0.0033 -14.00  234.6
2025/04/04 14:06:17.000   28.402941721  -16.501034003   626.6485   1   7   0.0021   0.0021   0.0227   0.0012   0.0032   0.0033 -13.00  231.4
2025/04/04 14:06:18.000   28.402941721  -16.501034003   626.6485   1   7   0.0021   0.0021   0.0227   0.0012   0.0032   0.0033 -12.00  226.6
2025/04/04 14:06:19.000   28.402941721  -16.501034003   626.6485   1   7   0.0021   0.0021   0.0227   0.0012   0.0032   0.0033 -11.00  221.4
2025/04/04 14:06:20.000   28.402941721  -16.501034003   626.6485   1   7   0.0021   0.0021   0.0227   0.0012   0.0032   0.0033 -10.00  217.5
2025/04/04 14:06:21.000   28.402941721  -16.501034003   626.6485   1   7   0.0021   0.0021   0.0227   0.0012   0.0033   0.0033  -9.00  210.7
2025/04/04 14:06:22.000   28.402941721  -16.501034003   626.6485   1   7   0.0021   0.0021   0.0228   0.0012   0.0033   0.0033  -8.00  204.1
2025/04/04 14:06:23.000   28.402941720  -16.501034003   626.6487   1   7   0.0021   0.0021   0.0228   0.0012   0.0033   0.0033  -7.00  193.6
2025/04/04 14:06:24.000   28.402941720  -16.501034003   626.6488   1   7   0.0021   0.0021   0.0228   0.0012   0.0033   0.0033  -6.00  187.8
2025/04/04 14:06:25.000   28.402941720  -16.501034003   626.6489   1   7   0.0021   0.0021   0.0229   0.0012   0.0033   0.0033  -5.00  177.4
2025/04/04 14:06:26.000   28.402941720  -16.501034003   626.6493   1   7   0.0021   0.0021   0.0229   0.0012   0.0033   0.0034  -4.00  172.4
2025/04/04 14:06:27.000   28.402941720  -16.501034003   626.6498   1   7   0.0021   0.0021   0.0230   0.0012   0.0034   0.0034  -3.00  153.0
2025/04/04 14:06:28.000   28.402941719  -16.501034003   626.6504   1   7   0.0021   0.0021   0.0231   0.0012   0.0034   0.0034  -2.00  117.9
2025/04/04 14:06:29.000   28.402941719  -16.501034003   626.6510   1   7   0.0021   0.0021   0.0232   0.0012   0.0034   0.0035  -1.00   69.3
2025/04/04 14:06:30.000   28.402941728  -16.501033996   626.6655   1   7   0.0021   0.0021   0.0224   0.0012   0.0031   0.0031   0.00  152.8
2025/04/04 14:06:31.000   28.402941728  -16.501033996   626.6664   1   7   0.0021   0.0021   0.0225   0.0012   0.0031   0.0031   1.00  151.9
2025/04/04 14:06:32.000   28.402941728  -16.501033996   626.6671   1   7   0.0021   0.0021   0.0226   0.0012   0.0032   0.0031   2.00  153.0
2025/04/04 14:06:33.000   28.402941727  -16.501033996   626.6675   1   7   0.0021   0.0021   0.0226   0.0012   0.0032   0.0032   3.00  155.1
2025/04/04 14:06:34.000   28.402941727  -16.501033996   626.6680   1   7   0.0021   0.0021   0.0227   0.0012   0.0032   0.0032   4.00  154.8
2025/04/04 14:06:35.000   28.402941727  -16.501033996   626.6685   1   7   0.0021   0.0021   0.0228   0.0012   0.0032   0.0032   5.00  150.8
2025/04/04 14:06:36.000   28.402941726  -16.501033996   626.6686   1   7   0.0021   0.0021   0.0228   0.0012   0.0033   0.0032   6.00  151.8
2025/04/04 14:06:37.000   28.402941726  -16.501033996   626.6688   1   7   0.0021   0.0021   0.0229   0.0012   0.0033   0.0032   7.00  151.9
2025/04/04 14:06:38.000   28.402941726  -16.501033996   626.6688   1   7   0.0021   0.0021   0.0229   0.0012   0.0033   0.0032   8.00  151.1
2025/04/04 14:06:39.000   28.402941726  -16.501033996   626.6689   1   7   0.0021   0.0021   0.0229   0.0012   0.0033   0.0033   9.00  148.9
2025/04/04 14:06:40.000   28.402941725  -16.501033996   626.6689   1   7   0.0021   0.0021   0.0229   0.0012   0.0033   0.0033  10.00  147.3
2025/04/04 14:06:41.000   28.402941725  -16.501033996   626.6689   1   7   0.0021   0.0021   0.0230   0.0012   0.0033   0.0033  11.00  146.3
2025/04/04 14:06:42.000   28.402941725  -16.501033996   626.6688   1   7   0.0021   0.0021   0.0230   0.0012   0.0033   0.0033  12.00  144.9
2025/04/04 14:06:43.000   28.402941725  -16.501033996   626.6688   1   7   0.0021   0.0021   0.0230   0.0012   0.0033   0.0033  13.00  142.4
2025/04/04 14:06:44.000   28.402941725  -16.501033996   626.6688   1   7   0.0021   0.0021   0.0230   0.0012   0.0033   0.0033  14.00  139.9
2025/04/04 14:06:45.000   28.402941725  -16.501033996   626.6688   1   7   0.0021   0.0021   0.0230   0.0012   0.0033   0.0033  15.00  137.4
2025/04/04 14:06:46.000   28.402941725  -16.501033996   626.6687   1   7   0.0021   0.0021   0.0230   0.0012   0.0034   0.0033 -14.00  134.9
2025/04/04 14:06:47.000   28.402941725  -16.501033996   626.6686   1   7   0.0021   0.0021   0.0230   0.0012   0.0034   0.0033 -13.00  132.5
2025/04/04 14:06:48.000   28.402941724  -16.501033996   626.6685   1   7   0.0021   0.0021   0.0230   0.0012   0.0034   0.0033 -12.00  129.8
2025/04/04 14:06:49.000   28.402941724  -16.501033996   626.6684   1   7   0.0021   0.0021   0.0230   0.0012   0.0034   0.0033 -11.00  128.2
2025/04/04 14:06:50.000   28.402941724  -16.501033996   626.6682   1   7   0.0021   0.0021   0.0230   0.0012   0.0034   0.0033 -10.00  126.9
2025/04/04 14:06:51.000   28.402941724  -16.501033996   626.6681   1   7   0.0021   0.0021   0.0231   0.0012   0.0034   0.0034  -9.00  125.8
2025/04/04 14:06:52.000   28.402941724  -16.501033997   626.6679   1   7   0.0021   0.0021   0.0231   0.0012   0.0034   0.0034  -8.00  124.5
2025/04/04 14:06:53.000   28.402941723  -16.501033997   626.6676   1   7   0.0021   0.0021   0.0231   0.0012   0.0034   0.0034  -7.00  125.1
2025/04/04 14:06:54.000   28.402941723  -16.501033997   626.6672   1   7   0.0021   0.0021   0.0232   0.0012   0.0034   0.0034  -6.00  124.8
2025/04/04 14:06:55.000   28.402941722  -16.501033997   626.6668   1   7   0.0021   0.0021   0.0232   0.0012   0.0034   0.0034  -5.00  122.0
2025/04/04 14:06:56.000   28.402941722  -16.501033997   626.6663   1   7   0.0021   0.0021   0.0233   0.0012   0.0035   0.0034  -4.00  119.8
2025/04/04 14:06:57.000   28.402941721  -16.501033998   626.6658   1   7   0.0021   0.0021   0.0233   0.0012   0.0035   0.0035  -3.00  107.4
2025/04/04 14:06:58.000   28.402941720  -16.501033998   626.6652   1   7   0.0021   0.0021   0.0234   0.0012   0.0035   0.0035  -2.00   82.7
2025/04/04 14:06:59.000   28.402941719  -16.501033999   626.6647   1   7   0.0021   0.0022   0.0235   0.0013   0.0036   0.0035  -1.00   47.5
2025/04/04 14:07:00.000   28.402941728  -16.501033992   626.6798   1   7   0.0021   0.0021   0.0227   0.0012   0.0032   0.0031   0.00  114.3
2025/04/04 14:07:01.000   28.402941728  -16.501033992   626.6798   1   7   0.0021   0.0021   0.0228   0.0012   0.0033   0.0032   1.00  114.0
2025/04/04 14:07:02.000   28.402941727  -16.501033993   626.6795   1   7   0.0021   0.0021   0.0229   0.0012   0.0033   0.0032   2.00  115.6
2025/04/04 14:07:03.000   28.402941726  -16.501033993   626.6790   1   7   0.0021   0.0021   0.0230   0.0012   0.0033   0.0032   3.00  119.0
2025/04/04 14:07:04.000   28.402941725  -16.501033993   626.6784   1   7   0.0021   0.0021   0.0230   0.0012   0.0033   0.0032   4.00  122.1
2025/04/04 14:07:05.000   28.402941725  -16.501033993   626.6778   1   7   0.0021   0.0021   0.0231   0.0012   0.0034   0.0033   5.00  123.4
2025/04/04 14:07:06.000   28.402941725  -16.501033993   626.6773   1   7   0.0021   0.0021   0.0231   0.0012   0.0034   0.0033   6.00  123.8
2025/04/04 14:07:07.000   28.402941725  -16.501033994   626.6767   1   7   0.0021   0.0021   0.0232   0.0012   0.0034   0.0033   7.00  124.9
2025/04/04 14:07:08.000   28.402941724  -16.501033994   626.6760   1   7   0.0021   0.0021   0.0232   0.0012   0.0034   0.0033   8.00  126.5
2025/04/04 14:07:09.000   28.402941724  -16.501033994   626.6755   1   7   0.0021   0.0021   0.0232   0.0012   0.0034   0.0033   9.00  126.8
2025/04/04 14:07:10.000   28.402941724  -16.501033995   626.6751   1   7   0.0021   0.0021   0.0233   0.0012   0.0034   0.0033  10.00  126.9
2025/04/04 14:07:11.000   28.402941724  -16.501033995   626.6746   1   7   0.0021   0.0021   0.0233   0.0012   0.0035   0.0033  11.00  127.4
2025/04/04 14:07:12.000   28.402941724  -16.501033995   626.6743   1   7   0.0021   0.0021   0.0233   0.0012   0.0035   0.0034  12.00  126.4
2025/04/04 14:07:13.000   28.402941723  -16.501033995   626.6740   1   7   0.0021   0.0021   0.0233   0.0012   0.0035   0.0034  13.00  125.5
2025/04/04 14:07:14.000   28.402941723  -16.501033995   626.6737   1   7   0.0021   0.0021   0.0233   0.0012   0.0035   0.0034  14.00  123.9
2025/04/04 14:07:15.000   28.402941723  -16.501033995   626.6735   1   7   0.0021   0.0021   0.0233   0.0012   0.0035   0.0034  15.00  121.7
2025/04/04 14:07:16.000   28.402941723  -16.501033995   626.6733   1   7   0.0021   0.0021   0.0233   0.0012   0.0035   0.0034 -14.00  120.1
2025/04/04 14:07:17.000   28.402941723  -16.501033995   626.6731   1   7   0.0021   0.0021   0.0233   0.0012   0.0035   0.0034 -13.00  118.4
2025/04/04 14:07:18.000   28.402941723  -16.501033995   626.6730   1   7   0.0021   0.0021   0.0234   0.0012   0.0035   0.0034 -12.00  115.7
2025/04/04 14:07:19.000   28.402941722  -16.501033995   626.6728   1   7   0.0021   0.0021   0.0234   0.0012   0.0035   0.0034 -11.00  113.8
2025/04/04 14:07:20.000   28.402941722  -16.501033996   626.6726   1   7   0.0021   0.0021   0.0234   0.0012   0.0035   0.0034 -10.00  111.9
2025/04/04 14:07:21.000   28.402941722  -16.501033996   626.6724   1   7   0.0021   0.0021   0.0234   0.0012   0.0035   0.0034  -9.00  109.3
2025/04/04 14:07:22.000   28.402941722  -16.501033996   626.6722   1   7   0.0021   0.0021   0.0234   0.0012   0.0035   0.0034  -8.00  106.7
2025/04/04 14:07:23.000   28.402941722  -16.501033996   626.6719   1   7   0.0021   0.0022   0.0235   0.0012   0.0035   0.0034  -7.00  104.2
2025/04/04 14:07:24.000   28.402941721  -16.501033996   626.6716   1   7   0.0021   0.0022   0.0235   0.0012   0.0036   0.0035  -6.00  100.7
2025/04/04 14:07:25.000   28.402941721  -16.501033996   626.6713   1   7   0.0021   0.0022   0.0235   0.0013   0.0036   0.0035  -5.00   94.7
2025/04/04 14:07:26.000   28.402941721  -16.501033996   626.6709   1   7   0.0021   0.0022   0.0236   0.0013   0.0036   0.0035  -4.00   91.7
2025/04/04 14:07:27.000   28.402941720  -16.501033997   626.6704   1   7   0.0021   0.0022   0.0237   0.0013   0.0036   0.0035  -3.00   82.9
2025/04/04 14:07:28.000   28.402941720  -16.501033997   626.6699   1   7   0.0021   0.0022   0.0238   0.0013   0.0037   0.0036  -2.00   62.3
2025/04/04 14:07:29.000   28.402941719  -16.501033998   626.6693   1   7   0.0021   0.0022   0.0239   0.0013   0.0037   0.0036  -1.00   39.4
2025/04/04 14:07:30.000   28.402941726  -16.501033993   626.6808   1   7   0.0021   0.0021   0.0230   0.0012   0.0033   0.0032   0.00  136.3
2025/04/04 14:07:31.000   28.402941726  -16.501033993   626.6807   1   7   0.0021   0.0021   0.0231   0.0012   0.0034   0.0032   1.00  133.9
2025/04/04 14:07:32.000   28.402941726  -16.501033994   626.6806   1   7   0.0021   0.0021   0.0232   0.0012   0.0034   0.0032   2.00  132.2
2025/04/04 14:07:33.000   28.402941725  -16.501033994   626.6803   1   7   0.0021   0.0021   0.0233   0.0012   0.0034   0.0033   3.00  132.6
2025/04/04 14:07:34.000   28.402941725  -16.501033994   626.6800   1   7   0.0021   0.0022   0.0233   0.0012   0.0035   0.0033   4.00  131.7
2025/04/04 14:07:35.000   28.402941725  -16.501033995   626.6795   1   7   0.0021   0.0022   0.0234   0.0012   0.0035   0.0033   5.00  132.3
2025/04/04 14:07:36.000   28.402941724  -16.501033995   626.6792   1   7   0.0021   0.0022   0.0235   0.0012   0.0035   0.0033   6.00  131.0
2025/04/04 14:07:37.000   28.402941724  -16.501033995   626.6789   1   7   0.0021   0.0022   0.0235   0.0012   0.0035   0.0034   7.00  128.9
2025/04/04 14:07:38.000   28.402941724  -16.501033995   626.6784   1   7   0.0021   0.0022   0.0235   0.0012   0.0036   0.0034   8.00  128.4
2025/04/04 14:07:39.000   28.402941723  -16.501033996   626.6781   1   7   0.0021   0.0022   0.0236   0.0012   0.0036   0.0034   9.00  127.1
2025/04/04 14:07:40.000   28.402941723  -16.501033996   626.6777   1   7   0.0021   0.0022   0.0236   0.0012   0.0036   0.0034  10.00  126.5
2025/04/04 14:07:41.000   28.402941723  -16.501033996   626.6774   1   7   0.0021   0.0022   0.0236   0.0012   0.0036   0.0034  11.00  125.5
2025/04/04 14:07:42.000   28.402941723  -16.501033996   626.6772   1   7   0.0021   0.0022   0.0236   0.0013   0.0036   0.0034  12.00  123.5
2025/04/04 14:07:43.000   28.402941723  -16.501033996   626.6772   1   7   0.0021   0.0022   0.0236   0.0013   0.0036   0.0034  13.00  121.5
2025/04/04 14:07:44.000   28.402941723  -16.501033996   626.6771   1   7   0.0021   0.0022   0.0237   0.0013   0.0036   0.0034  14.00  119.9
2025/04/04 14:07:45.000   28.402941723  -16.501033996   626.6770   1   7   0.0021   0.0022   0.0237   0.0013   0.0036   0.0034  15.00  118.1
2025/04/04 14:07:46.000   28.402941722  -16.501033996   626.6769   1   7   0.0021   0.0022   0.0237   0.0013   0.0036   0.0034 -14.00  115.9
2025/04/04 14:07:47.000   28.402941722  -16.501033996   626.6767   1   7   0.0021   0.0022   0.0237   0.0013   0.0036   0.0035 -13.00  113.0
2025/04/04 14:07:48.000   28.402941722  -16.501033996   626.6766   1   7   0.0021   0.0022   0.0237   0.0013   0.0036   0.0035 -12.00  110.8
2025/04/04 14:07:49.000   28.402941722  -16.501033997   626.6765   1   7   0.0021   0.0022   0.0237   0.0013   0.0036   0.0035 -11.00  108.5
2025/04/04 14:07:50.000   28.402941722  -16.501033997   626.6763   1   7   0.0021   0.0022   0.0237   0.0013   0.0036   0.0035 -10.00  107.3
2025/04/04 14:07:51.000   28.402941722  -16.501033997   626.6761   1   7   0.0021   0.0022   0.0237   0.0013   0.0037   0.0035  -9.00  105.5
2025/04/04 14:07:52.000   28.402941721  -16.501033997   626.6758   1   7   0.0021   0.0022   0.0238   0.0013   0.0037   0.0035  -8.00  103.6
2025/04/04 14:07:53.000   28.402941721  -16.501033997   626.6755   1   7   0.0021   0.0022   0.0238   0.0013   0.0037   0.0035  -7.00  102.1
2025/04/04 14:07:54.000   28.402941721  -16.501033998   626.6752   1   7   0.0021   0.0022   0.0238   0.0013   0.0037   0.0035  -6.00   99.4
2025/04/04 14:07:55.000   28.402941720  -16.501033998   626.6749   1   7   0.0021   0.0022   0.0239   0.0013   0.0037   0.0036  -5.00  100.4
2025/04/04 14:07:56.000   28.402941720  -16.501033999   626.6745   1   7   0.0021   0.0022   0.0239   0.0013   0.0037   0.0036  -4.00  101.7
2025/04/04 14:07:57.000   28.402941720  -16.501033999   626.6741   1   7   0.0021   0.0022   0.0240   0.0013   0.0038   0.0036  -3.00   88.2
2025/04/04 14:07:58.000   28.402941719  -16.501034000   626.6738   1   7   0.0021   0.0022   0.0241   0.0013   0.0038   0.0036  -2.00   69.9
2025/04/04 14:07:59.000   28.402941718  -16.501034000   626.6729   1   7   0.0021   0.0022   0.0242   0.0013   0.0038   0.0037  -1.00   41.4
2025/04/04 14:08:00.000   28.402941725  -16.501033998   626.6822   1   7   0.0021   0.0021   0.0233   0.0012   0.0035   0.0033   0.00  110.7
2025/04/04 14:08:01.000   28.402941724  -16.501033999   626.6814   1   7   0.0021   0.0022   0.0234   0.0012   0.0035   0.0033   1.00  111.2
2025/04/04 14:08:02.000   28.402941724  -16.501033999   626.6807   1   7   0.0021   0.0022   0.0235   0.0012   0.0035   0.0033   2.00  112.3
2025/04/04 14:08:03.000   28.402941723  -16.501034000   626.6801   1   7   0.0021   0.0022   0.0236   0.0012   0.0036   0.0033   3.00  113.4
2025/04/04 14:08:04.000   28.402941723  -16.501034001   626.6794   1   7   0.0021   0.0022   0.0237   0.0012   0.0036   0.0034   4.00  111.9
2025/04/04 14:08:05.000   28.402941722  -16.501034002   626.6786   1   7   0.0021   0.0022   0.0237   0.0013   0.0036   0.0034   5.00  111.0
2025/04/04 14:08:06.000   28.402941722  -16.501034002   626.6780   1   7   0.0021   0.0022   0.0238   0.0013   0.0037   0.0034   6.00  110.2
2025/04/04 14:08:07.000   28.402941721  -16.501034002   626.6775   1   7   0.0021   0.0022   0.0238   0.0013   0.0037   0.0034   7.00  110.0
2025/04/04 14:08:08.000   28.402941721  -16.501034002   626.6771   1   7   0.0021   0.0022   0.0239   0.0013   0.0037   0.0035   8.00  109.4
2025/04/04 14:08:09.000   28.402941721  -16.501034003   626.6767   1   7   0.0021   0.0022   0.0239   0.0013   0.0037   0.0035   9.00  107.4
2025/04/04 14:08:10.000   28.402941721  -16.501034003   626.6763   1   7   0.0021   0.0022   0.0239   0.0013   0.0037   0.0035  10.00  105.8
2025/04/04 14:08:11.000   28.402941721  -16.501034003   626.6760   1   7   0.0021   0.0022   0.0240   0.0013   0.0037   0.0035  11.00  104.2
2025/04/04 14:08:12.000   28.402941720  -16.501034003   626.6757   1   7   0.0021   0.0022   0.0240   0.0013   0.0037   0.0035  12.00  102.9
2025/04/04 14:08:13.000   28.402941720  -16.501034003   626.6755   1   7   0.0021   0.0022   0.0240   0.0013   0.0037   0.0035  13.00  100.7
2025/04/04 14:08:14.000   28.402941720  -16.501034003   626.6755   1   7   0.0021   0.0022   0.0240   0.0013   0.0038   0.0035  14.00   98.6
2025/04/04 14:08:15.000   28.402941720  -16.501034003   626.6753   1   7   0.0021   0.0022   0.0240   0.0013   0.0038   0.0035  15.00   96.9
2025/04/04 14:08:16.000   28.402941720  -16.501034003   626.6753   1   7   0.0021   0.0022   0.0240   0.0013   0.0038   0.0035 -14.00   95.4
2025/04/04 14:08:17.000   28.402941720  -16.501034003   626.6752   1   7   0.0021   0.0022   0.0240   0.0013   0.0038   0.0035 -13.00   93.1
2025/04/04 14:08:18.000   28.402941720  -16.501034003   626.6751   1   7   0.0021   0.0022   0.0240   0.0013   0.0038   0.0035 -12.00   91.4
2025/04/04 14:08:19.000   28.402941720  -16.501034003   626.6750   1   7   0.0021   0.0022   0.0241   0.0013   0.0038   0.0035 -11.00   89.6
2025/04/04 14:08:20.000   28.402941720  -16.501034003   626.6750   1   7   0.0021   0.0022   0.0241   0.0013   0.0038   0.0036 -10.00   87.8
2025/04/04 14:08:21.000   28.402941720  -16.501034003   626.6749   1   7   0.0021   0.0022   0.0241   0.0013   0.0038   0.0036  -9.00   86.5
2025/04/04 14:08:22.000   28.402941720  -16.501034003   626.6748   1   7   0.0021   0.0022   0.0241   0.0013   0.0038   0.0036  -8.00   85.3
2025/04/04 14:08:23.000   28.402941720  -16.501034003   626.6747   1   7   0.0021   0.0022   0.0242   0.0013   0.0038   0.0036  -7.00   85.5
2025/04/04 14:08:24.000   28.402941719  -16.501034003   626.6747   1   7   0.0021   0.0022   0.0242   0.0013   0.0038   0.0036  -6.00   84.5
2025/04/04 14:08:25.000   28.402941719  -16.501034003   626.6747   1   7   0.0021   0.0022   0.0243   0.0013   0.0039   0.0036  -5.00   83.7
2025/04/04 14:08:26.000   28.402941719  -16.501034003   626.6746   1   7   0.0021   0.0022   0.0243   0.0013   0.0039   0.0037  -4.00   81.4
