     3.05           OBSERVATION DATA    MIXED               RINEX VERSION / TYPE
TPS2RIN 1.0.29.3920 TPS-USER            20240801 093645 UTC PGM / RUN BY / DATE
Win64 build Feb 23, 2024 (c) Topcon Positioning Systems     COMMENT
SRC: 20240731_CAMI4.tps                                     COMMENT
OPT: -S -v 3.05                                             COMMENT
Observer            Agency                                  OBSERVER / AGENCY
O0M3X53SBGM         TPS HIPER_SR        4.8 HSR Jul,08,2022 REC # / TYPE / VERS
FW: 4.8 HSR Jul,08,2022 p3                                  COMMENT
SN: HiPer SR 1212-12575                                     COMMENT
000                 TPSHIPER_SR     NONE                    ANT # / TYPE
        1.8000        0.0000        0.0000                  ANTENNA: DELTA H/E/N
CAMI4                                                       MARKER NAME
  5388556.0739 -1597240.9464  3009474.1522                  APPROX POSITION XYZ
  2024     7    31    13    20    9.0000000     GPS         TIME OF FIRST OBS
  2024     7    31    13    35   12.0000000     GPS         TIME OF LAST OBS
     1.000                                                  INTERVAL
   904 EPOCHS                                               COMMENT
G   16 C1C L1C D1C S1C C1W L1W D1W S1W C2W L2W D2W S2W C2X  SYS / # / OBS TYPES
       L2X D2X S2X                                          SYS / # / OBS TYPES
R   16 C1C L1C D1C S1C C1P L1P D1P S1P C2P L2P D2P S2P C2C  SYS / # / OBS TYPES
       L2C D2C S2C                                          SYS / # / OBS TYPES
    14                                                      # OF SATELLITES
   G03   904   904   904   904   904   904   904   904   904PRN / # OF OBS
         904   904   904   904   904   904   904            PRN / # OF OBS
   G04   904   904   904   904   904   904   904   904   904PRN / # OF OBS
         904   904   904   904   904   904   904            PRN / # OF OBS
   G06   904   904   904   904   904   904   904   904   904PRN / # OF OBS
         904   904   904   904   904   904   904            PRN / # OF OBS
   G07   904   904   904   904   904   904   904   904   904PRN / # OF OBS
         904   904   904   904   904   904   904            PRN / # OF OBS
   G09   904   904   904   904   904   904   904   904   904PRN / # OF OBS
         904   904   904   904   904   904   904            PRN / # OF OBS
   G11   904   904   904   904   904   904   904   904   904PRN / # OF OBS
         904   904   904   904   904   904   904            PRN / # OF OBS
   G17   904   904   904   904   904   904   904   904   904PRN / # OF OBS
         904   904   904   904   904   904   904            PRN / # OF OBS
   G19   904   904   904   904   904   904   904   904   904PRN / # OF OBS
         904   904   904     0     0     0     0            PRN / # OF OBS
   G20   234   234   234   234   221   221   221   221   220PRN / # OF OBS
         220   220   220     0     0     0     0            PRN / # OF OBS
   G30    13    13    13    13    11    11    11    11    11PRN / # OF OBS
          11    11    11     7     7     7     7            PRN / # OF OBS
   R04    74    74    74    74    69    69    69    69    69PRN / # OF OBS
          69    69    69    68    68    68    68            PRN / # OF OBS
   R05   904   904   904   904   904   904   904   904   904PRN / # OF OBS
         904   904   904   904   904   904   904            PRN / # OF OBS
   R19   220   220   220   220   215   215   215   215   215PRN / # OF OBS
         215   215   215   214   214   214   214            PRN / # OF OBS
   R21   233   233   233   233   229   229   229   229   229PRN / # OF OBS
         229   229   229   228   228   228   228            PRN / # OF OBS
G L1C                                                       SYS / PHASE SHIFT
G L1W -0.25000                                              SYS / PHASE SHIFT
G L2W  0.00000                                              SYS / PHASE SHIFT
G L2X  0.25000                                              SYS / PHASE SHIFT
R L1C                                                       SYS / PHASE SHIFT
R L1P -0.25000                                              SYS / PHASE SHIFT
R L2P -0.25000                                              SYS / PHASE SHIFT
R L2C                                                       SYS / PHASE SHIFT
  4 R04  6 R05  1 R19  3 R21  4                             GLONASS SLOT / FRQ #
                                                            GLONASS COD/PHS/BIS
    18    18  1929     7GPS                                 LEAP SECONDS
                                                            END OF HEADER
> 2024 07 31 13 20  9.0000000  0 10
G03  23380747.260   122866670.540 6       408.260          41.062    23380746.580   122866670.539 6       408.260          36.312    23380759.080    95740284.561 5       318.125          35.812    23380759.500    95740294.555 7       318.125          42.062
R05  19472568.340   104092037.000 8      1780.765          49.562    19472568.240   104092037.001 8      1780.765          49.062    19472577.600    80960508.011 8      1385.040          51.500    19472577.680    80960512.009 8      1385.040          51.500
G11  24846631.000   130569931.483 6      5721.636          38.312    24846631.620   130569931.483 2      5721.636          17.500    24846637.900   101742836.778 2      4458.418          17.875    24846638.520   101742839.808 6      4458.418          37.750
G07  23720032.360   124649614.867 7      5056.890          43.875    23720030.760   124649614.872 7      5056.890          42.375    23720047.260    97129626.893 7      3940.434          42.437    23720047.820    97129634.883 7      3940.434          47.000
G17  21081958.140   110786434.199 7       982.339          44.437    21081956.920   110786434.201 7       982.339          42.437    21081963.440    86327109.974 7       765.459          42.125    21081963.940    86327111.976 7       765.459          47.687
G20  25235214.580   132611950.179 5      4789.431          30.937    25235243.120   132611949.955 1      4789.431           1.000    25235206.160   103333987.763 1      3732.025           1.000
G09  20119625.320   105729345.367 8      2671.886          49.062    20119624.240   105729345.372 8      2671.886          50.187    20119630.820    82386522.684 8      2081.989          50.625    20119631.500    82386526.685 8      2081.989          51.250
G19  20514044.860   107802031.296 7      2328.216          46.937    20514043.040   107802031.301 6      2328.216          39.500    20514047.320    84001588.584 6      1814.194          39.812
G06  21462500.580   112786203.692 7      4782.434          44.562    21462498.600   112786203.705 7      4782.434          45.312    21462505.820    87885379.579 7      3726.572          45.500    21462507.700    87885385.591 8      3726.572          48.375
G04  21509423.420   113032779.686 7       465.687          46.687    21509422.340   113032779.693 5       465.687          34.500    21509427.780    88077512.586 5       362.873          34.812    21509428.080    88077513.583 7       362.873          46.062
> 2024 07 31 13 20 10.0000000  0 10
G03  23380669.760   122866262.507 6       407.945          40.812    23380669.140   122866262.507 5       407.945          35.625    23380681.460    95739966.610 5       317.879          35.812    23380681.860    95739976.611 7       317.879          42.062
R05  19472235.160   104090256.654 8      1779.866          50.062    19472235.080   104090256.658 8      1779.866          49.062    19472244.580    80959123.300 8      1384.340          51.312    19472244.700    80959127.298 8      1384.340          51.687
G11  24845542.540   130564209.953 6      5721.309          37.562    24845542.660   130564209.950 2      5721.309          17.500    24845549.320   101738378.447 2      4458.163          17.875    24845549.900   101738381.502 6      4458.163          37.750
G07  23719070.040   124644558.128 7      5056.577          44.250    23719068.280   124644558.130 7      5056.577          42.625    23719084.860    97125686.577 7      3940.190          42.062    23719085.360    97125694.575 7      3940.190          46.937
G17  21081771.260   110785452.228 7       981.450          43.312    21081770.140   110785452.238 7       981.450          42.875    21081776.640    86326344.805 6       764.766          41.937    21081777.280    86326346.806 7       764.766          47.312
G20  25234302.520   132607160.855 5      4789.166          30.812    25234334.440   132607160.884 1      4789.166           1.000    25234290.600   103330256.342 1      3731.818           1.000
G09  20119116.880   105726673.883 8      2670.984          49.437    20119115.820   105726673.891 8      2670.984          51.000    20119122.500    82384441.010 8      2081.286          51.250    20119123.220    82384445.011 8      2081.286          51.500
G19  20513601.980   107799703.515 7      2327.182          47.375    20513600.200   107799703.518 6      2327.182          39.750    20513604.300    83999774.724 6      1813.388          39.375
G06  21461590.620   112781421.510 7      4781.950          45.250    21461588.600   112781421.517 7      4781.950          45.125    21461595.980    87881653.202 7      3726.195          45.000    21461597.820    87881659.211 8      3726.195          48.312
G04  21509334.900   113032314.365 7       464.884          46.687    21509333.780   113032314.376 5       464.884          34.562    21509339.160    88077149.997 5       362.247          34.687    21509339.640    88077150.988 7       362.247          46.062
> 2024 07 31 13 20 11.0000000  0 10
G03  23380592.240   122865854.543 6       407.782          41.375    23380591.420   122865854.545 6       407.782          36.062    23380603.860    95739648.711 5       317.752          35.875    23380604.480    95739658.721 6       317.752          41.875
R05  19471902.020   104088476.990 8      1779.288          50.375    19471902.080   104088476.994 8      1779.288          49.312    19471911.600    80957739.114 8      1383.891          51.187    19471911.680    80957743.115 8      1383.891          51.687
G11  24844454.080   130558488.397 6      5721.502          37.562    24844453.800   130558488.399 2      5721.502          17.500    24844460.580   101733920.097 2      4458.313          17.875    24844461.080   101733923.173 6      4458.313          37.750
G07  23718107.720   124639501.546 7      5056.518          43.562    23718105.940   124639501.551 7      5056.518          42.750    23718122.840    97121746.382 6      3940.144          41.750    23718123.260    97121754.381 7      3940.144          47.000
G17  21081584.000   110784470.876 7       980.925          44.750    21081583.380   110784470.883 7       980.925          42.062    21081589.840    86325580.105 6       764.357          41.812    21081590.120    86325582.112 7       764.357          47.437
G20  25233392.060   132602371.763 5      4789.042          30.812
G09  20118608.800   105724003.114 8      2670.399          49.812    20118607.540   105724003.114 8      2670.399          51.312    20118614.280    82382359.887 8      2080.830          51.250    20118614.860    82382363.888 8      2080.830          51.250
G19  20513159.180   107797376.541 8      2326.511          48.062    20513157.540   107797376.543 6      2326.511          39.625    20513161.480    83997961.493 6      1812.866          39.500
G06  21460680.860   112776639.624 7      4781.759          45.062    21460678.720   112776639.627 7      4781.759          45.750    21460686.080    87877927.053 7      3726.046          45.687    21460687.700    87877933.061 8      3726.046          48.937
G04  21509246.560   113031849.563 7       464.515          47.375    21509245.380   113031849.568 5       464.515          34.562    21509250.840    88076787.811 5       361.959          35.062    21509251.200    88076788.806 7       361.959          46.187
> 2024 07 31 13 20 12.0000000  0 10
G03  23380514.620   122865446.687 6       407.734          41.250    23380513.960   122865446.686 5       407.734          35.937    23380526.620    95739330.895 5       317.715          35.812    23380527.360    95739340.903 7       317.715          42.312
R05  19471569.220   104086698.058 8      1778.561          49.937    19471569.460   104086698.059 8      1778.561          49.062    19471578.820    80956355.501 8      1383.325          51.437    19471578.940    80956359.499 8      1383.325          51.562
G11  24843365.400   130552766.966 6      5721.404          36.687    24843364.940   130552766.971 2      5721.404          17.500    24843371.980   101729461.846 2      4458.237          17.875    24843372.720   101729464.889 6      4458.237          37.125
G07  23717145.440   124634445.170 7      5056.289          43.750    23717143.740   124634445.164 7      5056.289          42.750    23717160.480    97117806.346 7      3939.965          42.250    23717161.000    97117814.345 7      3939.965          46.687
G17  21081397.760   110783490.181 7       980.249          44.562    21081396.840   110783490.186 7       980.249          42.875    21081403.280    86324815.921 7       763.830          42.375    21081403.800    86324817.924 7       763.830          47.312
G20  25232480.160   132597582.728 5      4788.991          30.812    25232480.780   132597582.759 1      4788.991           7.312    25232484.540   103322798.093 1      3731.681           8.625
G09  20118100.740   105721333.104 8      2669.552          49.437    20118099.520   105721333.111 8      2669.552          50.937    20118106.200    82380279.364 8      2080.170          50.875    20118106.640    82380283.365 8      2080.170          51.250
G19  20512716.460   107795050.431 7      2325.669          47.187    20512714.940   107795050.436 6      2325.669          39.937    20512718.780    83996148.946 6      1812.210          39.562
G06  21459770.980   112771858.086 7      4781.252          45.062    21459768.660   112771858.091 7      4781.252          45.062    21459776.080    87874201.189 7      3725.651          45.187    21459777.820    87874207.197 8      3725.651          48.062
G04  21509158.320   113031385.343 7       463.909          47.062    21509156.880   113031385.348 5       463.909          35.125    21509162.560    88076426.079 5       361.487          35.062    21509162.860    88076427.068 7       361.487          46.250
> 2024 07 31 13 20 13.0000000  0 10
G03  23380436.520   122865038.746 6       408.171          41.687    23380436.380   122865038.743 6       408.171          36.375    23380449.160    95739013.015 6       318.055          36.312    23380449.920    95739023.025 7       318.055          42.312
R05  19471236.560   104084919.613 8      1778.333          49.562    19471236.460   104084919.611 8      1778.333          49.375    19471246.040    80954972.267 8      1383.148          51.187    19471246.100    80954976.263 8      1383.148          51.812
G11  24842276.700   130547045.405 6      5721.783          36.875    24842276.240   130547045.407 2      5721.783          17.500    24842283.420   101725003.488 2      4458.532          17.875    24842284.800   101725006.525 6      4458.532          37.125
G07  23716183.000   124629388.756 7      5056.555          43.562    23716181.680   124629388.761 7      5056.555          42.562    23716198.340    97113866.287 7      3940.172          42.437    23716198.620    97113874.287 7      3940.172          46.812
G17  21081211.320   110782509.912 7       980.125          44.500    21081210.440   110782509.917 7       980.125          42.812    21081216.740    86324052.071 7       763.734          42.312    21081217.280    86324054.074 7       763.734          47.375
G20  25231567.740   132592793.678 5      4789.424          30.812    25231570.000   132592793.693 1      4789.424           5.750    25231573.080   103319066.444 1      3732.019           6.812
G09  20117592.720   105718663.641 8      2669.272          49.937    20117591.580   105718663.648 8      2669.272          50.750    20117598.200    82378199.263 8      2079.952          51.562    20117598.860    82378203.266 8      2079.952          51.375
G19  20512273.800   107792724.991 7      2325.149          46.812    20512272.400   107792724.999 6      2325.149          39.437    20512276.560    83994336.915 6      1811.804          39.312
G06  21458861.020   112767076.679 7      4781.470          45.750    21458858.960   112767076.684 7      4781.470          45.500    21458866.220    87870475.416 7      3725.820          45.125    21458868.000    87870481.421 8      3725.820          48.437
G04  21509069.880   113030921.484 7       463.813          46.750    21509068.640   113030921.494 5       463.813          34.812    21509074.120    88076064.630 5       361.413          35.000    21509074.320    88076065.624 7       361.413          46.437
> 2024 07 31 13 20 14.0000000  0 10
G03  23380358.660   122864630.782 6       407.901          40.750    23380358.540   122864630.784 6       407.901          36.000    23380371.720    95738695.115 6       317.845          36.312    23380372.300    95738705.125 7       317.845          42.562
R05  19470904.120   104083141.691 8      1777.670          50.437    19470903.780   104083141.690 8      1777.670          48.875    19470913.520    80953589.435 8      1382.632          49.562    19470913.620    80953593.434 8      1382.632          49.875
G11  24841187.400   130541323.756 6      5721.526          36.875    24841187.440   130541323.756 2      5721.526          17.500    24841194.680   101720545.061 2      4458.332          17.875    24841195.500   101720548.081 6      4458.332          37.125
G07  23715220.960   124624332.369 7      5056.385          44.375    23715219.400   124624332.374 7      5056.385          42.500    23715236.040    97109926.243 6      3940.040          41.875    23715236.520    97109934.239 7      3940.040          46.625
G17  21081024.900   110781530.142 7       979.481          44.812    21081024.040   110781530.150 7       979.481          42.312    21081030.420    86323288.604 6       763.232          41.875    21081030.880    86323290.613 7       763.232          46.937
G20  25230656.360   132588004.632 5      4788.854          32.062    25230653.140   132588004.753 1      4788.854           4.500    25230666.940   103315334.648 1      3731.575           4.625
G09  20117084.780   105715994.747 8      2668.583          49.312    20117083.640   105715994.755 8      2668.583          49.187    20117090.380    82376119.604 8      2079.415          49.625    20117090.960    82376123.609 8      2079.415          51.437
G19  20511831.600   107790400.219 7      2324.420          46.125    20511829.920   107790400.221 6      2324.420          40.125    20511834.140    83992525.394 6      1811.236          39.812
G06  21457951.080   112762295.459 7      4781.083          46.187    21457949.020   112762295.469 7      4781.083          44.937    21457956.240    87866749.796 7      3725.519          44.687    21457958.240    87866755.803 8      3725.519          48.312
G04  21508981.680   113030458.045 7       463.233          45.875    21508980.500   113030458.055 5       463.233          34.375    21508986.040    88075703.505 5       360.961          34.500    21508986.600    88075704.494 7       360.961          45.937
> 2024 07 31 13 20 15.0000000  0 10
G03  23380281.240   122864223.038 6       407.715          40.312    23380281.060   122864223.043 6       407.715          36.250    23380294.200    95738377.393 5       317.700          35.937    23380294.720    95738387.399 7       317.700          42.875
R05  19470571.800   104081364.644 8      1776.791          50.312    19470571.200   104081364.642 8      1776.791          49.875    19470581.160    80952207.289 8      1381.949          51.187    19470581.100    80952211.287 8      1381.949          51.687
G11  24840098.800   130535602.276 6      5721.223          37.875    24840098.800   130535602.275 2      5721.223          17.500    24840106.000   101716086.769 2      4458.096          17.875    24840107.220   101716089.826 6      4458.096          37.125
G07  23714259.040   124619276.299 7      5056.015          44.000    23714257.320   124619276.304 7      5056.015          42.750    23714273.940    97105986.447 7      3939.752          42.437    23714274.400    97105994.453 7      3939.752          46.812
G17  21080838.920   110780551.155 7       978.708          43.875    21080837.760   110780551.158 7       978.708          43.062    21080843.940    86322525.753 7       762.630          42.312    21080844.440    86322527.758 7       762.630          47.187
G20  25229744.680   132583215.818 5      4789.144          32.062    25229744.480   132583215.957 1      4789.144           5.562    25229759.280   103311603.154 1      3731.800           5.375
G09  20116576.980   105713326.750 8      2667.724          49.687    20116575.960   105713326.755 8      2667.724          51.187    20116582.640    82374040.645 8      2078.746          51.250    20116583.300    82374044.648 8      2078.746          50.937
G19  20511389.320   107788076.434 7      2323.459          46.500    20511387.580   107788076.436 6      2323.459          39.687    20511391.940    83990714.651 6      1810.488          39.125
G06  21457041.120   112757514.716 7      4780.576          45.625    21457039.280   112757514.724 7      4780.576          45.187    21457046.580    87863024.542 7      3725.124          44.875    21457048.420    87863030.547 8      3725.124          48.625
G04  21508893.620   113029995.297 7       462.549          47.000    21508892.640   113029995.307 5       462.549          34.625    21508898.000    88075342.920 5       360.428          34.937    21508898.340    88075343.916 7       360.428          46.562
> 2024 07 31 13 20 16.0000000  0 10
G03  23380203.800   122863815.361 6       407.656          40.937    23380203.520   122863815.360 6       407.656          36.750    23380216.780    95738059.712 6       317.654          36.500    23380217.460    95738069.719 7       317.654          42.875
R05  19470239.640   104079588.240 8      1776.140          49.875    19470238.940   104079588.247 8      1776.140          49.437    19470248.840    80950825.651 8      1381.443          51.000    19470248.840    80950829.647 8      1381.443          51.312
G11  24839010.200   130529880.777 6      5721.425          37.875    24839009.940   130529880.779 2      5721.425          17.500    24839017.240   101711628.464 2      4458.253          17.875    24839019.280   101711631.493 6      4458.253          37.562
G07  23713296.980   124614220.335 7      5055.860          44.500    23713295.240   124614220.345 7      5055.860          42.875    23713311.780    97102046.739 7      3939.631          42.375    23713312.520    97102054.742 7      3939.631          46.812
G17  21080652.300   110779572.726 7       978.137          44.812    21080651.700   110779572.728 7       978.137          42.937    21080657.780    86321763.334 7       762.185          42.750    21080658.100    86321765.345 7       762.185          47.375
G20  25228834.320   132578427.183 5      4788.813          32.062    25228831.880   132578427.227 1      4788.813           5.812    25228842.600   103307871.717 1      3731.543           5.187
G09  20116069.520   105710659.420 8      2667.069          50.125    20116068.340   105710659.428 8      2667.069          50.562    20116075.080    82371962.206 8      2078.235          50.937    20116075.780    82371966.211 8      2078.235          50.937
G19  20510947.120   107785753.414 7      2322.732          46.500    20510945.600   107785753.416 6      2322.732          39.500    20510949.840    83988904.503 6      1809.921          39.625
G06  21456131.420   112752734.205 7      4780.530          45.625    21456129.660   112752734.213 7      4780.530          45.562    21456136.880    87859299.464 7      3725.088          45.375    21456138.720    87859305.465 8      3725.088          48.250
G04  21508805.660   113029533.051 7       462.060          47.250    21508804.740   113029533.059 5       462.060          34.625    21508810.120    88074982.726 5       360.047          34.937    21508810.760    88074983.712 7       360.047          47.000
> 2024 07 31 13 20 17.0000000  0 10
G03  23380126.100   122863407.799 6       407.652          41.250    23380125.860   122863407.798 6       407.652          36.812    23380139.380    95737742.120 6       317.651          36.687    23380139.960    95737752.130 7       317.651          43.437
R05  19469907.360   104077812.628 8      1775.270          50.312    19469906.900   104077812.626 8      1775.270          49.187    19469916.660    80949444.608 8      1380.766          51.562    19469916.660    80949448.604 8      1380.766          51.375
G11  24837921.380   130524159.383 6      5721.351          37.437    24837921.160   130524159.383 2      5721.351          17.500    24837928.620   101707170.235 2      4458.196          17.875    24837929.540   101707173.282 6      4458.196          37.562
G07  23712334.820   124609164.576 7      5055.674          45.062    23712333.240   124609164.583 7      5055.674          42.375    23712349.700    97098107.182 7      3939.486          42.500    23712350.220    97098115.185 7      3939.486          47.000
G17  21080466.220   110778594.969 7       977.455          44.125    21080465.800   110778594.968 7       977.455          42.750    21080471.860    86321001.443 7       761.654          42.187    21080472.380    86321003.450 7       761.654          47.125
G20  25227922.900   132573638.682 5      4788.472          33.437    25227922.520   132573638.763 1      4788.472           5.250    25227933.540   103304140.469 1      3731.277           4.750
G09  20115561.960   105707992.873 8      2666.206          49.500    20115560.900   105707992.876 8      2666.206          51.125    20115567.660    82369884.377 8      2077.563          51.375    20115568.220    82369888.380 8      2077.563          50.750
G19  20510505.340   107783431.293 7      2321.744          46.187    20510503.740   107783431.298 6      2321.744          39.812    20510507.900    83987095.058 6      1809.151          39.375
G06  21455222.140   112747954.115 7      4779.910          46.187    21455220.020   112747954.122 7      4779.910          46.187    21455227.340    87855574.718 7      3724.605          45.687    21455229.060    87855580.726 8      3724.605          48.437
G04  21508717.740   113029071.399 7       461.396          47.625    21508716.880   113029071.406 5       461.396          35.187    21508722.300    88074622.991 5       359.530          35.125    21508722.920    88074623.982 7       359.530          46.687
> 2024 07 31 13 20 18.0000000  0 10
G03  23380048.920   122863000.347 6       407.358          41.062    23380048.240   122863000.349 6       407.358          36.937    23380061.940    95737424.621 6       317.422          36.750    23380062.380    95737434.640 7       317.422          43.437
R05  19469575.180   104076037.668 8      1774.635          49.812    19469574.860   104076037.666 8      1774.635          49.437    19469584.620    80948064.092 8      1380.272          51.000    19469584.440    80948068.088 8      1380.272          51.687
G11  24836832.900   130518438.021 6      5721.414          36.625    24836832.400   130518438.024 2      5721.414          17.500    24836840.020   101702712.035 2      4458.245          17.625    24836840.800   101702715.080 6      4458.245          37.562
G07  23711372.480   124604108.974 7      5055.502          44.937    23711371.180   124604108.982 7      5055.502          42.250    23711387.680    97094167.756 7      3939.352          42.250    23711388.280    97094175.756 7      3939.352          46.812
G17  21080280.500   110777617.829 7       976.774          44.500    21080279.820   110777617.836 7       976.774          43.000    21080285.880    86320240.036 7       761.122          42.687    21080286.360    86320242.040 7       761.122          47.250
G20  25227012.000   132568850.301 5      4788.220          33.437    25227007.040   132568850.301 1      4788.220           5.500    25227021.260   103300409.296 1      3731.080           5.000
G09  20115054.760   105705327.038 8      2665.428          49.875    20115053.540   105705327.046 8      2665.428          50.875    20115060.320    82367807.107 8      2076.957          51.562    20115061.060    82367811.110 8      2076.957          51.312
G19  20510063.880   107781109.994 7      2320.836          46.625    20510061.940   107781109.996 6      2320.836          39.437    20510066.200    83985286.247 6      1808.443          39.187
G06  21454312.360   112743174.316 7      4779.492          45.625    21454310.340   112743174.323 7      4779.492          45.187    21454317.640    87851850.210 7      3724.280          45.312    21454319.600    87851856.219 8      3724.280          48.500
G04  21508629.960   113028610.280 7       460.793          47.562    21508629.180   113028610.290 5       460.793          35.187    21508634.760    88074263.676 5       359.059          35.187    21508635.440    88074264.671 7       359.059          46.687
> 2024 07 31 13 20 19.0000000  0 10
G03  23379971.460   122862593.021 6       407.311          41.125    23379970.600   122862593.023 6       407.311          36.875    23379984.460    95737107.223 6       317.385          36.625    23379984.820    95737117.235 7       317.385          43.312
R05  19469243.400   104074263.483 8      1773.743          49.937    19469242.840   104074263.487 8      1773.743          49.687    19469252.760    80946684.170 8      1379.578          51.625    19469252.660    80946688.167 8      1379.578          51.687
G11  24835743.920   130512716.799 6      5721.132          36.625    24835743.780   130512716.803 3      5721.132          18.062    24835751.280   101698253.944 2      4458.025          17.625    24835752.160   101698256.978 6      4458.025          38.437
G07  23710410.640   124599053.607 7      5055.202          44.937    23710409.220   124599053.611 7      5055.202          42.750    23710425.540    97090228.504 7      3939.118          42.562    23710426.140    97090236.504 7      3939.118          46.625
G17  21080094.600   110776641.383 7       976.088          44.250    21080094.140   110776641.382 7       976.088          43.000    21080100.200    86319479.159 7       760.588          42.500    21080100.500    86319481.165 7       760.588          47.062
G20  25226101.520   132564062.160 5      4787.673          33.437    25226098.340   132564062.323 1      4787.673           4.937    25226110.800   103296678.277 1      3730.654           4.687
G09  20114547.500   105702661.995 8      2664.591          49.875    20114546.480   105702661.999 8      2664.591          51.312    20114553.260    82365730.450 8      2076.305          51.687    20114553.640    82365734.451 8      2076.305          51.375
G19  20509622.080   107778789.578 7      2319.905          45.187    20509620.400   107778789.580 6      2319.905          39.250    20509624.760    83983478.129 6      1807.718          39.312
G06  21453403.000   112738394.874 7      4779.162          45.625    21453400.900   112738394.887 7      4779.162          45.625    21453408.100    87848125.976 7      3724.022          45.437    21453409.780    87848131.983 8      3724.022          48.312
G04  21508542.520   113028149.773 7       460.163          46.500    21508541.480   113028149.781 5       460.163          35.062    21508547.260    88073904.837 5       358.568          35.187    21508547.620    88073905.833 7       358.568          47.062
> 2024 07 31 13 20 20.0000000  0 10
G03  23379894.280   122862185.772 6       407.462          40.750    23379893.280   122862185.769 6       407.462          36.687    23379907.120    95736789.877 6       317.503          36.312    23379907.660    95736799.895 7       317.503          43.562
R05  19468911.760   104072489.920 8      1773.468          49.562    19468911.240   104072489.916 8      1773.468          49.250    19468921.060    80945304.731 8      1379.364          51.625    19468921.020    80945308.727 8      1379.364          51.250
G11  24834655.580   130506995.547 6      5721.623          37.687    24834655.020   130506995.552 3      5721.623          18.062    24834662.760   101693795.834 2      4458.407          17.625    24834663.220   101693798.854 6      4458.407          38.437
G07  23709448.660   124593998.336 7      5055.418          43.625    23709447.140   124593998.344 7      5055.418          42.750    23709463.680    97086289.335 7      3939.287          42.500    23709464.080    97086297.332 7      3939.287          46.625
G17  21079908.900   110775665.502 7       975.825          43.937    21079908.540   110775665.504 7       975.825          42.687    21079914.440    86318718.726 7       760.383          42.375    21079914.800    86318720.732 7       760.383          47.250
G20  25225190.520   132559274.006 5      4788.510          33.375    25225194.260   132559274.171 1      4788.510           4.000    25225217.680   103292947.088 1      3731.306           3.750
G09  20114040.500   105699997.634 8      2664.131          49.187    20114039.440   105699997.644 8      2664.131          50.875    20114046.200    82363654.326 8      2075.947          51.062    20114046.460    82363658.331 8      2075.947          51.312
G19  20509180.820   107776469.945 7      2319.414          45.937    20509179.040   107776469.949 6      2319.414          39.125    20509183.180    83981670.623 6      1807.336          38.937
G06  21452493.600   112733615.729 7      4779.174          45.812    21452491.580   112733615.740 7      4779.174          45.375    21452498.700    87844401.969 7      3724.032          45.125    21452500.340    87844407.972 8      3724.032          48.187
G04  21508454.880   113027689.763 7       459.992          47.562    21508454.020   113027689.774 5       459.992          35.125    21508459.680    88073546.390 5       358.435          34.937    21508460.280    88073547.377 7       358.435          46.562
> 2024 07 31 13 20 21.0000000  0 10
G03  23379816.940   122861778.393 6       407.396          40.750    23379815.760   122861778.396 6       407.396          37.062    23379829.600    95736472.442 6       317.451          36.625    23379830.260    95736482.450 7       317.451          43.437
R05  19468580.020   104070716.877 8      1772.707          49.562    19468579.300   104070716.883 8      1772.707          49.187    19468589.400    80943925.703 8      1378.772          51.375    19468589.420    80943929.699 8      1378.772          51.812
G11  24833567.080   130501274.153 6      5721.501          37.875    24833566.340   130501274.156 3      5721.501          18.062    24833574.040   101689337.607 2      4458.312          17.625    24833575.280   101689340.631 6      4458.312          38.437
G07  23708486.540   124588943.063 7      5055.171          43.812    23708485.120   124588943.068 7      5055.171          42.312    23708501.720    97082350.157 6      3939.094          41.812    23708502.080    97082358.152 7      3939.094          46.562
G17  21079723.500   110774690.073 7       975.128          43.812    21079722.800   110774690.070 7       975.128          43.125    21079728.900    86317958.645 7       759.840          42.750    21079729.300    86317960.645 7       759.840          47.625
G20  25224279.580   132554485.854 5      4788.095          33.375    25224286.560   132554486.042 1      4788.095           3.125    25224300.160   103289215.993 1      3730.983           2.500
G09  20113533.580   105697333.788 8      2663.509          49.687    20113532.560   105697333.793 8      2663.509          50.687    20113539.240    82361578.598 8      2075.461          51.500    20113539.380    82361582.601 8      2075.461          50.812
G19  20508739.660   107774150.950 7      2318.629          47.062    20508737.720   107774150.950 6      2318.629          39.625    20508741.900    83979863.610 6      1806.724          39.000
G06  21451584.320   112728836.706 7      4778.882          45.937    21451582.240   112728836.716 7      4778.882          45.750    21451589.280    87840678.052 7      3723.804          45.687    21451590.900    87840684.055 8      3723.804          48.562
G04  21508367.580   113027230.116 7       459.390          47.687    21508366.600   113027230.126 5       459.390          35.312    21508372.220    88073188.219 5       357.966          35.375    21508372.720    88073189.204 7       357.966          46.687
> 2024 07 31 13 20 22.0000000  0 10
G03  23379739.060   122861371.188 6       407.219          40.687    23379738.320   122861371.196 6       407.219          36.812    23379752.220    95736155.129 6       317.313          36.312    23379752.500    95736165.143 7       317.313          43.750
R05  19468248.480   104068944.597 8      1771.943          50.062    19468247.880   104068944.596 8      1771.943          49.000    19468257.940    80942547.260 8      1378.178          51.687    19468257.780    80942551.256 8      1378.178          51.125
G11  24832478.100   130495552.888 6      5721.135          38.687    24832477.620   130495552.888 3      5721.135          18.062    24832485.460   101684879.485 2      4458.027          17.625    24832486.220   101684882.517 6      4458.027          39.375
G07  23707524.500   124583887.989 7      5054.974          44.062    23707523.160   124583887.994 7      5054.974          42.437    23707539.700    97078411.136 7      3938.941          42.437    23707540.280    97078419.132 7      3938.941          46.937
G17  21079537.980   110773715.290 7       974.492          44.187    21079537.420   110773715.292 7       974.492          42.937    21079543.360    86317199.076 7       759.345          42.250    21079543.820    86317201.074 7       759.345          47.250
G20  25223368.960   132549697.875 5      4788.070          33.375
G09  20113026.900   105694670.725 8      2662.731          49.937    20113025.800   105694670.735 8      2662.731          51.062    20113032.500    82359503.487 8      2074.856          51.312    20113032.740    82359507.494 8      2074.856          50.937
G19  20508298.480   107771832.843 7      2317.678          46.687    20508296.820   107771832.843 6      2317.678          39.812    20508300.900    83978057.289 6      1805.983          39.875
G06  21450674.800   112724058.052 7      4778.465          46.500    21450673.000   112724058.062 7      4778.465          45.750    21450679.980    87836954.428 7      3723.479          45.500    21450681.580    87836960.432 7      3723.479          47.687
G04  21508280.060   113026771.057 7       458.813          47.687    21508279.340   113026771.067 5       458.813          35.312    21508284.880    88072830.509 5       357.517          35.312    21508285.480    88072831.496 7       357.517          46.875
> 2024 07 31 13 20 23.0000000  0 10
G03  23379661.680   122860964.081 6       406.840          41.125    23379661.080   122860964.088 6       406.840          36.687    23379674.720    95735837.898 6       317.018          36.625    23379675.100    95735847.914 7       317.018          43.687
R05  19467917.220   104067173.008 8      1771.180          50.187    19467916.440   104067173.006 8      1771.180          49.062    19467926.480    80941169.357 8      1377.584          51.750    19467926.400    80941173.355 8      1377.584          51.562
G11  24831389.440   130489831.626 6      5721.001          38.687    24831388.880   130489831.628 3      5721.001          18.062    24831396.840   101680421.364 2      4457.923          17.625    24831397.620   101680424.391 6      4457.923          39.375
G07  23706562.760   124578833.074 7      5054.706          44.562    23706561.240   124578833.078 7      5054.706          42.812    23706577.860    97074472.235 7      3938.732          42.625    23706578.540    97074480.234 7      3938.732          47.000
G17  21079352.440   110772741.143 7       973.760          44.437    21079352.100   110772741.148 7       973.760          42.812    21079358.020    86316439.994 7       758.774          42.500    21079358.480    86316441.995 7       758.774          47.562
G20  25222458.180   132544910.028 5      4787.548          33.812    25222458.820   132544910.044 1      4787.548          11.062    25222459.640   103281755.563 1      3730.557          10.687
G09  20112520.140   105692008.390 8      2661.886          49.562    20112519.120   105692008.395 8      2661.886          51.125    20112525.820    82357428.938 8      2074.197          51.625    20112526.200    82357432.943 8      2074.197          50.625
G19  20507857.500   107769515.546 7      2316.780          47.500    20507855.780   107769515.554 6      2316.780          39.125    20507859.800    83976251.601 6      1805.283          38.812
G06  21449765.720   112719279.698 7      4778.118          45.687    21449763.580   112719279.709 7      4778.118          45.687    21449770.640    87833231.042 7      3723.209          45.437    21449772.460    87833237.041 8      3723.209          48.312
G04  21508192.620   113026312.553 7       458.116          47.812    21508192.080   113026312.565 5       458.116          35.500    21508197.580    88072473.231 5       356.974          35.312    21508198.240    88072474.210 7       356.974          46.875
> 2024 07 31 13 20 24.0000000  0 10
G03  23379583.980   122860557.097 6       406.883          40.875    23379583.620   122860557.102 6       406.883          37.187    23379597.400    95735520.764 6       317.052          36.875    23379597.760    95735530.772 7       317.052          43.875
R05  19467585.860   104065402.233 8      1770.371          49.750    19467585.220   104065402.226 8      1770.371          49.500    19467595.440    80939792.087 8      1376.955          51.125    19467595.120    80939796.083 8      1376.955          52.375
G11  24830300.920   130484110.440 6      5721.243          38.437    24830300.080   130484110.442 3      5721.243          18.062    24830308.320   101675963.301 2      4458.111          17.625    24830309.340   101675966.334 6      4458.111          39.375
G07  23705600.740   124573778.399 7      5054.503          43.312    23705599.400   124573778.407 7      5054.503          42.375    23705615.880    97070533.530 6      3938.574          41.625    23705616.480    97070541.527 7      3938.574          47.062
G17  21079167.380   110771767.708 7       972.982          44.625    21079166.840   110771767.710 7       972.982          42.750    21079172.800    86315681.471 7       758.168          42.312    21079173.380    86315683.472 7       758.168          47.250
G20  25221546.340   132540122.391 5      4787.476          33.812    25221544.880   132540122.472 1      4787.476           9.625    25221551.900   103278024.972 1      3730.501           9.312
G09  20112013.580   105689346.857 8      2661.107          49.062    20112012.680   105689346.861 8      2661.107          51.000    20112019.320    82355355.018 8      2073.590          51.250    20112019.900    82355359.025 8      2073.590          50.750
G19  20507416.640   107767199.166 7      2315.919          46.750    20507415.120   107767199.176 6      2315.919          39.125    20507419.080    83974446.631 6      1804.612          39.812
G06  21448856.560   112714501.754 7      4777.746          45.562    21448854.420   112714501.762 7      4777.746          45.812    21448861.600    87829507.977 7      3722.919          45.625    21448863.180    87829513.976 8      3722.919          48.625
G04  21508105.500   113025854.666 7       457.516          46.625    21508104.900   113025854.676 5       457.516          34.875    21508110.460    88072116.429 5       356.506          35.000    21508111.040    88072117.410 7       356.506          47.062
> 2024 07 31 13 20 25.0000000  0 10
G03  23379506.960   122860150.155 6       406.989          40.375    23379506.300   122860150.160 6       406.989          37.437    23379519.940    95735203.660 6       317.134          37.250    23379519.840    95735213.662 7       317.134          43.562
R05  19467254.640   104063632.060 8      1769.867          49.062    19467254.160   104063632.056 8      1769.867          49.812    19467264.240    80938415.286 8      1376.563          51.687    19467264.060    80938419.284 8      1376.563          51.750
G11  24829211.780   130478389.302 6      5721.320          38.125    24829211.440   130478389.306 3      5721.320          18.062    24829219.640   101671505.273 2      4458.172          17.625    24829220.140   101671508.293 6      4458.172          39.375
G07  23704638.860   124568723.786 7      5054.642          44.125    23704637.640   124568723.796 7      5054.642          42.375    23704654.080    97066594.874 7      3938.682          42.312    23704654.720    97066602.867 7      3938.682          46.937
G17  21078982.260   110770794.796 7       972.610          44.562    21078981.760   110770794.795 7       972.610          42.625    21078987.740    86314923.350 7       757.878          42.250    21078987.980    86314925.350 7       757.878          47.375
G20  25220636.020   132535334.794 5      4787.433          33.812    25220635.220   132535334.907 1      4787.433           8.437    25220641.980   103274294.299 1      3730.467           8.437
G09  20111507.400   105686685.972 8      2660.576          49.312    20111506.320   105686685.977 8      2660.576          51.125    20111513.060    82353281.599 8      2073.176          51.250    20111513.740    82353285.608 8      2073.176          51.125
G19  20506976.160   107764883.529 7      2315.326          47.750    20506974.380   107764883.537 6      2315.326          39.500    20506978.480    83972642.235 6      1804.150          38.875
G06  21447947.360   112709724.047 7      4777.537          45.750    21447945.400   112709724.057 7      4777.537          46.000    21447952.340    87825785.090 7      3722.756          45.937    21447953.760    87825791.091 8      3722.756          48.125
G04  21508018.800   113025397.223 7       457.243          47.687    21508017.980   113025397.233 5       457.243          35.250    21508023.540    88071759.976 5       356.293          35.437    21508024.080    88071760.963 7       356.293          46.937
> 2024 07 31 13 20 26.0000000  0 10
G03  23379429.500   122859743.236 6       407.180          41.937    23379428.920   122859743.236 6       407.180          37.312    23379442.620    95734886.568 6       317.283          37.437    23379442.720    95734896.580 7       317.283          43.312
R05  19466923.740   104061862.496 8      1769.513          49.875    19466922.960   104061862.495 8      1769.513          49.062    19466933.120    80937038.965 8      1376.288          49.625    19466933.100    80937042.963 8      1376.288          49.875
G11  24828122.680   130472668.105 6      5721.544          38.125    24828122.720   130472668.112 3      5721.544          18.062    24828131.180   101667047.204 2      4458.346          17.625    24828131.680   101667050.239 6      4458.346          39.375
G07  23703676.620   124563669.298 7      5054.675          43.937    23703675.860   124563669.306 7      5054.675          42.250    23703692.200    97062656.308 6      3938.708          41.875    23703692.760    97062664.305 7      3938.708          46.062
G17  21078797.020   110769822.441 7       972.388          44.750    21078797.000   110769822.443 7       972.388          42.562    21078802.740    86314165.669 7       757.705          42.000    21078803.000    86314167.669 7       757.705          46.875
G20  25219724.300   132530547.291 5      4787.721          34.125    25219731.620   132530547.419 1      4787.721           4.875    25219733.980   103270563.568 1      3730.691           4.812
G09  20111001.260   105684025.752 8      2660.149          49.687    20111000.180   105684025.754 8      2660.149          49.937    20111006.760    82351208.700 8      2072.843          49.937    20111007.540    82351212.705 8      2072.843          50.250
G19  20506535.520   107762568.681 8      2314.688          48.000    20506533.820   107762568.689 6      2314.688          38.750    20506537.820    83970838.457 6      1803.653          38.625
G06  21447038.260   112704946.592 7      4777.535          45.687    21447036.340   112704946.599 7      4777.535          45.062    21447043.300    87822062.398 7      3722.755          44.875    21447045.000    87822068.401 7      3722.755          47.562
G04  21507931.900   113024940.279 7       456.987          47.625    21507931.040   113024940.294 5       456.987          35.312    21507936.460    88071403.922 5       356.094          35.437    21507937.260    88071404.901 7       356.094          46.437
> 2024 07 31 13 20 27.0000000  0 10
G03  23379352.120   122859336.334 6       406.781          41.250    23379351.460   122859336.341 6       406.781          37.375    23379365.080    95734569.505 6       316.972          37.312    23379365.080    95734579.524 7       316.972          43.312
R05  19466592.560   104060093.552 8      1768.550          49.687    19466592.040   104060093.556 8      1768.550          49.937    19466602.320    80935663.122 8      1375.539          52.000    19466602.080    80935667.120 8      1375.539          52.062
G11  24827034.760   130466946.906 6      5721.204          37.875    24827033.920   130466946.911 3      5721.204          18.062    24827042.600   101662589.133 2      4458.081          17.625    24827043.340   101662592.141 6      4458.081          39.937
G07  23702714.880   124558614.892 7      5054.300          43.687    23702714.000   124558614.900 7      5054.300          42.312    23702730.420    97058717.806 6      3938.416          41.875    23702730.760    97058725.803 7      3938.416          46.625
G17  21078612.100   110768850.664 7       971.454          44.562    21078611.860   110768850.669 7       971.454          42.687    21078617.880    86313408.434 7       756.977          42.125    21078618.220    86313410.436 7       756.977          47.250
G20  25218812.720   132525759.820 5      4787.295          34.125    25218826.680   132525759.625 1      4787.295           1.000
G09  20110494.960   105681366.192 8      2659.157          49.500    20110494.060   105681366.197 8      2659.157          51.562    20110500.600    82349136.314 8      2072.070          51.562    20110501.340    82349140.323 8      2072.070          50.750
G19  20506095.160   107760254.574 7      2313.671          46.750    20506093.540   107760254.584 6      2313.671          39.562    20506097.580    83969035.254 6      1802.861          39.062
G06  21446129.140   112700169.389 7      4777.005          45.000    21446127.220   112700169.399 7      4777.005          46.062    21446134.200    87818339.902 7      3722.341          46.062    21446135.960    87818345.903 8      3722.341          48.250
G04  21507845.120   113024483.832 7       456.088          47.062    21507844.000   113024483.842 5       456.088          35.500    21507849.680    88071048.243 5       355.393          35.500    21507850.380    88071049.216 7       355.393          47.250
> 2024 07 31 13 20 28.0000000  0 10
G03  23379274.540   122858929.554 6       406.807          41.000    23379274.300   122858929.557 6       406.807          37.312    23379287.840    95734252.524 6       316.993          37.062    23379287.620    95734262.532 7       316.993          43.437
R05  19466261.800   104058325.296 8      1767.999          50.750    19466261.280   104058325.297 8      1767.999          49.375    19466271.520    80934287.809 8      1375.110          51.875    19466271.260    80934291.807 8      1375.110          51.750
G11  24825945.840   130461225.733 6      5721.376          37.312    24825945.240   130461225.735 3      5721.376          19.625    24825954.060   101658131.078 3      4458.215          19.687    24825954.640   101658134.094 6      4458.215          39.937
G07  23701753.080   124553560.654 7      5054.270          43.250    23701752.360   124553560.656 7      5054.270          42.125    23701768.560    97054779.432 6      3938.392          41.687    23701769.160    97054787.430 7      3938.392          46.562
G17  21078427.020   110767879.502 7       970.994          44.875    21078427.060   110767879.501 7       970.994          42.437    21078433.020    86312651.676 6       756.619          41.812    21078433.420    86312653.676 7       756.619          47.312
G20  25217901.720   132520972.469 5      4787.535          34.125
G09  20109989.180   105678707.338 8      2658.660          49.250    20109988.060   105678707.343 8      2658.660          51.437    20109994.700    82347064.480 8      2071.684          51.687    20109995.440    82347068.487 8      2071.684          50.750
G19  20505654.980   107757941.325 7      2312.908          47.750    20505653.460   107757941.330 6      2312.908          39.312    20505657.380    83967232.719 6      1802.266          39.187
G06  21445220.060   112695392.504 7      4776.865          46.250    21445218.300   112695392.503 7      4776.865          46.062    21445225.120    87814617.648 7      3722.232          46.250    21445226.800    87814623.645 8      3722.232          48.312
G04  21507758.120   113024027.894 7       455.807          47.750    21507757.220   113024027.899 5       455.807          35.062    21507762.860    88070692.961 5       355.174          35.375    21507763.680    88070693.936 7       355.174          47.125
> 2024 07 31 13 20 29.0000000  0 10
G03  23379197.300   122858522.733 6       406.839          41.000    23379196.980   122858522.736 6       406.839          37.687    23379210.360    95733935.513 6       317.017          37.437    23379210.000    95733945.529 7       317.017          43.625
R05  19465930.920   104056557.624 8      1767.320          50.062    19465930.640   104056557.628 8      1767.320          49.437    19465940.940    80932912.958 8      1374.583          51.875    19465940.500    80932916.956 8      1374.583          51.687
G11  24824857.460   130455504.534 6      5721.177          38.562    24824856.600   130455504.539 3      5721.177          19.625    24824865.460   101653673.005 3      4458.060          19.687    24824866.040   101653676.025 6      4458.060          40.312
G07  23700791.580   124548506.479 7      5054.071          43.875    23700790.640   124548506.482 7      5054.071          42.125    23700806.740    97050841.110 6      3938.237          41.500    23700807.380    97050849.109 7      3938.237          46.250
G17  21078242.520   110766908.884 7       970.220          45.812    21078242.420   110766908.886 7       970.220          43.250    21078248.380    86311895.346 7       756.016          42.562    21078248.700    86311897.344 7       756.016          47.125
G20  25216990.800   132516185.200 5      4787.397          34.375    25216990.560   132516185.300 1      4787.397           1.000    25216995.160   103259369.526 1      3730.439           1.000
G09  20109483.160   105676049.123 8      2657.875          49.750    20109482.220   105676049.131 8      2657.875          50.812    20109488.800    82344993.148 8      2071.072          51.062    20109489.220    82344997.155 8      2071.072          51.375
G19  20505214.920   107755628.800 7      2312.066          47.875    20505213.280   107755628.802 6      2312.066          39.312    20505217.280    83965430.743 6      1801.610          39.500
G06  21444311.240   112690615.842 7      4776.487          45.937    21444309.440   112690615.847 7      4776.487          45.750    21444316.180    87810895.580 7      3721.938          45.687    21444317.640    87810901.579 8      3721.938          48.187
G04  21507671.360   113023572.435 8       455.126          48.062    21507670.720   113023572.445 5       455.126          35.062    21507675.980    88070338.060 5       354.643          35.312    21507676.680    88070339.037 7       354.643          46.875
> 2024 07 31 13 20 30.0000000  0 10
G03  23379119.720   122858116.091 6       406.684          41.875    23379119.580   122858116.090 6       406.684          37.812    23379133.040    95733618.640 6       316.897          37.312    23379132.400    95733628.660 7       316.897          43.562
R05  19465600.480   104054790.744 8      1766.618          49.937    19465600.040   104054790.743 8      1766.618          49.375    19465610.420    80931538.715 8      1374.036          51.500    19465610.060    80931542.713 8      1374.036          52.125
G11  24823768.740   130449783.421 6      5721.181          38.562    24823767.900   130449783.429 3      5721.181          19.625    24823776.920   101649215.000 3      4458.063          19.687    24823777.680   101649218.028 6      4458.063          40.312
G07  23699829.580   124543452.515 7      5054.062          43.750    23699828.800   124543452.514 7      5054.062          42.062    23699845.040    97046902.952 6      3938.230          41.562    23699845.500    97046910.953 7      3938.230          46.500
G17  21078058.080   110765938.936 7       969.650          44.625    21078057.920   110765938.933 7       969.650          42.625    21078063.740    86311139.536 7       755.571          42.125    21078064.400    86311141.532 7       755.571          47.625
G20  25216079.400   132511398.176 5      4786.723          34.375    25216076.220   132511398.131 1      4786.723           1.000    25216090.260   103255639.547 1      3729.914           1.000
G09  20108977.460   105673391.702 8      2657.107          49.625    20108976.460   105673391.704 8      2657.107          51.125    20108983.120    82342922.429 8      2070.473          51.625    20108983.620    82342926.436 8      2070.473          50.625
G19  20504774.940   107753317.154 7      2311.304          47.187    20504773.460   107753317.157 6      2311.304          39.125    20504777.360    83963629.457 6      1801.016          39.062
G06  21443402.340   112685839.551 7      4776.254          45.687    21443400.440   112685839.561 7      4776.254          45.687    21443407.320    87807173.800 7      3721.757          45.625    21443408.680    87807179.802 8      3721.757          48.000
G04  21507584.980   113023117.557 7       454.724          47.437    21507584.080   113023117.564 5       454.724          35.250    21507589.560    88069983.607 5       354.331          35.312    21507590.520    88069984.584 7       354.331          47.500
> 2024 07 31 13 20 31.0000000  0 10
G03  23379042.700   122857709.477 6       406.587          41.375    23379042.340   122857709.482 6       406.587          38.000    23379055.600    95733301.798 6       316.821          37.312    23379054.880    95733311.812 7       316.821          43.687
R05  19465270.320   104053024.545 8      1765.774          49.875    19465269.780   104053024.544 8      1765.774          49.187    19465279.940    80930165.003 8      1373.380          51.625    19465279.660    80930169.003 8      1373.380          52.125
