     3.05           OBSERVATION DATA    MIXED               RINEX VERSION / TYPE
TPS2RIN 1.0.29.3920 TPS-USER            20240801 093646 UTC PGM / RUN BY / DATE
Win64 build Feb 23, 2024 (c) Topcon Positioning Systems     COMMENT
SRC: 20240731_CAMI5.tps                                     COMMENT
OPT: -S -v 3.05                                             COMMENT
Observer            Agency                                  OBSERVER / AGENCY
O0M3X53SBGM         TPS HIPER_SR        4.8 HSR Jul,08,2022 REC # / TYPE / VERS
FW: 4.8 HSR Jul,08,2022 p3                                  COMMENT
SN: HiPer SR 1212-12575                                     COMMENT
000                 TPSHIPER_SR     NONE                    ANT # / TYPE
        1.8000        0.0000        0.0000                  ANTENNA: DELTA H/E/N
CAMI5                                                       MARKER NAME
  5388919.4974 -1597686.6946  3008704.0712                  APPROX POSITION XYZ
  2024     7    31    13    47   19.0000000     GPS         TIME OF FIRST OBS
  2024     7    31    14     2   22.0000000     GPS         TIME OF LAST OBS
     1.000                                                  INTERVAL
   904 EPOCHS                                               COMMENT
G   16 C1C L1C D1C S1C C1W L1W D1W S1W C2W L2W D2W S2W C2X  SYS / # / OBS TYPES
       L2X D2X S2X                                          SYS / # / OBS TYPES
R   16 C1C L1C D1C S1C C1P L1P D1P S1P C2P L2P D2P S2P C2C  SYS / # / OBS TYPES
       L2C D2C S2C                                          SYS / # / OBS TYPES
    13                                                      # OF SATELLITES
   G03   302   302   302   302   298   298   298   298   298PRN / # OF OBS
         298   298   298   286   286   286   286            PRN / # OF OBS
   G04   904   904   904   904   904   904   904   904   904PRN / # OF OBS
         904   904   904   904   904   904   904            PRN / # OF OBS
   G06   904   904   904   904   904   904   904   904   904PRN / # OF OBS
         904   904   904   904   904   904   904            PRN / # OF OBS
   G07   904   904   904   904   904   904   904   904   904PRN / # OF OBS
         904   904   904   904   904   904   904            PRN / # OF OBS
   G09   904   904   904   904   904   904   904   904   904PRN / # OF OBS
         904   904   904   904   904   904   904            PRN / # OF OBS
   G11   904   904   904   904   904   904   904   904   904PRN / # OF OBS
         904   904   904   904   904   904   904            PRN / # OF OBS
   G17   904   904   904   904   904   904   904   904   904PRN / # OF OBS
         904   904   904   904   904   904   904            PRN / # OF OBS
   G19   904   904   904   904   904   904   904   904   904PRN / # OF OBS
         904   904   904     0     0     0     0            PRN / # OF OBS
   G20   904   904   904   904   904   904   904   904   904PRN / # OF OBS
         904   904   904     0     0     0     0            PRN / # OF OBS
   G30   214   214   214   214   197   197   197   197   197PRN / # OF OBS
         197   197   197   188   188   188   188            PRN / # OF OBS
   R04   575   575   575   575   575   575   575   575   575PRN / # OF OBS
         575   575   575   566   566   566   566            PRN / # OF OBS
   R05   904   904   904   904   904   904   904   904   904PRN / # OF OBS
         904   904   904   904   904   904   904            PRN / # OF OBS
   R21   873   873   873   873   873   873   873   873   873PRN / # OF OBS
         873   873   873   873   873   873   873            PRN / # OF OBS
G L1C                                                       SYS / PHASE SHIFT
G L1W -0.25000                                              SYS / PHASE SHIFT
G L2W  0.00000                                              SYS / PHASE SHIFT
G L2X  0.25000                                              SYS / PHASE SHIFT
R L1C                                                       SYS / PHASE SHIFT
R L1P -0.25000                                              SYS / PHASE SHIFT
R L2P -0.25000                                              SYS / PHASE SHIFT
R L2C                                                       SYS / PHASE SHIFT
  3 R04  6 R05  1 R21  4                                    GLONASS SLOT / FRQ #
                                                            GLONASS COD/PHS/BIS
    18    18  1929     7GPS                                 LEAP SECONDS
                                                            END OF HEADER
> 2024 07 31 13 47 19.0000000  0 12
G09  20353613.020   106958957.136 8      1683.535          49.187    20353612.440   106958957.143 8      1683.535          50.312    20353618.300    83344665.395 8      1311.845          50.562    20353618.700    83344667.404 8      1311.845          50.187
R21  23055367.140   123373930.138 6      6759.287          38.375    23055368.180   123373930.174 6      6759.287          39.187    23055381.180    95957556.155 7      5257.224          42.125    23055380.820    95957562.153 6      5257.224          41.375
G20  24664851.300   129614662.205 6      4737.463          39.062    24664850.640   129614662.199 3      4737.463          23.125    24664859.740   100998452.526 3      3691.529          23.187
G11  23974471.940   125986700.267 7      5722.982          42.000    23974471.200   125986700.272 5      5722.982          30.812    23974477.920    98171477.756 5      4459.466          30.687    23974478.560    98171479.744 7      4459.466          46.937
G03  24161864.040   126971451.229 5       402.712          33.812    24161862.100   126971451.226 3       402.712          22.125    24161879.480    98938820.270 3       313.802          22.062    24161880.900    98938847.320 5       313.802          35.187
G06  20954788.520   110118158.273 7      4300.366          47.125    20954787.760   110118158.272 8      4300.366          49.187    20954794.960    85806378.610 8      3350.935          49.000    20954796.140    85806386.607 8      3350.935          51.062
R04  22971057.520   123008978.462 6      -810.310          40.250    22971060.420   123008978.525 6      -810.310          39.312    22971074.120    95673711.229 7      -630.241          42.437    22971073.240    95673713.230 7      -630.241          42.375
G17  21807866.260   114601097.668 8       213.861          48.062    21807865.640   114601097.673 7       213.861          46.125    21807874.520    89299589.979 7       166.645          46.187    21807874.820    89299597.981 7       166.645          47.062
R05  19973452.540   106769550.511 8       929.695          48.875    19973453.080   106769550.526 8       929.695          48.437    19973461.840    83043022.297 8       723.096          50.250    19973462.160    83043022.299 8       723.096          50.062
G07  23089494.440   121336113.056 7      4804.304          45.187    23089494.540   121336113.058 6      4804.304          41.500    23089507.780    94547685.055 6      3743.614          41.875    23089508.420    94547686.070 7      3743.614          43.437
G19  20880420.880   109727345.736 7      1172.453          46.250    20880418.240   109727345.741 6      1172.453          38.437    20880424.660    85501843.355 6       913.599          37.875
G04  22375388.320   117583439.917 7      -160.565          45.437    22375388.180   117583439.921 5      -160.565          33.687    22375395.800    91623473.559 5      -125.116          33.500    22375396.060    91623499.563 8      -125.116          48.062
> 2024 07 31 13 47 20.0000000  0 12
G09  20353292.660   106957273.632 8      1683.402          48.875    20353292.060   106957273.635 8      1683.402          50.312    20353297.860    83343353.573 8      1311.742          51.062    20353298.200    83343355.577 8      1311.742          50.562
R21  23054104.080   123367170.839 6      6759.420          38.375    23054104.920   123367170.862 6      6759.420          39.187    23054118.280    95952298.904 7      5257.326          42.125    23054117.380    95952304.908 6      5257.326          41.187
G20  24663949.780   129609924.586 6      4737.796          39.312    24663948.840   129609924.580 3      4737.796          23.125    24663958.300   100994760.879 3      3691.789          23.187
G11  23973382.980   125980977.307 6      5722.976          41.500    23973382.060   125980977.315 5      5722.976          30.812    23973389.060    98167018.311 5      4459.462          30.687    23973389.780    98167020.297 7      4459.462          46.687
G03  24161786.840   126971048.544 5       402.574          33.875    24161785.620   126971048.546 3       402.574          22.125    24161802.620    98938506.483 3       313.694          22.062    24161804.480    98938533.537 5       313.694          35.187
G06  20953970.360   110113857.817 7      4300.391          47.437    20953969.480   110113857.822 8      4300.391          49.625    20953976.620    85803027.607 8      3350.954          49.562    20953977.700    85803035.609 8      3350.954          51.562
R04  22971209.340   123009788.460 6      -809.905          40.250    22971212.100   123009788.491 6      -809.905          39.312    22971225.140    95674341.203 7      -629.926          42.125    22971224.640    95674343.202 7      -629.926          42.125
G17  21807825.400   114600883.765 8       213.814          48.687    21807824.860   114600883.769 7       213.814          45.937    21807833.900    89299423.293 7       166.608          46.500    21807834.540    89299431.292 7       166.608          47.125
R05  19973279.040   106768620.745 8       929.743          48.875    19973279.100   106768620.749 8       929.743          48.875    19973287.960    83042299.137 8       723.133          50.375    19973288.140    83042299.140 8       723.133          50.625
G07  23088580.000   121331308.684 7      4804.441          45.000    23088580.240   121331308.687 6      4804.441          41.750    23088593.400    94543941.401 7      3743.720          42.062    23088594.140    94543942.415 7      3743.720          43.125
G19  20880197.680   109726173.435 7      1172.097          45.750    20880195.120   109726173.440 6      1172.097          38.187    20880201.500    85500929.870 6       913.323          38.250
G04  22375418.940   117583600.437 7      -160.489          44.312    22375418.760   117583600.450 5      -160.489          33.687    22375426.300    91623598.642 5      -125.056          33.500    22375426.640    91623624.644 7      -125.056          47.875
> 2024 07 31 13 47 21.0000000  0 12
G09  20352972.580   106955590.600 8      1682.704          49.187    20352971.860   106955590.602 8      1682.704          50.250    20352977.720    83342042.114 8      1311.198          50.812    20352978.140    83342044.119 8      1311.198          50.187
R21  23052841.140   123360411.559 6      6759.214          38.375    23052840.820   123360411.577 6      6759.214          39.187    23052854.920    95947041.699 7      5257.166          42.125    23052854.240    95947047.701 6      5257.166          41.187
G20  24663047.980   129605186.895 6      4737.696          39.125    24663047.180   129605186.890 3      4737.696          23.125    24663056.740   100991069.174 3      3691.711          23.187
G11  23972294.120   125975254.229 7      5722.991          42.000    23972293.120   125975254.232 5      5722.991          31.000    23972299.860    98162558.768 5      4459.473          30.812    23972300.720    98162560.766 7      4459.473          46.937
G03  24161709.740   126970645.635 5       402.998          33.875    24161709.260   126970645.637 3       402.998          22.000    24161725.920    98938192.523 3       314.024          22.062    24161727.820    98938219.550 5       314.024          35.187
G06  20953152.080   110109557.632 7      4299.989          46.875    20953151.120   110109557.637 8      4299.989          48.750    20953158.300    85799676.814 8      3350.641          48.937    20953159.520    85799684.811 8      3350.641          51.687
R04  22971361.180   123010598.258 6      -809.859          39.812    22971363.160   123010598.321 6      -809.859          39.312    22971376.760    95674971.062 6      -629.890          41.812    22971375.780    95674973.061 7      -629.890          42.125
G17  21807784.820   114600670.155 8       213.423          48.750    21807784.440   114600670.158 7       213.423          46.312    21807793.220    89299256.830 7       166.303          46.812    21807793.840    89299264.829 7       166.303          47.187
R05  19973104.960   106767691.302 7       929.165          47.312    19973105.200   106767691.311 8       929.165          48.812    19973114.160    83041576.241 8       722.684          50.562    19973114.380    83041576.244 8       722.684          50.687
G07  23087666.060   121326504.455 7      4804.149          45.500    23087665.960   121326504.454 6      4804.149          41.625    23087679.140    94540197.847 6      3743.493          41.375    23087679.860    94540198.855 7      3743.493          42.375
G19  20879974.520   109725001.683 7      1171.407          46.687    20879972.220   109725001.682 6      1171.407          38.187    20879978.600    85500016.804 6       912.785          38.437
G04  22375449.620   117583761.183 7      -160.886          45.187    22375449.340   117583761.199 5      -160.886          33.687    22375456.820    91623723.896 5      -125.366          33.437    22375457.120    91623749.899 7      -125.366          47.750
> 2024 07 31 13 47 22.0000000  0 12
G09  20352652.220   106953907.961 8      1682.451          50.250    20352651.620   106953907.968 8      1682.451          50.250    20352657.480    83340730.971 8      1311.001          50.750    20352658.080    83340732.974 8      1311.001          49.875
R21  23051577.960   123353652.298 6      6759.187          38.375    23051577.060   123353652.340 6      6759.187          38.812    23051591.940    95941784.525 7      5257.145          42.312    23051591.220    95941790.529 6      5257.145          41.375
G20  24662146.880   129600449.026 6      4738.006          39.125    24662145.480   129600449.023 3      4738.006          23.125    24662155.040   100987377.330 3      3691.953          23.187
G11  23971204.660   125969531.065 7      5723.227          42.562    23971204.080   125969531.067 5      5723.227          31.000    23971210.840    98158099.155 5      4459.657          30.812    23971211.240    98158101.160 7      4459.657          46.750
G03  24161633.660   126970242.637 5       403.220          33.875    24161632.720   126970242.637 3       403.220          22.000    24161648.980    98937878.495 3       314.198          21.687    24161650.700    98937905.531 5       314.198          33.937
G06  20952333.880   110105257.636 7      4300.018          47.312    20952332.760   110105257.638 8      4300.018          48.875    20952340.080    85796326.164 8      3350.664          48.750    20952341.020    85796334.165 8      3350.664          51.312
R04  22971512.200   123011407.873 6      -809.301          39.812    22971514.660   123011407.942 6      -809.301          39.062    22971527.860    95675600.765 6      -629.457          41.812    22971527.040    95675602.765 7      -629.457          42.125
G17  21807744.020   114600456.796 8       213.296          48.250    21807743.820   114600456.795 7       213.296          46.500    21807752.600    89299090.561 7       166.205          46.750    21807753.140    89299098.560 7       166.205          46.812
R05  19972931.340   106766762.094 8       929.096          48.250    19972931.040   106766762.106 8       929.096          48.500    19972940.500    83040853.526 8       722.630          51.125    19972940.420    83040853.525 8       722.630          50.625
G07  23086752.060   121321700.301 7      4804.069          46.000    23086751.760   121321700.301 6      4804.069          41.750    23086764.860    94536454.361 6      3743.430          41.125    23086765.600    94536455.373 7      3743.430          42.937
G19  20879751.700   109723830.432 7      1171.055          46.125    20879749.280   109723830.437 6      1171.055          38.562    20879755.700    85499104.139 6       912.510          38.562
G04  22375480.520   117583922.077 7      -160.938          45.437    22375479.900   117583922.095 5      -160.938          33.937    22375487.400    91623849.264 5      -125.406          33.437    22375487.580    91623875.264 7      -125.406          47.937
> 2024 07 31 13 47 23.0000000  0 12
G09  20352332.260   106952225.892 8      1681.709          49.437    20352331.560   106952225.902 8      1681.709          50.937    20352337.440    83339420.269 8      1310.422          51.000    20352338.120    83339422.271 8      1310.422          50.312
R21  23050315.180   123346893.227 6      6758.965          38.375    23050314.340   123346893.253 6      6758.965          38.812    23050328.600    95936527.455 7      5256.972          42.062    23050328.200    95936533.463 6      5256.972          41.125
G20  24661245.000   129595711.225 6      4737.657          38.000    24661243.860   129595711.222 3      4737.657          22.375    24661253.480   100983685.542 3      3691.680          23.187
G11  23970115.540   125963807.966 6      5722.975          41.562    23970115.020   125963807.973 5      5722.975          31.000    23970121.620    98153639.602 5      4459.461          30.812    23970122.060    98153641.600 7      4459.461          46.312
G03  24161556.080   126969839.681 5       402.845          34.562    24161555.640   126969839.678 3       402.845          22.000    24161572.260    98937564.493 3       313.905          21.687    24161573.920    98937591.529 5       313.905          33.937
G06  20951515.640   110100958.042 7      4299.328          47.125    20951514.680   110100958.050 8      4299.328          48.937    20951521.960    85792975.837 8      3350.126          49.000    20951523.020    85792983.837 8      3350.126          51.125
R04  22971663.320   123012217.529 6      -809.648          39.812    22971665.840   123012217.598 6      -809.648          39.062    22971678.860    95676230.493 7      -629.726          42.062    22971678.560    95676232.491 7      -629.726          42.312
G17  21807703.460   114600243.838 8       212.653          48.125    21807703.340   114600243.840 7       212.653          46.625    21807712.140    89298924.614 7       165.704          47.125    21807712.460    89298932.615 7       165.704          46.937
R05  19972757.480   106765833.338 8       928.432          48.875    19972757.420   106765833.345 8       928.432          48.375    19972766.680    83040131.152 8       722.114          50.625    19972766.700    83040131.151 8       722.114          50.625
G07  23085837.600   121316896.384 7      4803.813          46.000    23085837.740   121316896.376 6      4803.813          41.500    23085850.780    94532711.047 6      3743.231          41.500    23085851.560    94532712.059 7      3743.231          42.937
G19  20879528.820   109722659.863 7      1170.196          46.625    20879526.840   109722659.865 6      1170.196          38.437    20879533.020    85498191.999 6       911.841          38.312
G04  22375511.180   117584083.291 7      -161.502          45.000    22375510.420   117584083.306 5      -161.502          33.937    22375518.060    91623974.881 5      -125.846          33.937    22375518.320    91624000.883 7      -125.846          47.875
> 2024 07 31 13 47 24.0000000  0 12
G09  20352012.220   106950544.294 8      1681.415          48.937    20352011.560   106950544.302 8      1681.415          50.500    20352017.560    83338109.928 8      1310.194          50.937    20352018.300    83338111.931 8      1310.194          50.062
R21  23049052.320   123340134.225 6      6759.155          36.875    23049051.100   123340134.243 6      6759.155          38.812    23049065.620    95931270.439 7      5257.120          42.187    23049065.160    95931276.439 6      5257.120          41.125
G20  24660343.700   129590973.333 6      4737.989          37.812    24660342.180   129590973.330 3      4737.989          22.375    24660351.800   100979993.679 3      3691.939          22.312
G11  23969026.600   125958084.815 6      5723.151          41.937    23969025.940   125958084.819 5      5723.151          30.937    23969032.520    98149179.999 5      4459.598          30.625    23969033.180    98149181.995 7      4459.598          46.875
G03  24161479.600   126969436.614 5       402.721          34.562    24161478.760   126969436.604 3       402.721          22.000    24161495.220    98937250.407 3       313.808          21.687    24161496.880    98937277.439 5       313.808          33.937
G06  20950697.400   110096658.703 7      4299.247          47.375    20950696.700   110096658.703 8      4299.247          49.187    20950703.800    85789625.699 8      3350.063          49.375    20950704.860    85789633.696 8      3350.063          51.125
R04  22971814.320   123013027.035 6      -809.451          39.812    22971817.440   123013027.104 6      -809.451          39.062    22971829.880    95676860.103 7      -629.573          42.125    22971829.640    95676862.106 7      -629.573          42.375
G17  21807663.220   114600031.185 8       212.474          48.500    21807663.040   114600031.185 7       212.474          46.750    21807671.720    89298758.898 7       165.564          47.125    21807672.140    89298766.906 7       165.564          47.250
R05  19972583.700   106764904.877 8       928.316          48.500    19972583.680   106764904.886 8       928.316          48.812    19972593.080    83039409.017 8       722.023          50.687    19972592.960    83039409.014 8       722.023          51.125
G07  23084923.600   121312092.630 7      4803.724          45.375    23084923.680   121312092.625 6      4803.724          41.375    23084936.520    94528967.871 6      3743.162          41.562    23084937.300    94528968.882 7      3743.162          43.125
G19  20879306.020   109721489.850 7      1169.678          47.125    20879304.200   109721489.852 6      1169.678          38.437    20879310.320    85497280.297 6       911.438          38.187
G04  22375541.680   117584244.699 7      -161.520          44.875    22375541.160   117584244.714 5      -161.520          33.625    22375549.040    91624100.652 5      -125.859          33.937    22375549.100    91624126.656 7      -125.859          47.687
> 2024 07 31 13 47 25.0000000  0 12
G09  20351692.360   106948863.169 8      1680.818          49.062    20351691.660   106948863.174 8      1680.818          50.625    20351697.560    83336799.959 8      1309.728          51.062    20351698.240    83336801.959 8      1309.728          49.937
R21  23047788.820   123333375.299 6      6758.873          36.875    23047787.020   123333375.322 6      6758.873          38.812    23047802.340    95926013.517 7      5256.901          42.187    23047802.100    95926019.519 6      5256.901          41.125
G20  24659441.780   129586235.361 6      4737.888          38.000    24659440.560   129586235.358 3      4737.888          22.375    24659450.100   100976301.751 3      3691.860          22.312
G11  23967937.200   125952361.595 6      5723.236          41.750    23967936.980   125952361.605 5      5723.236          30.937    23967943.580    98144720.347 5      4459.665          30.625    23967944.100    98144722.354 7      4459.665          46.812
G03  24161403.700   126969033.409 5       403.260          34.812    24161402.400   126969033.393 3       403.260          22.000    24161418.340    98936936.208 3       314.228          21.687    24161418.820    98936963.238 5       314.228          33.937
G06  20949879.180   110092359.630 7      4298.867          47.562    20949878.580   110092359.629 8      4298.867          49.187    20949885.700    85786275.769 8      3349.766          49.500    20949886.680    85786283.767 8      3349.766          51.062
R04  22971965.520   123013836.391 6      -809.345          39.187    22971969.140   123013836.462 6      -809.345          39.062    22971980.700    95677489.606 7      -629.491          42.062    22971980.940    95677491.605 7      -629.491          42.000
G17  21807622.800   114599818.826 8       212.143          48.562    21807622.520   114599818.826 7       212.143          46.500    21807631.280    89298593.417 7       165.306          46.937    21807631.680    89298601.423 7       165.306          47.250
R05  19972409.940   106763976.765 8       927.847          48.437    19972410.180   106763976.777 8       927.847          48.375    19972419.380    83038687.155 8       721.658          50.437    19972419.460    83038687.151 8       721.658          50.125
G07  23084009.560   121307288.995 7      4803.565          45.562    23084009.640   121307288.992 6      4803.565          41.000    23084022.400    94525224.784 6      3743.038          41.437    23084023.160    94525225.796 7      3743.038          42.187
G19  20879083.540   109720320.395 7      1169.116          46.625    20879081.620   109720320.399 6      1169.116          38.125    20879087.720    85496369.029 6       911.000          38.187
G04  22375572.520   117584406.323 7      -161.784          45.187    22375571.960   117584406.336 5      -161.784          33.625    22375579.820    91624226.588 5      -126.066          33.687    22375580.080    91624252.595 7      -126.066          47.812
> 2024 07 31 13 47 26.0000000  0 12
G09  20351372.540   106947182.580 8      1680.266          49.000    20351371.840   106947182.587 8      1680.266          50.437    20351377.760    83335490.408 8      1309.298          50.812    20351378.320    83335492.409 8      1309.298          50.812
R21  23046525.860   123326616.522 6      6758.526          36.875    23046524.000   123326616.540 6      6758.526          38.125    23046539.680    95920756.686 7      5256.631          42.312    23046539.140    95920762.697 6      5256.631          41.312
G20  24658540.380   129581497.353 6      4738.068          38.375    24658538.860   129581497.353 3      4738.068          22.375    24658548.380   100972609.801 3      3692.001          22.312
G11  23966848.200   125946638.441 6      5723.002          41.625    23966847.840   125946638.454 5      5723.002          30.937    23966854.580    98140260.747 5      4459.482          30.625    23966855.160    98140262.747 7      4459.482          46.687
G03  24161327.080   126968630.213 5       403.192          34.812    24161326.020   126968630.200 3       403.192          22.000    24161341.520    98936622.028 3       314.176          21.687    24161342.000    98936649.073 5       314.176          33.937
G06  20949061.300   110088060.893 7      4298.517          47.437    20949060.600   110088060.897 8      4298.517          48.812    20949067.660    85782926.110 8      3349.494          48.937    20949068.400    85782934.109 8      3349.494          51.062
R04  22972116.180   123014645.698 6      -809.142          39.187    22972120.540   123014645.762 6      -809.142          39.250    22972132.320    95678119.057 7      -629.333          42.062    22972131.920    95678121.052 7      -629.333          42.000
G17  21807582.460   114599606.846 8       211.670          49.437    21807582.180   114599606.848 7       211.670          46.562    21807591.040    89298428.234 7       164.938          46.500    21807591.280    89298436.242 7       164.938          47.062
R05  19972236.520   106763049.062 8       927.465          48.812    19972236.480   106763049.077 8       927.465          48.062    19972245.980    83037965.608 8       721.361          50.812    19972245.840    83037965.604 8       721.361          50.437
G07  23083095.420   121302485.582 7      4803.280          45.875    23083095.560   121302485.582 6      4803.280          41.250    23083108.340    94521481.869 6      3742.816          41.875    23083108.700    94521482.879 7      3742.816          43.000
G19  20878861.280   109719151.585 7      1168.373          47.187    20878859.220   109719151.588 6      1168.373          38.437    20878865.320    85495458.262 6       910.421          38.125
G04  22375603.180   117584568.231 7      -162.059          45.000    22375602.820   117584568.241 5      -162.059          33.562    22375610.680    91624352.742 5      -126.280          33.687    22375611.020    91624378.753 7      -126.280          47.687
> 2024 07 31 13 47 27.0000000  0 12
G09  20351052.900   106945502.440 8      1679.862          49.500    20351052.060   106945502.444 8      1679.862          50.750    20351058.100    83334181.204 8      1308.983          50.687    20351058.760    83334183.207 8      1308.983          50.750
R21  23045262.080   123319857.769 6      6758.567          36.875    23045260.900   123319857.795 6      6758.567          38.125    23045276.720    95915499.891 6      5256.663          41.687    23045276.060    95915505.897 6      5256.663          41.062
G20  24657638.920   129576759.313 6      4737.988          38.375    24657637.100   129576759.313 3      4737.988          22.375    24657646.740   100968917.824 3      3691.939          22.312
G11  23965759.220   125940915.192 6      5723.235          41.562    23965758.620   125940915.200 5      5723.235          30.937    23965765.560    98135801.072 5      4459.663          30.625    23965766.180    98135803.067 7      4459.663          46.750
G03  24161250.160   126968226.945 5       403.134          34.812    24161249.200   126968226.934 3       403.134          22.000    24161264.660    98936307.782 3       314.131          21.687    24161266.180    98936334.800 5       314.131          33.937
G06  20948243.380   110083762.408 8      4298.325          48.125    20948242.600   110083762.415 8      4298.325          49.187    20948249.680    85779576.639 8      3349.344          49.437    20948250.440    85779584.639 8      3349.344          51.250
R04  22972267.080   123015454.862 6      -809.087          39.187    22972271.420   123015454.946 6      -809.087          39.250    22972283.540    95678748.416 7      -629.290          42.125    22972283.220    95678750.412 7      -629.290          42.500
G17  21807542.080   114599395.131 8       211.598          48.812    21807541.920   114599395.134 7       211.598          46.562    21807550.860    89298263.247 7       164.882          47.125    21807551.340    89298271.253 7       164.882          47.375
R05  19972063.000   106762121.707 8       927.152          48.500    19972062.960   106762121.716 7       927.152          47.875    19972072.480    83037244.327 8       721.118          51.062    19972072.460    83037244.322 8       721.118          50.562
G07  23082181.520   121297682.291 7      4803.240          45.250    23082181.520   121297682.288 6      4803.240          41.875    23082194.460    94517739.047 7      3742.784          42.000    23082194.740    94517740.060 7      3742.784          42.937
G19  20878638.760   109717983.310 7      1167.909          46.625    20878637.020   109717983.314 6      1167.909          38.875    20878643.160    85494547.915 6       910.059          38.500
G04  22375633.860   117584730.354 7      -162.375          44.875    22375633.660   117584730.369 5      -162.375          33.750    22375641.400    91624479.072 5      -126.526          33.812    22375641.760    91624505.084 7      -126.526          47.875
> 2024 07 31 13 47 28.0000000  0 12
G09  20350733.240   106943822.907 8      1679.202          49.437    20350732.420   106943822.911 8      1679.202          50.750    20350738.520    83332872.477 8      1308.469          50.625    20350739.280    83332874.478 8      1308.469          50.687
R21  23044000.120   123313099.249 6      6758.501          36.875    23043997.300   123313099.264 6      6758.501          38.125    23044013.560    95910243.265 6      5256.612          41.812    23044012.840    95910249.271 6      5256.612          41.062
G20  24656737.280   129572021.305 6      4737.788          38.625    24656735.280   129572021.307 3      4737.788          22.375    24656745.040   100965225.869 3      3691.783          22.312
G11  23964669.980   125935192.028 6      5723.063          41.812    23964669.400   125935192.035 5      5723.063          30.937    23964676.440    98131341.468 5      4459.530          30.625    23964677.340    98131343.477 7      4459.530          46.750
G03  24161173.300   126967823.639 5       403.404          35.562    24161172.520   126967823.631 3       403.404          22.000    24161187.760    98935993.512 3       314.341          21.687    24161188.420    98936020.547 5       314.341          33.937
G06  20947425.580   110079464.325 7      4297.884          47.750    20947424.800   110079464.329 8      4297.884          49.062    20947431.820    85776227.484 8      3349.001          48.812    20947432.640    85776235.483 8      3349.001          51.000
R04  22972418.420   123016264.019 6      -809.223          39.187    22972423.360   123016264.096 6      -809.223          39.250    22972434.680    95679377.755 7      -629.395          42.062    22972434.440    95679379.754 7      -629.395          42.875
G17  21807502.020   114599183.884 8       211.044          48.562    21807501.640   114599183.884 7       211.044          46.875    21807510.700    89298098.627 7       164.450          47.125    21807511.060    89298106.626 7       164.450          47.250
R05  19971889.480   106761194.822 8       926.660          48.937    19971889.540   106761194.828 8       926.660          48.250    19971899.020    83036523.415 8       720.736          49.125    19971899.020    83036523.409 8       720.736          50.687
G07  23081267.680   121292879.272 7      4802.876          45.312    23081267.440   121292879.277 6      4802.876          41.375    23081280.460    94513996.439 6      3742.501          41.500    23081281.100    94513997.453 7      3742.501          42.937
G19  20878416.660   109716815.733 7      1167.285          46.312    20878414.960   109716815.735 6      1167.285          38.187    20878420.820    85493638.105 6       909.573          38.875
G04  22375664.860   117584892.789 7      -162.667          45.312    22375664.640   117584892.802 5      -162.667          33.750    22375672.520    91624605.643 5      -126.754          33.812    22375672.740    91624631.649 7      -126.754          47.375
> 2024 07 31 13 47 29.0000000  0 12
G09  20350413.740   106942143.749 8      1679.020          48.812    20350412.960   106942143.757 8      1679.020          49.562    20350419.020    83331564.047 8      1308.327          49.812    20350419.660    83331566.048 8      1308.327          50.437
R21  23042736.940   123306340.745 6      6758.644          37.625    23042735.140   123306340.736 6      6758.644          38.125    23042750.460    95904986.646 6      5256.723          41.812    23042749.940    95904992.652 6      5256.723          40.875
G20  24655835.560   129567283.115 6      4738.487          38.062    24655833.420   129567283.117 3      4738.487          22.375    24655843.200   100961533.778 3      3692.328          22.312
G11  23963581.020   125929468.755 6      5723.386          41.625    23963580.180   125929468.763 5      5723.386          30.937    23963587.360    98126881.773 5      4459.781          30.625    23963588.380    98126883.776 7      4459.781          47.312
G03  24161096.460   126967420.257 5       403.379          35.562    24161095.720   126967420.254 3       403.379          20.875    24161110.800    98935679.181 3       314.321          21.687    24161109.480    98935706.223 5       314.321          33.937
G06  20946607.660   110075166.447 8      4297.783          48.437    20946606.900   110075166.451 8      4297.783          48.312    20946613.920    85772878.488 8      3348.921          48.250    20946614.860    85772886.485 8      3348.921          50.812
R04  22972569.840   123017072.920 6      -808.758          39.187    22972574.480   123017072.997 6      -808.758          39.250    22972585.860    95680006.894 7      -629.034          42.062    22972585.680    95680008.887 7      -629.034          42.375
G17  21807461.780   114598972.847 8       210.988          48.500    21807461.580   114598972.847 7       210.988          46.687    21807470.460    89297934.170 7       164.407          46.750    21807470.680    89297942.171 7       164.407          47.250
R05  19971716.280   106760268.201 8       926.542          48.937    19971716.080   106760268.205 8       926.542          48.375    19971725.700    83035802.702 8       720.644          50.312    19971725.920    83035802.700 8       720.644          51.062
G07  23080353.540   121288076.330 7      4802.819          45.812    23080353.380   121288076.340 6      4802.819          41.812    23080366.680    94510253.895 6      3742.457          41.750    23080366.880    94510254.907 7      3742.457          42.875
G19  20878194.880   109715648.658 7      1166.843          47.187    20878192.940   109715648.662 6      1166.843          38.500    20878198.800    85492728.692 6       909.228          38.250
G04  22375695.700   117585055.375 7      -162.665          44.937    22375695.380   117585055.385 5      -162.665          33.812    22375703.400    91624732.329 5      -126.752          33.812    22375703.540    91624758.335 7      -126.752          47.875
> 2024 07 31 13 47 30.0000000  0 12
G09  20350094.320   106940465.086 8      1678.498          50.375    20350093.540   106940465.094 8      1678.498          50.937    20350099.600    83330255.998 8      1307.921          51.187    20350100.160    83330258.001 8      1307.921          50.812
R21  23041473.780   123299582.247 6      6758.640          37.625    23041471.660   123299582.259 6      6758.640          38.125    23041487.460    95899730.051 6      5256.720          41.687    23041486.780    95899736.063 6      5256.720          40.812
G20  24654933.620   129562544.897 6      4738.378          38.625    24654931.680   129562544.899 3      4738.378          21.562    24654941.600   100957841.661 3      3692.243          22.312
G11  23962492.060   125923745.441 7      5723.369          42.687    23962491.100   125923745.451 5      5723.369          30.937    23962498.280    98122422.054 5      4459.768          30.625    23962498.880    98122424.054 7      4459.768          46.875
G03  24161020.440   126967016.752 5       403.548          35.812    24161018.900   126967016.752 3       403.548          20.875    24161033.660    98935364.757 3       314.453          21.687    24161032.080    98935391.797 5       314.453          33.937
G06  20945789.840   110070868.826 8      4297.599          48.125    20945789.000   110070868.831 8      4297.599          48.687    20945796.160    85769529.692 8      3348.779          48.937    20945797.060    85769537.690 8      3348.779          50.687
R04  22972720.740   123017881.698 6      -808.627          39.187    22972725.220   123017881.785 6      -808.627          39.625    22972736.780    95680635.953 6      -628.932          41.750    22972736.560    95680637.951 7      -628.932          42.375
G17  21807421.580   114598762.123 8       210.683          48.375    21807421.300   114598762.122 7       210.683          47.062    21807430.400    89297769.959 7       164.169          47.000    21807430.860    89297777.958 7       164.169          46.937
R05  19971543.120   106759341.899 8       926.275          48.500    19971542.780   106759341.908 8       926.275          48.000    19971552.540    83035082.249 8       720.436          51.000    19971552.560    83035082.247 8       720.436          50.687
G07  23079439.440   121283273.519 7      4802.844          46.125    23079439.520   121283273.522 6      4802.844          41.750    23079452.740    94506511.441 6      3742.476          41.812    23079452.840    94506512.446 7      3742.476          43.125
G19  20877972.680   109714482.137 7      1166.367          46.562    20877971.020   109714482.142 6      1166.367          38.250    20877976.920    85491819.708 6       908.857          37.937
G04  22375726.860   117585218.171 7      -162.734          45.062    22375726.260   117585218.178 5      -162.734          33.562    22375734.340    91624859.179 5      -126.806          33.375    22375734.600    91624885.183 7      -126.806          47.812
> 2024 07 31 13 47 31.0000000  0 12
G09  20349775.000   106938786.912 8      1678.024          49.937    20349774.200   106938786.914 8      1678.024          51.187    20349780.280    83328948.323 8      1307.551          51.187    20349780.740    83328950.324 8      1307.551          50.375
R21  23040211.160   123292823.901 6      6758.382          37.625    23040209.240   123292823.897 6      6758.382          38.125    23040224.520    95894473.547 7      5256.519          42.062    23040224.060    95894479.555 6      5256.519          40.812
G20  24654032.060   129557806.628 6      4738.359          38.625    24654029.780   129557806.628 3      4738.359          21.562    24654040.020   100954149.504 3      3692.228          22.312
G11  23961402.960   125918022.090 6      5723.469          41.625    23961401.920   125918022.103 5      5723.469          30.937    23961409.280    98117962.302 5      4459.846          30.687    23961409.800    98117964.304 7      4459.846          47.437
G03  24160943.960   126966613.215 5       403.506          35.812    24160942.460   126966613.210 3       403.506          20.875    24160956.700    98935050.298 3       314.420          20.875    24160956.720    98935077.304 5       314.420          33.937
G06  20944971.980   110066571.518 8      4297.291          48.812    20944971.260   110066571.518 8      4297.291          49.562    20944978.420    85766181.139 8      3348.538          49.500    20944979.260    85766189.136 8      3348.538          50.687
R04  22972871.060   123018690.387 6      -808.465          39.187    22972876.140   123018690.461 6      -808.465          39.625    22972887.660    95681264.928 7      -628.806          42.250    22972887.680    95681266.921 7      -628.806          43.062
G17  21807381.780   114598551.722 7       210.380          47.562    21807381.280   114598551.721 7       210.380          46.812    21807390.380    89297606.004 7       163.933          47.000    21807390.800    89297614.005 7       163.933          46.750
R05  19971369.820   106758415.952 8       925.862          49.062    19971369.460   106758415.959 8       925.862          48.437    19971379.360    83034362.066 8       720.115          51.187    19971379.480    83034362.064 8       720.115          50.812
G07  23078525.520   121278470.882 7      4802.645          46.812    23078525.560   121278470.884 6      4802.645          41.750    23078539.020    94502769.128 7      3742.321          42.125    23078539.100    94502770.150 7      3742.321          43.562
G19  20877750.900   109713316.213 7      1165.836          46.562    20877749.180   109713316.215 6      1165.836          37.875    20877755.020    85490911.190 6       908.444          38.312
G04  22375757.880   117585381.216 7      -163.062          43.812    22375757.280   117585381.224 5      -163.062          33.562    22375765.340    91624986.223 5      -127.062          33.375    22375765.520    91625012.233 7      -127.062          47.687
> 2024 07 31 13 47 32.0000000  0 12
G09  20349455.740   106937109.249 8      1677.389          49.625    20349454.900   106937109.257 8      1677.389          51.000    20349461.000    83327641.058 8      1307.057          50.875    20349461.760    83327643.061 8      1307.057          50.062
R21  23038948.180   123286065.646 6      6758.327          37.625    23038946.080   123286065.658 6      6758.327          38.125    23038961.240    95889217.143 6      5256.477          41.687    23038961.140    95889223.155 6      5256.477          41.125
G20  24653130.680   129553068.331 6      4738.144          38.250    24653127.900   129553068.338 3      4738.144          21.562    24653138.440   100950457.328 3      3692.061          21.812
G11  23960314.000   125912298.784 7      5723.282          42.312    23960312.820   125912298.796 5      5723.282          30.937    23960320.060    98113502.582 5      4459.700          30.687    23960320.920    98113504.581 7      4459.700          47.125
G03  24160867.220   126966209.594 6       403.592          36.312    24160865.920   126966209.591 3       403.592          20.875    24160879.640    98934735.782 3       314.488          20.875    24160881.240    98934762.798 5       314.488          33.937
G06  20944154.500   110062274.531 8      4296.882          48.125    20944153.660   110062274.528 8      4296.882          49.062    20944160.720    85762832.831 8      3348.220          48.937    20944161.600    85762840.830 8      3348.220          50.875
R04  22973023.060   123019499.006 6      -808.480          39.187    22973027.480   123019499.099 6      -808.480          39.625    22973038.920    95681893.860 7      -628.818          42.125    22973038.560    95681895.853 7      -628.818          42.500
G17  21807341.680   114598341.686 8       209.857          48.125    21807341.320   114598341.691 7       209.857          47.000    21807350.440    89297442.329 7       163.525          47.187    21807350.840    89297450.333 7       163.525          47.375
R05  19971196.900   106757490.361 8       925.408          49.000    19971196.060   106757490.370 8       925.408          48.687    19971206.200    83033642.161 8       719.762          50.437    19971206.360    83033642.158 8       719.762          50.687
G07  23077611.640   121273668.434 7      4802.376          46.062    23077611.600   121273668.439 6      4802.376          41.875    23077625.440    94499026.969 7      3742.111          42.125    23077625.720    94499027.993 7      3742.111          43.937
G19  20877529.420   109712150.919 7      1165.054          46.562    20877527.340   109712150.919 6      1165.054          38.125    20877533.260    85490003.161 6       907.834          38.062
G04  22375789.360   117585544.519 7      -163.382          43.875    22375788.420   117585544.524 5      -163.382          33.437    22375796.520    91625113.470 5      -127.311          33.312    22375796.580    91625139.472 7      -127.311          47.875
> 2024 07 31 13 47 33.0000000  0 12
G09  20349136.620   106935432.215 8      1676.702          49.562    20349135.800   106935432.223 8      1676.702          51.000    20349141.960    83326334.276 8      1306.521          51.000    20349142.640    83326336.279 8      1306.521          50.875
R21  23037685.160   123279307.701 6      6757.691          37.625    23037682.760   123279307.711 6      6757.691          38.125    23037698.600    95883960.980 6      5255.982          41.687    23037698.120    95883966.989 6      5255.982          40.750
G20  24652229.620   129548330.084 6      4738.157          38.375    24652226.260   129548330.091 3      4738.157          21.562    24652236.640   100946765.190 3      3692.070          21.812
G11  23959224.900   125906575.553 7      5723.168          42.187    23959223.540   125906575.563 5      5723.168          30.687    23959231.000    98109042.925 5      4459.611          30.687    23959231.820    98109044.919 7      4459.611          47.500
G03  24160790.020   126965806.081 6       403.304          36.312    24160789.300   126965806.076 3       403.304          20.875    24160802.520    98934421.350 3       314.263          20.875    24160804.880    98934448.391 5       314.263          30.750
G06  20943336.700   110057977.969 8      4296.341          48.687    20943335.980   110057977.971 8      4296.341          49.062    20943343.220    85759484.863 8      3347.798          49.250    20943344.000    85759492.862 8      3347.798          51.062
R04  22973174.320   123020307.703 6      -808.760          39.187    22973178.280   123020307.791 6      -808.760          39.625    22973189.800    95682522.832 7      -629.035          42.125    22973189.780    95682524.825 7      -629.035          42.562
G17  21807301.760   114598132.105 8       209.306          48.312    21807301.400   114598132.104 7       209.306          46.812    21807310.520    89297279.005 7       163.095          46.562    21807311.120    89297287.008 7       163.095          47.000
R05  19971023.540   106756565.272 8       924.767          48.562    19971022.900   106756565.279 8       924.767          48.250    19971033.220    83032922.646 8       719.263          49.937    19971033.200    83032922.640 8       719.263          50.812
G07  23076697.800   121268866.309 7      4801.875          46.437    23076697.700   121268866.314 6      4801.875          41.625    23076711.700    94495285.057 6      3741.721          41.500    23076711.860    94495286.083 7      3741.721          43.687
G19  20877307.600   109710986.348 7      1164.184          47.250    20877305.860   109710986.350 6      1164.184          38.312    20877311.760    85489095.698 6       907.157          37.937
G04  22375820.100   117585708.205 7      -164.019          43.187    22375819.460   117585708.213 5      -164.019          33.437    22375827.540    91625241.016 5      -127.807          33.312    22375827.860    91625267.016 7      -127.807          47.687
> 2024 07 31 13 47 34.0000000  0 12
G09  20348817.600   106933755.814 8      1676.220          48.937    20348816.860   106933755.819 8      1676.220          51.187    20348822.960    83325027.988 8      1306.146          51.250    20348823.540    83325029.990 8      1306.146          50.375
R21  23036421.480   123272549.928 6      6757.787          37.562    23036420.460   123272549.932 6      6757.787          38.125    23036436.080    95878704.932 6      5256.056          41.937    23036435.000    95878710.940 6      5256.056          40.750
G20  24651327.860   129543591.907 6      4738.523          38.375    24651324.440   129543591.917 3      4738.523          21.562    24651335.020   100943073.108 3      3692.355          21.812
G11  23958135.620   125900852.460 7      5723.023          42.437    23958134.380   125900852.472 5      5723.023          30.687    23958141.980    98104583.373 5      4459.499          30.750    23958142.980    98104585.376 7      4459.499          47.375
G03  24160713.040   126965402.607 6       403.480          36.875    24160712.820   126965402.602 3       403.480          20.875    24160725.320    98934106.945 3       314.400          20.875    24160727.320    98934133.983 5       314.400          30.750
G06  20942519.300   110053681.833 8      4296.063          48.312    20942518.480   110053681.838 8      4296.063          49.250    20942525.580    85756137.228 8      3347.582          49.125    20942526.640    85756145.230 8      3347.582          50.875
R04  22973325.640   123021116.454 6      -808.676          39.187    22973329.540   123021116.520 6      -808.676          39.062    22973341.380    95683151.840 7      -628.970          42.187    22973340.740    95683153.841 7      -628.970          42.500
G17  21807262.260   114597922.991 7       209.013          47.562    21807261.640   114597922.985 7       209.013          46.812    21807270.840    89297116.045 7       162.867          47.000    21807271.320    89297124.046 7       162.867          47.375
R05  19970850.440   106755640.664 8       924.462          48.375    19970849.960   106755640.679 8       924.462          48.187    19970860.320    83032203.510 8       719.026          51.000    19970860.400    83032203.507 8       719.026          51.062
G07  23075784.140   121264064.468 7      4801.771          46.312    23075783.800   121264064.470 6      4801.771          41.500    23075797.840    94491543.369 7      3741.640          42.125    23075797.960    94491544.391 7      3741.640          43.937
G19  20877086.260   109709822.492 7      1163.670          46.875    20877084.620   109709822.497 6      1163.670          38.437    20877090.180    85488188.793 6       906.755          38.625
G04  22375851.400   117585872.233 7      -164.093          43.125    22375850.480   117585872.244 5      -164.093          33.750    22375858.860    91625368.826 5      -127.865          33.750    22375858.980    91625394.840 7      -127.865          47.687
> 2024 07 31 13 47 35.0000000  0 12
G09  20348498.480   106932079.862 8      1675.710          48.875    20348497.880   106932079.870 8      1675.710          51.125    20348504.020    83323722.051 8      1305.748          51.250    20348504.800    83323724.054 8      1305.748          50.125
R21  23035158.940   123265792.205 6      6757.703          37.562    23035157.660   123265792.214 6      6757.703          38.125    23035172.840    95873448.926 7      5255.992          42.437    23035172.280    95873454.928 6      5255.992          41.312
G20  24650425.800   129538853.720 6      4738.335          38.375    24650422.900   129538853.730 3      4738.335          21.562    24650433.540   100939381.017 3      3692.209          21.812
G11  23957046.660   125895129.293 7      5723.125          42.187    23957045.340   125895129.303 5      5723.125          30.687    23957052.880    98100123.764 5      4459.578          30.750    23957054.060    98100125.759 7      4459.578          47.375
G03  24160636.140   126964999.039 6       403.721          36.875    24160636.200   126964999.034 3       403.721          20.875    24160648.540    98933792.462 3       314.588          20.875    24160652.080    98933819.467 5       314.588          30.750
G06  20941701.660   110049385.957 7      4295.701          47.312    20941700.940   110049385.962 8      4295.701          49.250    20941708.220    85752789.793 8      3347.299          49.125    20941709.000    85752797.792 8      3347.299          50.875
R04  22973475.660   123021924.977 6      -808.365          39.000    22973481.120   123021925.038 6      -808.365          39.062    22973492.240    95683780.687 7      -628.728          42.312    22973491.820    95683782.682 7      -628.728          43.125
G17  21807222.400   114597714.153 7       208.692          47.062    21807221.740   114597714.150 7       208.692          46.875    21807231.120    89296953.306 7       162.617          46.750    21807231.760    89296961.307 7       162.617          47.625
R05  19970677.600   106754716.399 8       924.093          48.500    19970677.160   106754716.408 8       924.093          48.250    19970687.200    83031484.631 8       718.739          50.812    19970687.560    83031484.625 8       718.739          50.875
G07  23074870.200   121259262.763 7      4801.558          45.312    23074869.860   121259262.765 7      4801.558          42.187    23074884.180    94487801.783 6      3741.474          41.812    23074884.660    94487802.809 7      3741.474          43.875
G19  20876864.720   109708659.206 7      1163.016          46.187    20876863.300   109708659.208 6      1163.016          38.187    20876868.880    85487282.330 6       906.246          38.187
G04  22375882.820   117586036.495 7      -164.465          43.875    22375881.600   117586036.508 5      -164.465          33.500    22375890.020    91625496.820 5      -128.155          33.750    22375890.260    91625522.826 7      -128.155          47.750
> 2024 07 31 13 47 36.0000000  0 12
G09  20348179.880   106930404.221 8      1675.286          49.437    20348179.020   106930404.228 8      1675.286          51.187    20348185.220    83322416.355 8      1305.418          51.125    20348185.880    83322418.357 8      1305.418          50.500
R21  23033896.120   123259034.370 6      6757.769          37.562    23033894.960   123259034.390 6      6757.769          38.187    23033910.000    95868192.836 7      5256.043          42.312    23033909.480    95868198.838 6      5256.043          41.312
G20  24649524.160   129534115.281 6      4738.303          37.875    24649521.080   129534115.288 3      4738.303          21.562    24649531.800   100935688.728 3      3692.184          21.812
G11  23955957.460   125889405.913 7      5723.242          42.875    23955956.280   125889405.923 5      5723.242          31.187    23955963.920    98095663.990 5      4459.669          30.750    23955964.660    98095665.995 7      4459.669          47.625
G03  24160559.960   126964595.229 6       403.730          36.250    24160559.300   126964595.226 3       403.730          20.875    24160571.360    98933477.796 3       314.595          20.875    24160573.600    98933504.847 5       314.595          30.750
G06  20940884.140   110045090.184 8      4295.503          48.312    20940883.520   110045090.191 8      4295.503          49.062    20940890.660    85749442.439 8      3347.145          49.437    20940891.520    85749450.436 8      3347.145          51.000
R04  22973627.280   123022733.230 6      -808.418          39.000    22973631.420   123022733.304 6      -808.418          39.062    22973643.460    95684409.334 7      -628.770          42.500    22973643.000    95684411.330 7      -628.770          43.125
G17  21807182.600   114597505.470 7       208.397          47.812    21807181.960   114597505.475 7       208.397          46.687    21807191.400    89296790.688 7       162.387          47.187    21807191.900    89296798.681 7       162.387          47.437
R05  19970504.500   106753792.304 8       923.835          48.375    19970504.080   106753792.313 7       923.835          47.937    19970514.620    83030765.891 8       718.538          51.062    19970514.700    83030765.887 8       718.538          51.312
G07  23073956.480   121254461.027 7      4801.553          45.000    23073955.860   121254461.032 6      4801.553          41.625    23073970.280    94484060.179 6      3741.470          41.562    23073970.720    94484061.211 7      3741.470          43.687
G19  20876643.640   109707496.306 7      1162.579          46.000    20876641.900   109707496.305 6      1162.579          38.250    20876647.580    85486376.168 6       905.906          38.437
G04  22375914.220   117586200.789 7      -164.582          44.000    22375912.880   117586200.799 5      -164.582          33.500    22375921.160    91625624.832 5      -128.246          33.437    22375921.560    91625650.839 7      -128.246          47.625
> 2024 07 31 13 47 37.0000000  0 12
G09  20347861.160   106928729.262 8      1674.606          49.750    20347860.300   106928729.267 8      1674.606          51.125    20347866.520    83321111.190 8      1304.888          51.312    20347867.080    83321113.195 8      1304.888          50.375
R21  23032633.620   123252276.880 6      6757.434          37.562    23032632.720   123252276.898 6      6757.434          38.187    23032647.200    95862936.992 7      5255.782          42.312    23032646.880    95862942.994 6      5255.782          41.312
G20  24648622.720   129529376.952 6      4738.160          37.812    24648619.300   129529376.962 3      4738.160          21.562    24648629.940   100931996.526 3      3692.073          21.812
G11  23954868.120   125883682.716 7      5723.025          43.062    23954867.040   125883682.727 5      5723.025          31.187    23954874.760    98091204.355 5      4459.500          30.687    23954875.700    98091206.357 7      4459.500          47.312
