     3.05           OBSERVATION DATA    MIXED               RINEX VERSION / TYPE
TPS2RIN 1.0.29.3920 TPS-USER            20240801 093646 UTC PGM / RUN BY / DATE
Win64 build Feb 23, 2024 (c) Topcon Positioning Systems     COMMENT
SRC: 20240731_CAMI.tps                                      COMMENT
OPT: -S -v 3.05                                             COMMENT
Observer            Agency                                  OBSERVER / AGENCY
O0M3X53SBGM         TPS HIPER_SR        4.8 HSR Jul,08,2022 REC # / TYPE / VERS
FW: 4.8 HSR Jul,08,2022 p3                                  COMMENT
SN: HiPer SR 1212-12575                                     COMMENT
000                 TPSHIPER_SR     NONE                    ANT # / TYPE
        1.8000        0.0000        0.0000                  ANTENNA: DELTA H/E/N
CAMI                                                        MARKER NAME
  5387557.9941 -1599142.8680  3009549.1100                  APPROX POSITION XYZ
  2024     7    31    11    55   38.0000000     GPS         TIME OF FIRST OBS
  2024     7    31    12    11   38.0000000     GPS         TIME OF LAST OBS
     1.000                                                  INTERVAL
   961 EPOCHS                                               COMMENT
G   16 C1C L1C D1C S1C C1W L1W D1W S1W C2W L2W D2W S2W C2X  SYS / # / OBS TYPES
       L2X D2X S2X                                          SYS / # / OBS TYPES
R   16 C1C L1C D1C S1C C1P L1P D1P S1P C2P L2P D2P S2P C2C  SYS / # / OBS TYPES
       L2C D2C S2C                                          SYS / # / OBS TYPES
    14                                                      # OF SATELLITES
   G02   926   926   926   926   922   922   922   922   922PRN / # OF OBS
         922   922   922     0     0     0     0            PRN / # OF OBS
   G03   961   961   961   961   961   961   961   961   961PRN / # OF OBS
         961   961   961   961   961   961   961            PRN / # OF OBS
   G04   961   961   961   961   961   961   961   961   961PRN / # OF OBS
         961   961   961   961   961   961   961            PRN / # OF OBS
   G06   388   388   388   388   380   380   380   380   380PRN / # OF OBS
         380   380   380   359   359   359   359            PRN / # OF OBS
   G09   940   940   940   940   940   940   940   940   940PRN / # OF OBS
         940   940   940   935   935   935   935            PRN / # OF OBS
   G14   348   348   348   348   331   331   331   331   330PRN / # OF OBS
         330   330   330   283   283   283   283            PRN / # OF OBS
   G17   746   746   746   746   735   735   735   735   735PRN / # OF OBS
         735   735   735   719   719   719   719            PRN / # OF OBS
   G19   839   839   839   839   829   829   829   829   829PRN / # OF OBS
         829   829   829     0     0     0     0            PRN / # OF OBS
   G21    64    64    64    64    64    64    64    64    64PRN / # OF OBS
          64    64    64     0     0     0     0            PRN / # OF OBS
   G22   757   757   757   757   740   740   740   740   742PRN / # OF OBS
         742   742   742     0     0     0     0            PRN / # OF OBS
   R03    91    91    91    91    85    85    85    85    85PRN / # OF OBS
          85    85    85    84    84    84    84            PRN / # OF OBS
   R04   961   961   961   961   961   961   961   961   961PRN / # OF OBS
         961   961   961   961   961   961   961            PRN / # OF OBS
   R05   906   906   906   906   895   895   895   895   895PRN / # OF OBS
         895   895   895   893   893   893   893            PRN / # OF OBS
   R18   961   961   961   961   961   961   961   961   961PRN / # OF OBS
         961   961   961   961   961   961   961            PRN / # OF OBS
G L1C                                                       SYS / PHASE SHIFT
G L1W -0.25000                                              SYS / PHASE SHIFT
G L2W  0.00000                                              SYS / PHASE SHIFT
G L2X  0.25000                                              SYS / PHASE SHIFT
R L1C                                                       SYS / PHASE SHIFT
R L1P -0.25000                                              SYS / PHASE SHIFT
R L2P -0.25000                                              SYS / PHASE SHIFT
R L2C                                                       SYS / PHASE SHIFT
  4 R03  5 R04  6 R05  1 R18 -3                             GLONASS SLOT / FRQ #
                                                            GLONASS COD/PHS/BIS
    18    18  1929     7GPS                                 LEAP SECONDS
                                                            END OF HEADER
> 2024 07 31 11 55 38.0000000  0  9
G09  21549317.760   113242429.712 7      5644.293          42.375    21549318.420   113242429.706 6      5644.293          36.625    21549324.280    88240893.554 6      4398.150          36.062    21549324.800    88240896.557 7      4398.150          43.312
G22  23714538.740   124620755.453 6      1431.057          41.750    23714539.280   124620755.250 1      1431.057           1.000    23714538.940    97107069.014 1      1115.109           1.000
G17  20833109.920   109478753.251 6      4058.080          41.500    20833109.460   109478753.248 4      4058.080          25.187    20833109.480    85308132.903 4      3162.140          24.875    20833111.460    85308131.922 5      3162.140          33.625
G03  21212629.020   111473147.021 6       804.764          40.625    21212626.580   111473147.021 5       804.764          34.812    21212636.960    86862211.158 5       627.089          34.750    21212637.480    86862213.185 7       627.089          43.312
G21  24024904.640   126251723.813 6      1102.196          38.000    24024902.540   126251723.794 1      1102.196           6.562    24024906.160    98377963.629 1       858.854           6.375
R18  20980212.160   111993804.962 7      1222.111          47.062    20980213.260   111993804.958 7      1222.111          47.062    20980224.720    87106329.394 7       950.530          47.250    20980224.540    87106329.396 8       950.530          48.125
G02  22695093.200   119263507.253 8      1552.710          48.000    22695091.360   119263507.258 6      1552.710          36.125    22695098.060    92932617.110 6      1209.904          36.750
R04  19286906.060   103280505.838 7      1633.570          45.562    19286905.500   103280505.869 7      1633.570          43.312    19286917.560    80329320.615 8      1270.554          49.437    19286916.420    80329320.621 8      1270.554          49.750
G04  20703062.180   108795325.446 6      3579.445          41.312    20703062.820   108795325.467 5      3579.445          30.562    20703066.240    84775594.956 5      2789.178          30.125    20703066.640    84775594.955 8      2789.178          49.500
> 2024 07 31 11 55 39.0000000  0  9
G09  21548243.500   113236785.362 7      5644.235          42.437    21548244.260   113236785.352 6      5644.235          37.187    21548250.120    88236495.355 6      4398.105          36.812    21548250.580    88236498.347 7      4398.105          43.625
G22  23714266.200   124619324.386 6      1431.036          41.875    23714267.680   124619324.309 1      1431.036           8.937    23714270.120    97105954.001 1      1115.093           9.000
G17  20832337.500   109474695.386 6      4057.678          40.562    20832337.100   109474695.383 4      4057.678          25.187    20832337.060    85304970.936 4      3161.827          24.875    20832338.220    85304969.931 5      3161.827          33.625
G03  21212476.320   111472342.344 6       804.564          41.187    21212473.520   111472342.346 5       804.564          34.812    21212484.000    86861584.139 5       626.933          35.062    21212484.060    86861586.166 7       626.933          43.312
G21  24024695.260   126250621.540 6      1102.140          36.875    24024692.460   126250621.514 1      1102.140           6.562    24024697.080    98377104.703 1       858.811           6.375
R18  20979983.340   111992583.001 7      1221.763          46.500    20979984.160   111992582.994 7      1221.763          46.812    20979995.660    87105378.975 7       950.260          47.062    20979995.540    87105378.978 7       950.260          47.562
G02  22694797.720   119261954.529 8      1552.745          48.875    22694795.960   119261954.532 6      1552.745          36.500    22694802.620    92931407.187 6      1209.931          36.750
R04  19286600.900   103278872.560 7      1632.879          45.500    19286600.280   103278872.594 7      1632.879          43.437    19286612.560    80328050.296 8      1270.017          49.687    19286611.380    80328050.303 8      1270.017          50.500
G04  20702380.880   108791746.255 7      3578.973          42.250    20702381.620   108791746.278 5      3578.973          30.375    20702385.260    84772805.980 5      2788.810          30.125    20702385.680    84772805.986 8      2788.810          49.937
> 2024 07 31 11 55 40.0000000  0  9
G09  21547169.740   113231141.449 7      5643.563          42.500    21547170.460   113231141.436 6      5643.563          37.187    21547176.120    88232097.496 6      4397.582          37.000    21547176.740    88232100.498 7      4397.582          43.625
G22  23713993.960   124617893.679 7      1430.487          42.187    23713996.580   124617893.641 1      1430.487          11.312    23714001.000    97104839.114 1      1114.665          11.812
G17  20831565.540   109470638.097 6      4056.881          41.125    20831565.000   109470638.096 4      4056.881          25.187    20831564.840    85301809.418 4      3161.206          24.875    20831567.220    85301808.409 5      3161.206          33.625
G03  21212323.640   111471537.874 6       804.173          41.000    21212320.500   111471537.873 5       804.173          35.437    21212331.320    86860957.275 5       626.628          35.062    21212330.660    86860959.294 7       626.628          43.000
G21  24024484.560   126249519.481 6      1101.839          36.875    24024482.600   126249519.475 1      1101.839           6.562    24024487.880    98376245.934 1       858.576           6.375
R18  20979754.480   111991361.592 7      1220.982          46.312    20979755.460   111991361.585 7      1220.982          47.375    20979766.840    87104428.980 7       949.653          46.937    20979766.880    87104428.981 7       949.653          47.625
G02  22694502.460   119260402.105 8      1552.111          48.250    22694500.640   119260402.110 6      1552.111          36.500    22694507.200    92930197.504 6      1209.437          36.562
R04  19286296.020   103277240.121 7      1631.865          45.500    19286295.900   103277240.152 7      1631.865          43.437    19286307.560    80326780.619 8      1269.228          49.625    19286306.700    80326780.624 8      1269.228          50.062
G04  20701700.020   108788167.752 6      3578.104          41.750    20701700.520   108788167.772 5      3578.104          30.375    20701704.240    84770017.538 5      2788.133          30.312    20701704.780    84770017.545 8      2788.133          49.875
> 2024 07 31 11 55 41.0000000  0  9
G09  21546095.420   113225497.911 6      5643.384          41.000    21546096.280   113225497.898 6      5643.384          37.062    21546102.360    88227699.943 6      4397.442          36.437    21546103.060    88227702.940 7      4397.442          43.312
G22  23713721.940   124616463.224 7      1430.386          42.750    23713729.840   124616463.192 2      1430.386          12.250    23713725.800    97103724.447 2      1114.587          12.375
G17  20830793.480   109466581.314 6      4056.671          41.562    20830793.160   109466581.314 4      4056.671          24.687    20830792.900    85298648.291 4      3161.043          24.875    20830795.460    85298647.257 5      3161.043          33.625
G03  21212169.940   111470733.525 6       804.299          41.625    21212167.400   111470733.527 5       804.299          35.437    21212178.300    86860330.512 5       626.726          35.312    21212177.700    86860332.547 7       626.726          43.500
G21  24024276.080   126248417.513 6      1102.098          36.875    24024273.400   126248417.510 1      1102.098           6.562    24024278.220    98375387.242 1       858.777           6.375
R18  20979525.940   111990140.661 7      1220.791          46.437    20979526.560   111990140.657 7      1220.791          47.187    20979538.340    87103479.357 7       949.504          46.875    20979538.240    87103479.362 7       949.504          47.187
G02  22694207.000   119258849.873 8      1552.262          48.812    22694205.320   119258849.875 6      1552.262          36.062    22694211.840    92928987.968 6      1209.555          36.187
R04  19285991.320   103275608.458 7      1631.441          45.562    19285991.120   103275608.482 7      1631.441          43.687    19286003.220    80325511.538 8      1268.899          49.562    19286001.960    80325511.542 8      1268.899          50.125
G04  20701019.480   108784589.856 6      3577.669          41.562    20701019.760   108784589.879 5      3577.669          30.375    20701023.400    84767229.569 5      2787.794          30.312    20701023.980    84767229.578 8      2787.794          49.375
> 2024 07 31 11 55 42.0000000  0  9
G09  21545021.840   113219854.715 7      5643.154          42.375    21545022.500   113219854.707 6      5643.154          36.437    21545028.520    88223302.655 6      4397.263          36.375    21545029.100    88223305.651 7      4397.263          43.437
G22  23713449.580   124615033.069 7      1430.190          42.937    23713452.040   124615033.073 2      1430.190          13.250    23713454.660    97102610.089 2      1114.434          13.375
G17  20830021.620   109462524.992 6      4056.270          40.875    20830021.180   109462524.986 4      4056.270          24.687    20830020.940    85295487.520 4      3160.730          24.875    20830023.540    85295486.505 5      3160.730          33.625
G03  21212017.020   111469929.352 6       804.190          41.875    21212014.320   111469929.360 5       804.190          35.437    21212025.140    86859703.886 5       626.641          35.000    21212025.160    86859705.909 7       626.641          43.500
G21  24024065.620   126247315.705 6      1101.882          37.125    24024063.220   126247315.694 1      1101.882           6.562    24024069.540    98374528.688 1       858.609           6.375
R18  20979297.540   111988920.214 7      1220.389          46.437    20979298.280   111988920.209 7      1220.389          47.125    20979309.760    87102530.114 7       949.191          47.062    20979309.600    87102530.119 7       949.191          47.437
G02  22693911.540   119257297.824 8      1552.117          49.062    22693910.040   119257297.824 6      1552.117          36.187    22693916.320    92927778.576 6      1209.442          36.187
R04  19285687.340   103273977.521 7      1630.740          45.500    19285686.900   103273977.542 7      1630.740          44.437    19285698.740    80324243.023 8      1268.353          48.812    19285697.480    80324243.027 8      1268.353          49.312
G04  20700338.060   108781012.559 6      3577.108          40.937    20700338.840   108781012.584 5      3577.108          30.375    20700342.660    84764442.063 5      2787.357          30.312    20700343.080    84764442.061 8      2787.357          49.625
> 2024 07 31 11 55 43.0000000  0  9
G09  21543948.120   113214212.024 7      5642.366          42.000    21543948.740   113214212.013 6      5642.366          37.250    21543954.780    88218905.751 6      4396.649          36.750    21543955.320    88218908.742 7      4396.649          43.437
G22  23713177.680   124613603.318 7      1429.507          42.937    23713181.060   124613603.273 2      1429.507          13.875    23713184.000    97101495.961 2      1113.902          14.062
G17  20829250.260   109458469.300 6      4055.462          40.875    20829249.460   109458469.297 4      4055.462          24.687    20829249.240    85292327.243 4      3160.100          24.875    20829252.260    85292326.205 5      3160.100          33.625
G03  21211863.800   111469125.413 6       803.824          41.750    21211861.360   111469125.418 5       803.824          35.187    21211872.360    86859077.440 5       626.356          35.312    21211871.680    86859079.463 7       626.356          43.062
G21  24023856.080   126246214.137 6      1101.200          37.125    24023853.980   126246214.123 1      1101.200           6.562    24023860.100    98373670.307 1       858.078           6.375
R18  20979069.040   111987700.380 7      1219.502          46.000    20979069.360   111987700.378 7      1219.502          47.500    20979081.060    87101581.354 7       948.502          46.437    20979080.940    87101581.355 7       948.502          46.937
G02  22693616.220   119255746.104 8      1551.489          49.375    22693614.860   119255746.104 6      1551.489          36.562    22693621.040    92926569.441 6      1208.953          36.500
R04  19285382.920   103272347.430 7      1629.622          45.500    19285381.920   103272347.459 7      1629.622          44.437    19285394.040    80322975.185 8      1267.484          49.625    19285392.920    80322975.189 8      1267.484          50.187
G04  20699657.740   108777435.950 6      3576.218          40.937    20699658.060   108777435.978 5      3576.218          30.562    20699662.200    84761655.097 5      2786.663          30.312    20699662.640    84761655.101 8      2786.663          49.812
> 2024 07 31 11 55 44.0000000  0  9
G09  21542874.560   113208569.545 7      5642.258          42.312    21542874.900   113208569.540 6      5642.258          37.062    21542880.980    88214509.018 6      4396.565          36.937    21542881.860    88214512.020 7      4396.565          43.562
G22  23712905.340   124612173.680 7      1429.404          42.687    23712909.660   124612173.646 2      1429.404          14.500    23712912.200    97100381.980 2      1113.822          14.812
G17  20828478.300   109454413.966 6      4055.085          40.437    20828477.800   109454413.968 4      4055.085          24.687    20828477.520    85289167.238 4      3159.807          24.875    20828480.180    85289166.212 5      3159.807          32.187
G03  21211711.160   111468321.511 6       803.829          41.937    21211708.600   111468321.519 6       803.829          36.000    21211719.440    86858451.021 5       626.360          35.312    21211718.800    86858453.038 7       626.360          43.312
G21  24023646.080   126245112.516 6      1101.318          36.750    24023644.120   126245112.513 1      1101.318           6.562    24023650.080    98372811.905 1       858.170           6.375
R18  20978840.540   111986480.887 8      1219.246          48.000    20978840.960   111986480.875 7      1219.246          47.250    20978852.320    87100632.839 7       948.302          46.812    20978852.540    87100632.844 7       948.302          46.937
G02  22693321.120   119254194.450 8      1551.458          49.187    22693319.700   119254194.450 5      1551.458          35.875    22693325.900    92925360.354 6      1208.928          36.500
R04  19285078.980   103270717.971 7      1629.121          45.187    19285077.740   103270717.994 7      1629.121          43.750    19285089.900    80321707.824 8      1267.094          49.250    19285088.880    80321707.826 8      1267.094          50.500
G04  20698977.020   108773859.838 6      3575.796          40.750    20698977.420   108773859.861 5      3575.796          30.562    20698981.800    84758868.514 5      2786.334          30.437    20698982.420    84758868.508 8      2786.334          49.562
> 2024 07 31 11 55 45.0000000  0  9
G09  21541800.740   113202927.497 6      5642.015          41.437    21541801.320   113202927.494 6      5642.015          36.500    21541807.360    88210112.628 6      4396.375          36.562    21541807.980    88210115.633 7      4396.375          43.500
G22  23712633.360   124610744.379 7      1429.405          42.187    23712635.280   124610744.323 2      1429.405          14.750    23712641.740    97099268.167 2      1113.822          15.062
G17  20827707.020   109450359.185 6      4054.738          40.000    20827706.180   109450359.190 4      4054.738          24.687    20827705.500    85286007.669 4      3159.536          24.875    20827707.320    85286006.644 5      3159.536          32.187
G03  21211558.480   111467517.793 7       803.979          42.187    21211555.860   111467517.798 6       803.979          36.187    21211566.680    86857824.741 5       626.477          35.937    21211565.880    86857826.747 7       626.477          43.062
G21  24023436.740   126244011.066 6      1101.654          36.750    24023434.100   126244011.055 1      1101.654           6.562    24023439.960    98371953.620 1       858.432           6.375
R18  20978612.160   111985261.916 7      1218.906          47.875    20978612.580   111985261.903 7      1218.906          47.187    20978623.840    87099684.746 7       948.038          46.312    20978624.100    87099684.747 7       948.038          46.500
G02  22693025.860   119252643.027 8      1551.575          49.562    22693024.400   119252643.027 6      1551.575          36.562    22693030.660    92924151.450 6      1209.019          36.187
R04  19284774.580   103269089.307 7      1628.617          45.375    19284773.540   103269089.338 7      1628.617          44.125    19284785.780    80320441.085 8      1266.702          49.875    19284784.600    80320441.089 8      1266.702          50.500
G04  20698296.740   108770284.383 6      3575.180          40.437    20698297.080   108770284.406 5      3575.180          30.562    20698301.260    84756082.445 5      2785.855          30.437    20698301.560    84756082.443 8      2785.855          49.500
> 2024 07 31 11 55 46.0000000  0  9
G09  21540727.200   113197285.925 6      5641.452          41.937    21540727.720   113197285.919 6      5641.452          37.375    21540733.920    88205716.597 6      4395.936          37.000    21540734.860    88205719.583 7      4395.936          43.500
G22  23712361.680   124609315.445 7      1428.711          42.000    23712364.660   124609315.411 2      1428.711          15.062    23712368.740    97098154.713 2      1113.282          15.500
G17  20826935.260   109446305.023 6      4053.894          40.000    20826934.620   109446305.028 4      4053.894          24.687    20826934.180    85282848.581 4      3158.878          24.875    20826934.440    85282847.560 5      3158.878          32.187
G03  21211405.320   111466714.353 7       803.208          42.562    21211403.480   111466714.363 6       803.208          36.187    21211413.800    86857198.680 6       625.876          36.062    21211413.440    86857200.694 7       625.876          43.062
G21  24023227.080   126242909.889 6      1101.159          36.750    24023224.460   126242909.873 1      1101.159           6.562    24023230.640    98371095.552 1       858.046           6.375
R18  20978383.880   111984043.534 7      1218.114          47.687    20978384.200   111984043.524 7      1218.114          47.000    20978395.520    87098737.111 7       947.422          46.500    20978395.580    87098737.112 7       947.422          47.125
G02  22692730.680   119251091.916 8      1551.032          49.562    22692729.420   119251091.916 6      1551.032          36.562    22692735.720    92922942.787 6      1208.596          36.687
R04  19284470.480   103267461.511 7      1627.324          45.437    19284469.640   103267461.542 7      1627.324          44.312    19284481.700    80319175.023 8      1265.696          49.250    19284480.680    80319175.028 8      1265.696          49.875
G04  20697616.960   108766709.603 6      3574.307          41.000    20697616.860   108766709.629 5      3574.307          30.562    20697620.860    84753296.909 5      2785.174          30.437    20697621.440    84753296.909 8      2785.174          49.562
> 2024 07 31 11 55 47.0000000  0  9
G09  21539653.580   113191644.726 6      5641.130          41.562    21539654.060   113191644.718 6      5641.130          37.375    21539660.360    88201320.860 6      4395.686          37.000    21539661.240    88201323.857 7      4395.686          44.062
G22  23712089.780   124607886.785 7      1428.579          42.375    23712090.720   124607886.743 2      1428.579          15.437    23712096.040    97097041.471 2      1113.179          15.812
G17  20826163.900   109442251.323 6      4053.707          39.312    20826163.240   109442251.330 4      4053.707          24.687    20826162.920    85279689.858 4      3158.733          24.312    20826163.080    85279688.826 5      3158.733          32.187
G03  21211252.440   111465910.995 7       803.432          42.375    21211250.720   111465911.002 6       803.432          36.687    21211260.960    86856572.688 6       626.051          36.562    21211261.140    86856574.711 7       626.051          43.437
G21  24023018.200   126241808.812 6      1101.030          36.375    24023015.200   126241808.782 1      1101.030           6.562    24023020.560    98370237.566 1       857.945           6.375
R18  20978155.740   111982825.653 7      1217.642          47.562    20978155.920   111982825.641 7      1217.642          47.250    20978167.220    87097789.856 7       947.055          45.937    20978167.460    87097789.855 7       947.055          46.562
G02  22692435.520   119249541.024 8      1550.861          49.687    22692434.400   119249541.026 6      1550.861          36.187    22692440.600    92921734.293 6      1208.463          36.750
R04  19284166.580   103265834.400 7      1626.895          45.250    19284165.520   103265834.428 7      1626.895          44.312    19284177.980    80317909.490 8      1265.363          49.625    19284176.800    80317909.497 8      1265.363          50.187
G04  20696936.540   108763135.453 6      3573.802          41.000    20696936.620   108763135.474 5      3573.802          30.687    20696940.520    84750511.853 5      2784.781          30.312    20696941.260    84750511.841 8      2784.781          49.687
> 2024 07 31 11 55 48.0000000  0  9
G09  21538580.240   113186003.819 6      5640.754          40.750    21538580.640   113186003.818 6      5640.754          37.187    21538587.060    88196925.356 6      4395.393          37.000    21538588.060    88196928.353 7      4395.393          44.062
G22  23711818.220   124606458.335 6      1428.228          41.812    23711818.480   124606458.330 2      1428.228          15.687    23711824.740    97095928.401 2      1112.905          15.875
G17  20825392.640   109438198.098 6      4053.010          38.437    20825392.000   109438198.113 4      4053.010          24.687    20825391.600    85276531.505 4      3158.190          24.312    20825393.080    85276530.472 5      3158.190          32.187
G03  21211099.660   111465107.773 7       803.135          42.187    21211097.940   111465107.778 6       803.135          36.625    21211108.140    86855946.797 6       625.819          36.812    21211108.100    86855948.812 7       625.819          43.625
G21  24022808.140   126240707.827 6      1100.777          36.375    24022804.860   126240707.797 1      1100.777           4.562    24022810.260    98369379.647 1       857.748           5.062
R18  20977927.580   111981608.147 7      1217.216          47.937    20977927.780   111981608.134 7      1217.216          47.437    20977939.500    87096842.901 7       946.723          46.062    20977939.380    87096842.897 7       946.723          46.125
G02  22692140.360   119247990.263 8      1550.585          49.562    22692139.340   119247990.260 6      1550.585          36.437    22692145.460    92920525.906 6      1208.248          36.750
R04  19283862.700   103264207.974 7      1626.068          44.937    19283862.300   103264208.003 7      1626.068          44.312    19283874.140    80316644.489 8      1264.719          49.500    19283873.200    80316644.491 8      1264.719          50.312
G04  20696256.440   108759561.806 6      3573.250          41.000    20696256.720   108759561.827 5      3573.250          30.687    20696260.520    84747727.189 5      2784.351          30.312    20696261.640    84747727.189 8      2784.351          49.625
> 2024 07 31 11 55 49.0000000  0  9
G09  21537506.580   113180363.284 6      5640.362          40.250    21537507.180   113180363.279 6      5640.362          37.062    21537513.940    88192530.136 6      4395.087          36.625    21537514.820    88192533.138 7      4395.087          44.312
G22  23711546.760   124605030.140 7      1428.076          42.375    23711547.020   124605030.124 2      1428.076          15.875    23711552.340    97094815.514 2      1112.786          16.062
G17  20824620.960   109434145.346 6      4052.545          38.437    20824620.520   109434145.359 4      4052.545          24.000    20824620.240    85273373.519 4      3157.827          24.312    20824621.240    85273372.491 5      3157.827          32.187
G03  21210946.600   111464304.662 7       803.091          42.375    21210945.320   111464304.659 6       803.091          36.750    21210955.320    86855320.984 6       625.785          36.437    21210954.800    86855322.997 7       625.785          43.562
G21  24022599.040   126239606.849 6      1101.040          36.375    24022595.360   126239606.823 1      1101.040           4.562    24022600.520    98368521.736 1       857.953           5.062
R18  20977699.760   111980391.086 7      1216.849          47.000    20977699.620   111980391.076 7      1216.849          46.750    20977711.340    87095896.298 7       946.438          46.875    20977711.180    87095896.293 7       946.438          46.250
G02  22691845.200   119246439.676 8      1550.481          49.875    22691844.300   119246439.673 6      1550.481          36.062    22691850.480    92919317.648 6      1208.167          36.750
R04  19283559.040   103262582.272 7      1625.317          45.687    19283558.980   103262582.300 7      1625.317          44.937    19283570.180    80315380.053 8      1264.135          50.062    19283569.480    80315380.055 8      1264.135          50.250
G04  20695576.760   108755988.763 7      3572.807          42.187    20695576.840   108755988.781 5      3572.807          30.687    20695580.720    84744942.997 5      2784.005          30.312    20695581.500    84744942.987 8      2784.005          49.250
> 2024 07 31 11 55 50.0000000  0  9
G09  21536433.300   113174723.304 6      5639.725          40.312    21536433.800   113174723.301 6      5639.725          37.062    21536440.620    88188135.349 6      4394.591          36.812    21536441.560    88188138.354 7      4394.591          44.625
G22  23711274.500   124603602.449 7      1427.408          42.500    23711276.320   124603602.428 2      1427.408          16.000    23711277.660    97093703.025 2      1112.266          16.187
G17  20823849.680   109430093.304 6      4051.771          38.750    20823849.380   109430093.314 4      4051.771          24.000    20823849.060    85270216.081 4      3157.224          24.312    20823850.740    85270215.064 5      3157.224          32.187
G03  21210794.540   111463501.879 7       802.670          42.187    21210792.840   111463501.881 6       802.670          36.750    21210802.440    86854695.443 6       625.457          36.500    21210801.880    86854697.466 7       625.457          43.562
G21  24022389.100   126238506.266 6      1100.748          36.375    24022385.900   126238506.248 1      1100.748           4.562    24022391.620    98367664.127 1       857.726           5.062
R18  20977472.080   111979174.757 7      1216.049          46.562    20977471.580   111979174.741 7      1216.049          46.812    20977483.580    87094950.251 7       945.816          46.562    20977483.400    87094950.246 7       945.816          46.750
G02  22691550.440   119244889.495 8      1550.032          50.062    22691549.360   119244889.495 6      1550.032          36.125    22691555.340    92918109.711 6      1207.817          36.250
R04  19283255.740   103260957.514 7      1624.452          45.687    19283255.160   103260957.540 7      1624.452          44.125    19283266.880    80314116.349 8      1263.463          49.750    19283266.040    80314116.349 8      1263.463          50.000
G04  20694896.720   108752416.534 6      3571.786          41.937    20694896.800   108752416.547 5      3571.786          30.687    20694900.920    84742159.447 5      2783.210          30.312    20694901.540    84742159.432 8      2783.210          49.562
> 2024 07 31 11 55 51.0000000  0  9
G09  21535359.960   113169083.684 6      5639.429          40.312    21535360.420   113169083.679 6      5639.429          37.062    21535367.420    88183740.840 6      4394.360          36.125    21535368.380    88183743.849 7      4394.360          44.562
G22  23711002.840   124602174.993 7      1427.190          42.687    23711005.380   124602174.979 2      1427.190          16.000    23711006.620    97092590.711 2      1112.096          16.187
G17  20823079.180   109426041.709 6      4051.322          38.750    20823078.500   109426041.716 4      4051.322          24.000    20823077.980    85267058.992 4      3156.874          24.312    20823079.280    85267057.964 5      3156.874          32.187
G03  21210641.860   111462699.230 7       802.583          43.062    21210640.360   111462699.240 6       802.583          37.437    21210649.660    86854070.010 6       625.390          37.125    21210649.260    86854072.031 7       625.390          43.812
G21  24022179.780   126237405.815 5      1100.447          35.187    24022176.660   126237405.801 1      1100.447           4.562    24022182.760    98366806.620 1       857.491           5.062
R18  20977244.100   111977958.867 7      1215.703          46.750    20977243.520   111977958.852 7      1215.703          46.687    20977255.820    87094004.545 7       945.547          46.250    20977255.720    87094004.540 7       945.547          46.562
G02  22691255.520   119243339.499 8      1549.845          49.625    22691254.380   119243339.499 6      1549.845          36.125    22691260.460    92916901.919 5      1207.671          35.937
R04  19282952.400   103259333.530 7      1623.513          45.312    19282952.220   103259333.562 7      1623.513          44.812    19282963.620    80312853.250 8      1262.733          49.937    19282962.640    80312853.253 8      1262.733          50.000
G04  20694216.940   108748844.844 7      3571.388          42.500    20694217.140   108748844.860 5      3571.388          30.625    20694221.320    84739376.314 5      2782.900          30.250    20694221.600    84739376.308 8      2782.900          49.437
> 2024 07 31 11 55 52.0000000  0  9
G09  21534286.780   113163444.456 6      5638.614          40.062    21534287.380   113163444.447 6      5638.614          36.625    21534294.360    88179346.640 6      4393.725          36.812    21534295.520    88179349.652 7      4393.725          44.687
G22  23710731.500   124600747.814 7      1426.825          42.062    23710734.740   124600747.817 2      1426.825          16.000    23710737.040    97091478.624 2      1111.812          16.187
G17  20822308.260   109421990.673 6      4050.367          39.000    20822307.500   109421990.677 4      4050.367          24.000    20822307.140    85263902.341 4      3156.130          24.312    20822308.380    85263901.299 5      3156.130          32.187
G03  21210488.680   111461896.734 7       802.352          42.125    21210487.600   111461896.744 6       802.352          37.187    21210496.980    86853444.688 6       625.209          36.875    21210496.720    86853446.701 7       625.209          43.687
G21  24021970.660   126236305.415 5      1100.203          35.187    24021966.420   126236305.405 1      1100.203           4.562    24021973.600    98365949.156 1       857.301           5.062
R18  20977016.360   111976743.472 7      1214.971          45.562    20977015.880   111976743.460 7      1214.971          46.687    20977028.600    87093059.242 7       944.977          46.625    20977027.760    87093059.235 7       944.977          46.562
G02  22690960.440   119241789.697 8      1549.540          49.687    22690959.480   119241789.697 5      1549.540          35.875    22690965.360    92915694.277 6      1207.433          36.187
R04  19282649.120   103257710.251 7      1622.816          45.375    19282649.360   103257710.285 7      1622.816          44.750    19282660.420    80311590.704 8      1262.190          49.812    19282659.700    80311590.704 8      1262.190          50.062
G04  20693537.520   108745273.777 7      3570.696          42.312    20693537.700   108745273.792 5      3570.696          30.625    20693541.860    84736593.668 5      2782.360          30.250    20693542.000    84736593.660 8      2782.360          49.187
> 2024 07 31 11 55 53.0000000  0  9
G09  21533213.900   113157805.532 6      5638.772          40.750    21533214.300   113157805.524 6      5638.772          37.250    21533221.240    88174952.681 6      4393.848          36.937    21533222.140    88174955.687 7      4393.848          44.625
G22  23710459.880   124599320.891 6      1427.020          41.812    23710462.320   124599320.877 2      1427.020          16.000    23710466.080    97090366.736 2      1111.964          16.187
G17  20821537.620   109417940.049 6      4050.476          39.000    20821536.460   109417940.054 4      4050.476          24.000    20821536.360    85260746.013 4      3156.215          24.312    20821536.680    85260744.991 5      3156.215          32.187
G03  21210336.120   111461094.395 6       802.448          41.750    21210335.000   111461094.402 6       802.448          37.375    21210344.200    86852819.487 6       625.284          37.062    21210344.020    86852821.494 7       625.284          43.687
G21  24021762.280   126235205.156 5      1100.586          35.187    24021756.920   126235205.150 1      1100.586           4.562    24021764.120    98365091.804 1       857.599           5.062
R18  20976788.920   111975528.509 7      1214.878          46.687    20976788.340   111975528.499 7      1214.878          46.750    20976800.980    87092114.265 7       944.905          46.750    20976800.580    87092114.253 7       944.905          46.625
G02  22690665.620   119240240.090 8      1549.752          49.250    22690664.640   119240240.089 5      1549.752          35.937    22690670.300    92914486.785 6      1207.599          36.187
R04  19282346.060   103256087.745 7      1622.271          45.312    19282346.300   103256087.782 7      1622.271          44.875    19282357.220    80310328.755 8      1261.767          49.250    19282356.420    80310328.755 8      1261.767          49.875
G04  20692858.480   108741703.325 6      3570.143          41.937    20692858.180   108741703.345 5      3570.143          30.625    20692862.340    84733811.505 5      2781.930          30.250    20692862.940    84733811.495 8      2781.930          48.812
> 2024 07 31 11 55 54.0000000  0  9
G09  21532140.880   113152167.184 6      5638.061          40.937    21532141.580   113152167.173 6      5638.061          37.250    21532148.420    88170559.157 6      4393.294          36.750    21532149.500    88170562.157 7      4393.294          44.375
G22  23710188.700   124597894.475 7      1426.126          42.312    23710191.020   124597894.464 2      1426.126          16.000    23710195.420    97089255.236 2      1111.267          16.187
G17  20820766.780   109413890.143 6      4049.660          37.937    20820765.520   109413890.151 4      4049.660          24.000    20820765.400    85257590.244 4      3155.580          24.312    20820765.060    85257589.200 5      3155.580          32.187
G03  21210183.780   111460292.366 7       801.796          42.687    21210182.560   111460292.373 6       801.796          37.062    21210191.440    86852194.528 6       624.776          36.875    21210191.400    86852196.538 7       624.776          43.500
G21  24021552.340   126234105.269 5      1099.676          35.187    24021547.080   126234105.266 1      1099.676           4.562    24021555.360    98364234.741 1       856.890           5.062
R18  20976561.680   111974314.272 7      1213.847          46.312    20976560.540   111974314.257 7      1213.847          46.312    20976573.700    87091169.841 7       944.103          45.875    20976573.000    87091169.836 7       944.103          45.812
G02  22690370.980   119238690.884 8      1548.972          49.625    22690370.000   119238690.886 5      1548.972          35.562    22690375.620    92913279.606 5      1206.991          35.937
R04  19282043.320   103254466.187 7      1621.009          45.812    19282043.800   103254466.216 7      1621.009          44.875    19282054.480    80309067.533 8      1260.784          48.562    19282053.720    80309067.531 8      1260.784          49.187
G04  20692179.240   108738133.632 6      3569.401          41.625    20692178.780   108738133.647 5      3569.401          30.500    20692183.160    84731029.920 5      2781.351          30.250    20692183.480    84731029.898 8      2781.351          48.750
> 2024 07 31 11 55 55.0000000  0  9
G09  21531068.400   113146529.448 6      5637.495          41.062    21531068.940   113146529.442 6      5637.495          37.187    21531075.480    88166166.126 6      4392.853          36.750    21531076.920    88166169.136 7      4392.853          44.875
G22  23709917.300   124596468.529 7      1425.756          42.437    23709919.160   124596468.536 2      1425.756          16.000    23709925.000    97088144.126 2      1110.979          16.187
G17  20819996.120   109409840.994 6      4048.997          37.937    20819994.840   109409841.001 4      4048.997          24.000    20819994.820    85254435.065 4      3155.063          24.312    20819995.860    85254434.045 5      3155.063          32.187
G03  21210031.020   111459490.737 7       801.682          43.062    21210030.400   111459490.736 6       801.682          37.500    21210038.820    86851569.871 6       624.687          37.187    21210038.340    86851571.880 7       624.687          43.625
G21  24021343.820   126233005.705 5      1099.597          35.125    24021337.440   126233005.705 1      1099.597           4.562    24021345.500    98363377.926 1       856.828           5.062
R18  20976334.280   111973100.740 7      1213.367          45.187    20976332.760   111973100.727 7      1213.367          46.500    20976346.460    87090225.979 7       943.730          46.625    20976345.740    87090225.978 7       943.730          46.875
G02  22690076.080   119237142.110 8      1548.711          50.000    22690075.340   119237142.114 5      1548.711          35.750    22690080.820    92912072.768 6      1206.788          36.125
R04  19281740.980   103252845.612 7      1620.175          46.187    19281741.480   103252845.651 7      1620.175          44.875    19281751.720    80307807.098 8      1260.136          49.875    19281750.840    80307807.098 8      1260.136          50.000
G04  20691499.960   108734564.793 7      3568.607          42.062    20691499.660   108734564.808 5      3568.607          30.500    20691503.900    84728249.009 5      2780.732          30.312    20691504.220    84728249.005 8      2780.732          48.750
> 2024 07 31 11 55 56.0000000  0  9
G09  21529995.420   113140891.885 6      5637.343          40.562    21529995.980   113140891.877 6      5637.343          37.125    21530002.460    88161773.220 6      4392.735          36.250    21530004.020    88161776.226 7      4392.735          44.187
G22  23709645.860   124595042.648 6      1425.814          41.812    23709647.960   124595042.656 2      1425.814          16.000    23709653.540    97087033.024 2      1111.024          16.187
G17  20819225.500   109405792.118 6      4048.786          38.625    20819224.200   109405792.123 4      4048.786          24.000    20819224.360    85251280.100 3      3154.898          23.375    20819222.740    85251279.062 5      3154.898          31.500
G03  21209878.540   111458689.015 7       801.784          43.250    21209877.980   111458689.020 6       801.784          37.375    21209886.260    86850945.155 6       624.766          37.250    21209885.960    86850947.170 7       624.766          43.875
G21  24021133.160   126231906.039 5      1099.645          35.125    24021128.660   126231906.041 1      1099.645           4.562    24021136.580    98362521.025 1       856.866           5.062
R18  20976106.540   111971887.472 7      1213.137          46.687    20976105.720   111971887.462 7      1213.137          46.125    20976119.300    87089282.318 7       943.551          46.562    20976118.580    87089282.318 7       943.551          46.562
G02  22689781.340   119235593.324 8      1548.785          50.062    22689780.680   119235593.324 5      1548.785          35.750    22689785.980    92910865.915 5      1206.845          35.812
R04  19281438.200   103251225.556 7      1619.774          46.437    19281438.940   103251225.598 7      1619.774          45.000    19281449.140    80306547.054 8      1259.825          50.000    19281448.500    80306547.055 8      1259.825          50.562
G04  20690820.960   108730996.345 6      3568.304          41.750    20690820.640   108730996.360 5      3568.304          30.500    20690824.780    84725468.400 5      2780.496          30.312    20690825.000    84725468.396 8      2780.496          48.125
> 2024 07 31 11 55 57.0000000  0  9
G09  21528922.800   113135254.677 6      5636.545          40.562    21528923.360   113135254.669 6      5636.545          36.687    21528929.740    88157380.593 6      4392.113          36.687    21528931.160    88157383.605 7      4392.113          44.187
G22  23709374.760   124593617.075 7      1425.004          42.562    23709376.940   124593617.070 2      1425.004          16.000    23709381.360    97085922.184 2      1110.392          16.187
G17  20818455.480   109401743.778 6      4047.491          38.750    20818453.600   109401743.785 4      4047.491          24.000    20818453.780    85248125.554 3      3153.889          23.375    20818451.740    85248124.491 5      3153.889          31.500
G03  21209725.880   111457887.478 7       800.981          43.125    21209725.480   111457887.485 6       800.981          37.625    21209733.600    86850320.575 6       624.141          37.625    21209733.600    86850322.577 7       624.141          43.875
G21  24020923.880   126230806.594 5      1098.543          35.125    24020920.020   126230806.598 1      1098.543           4.562    24020927.500    98361664.304 1       856.007           5.062
R18  20975879.540   111970674.700 7      1212.076          46.250    20975879.120   111970674.696 7      1212.076          46.500    20975892.400    87088339.051 7       942.726          46.562    20975891.560    87088339.052 7       942.726          46.750
G02  22689486.780   119234044.750 8      1548.025          49.750    22689485.980   119234044.752 5      1548.025          35.437    22689491.140    92909659.231 5      1206.253          35.812
R04  19281135.880   103249606.272 7      1618.423          46.562    19281136.480   103249606.303 7      1618.423          45.187    19281146.820    80305287.600 8      1258.773          49.687    19281146.320    80305287.603 8      1258.773          50.125
G04  20690142.460   108727428.546 6      3566.954          40.875    20690141.860   108727428.562 5      3566.954          30.500    20690145.740    84722688.299 5      2779.444          30.312    20690146.040    84722688.285 8      2779.444          48.500
> 2024 07 31 11 55 58.0000000  0  9
G09  21527849.920   113129618.005 6      5636.452          40.437    21527850.980   113129617.997 6      5636.452          36.687    21527857.040    88152988.383 6      4392.041          36.750    21527858.120    88152991.397 7      4392.041          44.437
G22  23709103.360   124592191.923 7      1425.028          43.000    23709105.500   124592191.925 2      1425.028          16.000    23709110.280    97084811.665 2      1110.412          16.187
G17  20817685.040   109397696.066 6      4047.368          38.750    20817683.080   109397696.073 4      4047.368          24.000    20817683.620    85244971.496 3      3153.793          23.375    20817682.800    85244970.450 5      3153.793          31.500
G03  21209573.360   111457086.240 7       801.070          43.437    21209572.980   111457086.247 6       801.070          37.687    21209581.060    86849696.225 6       624.210          37.687    21209581.340    86849698.236 7       624.210          43.562
G21  24020715.740   126229707.264 5      1099.287          35.125    24020711.300   126229707.263 1      1099.287           4.562    24020718.720    98360807.679 1       856.587           5.062
R18  20975652.500   111969462.588 7      1211.832          46.500    20975652.160   111969462.581 7      1211.832          47.375    20975665.280    87087396.284 7       942.536          46.812    20975664.380    87087396.289 7       942.536          47.187
G02  22689192.220   119232496.553 8      1547.983          49.562    22689191.320   119232496.553 5      1547.983          34.875    22689196.380    92908452.842 5      1206.221          35.375
R04  19280833.660   103247987.876 7      1617.844          47.000    19280834.640   103247987.902 7      1617.844          45.250    19280844.560    80304028.840 8      1258.323          50.000    19280843.860    80304028.842 8      1258.323          50.500
G04  20689463.600   108723861.433 6      3566.790          41.187    20689463.100   108723861.449 5      3566.790          30.312    20689466.940    84719908.735 5      2779.317          30.312    20689467.080    84719908.727 8      2779.317          48.375
> 2024 07 31 11 55 59.0000000  0  9
G09  21526777.540   113123981.636 6      5636.239          41.125    21526778.400   113123981.633 6      5636.239          36.437    21526784.320    88148596.415 6      4391.874          36.750    21526785.620    88148599.425 7      4391.874          44.625
G22  23708832.500   124590766.962 7      1424.912          42.812    23708833.640   124590766.964 2      1424.912          16.000    23708838.760    97083701.300 2      1110.321          16.187
G17  20816915.020   109393648.769 6      4047.145          38.687    20816912.780   109393648.774 3      4047.145          22.875    20816913.360    85241817.756 3      3153.620          23.375    20816915.320    85241816.723 5      3153.620          31.500
G03  21209420.540   111456285.057 7       801.088          42.937    21209420.600   111456285.065 6       801.088          38.062    21209428.480    86849071.931 6       624.225          37.937    21209429.180    86849073.938 7       624.225          43.437
G21  24020506.480   126228608.097 5      1099.077          34.562    24020501.660   126228608.094 1      1099.077           4.562    24020509.100    98359951.169 1       856.423           5.062
R18  20975425.700   111968250.868 7      1211.500          46.875    20975425.420   111968250.866 7      1211.500          46.875    20975438.800    87086453.833 7       942.278          46.812    20975437.540    87086453.834 7       942.278          47.000
G02  22688897.620   119230948.456 8      1548.057          49.187    22688896.740   119230948.459 5      1548.057          34.875    22688901.560    92907246.531 5      1206.278          35.375
R04  19280531.560   103246370.112 7      1617.393          46.937    19280532.160   103246370.135 7      1617.393          45.687    19280542.520    80302770.581 8      1257.972          50.187    19280541.940    80302770.581 8      1257.972          50.187
G04  20688785.100   108720294.899 6      3566.204          41.750    20688784.600   108720294.914 5      3566.204          30.312    20688788.200    84717129.623 5      2778.860          30.000    20688788.400    84717129.619 8      2778.860          48.312
> 2024 07 31 11 56  0.0000000  0  9
G09  21525704.940   113118345.657 6      5635.689          40.750    21525705.740   113118345.649 6      5635.689          36.687    21525711.720    88144204.741 5      4391.446          35.875    21525713.220    88144207.753 7      4391.446          44.562
G22  23708561.360   124589342.283 7      1424.462          42.750    23708562.600   124589342.290 2      1424.462          16.000    23708567.380    97082591.158 2      1109.970          16.187
G17  20816144.720   109389602.005 6      4046.432          38.687    20816142.700   109389602.007 3      4046.432          22.875    20816143.420    85238664.434 3      3153.064          23.375    20816145.320    85238663.407 5      3153.064          31.500
G03  21209268.080   111455484.045 7       800.837          43.125    21209268.220   111455484.053 6       800.837          37.875    21209275.960    86848447.760 6       624.029          37.875    21209276.840    86848449.758 7       624.029          43.750
G21  24020296.940   126227509.025 5      1098.993          34.562    24020292.500   126227509.024 1      1098.993           4.562    24020300.480    98359094.735 1       856.358           5.062
R18  20975198.760   111967039.615 7      1210.911          46.437    20975198.720   111967039.610 7      1210.911          46.687    20975212.380    87085511.737 7       941.820          46.937    20975210.740    87085511.738 7       941.820          47.437
G02  22688603.040   119229400.580 8      1547.691          50.375    22688602.000   119229400.583 5      1547.691          34.625    22688606.760    92906040.390 5      1205.993          34.812
R04  19280229.480   103244753.116 7      1616.593          47.187    19280230.600   103244753.139 7      1616.593          45.062    19280240.600    80301512.916 8      1257.350          49.812    19280240.060    80301512.916 8      1257.350          50.312
G04  20688105.920   108716728.971 7      3565.480          42.000    20688106.020   108716728.986 5      3565.480          30.312    20688109.480    84714350.980 5      2778.296          30.000    20688109.540    84714350.972 8      2778.296          48.062
> 2024 07 31 11 56  1.0000000  0  9
G09  21524632.640   113112710.141 6      5635.312          40.812    21524633.620   113112710.131 6      5635.312          36.687    21524639.400    88139813.424 6      4391.152          36.687    21524641.040    88139816.430 7      4391.152          44.687
G22  23708290.300   124587917.976 7      1424.416          43.062    23708291.780   124587917.973 3      1424.416          19.125    23708296.600    97081481.294 2      1109.934          16.187
G17  20815374.620   109385555.799 6      4046.229          37.625    20815372.580   109385555.806 3      4046.229          22.875    20815373.320    85235511.546 3      3152.906          23.375    20815373.940    85235510.539 5      3152.906          31.500
G03  21209115.780   111454683.233 7       800.858          43.187    21209115.980   111454683.235 6       800.858          38.062    21209123.140    86847823.746 6       624.045          38.000    21209124.280    86847825.757 7       624.045          43.750
G21  24020087.660   126226410.115 5      1098.989          34.562    24020084.200   126226410.123 1      1098.989           5.062    24020091.240    98358238.442 1       856.355           5.062
R18  20974971.560   111965828.914 7      1210.609          46.812    20974972.060   111965828.912 7      1210.609          46.562    20974985.500    87084570.073 7       941.585          47.437    20974984.100    87084570.076 7       941.585          47.625
G02  22688308.580   119227852.986 8      1547.613          49.875    22688307.380   119227852.991 5      1547.613          35.187    22688312.160    92904834.470 5      1205.933          35.312
R04  19279927.720   103243136.983 7      1615.927          46.812    19279928.420   103243137.017 7      1615.927          45.562    19279938.900    80300255.923 8      1256.832          49.875    19279938.120    80300255.925 8      1256.832          50.000
G04  20687427.360   108713163.718 6      3564.996          41.375    20687427.380   108713163.731 5      3564.996          30.312    20687430.960    84711572.863 5      2777.919          30.000    20687431.340    84711572.862 7      2777.919          47.812
> 2024 07 31 11 56  2.0000000  0  9
G09  21523560.200   113107075.120 6      5634.600          41.125    21523561.460   113107075.104 6      5634.600          37.375    21523567.100    88135422.496 6      4390.598          36.937    21523568.560    88135425.504 7      4390.598          44.687
G22  23708019.220   124586494.085 7      1423.792          42.875    23708020.800   124586494.095 3      1423.792          19.125    23708025.600    97080371.761 3      1109.448          19.125
G17  20814604.460   109381510.283 6      4045.237          37.625    20814602.560   109381510.288 3      4045.237          22.875    20814603.200    85232359.194 3      3152.133          23.375    20814604.880    85232358.183 5      3152.133          31.500
G03  21208963.560   111453882.718 7       800.444          43.875    21208963.560   111453882.736 6       800.444          38.125    21208970.860    86847199.978 6       623.723          38.000    21208972.160    86847201.987 7       623.723          43.562
G21  24019878.480   126225311.576 5      1098.526          34.562    24019875.700   126225311.597 1      1098.526           5.062    24019882.000    98357382.438 1       855.994           4.250
R18  20974744.720   111964618.900 8      1209.716          48.250    20974745.140   111964618.900 7      1209.716          47.250    20974758.760    87083628.950 7       940.890          47.000    20974757.260    87083628.947 7       940.890          47.312
G02  22688014.140   119226305.759 8      1547.079          50.625    22688013.000   119226305.766 5      1547.079          35.187    22688017.780    92903628.832 5      1205.516          35.312
R04  19279626.060   103241521.773 7      1614.800          47.750    19279626.420   103241521.807 7      1614.800          46.125    19279637.360    80298999.647 8      1255.955          49.875    19279636.560    80298999.647 8      1255.955          50.562
G04  20686748.660   108709599.204 6      3564.265          41.312    20686749.260   108709599.222 5      3564.265          30.562    20686752.680    84708795.322 5      2777.349          30.312    20686752.820    84708795.318 8      2777.349          48.062
> 2024 07 31 11 56  3.0000000  0  9
G09  21522487.360   113101440.368 6      5634.711          40.187    21522489.140   113101440.352 6      5634.711          37.500    21522494.620    88131031.781 6      4390.684          36.937    21522495.860    88131034.799 7      4390.684          44.437
G22  23707748.340   124585070.362 7      1423.808          42.562    23707749.080   124585070.377 3      1423.808          19.125    23707754.760    97079262.362 3      1109.461          19.125
G17  20813835.280   109377465.135 6      4045.065          37.750    20813832.560   109377465.140 3      4045.065          22.875    20813833.400    85229207.127 3      3151.998          23.375    20813833.100    85229206.116 5      3151.998          31.500
