     3.05           OBSERVATION DATA    MIXED               RINEX VERSION / TYPE
TPS2RIN 1.0.29.3920 TPS-USER            20240801 093646 UTC PGM / RUN BY / DATE
Win64 build Feb 23, 2024 (c) Topcon Positioning Systems     COMMENT
SRC: 20240731_CAMI8.tps                                     COMMENT
OPT: -S -v 3.05                                             COMMENT
Observer            Agency                                  OBSERVER / AGENCY
O0M3X53SBGM         TPS HIPER_SR        4.8 HSR Jul,08,2022 REC # / TYPE / VERS
FW: 4.8 HSR Jul,08,2022 p3                                  COMMENT
SN: HiPer SR 1212-12575                                     COMMENT
000                 TPSHIPER_SR     NONE                    ANT # / TYPE
        1.8000        0.0000        0.0000                  ANTENNA: DELTA H/E/N
CAMI8                                                       MARKER NAME
  5390769.5334 -1598126.4192  3005650.2096                  APPROX POSITION XYZ
  2024     7    31    15    18   58.0000000     GPS         TIME OF FIRST OBS
  2024     7    31    15    33   58.0000000     GPS         TIME OF LAST OBS
     1.000                                                  INTERVAL
   901 EPOCHS                                               COMMENT
G   16 C1C L1C D1C S1C C1W L1W D1W S1W C2W L2W D2W S2W C2X  SYS / # / OBS TYPES
       L2X D2X S2X                                          SYS / # / OBS TYPES
R   16 C1C L1C D1C S1C C1P L1P D1P S1P C2P L2P D2P S2P C2C  SYS / # / OBS TYPES
       L2C D2C S2C                                          SYS / # / OBS TYPES
    16                                                      # OF SATELLITES
   G05   901   901   901   901   901   901   901   901   901PRN / # OF OBS
         901   901   901   901   901   901   901            PRN / # OF OBS
   G06   901   901   901   901   901   901   901   901   901PRN / # OF OBS
         901   901   901   901   901   901   901            PRN / # OF OBS
   G07   901   901   901   901   901   901   901   901   901PRN / # OF OBS
         901   901   901   901   901   901   901            PRN / # OF OBS
   G09   901   901   901   901   901   901   901   901   901PRN / # OF OBS
         901   901   901   901   901   901   901            PRN / # OF OBS
   G11   901   901   901   901   901   901   901   901   901PRN / # OF OBS
         901   901   901   901   901   901   901            PRN / # OF OBS
   G13   901   901   901   901   901   901   901   901   901PRN / # OF OBS
         901   901   901     0     0     0     0            PRN / # OF OBS
   G19   901   901   901   901   901   901   901   901   901PRN / # OF OBS
         901   901   901     0     0     0     0            PRN / # OF OBS
   G20   901   901   901   901   901   901   901   901   901PRN / # OF OBS
         901   901   901     0     0     0     0            PRN / # OF OBS
   G30   901   901   901   901   901   901   901   901   901PRN / # OF OBS
         901   901   901   901   901   901   901            PRN / # OF OBS
   R05   901   901   901   901   901   901   901   901   901PRN / # OF OBS
         901   901   901   901   901   901   901            PRN / # OF OBS
   R06   901   901   901   901   901   901   901   901     0PRN / # OF OBS
           0     0     0     0     0     0     0            PRN / # OF OBS
   R07   901   901   901   901   901   901   901   901   901PRN / # OF OBS
         901   901   901   901   901   901   901            PRN / # OF OBS
   R15   901   901   901   901   901   901   901   901   901PRN / # OF OBS
         901   901   901   901   901   901   901            PRN / # OF OBS
   R16   901   901   901   901   901   901   901   901   901PRN / # OF OBS
         901   901   901   901   901   901   901            PRN / # OF OBS
   R21   901   901   901   901   901   901   901   901   901PRN / # OF OBS
         901   901   901   901   901   901   901            PRN / # OF OBS
   R22   901   901   901   901   901   901   901   901   901PRN / # OF OBS
         901   901   901   901   901   901   901            PRN / # OF OBS
G L1C                                                       SYS / PHASE SHIFT
G L1W -0.25000                                              SYS / PHASE SHIFT
G L2W  0.00000                                              SYS / PHASE SHIFT
G L2X  0.25000                                              SYS / PHASE SHIFT
R L1C                                                       SYS / PHASE SHIFT
R L1P -0.25000                                              SYS / PHASE SHIFT
R L2P -0.25000                                              SYS / PHASE SHIFT
R L2C                                                       SYS / PHASE SHIFT
  7 R05  1 R06 -4 R07  5 R15  0 R16 -1 R21  4 R22 -3        GLONASS SLOT / FRQ #
                                                            GLONASS COD/PHS/BIS
    18    18  1929     7GPS                                 LEAP SECONDS
                                                            END OF HEADER
> 2024 07 31 15 18 58.0000000  0 16
G06  20474602.980   107594763.711 8      1635.724          48.750    20474602.040   107594763.714 8      1635.724          49.875    20474611.800    83840206.470 8      1274.590          49.937    20474612.720    83840113.470 8      1274.590          51.062
R21  19951312.100   106763508.729 8      3925.155          49.187    19951312.800   106763508.751 8      3925.155          48.000    19951324.140    83038335.764 8      3052.898          50.687    19951323.820    83038334.765 8      3052.898          50.437
R07  22878797.180   122471997.592 7      4621.898          42.250    22878797.800   122471997.623 6      4621.898          41.562    22878816.640    95256067.893 7      3594.809          45.625    22878816.960    95256072.914 7      3594.809          46.312
R16  23040101.100   123076087.273 6      5905.065          40.000    23040100.040   123076087.250 6      5905.065          39.000    23040127.460    95725948.725 7      4592.828          45.562    23040128.240    95725953.734 7      4592.828          45.375
G11  21147445.720   111130582.024 7      4502.151          46.937    21147444.680   111130582.031 6      4502.151          40.062    21147450.620    86595273.965 6      3508.169          39.625    21147448.920    86595269.968 8      3508.169          51.937
G09  22398820.580   117706592.033 7        96.753          45.062    22398819.800   117706592.040 7        96.753          43.500    22398829.680    91719461.700 7        75.392          43.562    22398830.060    91719467.689 7        75.392          46.250
R06  20642285.000   110151171.288 6      2827.485          39.500    20642285.140   110151171.286 6      2827.485          38.125
R05  22274965.580   119072462.517 7       398.514          44.000    22274962.160   119072462.505 7       398.514          43.875    22274980.080    92611963.349 7       309.956          44.437    22274980.060    92611962.333 7       309.956          45.375
G05  24375230.060   128092699.763 6      5241.577          40.250    24375227.980   128092699.778 5      5241.577          35.625    24375238.180    99812530.067 5      4084.346          35.562    24375238.560    99812533.076 6      4084.346          40.625
G20  22337158.560   117382558.666 7      4950.137          45.187    22337156.660   117382558.676 5      4950.137          34.125    22337163.720    91466950.521 5      3857.249          34.250
R15  22971474.580   122752595.596 7      3603.508          45.062    22971475.160   122752595.619 7      3603.508          44.562    22971492.720    95474323.563 7      2802.729          43.500    22971492.100    95474318.560 7      2802.729          44.187
G30  21588111.020   113446294.089 7      4689.150          47.625    21588109.280   113446294.099 7      4689.150          47.062    21588122.920    88399745.577 7      3653.883          47.437    21588124.360    88399759.579 7      3653.883          47.625
G07  21788641.900   114500081.141 8      2625.783          48.000    21788640.680   114500081.143 7      2625.783          45.937    21788648.980    89220876.748 7      2046.064          45.937    21788649.380    89220881.752 7      2046.064          47.562
G19  23594337.600   123989087.123 7      -493.416          42.875    23594336.360   123989087.141 5      -493.416          31.562    23594350.220    96614871.952 5      -384.480          30.875
G13  23211317.720   121976301.296 7      5714.936          42.750    23211316.900   121976301.301 4      5714.936          27.937    23211332.360    95046523.251 4      4453.197          27.937
R22  23610011.200   126031842.054 7      6748.754          42.625    23610011.880   126031842.068 7      6748.754          42.625    23610024.420    98024820.345 7      5249.031          45.125    23610024.540    98024823.343 7      5249.031          45.500
> 2024 07 31 15 18 59.0000000  0 16
G06  20474291.840   107593128.478 8      1635.045          48.937    20474290.900   107593128.481 8      1635.045          49.812    20474300.660    83838932.256 8      1274.061          50.562    20474301.720    83838839.258 8      1274.061          51.437
R21  19950578.860   106759584.165 8      3924.199          49.062    19950579.180   106759584.191 8      3924.199          48.250    19950590.780    83035283.323 8      3052.155          50.937    19950590.560    83035282.329 8      3052.155          50.812
R07  22877934.040   122467375.975 6      4621.577          41.500    22877933.860   122467376.000 6      4621.577          41.562    22877952.300    95252473.310 7      3594.560          45.812    22877953.380    95252478.337 7      3594.560          45.062
R16  23038995.860   123070182.339 6      5904.850          40.000    23038994.340   123070182.329 6      5904.850          39.312    23039022.160    95721356.002 7      4592.661          44.687    23039022.800    95721361.014 7      4592.661          45.437
G11  21146589.040   111126080.242 7      4501.612          47.500    21146588.060   111126080.250 6      4501.612          39.875    21146593.780    86591766.083 6      3507.750          39.687    21146592.320    86591762.081 8      3507.750          52.062
G09  22398802.160   117706495.445 7        96.656          44.562    22398801.340   117706495.450 7        96.656          43.625    22398811.200    91719386.437 7        75.317          43.375    22398811.300    91719392.428 7        75.317          45.500
R06  20641755.040   110148344.173 6      2826.838          39.500    20641755.280   110148344.164 6      2826.838          38.250
R05  22274891.100   119072064.213 7       398.444          42.812    22274888.240   119072064.209 7       398.444          43.500    22274904.640    92611653.561 7       309.901          43.875    22274905.300    92611652.539 7       309.901          45.250
G05  24374232.900   128087458.101 6      5241.767          40.750    24374230.840   128087458.114 5      5241.767          35.312    24374240.620    99808445.659 5      4084.494          35.500    24374240.540    99808448.663 6      4084.494          40.625
G20  22336216.400   117377608.654 7      4950.139          45.187    22336214.680   117377608.664 5      4950.139          34.125    22336221.700    91463093.371 5      3857.251          34.250
R15  22970800.060   122748992.561 7      3602.795          45.937    22970801.200   122748992.578 7      3602.795          45.187    22970818.500    95471521.212 7      2802.174          43.562    22970817.680    95471516.205 7      2802.174          44.062
G30  21587218.920   113441605.231 7      4688.758          47.562    21587217.080   113441605.236 7      4688.758          47.062    21587230.660    88396091.925 7      3653.578          47.062    21587232.100    88396105.928 8      3653.578          48.250
G07  21788142.480   114497455.649 7      2625.342          47.125    21788141.100   114497455.649 7      2625.342          46.000    21788149.340    89218830.912 7      2045.721          45.937    21788150.040    89218835.914 7      2045.721          47.625
G19  23594431.580   123989580.592 7      -493.488          42.375    23594430.320   123989580.602 5      -493.488          31.562    23594443.980    96615256.472 5      -384.536          31.562
G13  23210230.520   121970586.618 7      5714.573          43.812    23210229.480   121970586.621 4      5714.573          28.125    23210244.920    95042070.264 4      4452.914          27.937
R22  23608746.860   126025093.556 7      6748.600          42.437    23608747.440   126025093.576 7      6748.600          42.687    23608760.000    98019571.514 7      5248.911          45.062    23608760.280    98019574.516 7      5248.911          45.437
> 2024 07 31 15 19  0.0000000  0 16
G06  20473980.880   107591493.852 8      1634.224          48.125    20473979.800   107591493.854 8      1634.224          49.812    20473989.620    83837658.513 8      1273.421          50.375    20473990.540    83837565.516 8      1273.421          51.500
R21  19949845.740   106755660.495 8      3923.008          49.312    19949846.140   106755660.513 8      3923.008          48.000    19949857.540    83032231.578 8      3051.228          50.375    19949857.280    83032230.577 8      3051.228          50.375
R07  22877070.860   122462754.622 6      4620.973          41.500    22877070.140   122462754.648 6      4620.973          41.500    22877087.960    95248878.928 7      3594.090          44.875    22877089.760    95248883.950 7      3594.090          43.812
R16  23037890.220   123064277.597 6      5904.459          40.312    23037889.800   123064277.588 6      5904.459          39.312    23037916.200    95716763.422 7      4592.357          45.250    23037917.300    95716768.429 7      4592.357          45.500
G11  21145732.360   111121578.976 7      4500.832          47.375    21145731.500   111121578.984 6      4500.832          39.750    21145737.300    86588258.601 6      3507.142          39.375    21145735.840    86588254.603 8      3507.142          52.250
G09  22398784.120   117706398.992 7        96.158          44.562    22398782.980   117706398.994 7        96.158          44.312    22398792.940    91719311.272 7        74.928          43.812    22398792.800    91719317.274 7        74.928          44.937
R06  20641225.400   110145517.214 6      2826.637          39.500    20641225.420   110145517.215 6      2826.637          38.250
R05  22274816.620   119071665.874 7       398.081          42.562    22274814.220   119071665.886 7       398.081          42.937    22274828.880    92611343.740 7       309.618          44.125    22274830.200    92611342.722 7       309.618          44.250
G05  24373235.740   128082216.440 6      5241.447          41.250    24373233.660   128082216.445 6      5241.447          36.187    24373242.960    99804361.246 5      4084.244          35.875    24373242.960    99804364.260 6      4084.244          40.125
G20  22335274.700   117372658.689 7      4949.786          44.812    22335272.760   117372658.702 5      4949.786          34.000    22335279.720    91459236.259 5      3856.976          34.062
R15  22970126.060   122745390.222 7      3601.782          46.000    22970126.940   122745390.242 7      3601.782          45.062    22970144.400    95468719.404 7      2801.386          43.375    22970143.820    95468714.392 7      2801.386          44.062
G30  21586326.400   113436916.864 7      4687.945          47.000    21586324.840   113436916.872 7      4687.945          47.375    21586338.620    88392438.661 7      3652.944          47.375    21586339.700    88392452.665 7      3652.944          47.937
G07  21787642.920   114494830.743 7      2624.431          47.000    21787641.660   114494830.745 7      2624.431          46.000    21787649.740    89216785.533 7      2045.011          45.937    21787650.460    89216790.537 7      2045.011          47.437
G19  23594525.340   123990074.047 6      -493.619          41.500    23594524.300   123990074.057 5      -493.619          31.562    23594537.940    96615640.989 5      -384.638          31.562
G13  23209143.040   121964872.219 7      5714.209          43.312    23209141.940   121964872.224 4      5714.209          28.125    23209157.640    95037617.490 4      4452.630          27.937
R22  23607482.660   126018345.438 7      6747.798          42.250    23607484.460   126018345.433 7      6747.798          42.500    23607495.520    98014322.954 7      5248.287          45.187    23607496.140    98014325.955 7      5248.287          45.375
> 2024 07 31 15 19  1.0000000  0 16
G06  20473670.060   107589860.020 8      1633.531          48.875    20473669.000   107589860.025 8      1633.531          50.125    20473678.720    83836385.399 8      1272.881          50.875    20473679.920    83836292.401 8      1272.881          51.375
R21  19949112.880   106751737.863 8      3922.231          48.625    19949112.960   106751737.886 8      3922.231          48.375    19949124.460    83029180.644 8      3050.624          50.750    19949124.220    83029179.648 8      3050.624          50.625
R07  22876207.600   122458133.663 6      4620.845          41.687    22876206.940   122458133.694 6      4620.845          41.500    22876223.920    95245284.874 7      3593.990          44.687    22876226.040    95245289.895 7      3593.990          42.937
R16  23036784.660   123058373.246 6      5904.349          40.312    23036784.480   123058373.225 6      5904.349          39.312    23036810.720    95712171.152 7      4592.271          44.375    23036811.940    95712176.159 7      4592.271          44.937
G11  21144876.280   111117078.411 7      4500.339          47.375    21144875.020   111117078.419 6      4500.339          40.062    21144880.940    86584751.669 6      3506.758          40.000    21144879.520    86584747.665 8      3506.758          52.375
G09  22398765.880   117706302.796 7        96.160          44.625    22398764.760   117706302.793 7        96.160          44.250    22398774.700    91719236.306 7        74.930          43.937    22398774.240    91719242.326 7        74.930          45.000
R06  20640696.080   110142690.705 6      2826.460          39.500    20640695.580   110142690.709 6      2826.460          38.250
R05  22274742.280   119071267.647 7       398.290          42.562    22274741.320   119071267.659 7       398.290          43.812    22274753.540    92611034.004 7       309.781          43.375    22274755.120    92611032.984 7       309.781          44.000
G05  24372238.020   128076974.878 6      5241.651          41.437    24372236.420   128076974.883 6      5241.651          36.187    24372245.540    99800276.920 6      4084.403          36.000    24372246.300    99800279.936 6      4084.403          40.125
G20  22334332.740   117367708.952 7      4949.845          45.750    22334330.880   117367708.963 5      4949.845          34.000    22334337.780    91455379.322 5      3857.022          34.062
R15  22969452.100   122741788.795 7      3601.108          46.812    22969453.280   122741788.807 7      3601.108          45.062    22969470.500    95465918.292 7      2800.862          43.187    22969469.620    95465913.284 7      2800.862          43.687
G30  21585434.440   113432229.136 7      4687.551          47.250    21585432.840   113432229.141 7      4687.551          47.562    21585446.420    88388785.886 7      3652.637          47.687    21585447.800    88388799.886 7      3652.637          47.812
G07  21787143.400   114492206.573 7      2623.901          47.687    21787142.200   114492206.575 7      2623.901          46.062    21787150.480    89214740.729 7      2044.598          46.187    21787150.840    89214745.737 7      2044.598          47.437
G19  23594619.360   123990567.718 7      -493.693          42.750    23594618.240   123990567.726 5      -493.693          31.687    23594631.980    96616025.672 5      -384.696          31.562
G13  23208055.520   121959158.346 7      5713.751          43.500    23208054.800   121959158.351 4      5713.751          28.125    23208070.420    95033165.135 4      4452.274          27.937
R22  23606219.020   126011597.749 7      6747.489          42.250    23606220.480   126011597.750 7      6747.489          42.500    23606231.320    98009074.756 7      5248.047          45.000    23606231.640    98009077.756 7      5248.047          45.000
> 2024 07 31 15 19  2.0000000  0 16
G06  20473359.260   107588226.849 8      1633.001          49.187    20473358.160   107588226.851 8      1633.001          50.312    20473367.920    83835112.788 8      1272.468          50.375    20473369.220    83835019.789 8      1272.468          51.437
R21  19948379.880   106747816.203 8      3921.317          49.250    19948380.160   106747816.223 8      3921.317          48.000    19948391.600    83026130.458 8      3049.913          50.562    19948391.240    83026129.461 8      3049.913          50.500
R07  22875344.360   122453513.027 6      4620.624          41.687    22875344.460   122453513.061 6      4620.624          40.500    22875359.880    95241691.057 7      3593.818          43.812    22875362.640    95241696.068 7      3593.818          42.250
R16  23035679.400   123052469.180 6      5904.125          40.312    23035679.500   123052469.159 6      5904.125          39.500    23035705.200    95707579.093 7      4592.097          44.062    23035706.640    95707584.104 7      4592.097          44.500
G11  21144020.000   111112578.419 7      4499.896          47.937    21144018.720   111112578.424 6      4499.896          39.812    21144024.560    86581245.178 6      3506.412          39.875    21144023.100    86581241.171 8      3506.412          51.875
G09  22398747.560   117706206.789 7        96.078          43.250    22398746.580   117706206.791 7        96.078          44.125    22398756.380    91719161.494 7        74.866          44.125    22398756.240    91719167.511 7        74.866          45.687
R06  20640166.460   110139864.511 6      2826.093          39.500    20640165.700   110139864.512 6      2826.093          38.250
R05  22274668.040   119070869.456 7       398.381          45.125    22274668.500   119070869.470 7       398.381          44.125    22274678.280    92610724.299 7       309.852          43.500    22274680.320    92610723.287 7       309.852          42.812
G05  24371240.640   128071733.393 6      5241.668          41.875    24371239.340   128071733.400 5      5241.668          35.875    24371248.340    99796192.646 6      4084.417          36.187    24371249.260    99796195.650 6      4084.417          40.187
G20  22333391.000   117362759.340 7      4949.779          45.250    22333388.980   117362759.342 5      4949.779          34.625    22333395.880    91451522.481 5      3856.971          34.687
R15  22968778.320   122738188.113 7      3600.455          46.250    22968779.300   122738188.125 7      3600.455          44.625    22968796.740    95463117.764 7      2800.354          42.812    22968795.860    95463112.760 7      2800.354          43.500
G30  21584542.460   113427541.939 7      4687.092          47.750    21584540.840   113427541.941 7      4687.092          47.437    21584554.540    88385133.528 7      3652.280          47.625    21584555.600    88385147.533 7      3652.280          47.687
G07  21786644.160   114489583.036 7      2623.248          47.750    21786643.000   114489583.038 7      2623.248          45.750    21786651.160    89212696.414 7      2044.089          45.750    21786651.940    89212701.418 7      2044.089          47.375
G19  23594713.380   123991061.468 7      -493.599          42.062    23594712.280   123991061.476 5      -493.599          31.687    23594726.080    96616410.410 5      -384.622          31.687
G13  23206968.200   121953444.832 7      5713.462          43.562    23206967.640   121953444.837 4      5713.462          28.125    23206983.200    95028713.063 4      4452.048          27.937
R22  23604955.100   126004850.423 7      6747.188          42.062    23604956.120   126004850.424 7      6747.188          42.875    23604967.360    98003826.840 7      5247.813          45.250    23604967.900    98003829.840 7      5247.813          44.812
> 2024 07 31 15 19  3.0000000  0 16
G06  20473048.740   107586594.262 8      1632.415          48.625    20473047.440   107586594.264 8      1632.415          50.062    20473057.240    83833840.638 8      1272.012          50.437    20473058.420    83833747.637 8      1272.012          50.937
R21  19947647.200   106743895.415 8      3920.414          48.500    19947647.600   106743895.440 8      3920.414          48.437    19947658.880    83023080.960 8      3049.211          50.750    19947658.520    83023079.961 8      3049.211          50.437
R07  22874480.900   122448892.649 6      4620.381          40.750    22874481.600   122448892.680 6      4620.381          40.500    22874496.060    95238097.436 7      3593.630          43.625    22874498.820    95238102.449 7      3593.630          42.437
R16  23034574.440   123046565.245 6      5903.940          40.312    23034573.840   123046565.257 6      5903.940          39.500    23034599.460    95702987.166 7      4591.953          43.625    23034600.960    95702992.175 7      4591.953          44.437
G11  21143163.540   111108078.913 7      4499.337          47.250    21143162.400   111108078.921 6      4499.337          40.000    21143168.300    86577739.072 6      3505.977          39.437    21143167.040    86577735.071 8      3505.977          52.312
G09  22398729.400   117706110.853 7        96.038          44.750    22398728.260   117706110.858 7        96.038          43.562    22398738.160    91719086.743 7        74.835          43.437    22398738.820    91719092.752 7        74.835          46.875
R06  20639637.540   110137038.483 6      2825.987          39.312    20639636.060   110137038.484 6      2825.987          38.250
R05  22274593.640   119070471.160 7       398.499          46.187    22274594.760   119070471.188 7       398.499          45.875    22274603.680    92610414.524 7       309.943          43.500    22274605.620    92610413.520 7       309.943          42.500
G05  24370243.400   128066491.826 6      5241.840          41.875    24370241.960   128066491.828 6      5241.840          36.625    24370250.780    99792108.306 6      4084.551          36.187    24370251.280    99792111.318 6      4084.551          40.187
G20  22332449.140   117357809.737 7      4949.614          44.562    22332447.020   117357809.742 5      4949.614          34.500    22332454.040    91447665.658 5      3856.842          34.250
R15  22968104.880   122734588.086 7      3599.930          46.125    22968105.300   122734588.101 7      3599.930          45.000    22968122.760    95460317.757 7      2799.945          43.000    22968121.880    95460312.750 7      2799.945          43.375
G30  21583650.440   113422855.167 8      4686.687          48.312    21583649.100   113422855.172 7      4686.687          47.562    21583662.560    88381481.507 7      3651.964          47.562    21583663.920    88381495.505 8      3651.964          48.062
G07  21786144.760   114486960.000 7      2622.888          47.187    21786143.780   114486960.008 7      2622.888          45.750    21786152.120    89210652.499 7      2043.809          45.625    21786152.660    89210657.505 7      2043.809          47.437
G19  23594807.760   123991555.176 7      -493.498          42.812    23594806.340   123991555.179 5      -493.498          31.875    23594820.060    96616795.117 5      -384.544          31.687
G13  23205881.000   121947731.589 7      5713.280          42.812    23205880.520   121947731.599 4      5713.280          28.125    23205895.920    95024261.199 4      4451.906          27.937
R22  23603691.080   125998103.375 7      6747.209          42.062    23603692.180   125998103.365 7      6747.209          43.062    23603704.080    97998579.121 7      5247.829          45.750    23603704.240    97998582.120 7      5247.829          45.187
> 2024 07 31 15 19  4.0000000  0 16
G06  20472738.000   107584962.308 8      1631.492          49.125    20472736.980   107584962.313 8      1631.492          49.937    20472746.700    83832568.980 8      1271.293          50.437    20472747.780    83832475.978 8      1271.293          51.250
R21  19946914.660   106739975.592 8      3919.233          49.375    19946915.380   106739975.615 8      3919.233          48.375    19946926.540    83020032.205 8      3048.292          50.812    19946926.180    83020031.206 8      3048.292          49.750
R07  22873617.860   122444272.538 6      4619.885          40.750    22873618.700   122444272.572 6      4619.885          40.500    22873632.620    95234504.012 7      3593.244          43.375    22873635.500    95234509.027 6      3593.244          41.812
R16  23033469.320   123040661.593 6      5903.449          40.312    23033469.040   123040661.578 6      5903.449          39.937    23033494.220    95698395.414 7      4591.572          43.812    23033495.500    95698400.426 7      4591.572          44.125
G11  21142307.420   111103579.936 7      4498.558          47.312    21142306.380   111103579.943 6      4498.558          39.875    21142312.320    86574233.375 6      3505.370          39.500    21142310.880    86574229.374 8      3505.370          51.812
G09  22398711.100   117706015.061 7        95.629          45.875    22398710.080   117706015.066 7        95.629          44.812    22398719.940    91719012.092 7        74.516          43.812    22398720.960    91719018.093 7        74.516          47.250
R06  20639108.560   110134212.737 6      2825.386          39.312    20639106.840   110134212.738 6      2825.386          38.250
R05  22274519.020   119070072.840 7       398.191          45.937    22274521.120   119070072.857 7       398.191          45.062    22274529.260    92610104.726 7       309.704          43.062    22274530.920    92610103.739 6       309.704          41.875
G05  24369245.840   128061250.254 6      5241.442          41.500    24369244.520   128061250.256 6      5241.442          36.562    24369253.400    99788023.966 6      4084.241          36.750    24369253.940    99788026.988 6      4084.241          40.750
G20  22331507.080   117352860.190 7      4949.349          45.437    22331505.280   117352860.195 5      4949.349          34.500    22331512.180    91443808.870 5      3856.636          34.250
R15  22967431.100   122730988.796 7      3598.807          45.562    22967431.960   122730988.808 7      3598.807          44.812    22967449.180    95457518.314 7      2799.072          43.000    22967448.440    95457513.314 7      2799.072          43.312
G30  21582758.720   113418168.900 7      4685.876          47.437    21582757.300   113418168.907 7      4685.876          47.500    21582770.940    88377829.876 7      3651.332          47.437    21582772.060    88377843.874 7      3651.332          47.250
G07  21785645.680   114484337.580 7      2621.971          47.562    21785644.900   114484337.585 7      2621.971          45.437    21785653.020    89208609.054 7      2043.095          45.375    21785653.840    89208614.065 7      2043.095          47.812
G19  23594901.760   123992048.953 7      -493.969          42.062    23594900.160   123992048.960 5      -493.969          31.875    23594914.120    96617179.878 5      -384.911          31.687
G13  23204793.780   121942018.690 7      5712.676          43.562    23204793.340   121942018.698 4      5712.676          28.000    23204808.700    95019809.596 4      4451.436          27.937
R22  23602427.580   125991356.666 7      6746.481          42.062    23602427.340   125991356.661 7      6746.481          43.062    23602440.640    97993331.699 7      5247.263          45.187    23602440.340    97993334.698 7      5247.263          45.437
> 2024 07 31 15 19  5.0000000  0 16
G06  20472427.560   107583330.938 8      1631.200          48.937    20472426.480   107583330.942 8      1631.200          49.875    20472436.300    83831297.776 8      1271.065          49.937    20472437.260    83831204.780 8      1271.065          51.375
R21  19946182.240   106736056.690 8      3918.536          49.500    19946183.100   106736056.708 8      3918.536          48.437    19946194.120    83016984.166 8      3047.750          50.812    19946193.760    83016983.165 8      3047.750          50.500
R07  22872755.220   122439652.679 7      4619.810          43.187    22872755.900   122439652.724 6      4619.810          40.875    22872768.820    95230910.792 7      3593.186          43.375    22872771.780    95230915.801 6      3593.186          41.875
R16  23032363.900   123034758.101 6      5903.530          40.437    23032363.560   123034758.089 6      5903.530          39.937    23032389.140    95693803.812 7      4591.634          43.625    23032390.500    95693808.819 7      4591.634          44.000
G11  21141451.680   111099081.452 7      4498.297          47.187    21141450.140   111099081.457 6      4498.297          40.250    21141456.200    86570728.063 6      3505.167          39.375    21141454.860    86570724.060 8      3505.167          52.312
G09  22398692.700   117705919.341 7        95.849          45.187    22398691.920   117705919.348 7        95.849          43.937    22398701.760    91718937.502 7        74.687          44.250    22398702.980    91718943.491 7        74.687          46.937
R06  20638578.880   110131387.168 6      2825.443          39.312    20638577.800   110131387.163 6      2825.443          38.250
R05  22274444.620   119069674.423 7       398.649          45.562    22274446.720   119069674.435 7       398.649          45.437    22274455.280    92609794.857 7       310.061          42.937    22274456.480    92609793.876 6       310.061          41.937
G05  24368248.340   128056008.635 6      5241.681          41.312    24368246.980   128056008.640 6      5241.681          36.312    24368256.060    99783939.592 6      4084.427          36.562    24368257.180    99783942.593 6      4084.427          40.750
G20  22330565.000   117347910.664 7      4949.612          45.562    22330563.540   117347910.672 5      4949.612          34.375    22330570.300    91439952.098 5      3856.841          34.625
R15  22966757.580   122727390.140 7      3598.417          45.437    22966757.860   122727390.152 7      3598.417          44.187    22966776.080    95454719.365 7      2798.768          42.875    22966774.940    95454714.364 7      2798.768          44.125
G30  21581867.060   113413483.071 7      4685.679          47.062    21581865.640   113413483.074 7      4685.679          47.187    21581879.200    88374178.579 7      3651.178          47.062    21581880.420    88374192.579 7      3651.178          47.562
G07  21785147.000   114481715.683 8      2621.681          48.625    21785145.840   114481715.690 7      2621.681          46.250    21785154.100    89206566.024 7      2042.869          46.312    21785154.780    89206571.028 7      2042.869          47.500
G19  23594995.340   123992542.700 6      -493.591          41.187    23594993.800   123992542.705 5      -493.591          31.875    23595008.220    96617564.616 5      -384.617          31.687
G13  23203706.660   121936306.094 7      5712.484          43.625    23203706.160   121936306.098 4      5712.484          28.000    23203721.640    95015358.230 4      4451.286          27.937
R22  23601163.500   125984610.210 6      6746.464          41.500    23601163.700   125984610.211 7      6746.464          43.062    23601176.620    97988084.477 7      5247.250          45.875    23601176.360    97988087.477 7      5247.250          45.562
> 2024 07 31 15 19  6.0000000  0 16
G06  20472117.200   107581700.395 8      1630.071          48.750    20472116.200   107581700.397 8      1630.071          49.937    20472126.040    83830027.219 8      1270.185          50.125    20472127.060    83829934.217 8      1270.185          51.187
R21  19945450.200   106732138.910 8      3917.159          49.625    19945450.720   106732138.930 8      3917.159          48.500    19945461.980    83013937.005 8      3046.679          50.500    19945461.660    83013936.007 8      3046.679          50.500
R07  22871891.600   122435033.264 7      4619.089          43.187    22871892.720   122435033.322 6      4619.089          40.875    22871906.020    95227317.929 7      3592.624          43.062    22871908.580    95227322.923 6      3592.624          41.812
R16  23031258.720   123028855.029 6      5902.760          40.437    23031258.640   123028855.020 6      5902.760          39.937    23031283.800    95689212.533 7      4591.035          43.375    23031285.300    95689217.538 7      4591.035          43.500
G11  21140595.740   111094583.704 7      4497.271          47.687    21140594.340   111094583.714 6      4497.271          40.312    21140600.260    86567223.328 6      3504.367          40.125    21140598.940    86567219.326 8      3504.367          52.250
G09  22398674.760   117705823.980 7        95.064          44.937    22398673.760   117705823.991 7        95.064          43.812    22398683.600    91718863.195 7        74.076          43.625    22398685.000    91718869.180 7        74.076          47.000
R06  20638049.880   110128562.076 6      2824.862          39.312    20638047.860   110128562.042 6      2824.862          38.250
R05  22274369.480   119069276.202 7       398.150          46.625    22274371.780   119069276.212 7       398.150          45.875    22274381.940    92609485.137 7       309.672          43.875    22274382.280    92609484.151 7       309.672          42.812
G05  24367250.880   128050767.152 6      5241.391          41.187    24367249.220   128050767.162 6      5241.391          36.312    24367258.740    99779855.325 6      4084.201          36.375    24367259.380    99779858.335 6      4084.201          41.187
G20  22329623.400   117342961.414 7      4949.036          44.750    22329621.680   117342961.424 5      4949.036          34.375    22329628.540    91436095.544 5      3856.392          34.625
R15  22966084.520   122723792.400 7      3597.241          46.000    22966084.680   122723792.414 7      3597.241          44.937    22966102.800    95451921.135 7      2797.854          43.125    22966101.660    95451916.132 7      2797.854          43.687
G30  21580975.560   113408797.916 7      4684.796          47.687    21580974.060   113408797.920 7      4684.796          47.437    21580987.680    88370527.816 7      3650.491          47.500    21580989.320    88370541.815 7      3650.491          47.875
G07  21784648.220   114479094.576 8      2620.630          48.437    21784647.040   114479094.578 7      2620.630          46.312    21784655.300    89204523.603 7      2042.049          46.187    21784655.800    89204528.609 7      2042.049          47.437
G19  23595089.140   123993036.697 6      -494.244          40.875    23595087.500   123993036.694 5      -494.244          31.500    23595102.300    96617949.543 5      -385.126          31.687
G13  23202619.960   121930593.996 7      5711.759          44.625    23202619.300   121930593.998 4      5711.759          28.000    23202634.540    95010907.255 4      4450.721          28.500
R22  23599899.660   125977864.315 6      6745.545          41.687    23599900.580   125977864.318 7      6745.545          42.312    23599912.840    97982837.684 7      5246.535          45.312    23599912.980    97982840.682 7      5246.535          45.812
> 2024 07 31 15 19  7.0000000  0 16
G06  20471807.060   107580070.396 8      1629.887          49.125    20471805.960   107580070.395 8      1629.887          50.125    20471815.880    83828757.082 8      1270.041          49.812    20471816.900    83828664.084 8      1270.041          50.937
R21  19944718.500   106728221.969 8      3916.577          49.437    19944718.820   106728221.992 8      3916.577          48.750    19944730.100    83010890.494 8      3046.227          50.312    19944729.760    83010889.495 8      3046.227          50.437
R07  22871029.080   122430414.064 6      4619.065          41.500    22871029.400   122430414.105 6      4619.065          41.125    22871042.920    95223725.200 7      3592.606          43.250    22871045.140    95223730.188 7      3592.606          42.062
R16  23030153.820   123022952.058 6      5903.020          40.437    23030153.360   123022952.054 6      5903.020          39.187    23030178.960    95684621.332 7      4591.237          43.250    23030179.900    95684626.339 7      4591.237          43.375
G11  21139739.720   111090086.418 7      4497.096          47.750    21139738.660   111090086.423 6      4497.096          39.562    21139744.500    86563718.941 6      3504.231          39.625    21139743.260    86563714.941 8      3504.231          51.937
G09  22398656.420   117705728.636 7        95.396          44.687    22398655.660   117705728.643 7        95.396          44.250    22398665.420    91718788.897 7        74.334          44.312    22398666.440    91718794.877 7        74.334          46.375
R06  20637519.980   110125737.155 6      2824.864          39.312    20637518.520   110125737.142 6      2824.864          38.312
R05  22274295.100   119068877.872 7       398.549          46.625    22274296.720   119068877.873 7       398.549          45.937    22274308.500    92609175.329 7       309.982          43.500    22274308.360    92609174.342 7       309.982          43.750
G05  24366253.280   128045525.604 6      5241.645          40.687    24366251.600   128045525.611 6      5241.645          36.187    24366261.560    99775771.012 6      4084.399          36.312    24366262.220    99775774.022 6      4084.399          41.437
G20  22328681.660   117338012.156 7      4949.325          45.812    22328680.040   117338012.166 5      4949.325          34.625    22328686.580    91432238.983 5      3856.617          34.562
R15  22965411.160   122720195.320 7      3596.761          45.750    22965411.660   122720195.332 7      3596.761          44.125    22965429.500    95449123.404 7      2797.481          43.250    22965428.560    95449118.405 7      2797.481          43.625
G30  21580083.960   113404113.183 7      4684.592          47.687    21580082.600   113404113.190 7      4684.592          47.375    21580096.220    88366877.386 7      3650.332          47.000    21580097.380    88366891.382 8      3650.332          48.062
G07  21784149.200   114476473.977 8      2620.386          48.500    21784148.380   114476473.981 7      2620.386          45.187    21784156.540    89202481.581 7      2041.859          45.437    21784156.980    89202486.590 7      2041.859          47.625
G19  23595183.340   123993530.584 6      -493.540          40.875    23595181.100   123993530.583 5      -493.540          31.500    23595196.300    96618334.385 5      -384.577          31.687
G13  23201532.820   121924882.175 7      5711.702          44.125    23201532.400   121924882.174 4      5711.702          28.000    23201547.480    95006456.494 4      4450.677          28.500
R22  23598635.720   125971118.678 7      6745.594          42.625    23598637.000   125971118.669 7      6745.594          42.875    23598648.720    97977591.065 7      5246.573          45.062    23598649.240    97977594.070 7      5246.573          45.187
> 2024 07 31 15 19  8.0000000  0 16
G06  20471496.920   107578440.901 8      1629.322          48.875    20471495.920   107578440.903 8      1629.322          50.250    20471505.840    83827487.337 8      1269.601          50.312    20471506.860    83827394.340 8      1269.601          51.437
R21  19943986.680   106724305.783 8      3915.790          49.437    19943986.980   106724305.808 8      3915.790          48.875    19943998.240    83007844.573 8      3045.614          51.187    19943997.880    83007843.574 8      3045.614          50.812
R07  22870166.280   122425794.943 6      4619.089          41.500    22870165.520   122425794.980 6      4619.089          41.125    22870180.160    95220132.545 7      3592.624          42.812    22870182.060    95220137.529 7      3592.624          42.062
R16  23029048.660   123017049.181 6      5902.848          40.187    23029047.920   123017049.185 6      5902.848          39.187    23029073.900    95680030.203 7      4591.104          43.312    23029074.960    95680035.210 7      4591.104          43.250
G11  21138884.060   111085589.514 7      4496.787          47.625    21138882.940   111085589.518 6      4496.787          39.687    21138888.720    86560214.862 6      3503.990          39.500    21138887.440    86560210.861 8      3503.990          52.625
G09  22398638.420   117705633.317 7        95.336          44.625    22398637.780   117705633.320 7        95.336          44.312    22398647.300    91718714.616 7        74.288          44.125    22398648.000    91718720.601 7        74.288          45.687
R06  20636991.000   110122912.351 6      2824.803          39.312    20636988.760   110122912.352 6      2824.803          38.312
R05  22274220.560   119068479.367 7       398.620          46.375    22274221.020   119068479.355 7       398.620          45.125    22274234.380    92608865.377 7       310.038          44.500    22274233.960    92608864.386 7       310.038          44.375
G05  24365255.720   128040283.913 6      5241.712          41.187    24365253.900   128040283.926 6      5241.712          36.187    24365264.320    99771686.588 6      4084.451          36.375    24365265.160    99771689.590 6      4084.451          41.437
G20  22327739.880   117333062.816 7      4949.390          45.625    22327738.140   117333062.824 5      4949.390          34.625    22327744.700    91428382.357 5      3856.668          34.812
R15  22964738.220   122716598.809 7      3596.250          45.812    22964738.340   122716598.818 7      3596.250          44.562    22964756.260    95446326.128 7      2797.083          43.062    22964755.800    95446321.129 7      2797.083          43.437
G30  21579192.720   113399428.792 7      4684.238          47.625    21579191.180   113399428.807 7      4684.238          47.562    21579204.840    88363227.219 7      3650.055          47.562    21579205.820    88363241.217 8      3650.055          48.500
G07  21783650.780   114473853.808 8      2620.029          48.125    21783649.800   114473853.805 7      2620.029          45.562    21783658.060    89200439.888 7      2041.581          45.687    21783658.280    89200444.890 7      2041.581          47.750
G19  23595277.080   123994024.470 6      -493.842          39.812    23595274.860   123994024.467 5      -493.842          31.500    23595290.340    96618719.228 5      -384.812          30.875
G13  23200445.980   121919170.524 7      5711.585          43.312    23200445.480   121919170.523 4      5711.585          28.562    23200460.760    95002005.865 4      4450.586          28.500
R22  23597372.020   125964373.218 7      6745.338          42.625    23597374.040   125964373.227 7      6745.338          42.875    23597384.620    97972344.607 7      5246.374          45.062    23597385.320    97972347.609 7      5246.374          44.812
> 2024 07 31 15 19  9.0000000  0 16
G06  20471187.100   107576812.150 8      1628.428          48.375    20471185.960   107576812.147 8      1628.428          50.437    20471195.860    83826218.175 8      1268.905          50.625    20471197.020    83826125.171 8      1268.905          51.375
R21  19943254.840   106720390.624 8      3914.691          48.937    19943255.320   106720390.647 8      3914.691          48.687    19943266.580    83004799.443 8      3044.759          50.312    19943266.340    83004798.447 8      3044.759          50.187
R07  22869303.300   122421176.248 7      4618.427          42.187    22869302.160   122421176.290 6      4618.427          41.125    22869317.760    95216540.239 7      3592.110          43.125    22869319.220    95216545.217 7      3592.110          43.125
R16  23027943.600   123011146.632 6      5902.530          40.187    23027943.120   123011146.628 6      5902.530          39.187    23027968.820    95675439.319 7      4590.857          42.750    23027970.000    95675444.326 7      4590.857          43.625
G11  21138028.300   111081093.261 7      4496.021          47.437    21138027.180   111081093.263 6      4496.021          40.187    21138033.180    86556711.286 6      3503.393          39.750    21138031.880    86556707.288 8      3503.393          52.500
G09  22398620.500   117705538.212 7        95.044          44.250    22398619.560   117705538.214 7        95.044          44.687    22398629.160    91718640.504 7        74.060          44.375    22398629.460    91718646.495 7        74.060          45.125
R06  20636461.520   110120087.966 6      2824.071          39.312    20636459.960   110120087.970 6      2824.071          38.312
R05  22274146.100   119068080.900 7       398.430          45.500    22274145.080   119068080.888 7       398.430          44.062    22274160.660    92608555.450 7       309.890          44.812    22274159.620    92608554.463 7       309.890          45.312
G05  24364258.520   128035042.302 6      5241.629          41.625    24364256.520   128035042.317 6      5241.629          36.500    24364267.080    99767602.222 6      4084.386          36.437    24364268.100    99767605.232 6      4084.386          41.812
G20  22326797.820   117328113.661 7      4949.024          45.750    22326796.460   117328113.668 5      4949.024          34.625    22326802.860    91424525.876 5      3856.383          34.812
R15  22964065.000   122713003.145 7      3595.282          46.125    22964065.360   122713003.154 7      3595.282          44.375    22964083.440    95443529.509 7      2796.331          42.750    22964082.700    95443524.510 7      2796.331          43.625
G30  21578301.480   113394745.015 7      4683.509          47.937    21578300.000   113394745.020 7      4683.509          47.875    21578313.580    88359577.521 7      3649.487          47.687    21578314.700    88359591.523 8      3649.487          48.062
G07  21783152.260   114471234.336 8      2619.169          48.375    21783151.280   114471234.341 7      2619.169          46.312    21783159.580    89198398.746 7      2040.911          46.250    21783159.880    89198403.749 7      2040.911          47.500
G19  23595371.200   123994518.407 6      -493.906          40.000    23595368.580   123994518.409 5      -493.906          30.625    23595384.600    96619104.110 5      -384.862          30.875
G13  23199359.160   121913459.325 7      5711.005          43.750    23199358.860   121913459.325 4      5711.005          28.562    23199373.920    94997555.584 4      4450.134          28.500
R22  23596108.280   125957628.172 7      6744.908          43.187    23596109.780   125957628.181 7      6744.908          43.250    23596120.840    97967098.461 7      5246.039          45.312    23596121.660    97967101.462 7      5246.039          45.000
> 2024 07 31 15 19 10.0000000  0 16
G06  20470877.160   107575184.043 8      1627.641          49.500    20470876.160   107575184.048 8      1627.641          49.625    20470886.060    83824949.520 8      1268.291          49.937    20470887.300    83824856.520 8      1268.291          51.437
R21  19942523.520   106716476.458 8      3913.515          48.125    19942524.160   106716476.481 8      3913.515          48.312    19942534.940    83001755.094 8      3043.845          51.250    19942534.720    83001754.097 8      3043.845          50.375
R07  22868440.520   122416557.893 7      4618.010          42.187    22868438.900   122416557.938 6      4618.010          41.125    22868455.460    95212948.188 7      3591.786          43.375    22868456.740    95212953.169 7      3591.786          43.625
R16  23026838.500   123005244.367 6      5902.023          40.187    23026838.560   123005244.376 6      5902.023          39.187    23026863.900    95670848.674 7      4590.462          43.375    23026864.980    95670853.682 7      4590.462          43.750
G11  21137172.820   111076597.599 7      4495.271          47.500    21137171.760   111076597.606 6      4495.271          39.437    21137177.720    86553208.177 6      3502.809          39.437    21137176.520    86553204.179 8      3502.809          52.625
G09  22398602.500   117705443.298 7        94.682          44.687    22398601.540   117705443.297 7        94.682          44.500    22398610.980    91718566.541 7        73.778          44.437    22398611.680    91718572.546 7        73.778          44.875
R06  20635931.560   110117263.827 6      2823.877          39.625    20635930.280   110117263.822 6      2823.877          38.312
R05  22274071.740   119067682.441 7       398.312          44.000    22274069.620   119067682.421 7       398.312          44.125    22274086.740    92608245.531 7       309.798          44.750    22274085.400    92608244.536 7       309.798          45.500
G05  24363260.820   128029800.756 6      5241.358          41.437    24363259.200   128029800.769 6      5241.358          36.750    24363269.760    99763517.907 6      4084.175          36.750    24363271.060    99763520.919 7      4084.175          42.000
G20  22325855.920   117323164.597 7      4948.954          44.812    22325854.640   117323164.605 5      4948.954          34.250    22325861.040    91420669.465 5      3856.328          34.250
R15  22963392.320   122709408.253 7      3594.330          45.750    22963393.160   122709408.267 7      3594.330          44.500    22963410.420    95440733.494 7      2795.590          42.812    22963409.700    95440728.491 7      2795.590          43.375
G30  21577410.360   113390061.751 7      4682.896          47.437    21577408.700   113390061.754 7      4682.896          47.187    21577422.360    88355928.231 7      3649.010          47.312    21577423.440    88355942.231 7      3649.010          47.937
G07  21782653.980   114468615.497 8      2618.463          48.000    21782652.840   114468615.496 7      2618.463          45.750    21782661.280    89196358.097 7      2040.360          45.750    21782661.660    89196363.103 7      2040.360          47.687
G19  23595465.060   123995012.464 6      -494.207          40.125    23595462.380   123995012.469 5      -494.207          30.625    23595478.740    96619489.087 5      -385.097          30.875
G13  23198272.620   121907748.483 7      5710.666          43.062    23198272.140   121907748.480 4      5710.666          28.562    23198287.160    94993105.584 4      4449.870          28.500
R22  23594845.020   125950883.517 7      6744.309          42.062    23594845.840   125950883.521 7      6744.309          42.625    23594857.420    97961852.619 7      5245.574          44.687    23594857.660    97961855.616 7      5245.574          44.625
> 2024 07 31 15 19 11.0000000  0 16
G06  20470567.680   107573556.461 8      1627.342          48.437    20470566.480   107573556.464 8      1627.342          50.250    20470576.360    83823681.268 8      1268.059          50.500    20470577.560    83823588.268 8      1268.059          51.437
R21  19941792.220   106712563.100 8      3912.998          49.375    19941792.520   106712563.120 8      3912.998          49.125    19941803.660    82998711.367 8      3043.443          50.687    19941803.460    82998710.368 8      3043.443          50.625
R07  22867577.600   122411939.702 7      4618.175          42.187    22867576.600   122411939.733 6      4618.175          41.125    22867593.300    95209356.261 7      3591.914          43.750    22867594.240    95209361.238 7      3591.914          43.437
R16  23025733.760   122999342.192 6      5901.771          39.187    23025733.120   122999342.196 6      5901.771          39.000    23025759.140    95666258.096 7      4590.266          43.250    23025760.260    95666263.097 7      4590.266          44.000
G11  21136317.380   111072102.328 7      4495.070          47.562    21136316.300   111072102.333 6      4495.070          40.062    21136322.340    86549705.369 6      3502.652          39.750    21136320.840    86549701.371 8      3502.652          51.875
G09  22398584.420   117705348.363 7        94.907          45.250    22398583.420   117705348.365 7        94.907          44.437    22398592.920    91718492.564 7        73.953          44.125    22398593.060    91718498.579 7        73.953          45.000
R06  20635402.220   110114439.832 6      2823.986          39.625    20635401.420   110114439.832 6      2823.986          38.062
R05  22273996.880   119067283.864 7       398.496          44.312    22273994.400   119067283.844 7       398.496          43.812    22274012.040    92607935.514 7       309.941          44.750    22274011.240    92607934.517 7       309.941          46.000
G05  24362263.120   128024559.037 6      5241.701          41.375    24362261.760   128024559.050 6      5241.701          36.562    24362272.420    99759433.460 6      4084.442          36.312    24362273.380    99759436.477 7      4084.442          42.000
G20  22324914.400   117318215.494 7      4949.091          45.562    22324912.740   117318215.501 5      4949.091          34.187    22324919.300    91416813.025 5      3856.434          34.500
R15  22962719.900   122705813.927 7      3594.062          45.812    22962720.360   122705813.942 7      3594.062          44.937    22962738.200    95437937.918 7      2795.382          42.687    22962736.900    95437932.911 7      2795.382          43.125
G30  21576519.180   113385378.853 7      4682.736          47.312    21576517.540   113385378.857 8      4682.736          48.000    21576531.240    88352279.225 7      3648.885          47.500    21576532.320    88352293.227 7      3648.885          47.687
G07  21782155.720   114465997.102 8      2618.224          48.187    21782154.660   114465997.104 7      2618.224          46.000    21782162.900    89194317.791 7      2040.174          45.875    21782163.220    89194322.795 7      2040.174          47.250
G19  23595559.080   123995506.411 6      -493.994          41.062    23595556.300   123995506.424 5      -493.994          30.625    23595572.600    96619873.983 5      -384.931          30.875
G13  23197185.880   121902037.863 7      5710.581          43.500    23197185.500   121902037.865 4      5710.581          28.562    23197200.320    94988655.760 4      4449.804          28.125
R22  23593581.380   125944139.050 7      6744.341          42.750    23593582.540   125944139.056 7      6744.341          42.625    23593594.620    97956606.925 7      5245.599          45.375    23593594.520    97956609.923 7      5245.599          45.250
> 2024 07 31 15 19 12.0000000  0 16
G06  20470257.860   107571929.384 8      1626.837          49.187    20470256.840   107571929.386 8      1626.837          50.562    20470266.760    83822413.410 8      1267.665          50.625    20470267.940    83822320.412 8      1267.665          50.437
R21  19941061.000   106708650.587 8      3912.137          49.062    19941061.400   106708650.613 8      3912.137          48.500    19941072.600    82995668.308 8      3042.773          50.875    19941072.260    82995667.309 8      3042.773          50.062
R07  22866715.440   122407321.687 6      4617.951          41.500    22866713.400   122407321.718 6      4617.951          40.625    22866731.300    95205764.475 7      3591.740          44.437    22866731.680    95205769.459 7      3591.740          43.250
