     3.05           OBSERVATION DATA    MIXED               RINEX VERSION / TYPE
TPS2RIN 1.0.29.3920 TPS-USER            20240801 093646 UTC PGM / RUN BY / DATE
Win64 build Feb 23, 2024 (c) Topcon Positioning Systems     COMMENT
SRC: 20240731_CAMI2.tps                                     COMMENT
OPT: -S -v 3.05                                             COMMENT
Observer            Agency                                  OBSERVER / AGENCY
O0M3X53SBGM         TPS HIPER_SR        4.8 HSR Jul,08,2022 REC # / TYPE / VERS
FW: 4.8 HSR Jul,08,2022 p3                                  COMMENT
SN: HiPer SR 1212-12575                                     COMMENT
000                 TPSHIPER_SR     NONE                    ANT # / TYPE
        1.8000        0.0000        0.0000                  ANTENNA: DELTA H/E/N
CAMI2                                                       MARKER NAME
  5387819.2739 -1598385.2067  3009679.4325                  APPROX POSITION XYZ
  2024     7    31    12    23   17.0000000     GPS         TIME OF FIRST OBS
  2024     7    31    12    38   40.0000000     GPS         TIME OF LAST OBS
     1.000                                                  INTERVAL
   924 EPOCHS                                               COMMENT
G   16 C1C L1C D1C S1C C1W L1W D1W S1W C2W L2W D2W S2W C2X  SYS / # / OBS TYPES
       L2X D2X S2X                                          SYS / # / OBS TYPES
R   16 C1C L1C D1C S1C C1P L1P D1P S1P C2P L2P D2P S2P C2C  SYS / # / OBS TYPES
       L2C D2C S2C                                          SYS / # / OBS TYPES
    13                                                      # OF SATELLITES
   G02   753   753   753   753   748   748   748   748   748PRN / # OF OBS
         748   748   748     0     0     0     0            PRN / # OF OBS
   G03   924   924   924   924   924   924   924   924   924PRN / # OF OBS
         924   924   924   924   924   924   924            PRN / # OF OBS
   G04   924   924   924   924   924   924   924   924   924PRN / # OF OBS
         924   924   924   924   924   924   924            PRN / # OF OBS
   G06   833   833   833   833   833   833   833   833   833PRN / # OF OBS
         833   833   833   833   833   833   833            PRN / # OF OBS
   G09   924   924   924   924   924   924   924   924   924PRN / # OF OBS
         924   924   924   924   924   924   924            PRN / # OF OBS
   G17   924   924   924   924   924   924   924   924   924PRN / # OF OBS
         924   924   924   924   924   924   924            PRN / # OF OBS
   G19   924   924   924   924   924   924   924   924   924PRN / # OF OBS
         924   924   924     0     0     0     0            PRN / # OF OBS
   G21    47    47    47    47    34    34    34    34    31PRN / # OF OBS
          31    31    31     0     0     0     0            PRN / # OF OBS
   G22   458   458   458   458   446   446   446   446   446PRN / # OF OBS
         446   446   446     0     0     0     0            PRN / # OF OBS
   R04   924   924   924   924   924   924   924   924   924PRN / # OF OBS
         924   924   924   924   924   924   924            PRN / # OF OBS
   R05   924   924   924   924   924   924   924   924   924PRN / # OF OBS
         924   924   924   924   924   924   924            PRN / # OF OBS
   R18   380   380   380   380   370   370   370   370   370PRN / # OF OBS
         370   370   370   368   368   368   368            PRN / # OF OBS
   R19   294   294   294   294   294   294   294   294   294PRN / # OF OBS
         294   294   294   294   294   294   294            PRN / # OF OBS
G L1C                                                       SYS / PHASE SHIFT
G L1W -0.25000                                              SYS / PHASE SHIFT
G L2W  0.00000                                              SYS / PHASE SHIFT
G L2X  0.25000                                              SYS / PHASE SHIFT
R L1C                                                       SYS / PHASE SHIFT
R L1P -0.25000                                              SYS / PHASE SHIFT
R L2P -0.25000                                              SYS / PHASE SHIFT
R L2C                                                       SYS / PHASE SHIFT
  4 R04  6 R05  1 R18 -3 R19  3                             GLONASS SLOT / FRQ #
                                                            GLONASS COD/PHS/BIS
    18    18  1929     7GPS                                 LEAP SECONDS
                                                            END OF HEADER
> 2024 07 31 12 23 17.0000000  0 10
G04  20628247.500   108402172.091 7      2544.907          45.000    20628247.640   108402172.109 6      2544.907          37.000    20628251.560    84469241.608 6      1983.044          36.687    20628251.900    84469242.598 8      1983.044          50.500
G02  23155776.940   121684417.091 7      1170.150          43.187    23155775.420   121684417.103 4      1170.150          28.000    23155783.820    94819027.598 4       911.805          28.000
R19  19736602.980   105577504.371 6      2975.006          39.625    19736602.360   105577504.372 6      2975.006          39.187    19736611.920    82115882.468 7      2313.893          47.000    19736612.340    82115883.469 7      2313.893          46.812
G17  20585767.580   108178938.000 7      3146.424          47.812    20585766.160   108178938.000 7      3146.424          47.687    20585771.080    84295283.884 8      2451.759          48.000    20585771.500    84295288.890 8      2451.759          50.812
R04  19851236.200   106302469.278 8       543.631          50.125    19851239.060   106302469.325 8       543.631          48.937    19851247.600    82679742.646 8       422.824          49.937    19851247.040    82679741.653 8       422.824          50.500
R05  19582308.820   104678661.820 8      4365.904          48.062    19582308.340   104678661.829 7      4365.904          47.875    19582317.940    81416782.454 7      3395.703          46.500    19582317.500    81416778.463 7      3395.703          46.062
G06  22942086.820   120561476.948 7      5266.888          43.250    22942086.460   120561476.958 6      5266.888          36.937    22942093.620    93944044.120 6      4104.068          37.625    22942095.500    93944054.083 7      4104.068          42.312
G19  21043102.300   110582247.253 8      4830.906          48.062    21043100.880   110582247.260 6      4830.906          36.812    21043103.500    86167989.778 6      3764.342          37.000
G09  20771992.340   109157558.087 7      4897.807          46.500    20771991.740   109157558.097 8      4897.807          48.187    20771999.400    85057863.134 7      3816.473          47.875    20771999.620    85057864.140 8      3816.473          50.812
G03  21882281.380   114992164.517 6       634.245          40.875    21882278.740   114992164.522 6       634.245          36.000    21882288.800    89604309.622 6       494.217          36.000    21882289.360    89604313.651 7       494.217          42.500
> 2024 07 31 12 23 18.0000000  0 10
G04  20627763.080   108399627.500 7      2544.370          44.750    20627763.220   108399627.516 6      2544.370          36.812    20627767.220    84467258.813 6      1982.626          36.437    20627767.680    84467259.802 8      1982.626          50.375
G02  23155554.220   121683247.020 7      1170.083          44.375    23155552.820   121683247.030 4      1170.083          28.500    23155561.140    94818115.847 4       911.753          28.562
R19  19736046.400   105574529.766 6      2974.350          40.062    19736046.580   105574529.765 6      2974.350          39.187    19736055.920    82113568.880 7      2313.384          47.375    19736056.420    82113569.879 7      2313.384          47.250
G17  20585168.840   108175791.981 8      3145.764          48.125    20585167.640   108175791.978 7      3145.764          47.750    20585172.400    84292832.441 7      2451.244          47.750    20585172.900    84292837.449 8      2451.244          51.062
R04  19851134.920   106301925.983 8       543.068          50.687    19851137.140   106301926.032 8       543.068          49.187    19851145.960    82679320.090 8       422.386          50.312    19851145.700    82679319.097 8       422.386          50.625
R05  19581492.460   104674296.337 8      4365.183          48.500    19581491.720   104674296.335 8      4365.183          48.375    19581501.180    81413387.082 7      3395.142          46.437    19581501.040    81413383.082 7      3395.142          46.312
G06  22941084.580   120556210.142 7      5266.891          42.750    22941084.080   120556210.149 6      5266.891          36.875    22941091.360    93939940.113 6      4104.071          37.250    22941092.760    93939950.084 6      4104.071          41.937
G19  21042183.100   110577416.645 8      4830.389          48.187    21042181.600   110577416.655 6      4830.389          37.000    21042184.200    86164225.668 6      3763.939          37.125
G09  20771060.420   109152660.609 7      4897.261          46.687    20771059.900   109152660.616 7      4897.261          47.750    20771067.460    85054046.916 7      3816.048          47.625    20771067.860    85054047.924 8      3816.048          50.437
G03  21882161.140   114991530.418 6       634.159          40.312    21882157.980   114991530.423 6       634.159          36.000    21882168.020    89603815.519 6       494.150          36.000    21882168.300    89603819.559 7       494.150          42.562
> 2024 07 31 12 23 19.0000000  0 10
G04  20627278.800   108397083.574 7      2543.441          44.687    20627278.980   108397083.592 6      2543.441          36.937    20627283.180    84465276.535 6      1981.902          36.500    20627283.500    84465277.524 8      1981.902          50.687
G02  23155331.520   121682077.265 7      1169.320          43.437    23155330.100   121682077.275 4      1169.320          28.500    23155338.460    94817204.341 4       911.159          28.562
R19  19735490.520   105571555.728 6      2973.420          40.062    19735490.000   105571555.740 6      2973.420          39.187    19735500.040    82111255.752 7      2312.660          47.312    19735500.400    82111256.755 7      2312.660          47.187
G17  20584570.600   108172646.564 7      3144.879          47.375    20584568.920   108172646.561 7      3144.879          47.687    20584573.820    84290381.462 7      2450.555          47.312    20584574.300    84290386.472 8      2450.555          50.687
R04  19851033.580   106301383.245 8       542.188          50.125    19851035.920   106301383.297 8       542.188          49.000    19851044.560    82678897.960 8       421.702          50.250    19851044.180    82678896.965 8       421.702          50.062
R05  19580675.700   104669931.625 8      4364.056          48.812    19580675.300   104669931.632 8      4364.056          48.312    19580684.440    81409992.306 7      3394.266          45.750    19580684.500    81409988.311 7      3394.266          45.875
G06  22940082.760   120550943.348 6      5266.519          41.937    22940081.760   120550943.356 6      5266.519          37.250    22940089.340    93935836.116 6      4103.781          37.375    22940090.640    93935846.093 6      4103.781          41.687
G19  21041264.020   110572586.635 8      4829.556          48.312    21041262.560   110572586.642 6      4829.556          37.250    21041264.960    86160462.028 6      3763.290          37.437
G09  20770128.620   109147763.662 7      4896.374          47.312    20770128.000   109147763.675 7      4896.374          47.875    20770135.480    85050231.119 7      3815.356          47.812    20770135.900    85050232.127 8      3815.356          50.562
G03  21882040.000   114990896.414 6       633.674          39.875    21882037.360   114990896.419 5       633.674          35.937    21882047.620    89603321.483 5       493.772          35.875    21882048.480    89603325.513 7       493.772          42.625
> 2024 07 31 12 23 20.0000000  0 10
G04  20626795.220   108394540.552 7      2542.560          45.312    20626794.940   108394540.568 6      2542.560          36.687    20626799.200    84463294.961 6      1981.216          36.687    20626799.380    84463295.950 8      1981.216          49.250
G02  23155109.200   121680907.980 6      1169.002          41.875    23155107.580   121680907.993 4      1169.002          28.500    23155115.960    94816293.202 4       910.910          28.562
R19  19734935.400   105568582.533 6      2972.861          40.062    19734934.700   105568582.547 6      2972.861          39.312    19734944.220    82108943.262 7      2312.225          47.250    19734944.540    82108944.268 7      2312.225          46.750
G17  20583972.200   108169501.988 7      3144.135          47.937    20583970.560   108169501.990 7      3144.135          47.062    20583975.520    84287931.145 7      2449.975          46.812    20583975.700    84287936.151 8      2449.975          50.750
R04  19850932.320   106300841.361 8       541.433          49.312    19850934.820   106300841.405 8       541.433          48.937    19850943.240    82678476.489 8       421.114          50.062    19850942.980    82678475.495 8       421.114          48.625
R05  19579859.260   104665567.903 8      4363.269          48.812    19579858.980   104665567.910 8      4363.269          48.187    19579868.360    81406598.304 7      3393.653          46.437    19579868.000    81406594.303 7      3393.653          45.500
G06  22939080.460   120545676.796 6      5266.406          41.625    22939079.540   120545676.809 6      5266.406          36.812    22939087.040    93931732.317 6      4103.693          36.562    22939087.880    93931742.303 6      4103.693          41.687
G19  21040345.000   110567757.462 8      4828.782          48.312    21040343.580   110567757.469 6      4828.782          36.687    21040345.880    86156699.036 6      3762.687          36.875
G09  20769196.700   109142867.509 7      4895.711          46.687    20769196.280   109142867.519 8      4895.711          48.437    20769203.700    85046415.931 7      3814.840          47.937    20769203.960    85046416.941 8      3814.840          49.250
G03  21881919.320   114990262.709 6       633.546          40.750    21881917.000   114990262.717 6       633.546          36.375    21881927.180    89602827.687 5       493.672          35.937    21881928.400    89602831.725 7       493.672          42.625
> 2024 07 31 12 23 21.0000000  0 10
G04  20626311.680   108391998.316 7      2541.777          45.062    20626311.280   108391998.329 6      2541.777          36.500    20626315.540    84461313.994 6      1980.606          36.562    20626315.520    84461314.977 8      1980.606          50.687
G02  23154886.980   121679739.121 7      1168.629          43.000    23154885.200   121679739.139 4      1168.629          28.500    23154893.460    94815382.397 4       910.620          28.562
R19  19734379.160   105565610.126 6      2971.925          39.750    19734379.100   105565610.136 6      2971.925          39.312    19734388.680    82106631.382 7      2311.497          47.125    19734389.100    82106632.386 7      2311.497          47.062
G17  20583373.980   108166358.171 8      3143.321          48.250    20583372.180   108166358.168 7      3143.321          47.750    20583377.180    84285481.413 7      2449.341          47.812    20583377.320    84285486.419 8      2449.341          50.625
R04  19850831.260   106300300.229 8       540.699          49.687    19850833.460   106300300.282 8       540.699          48.500    19850842.200    82678055.609 8       420.544          49.812    19850841.820    82678054.613 8       420.544          50.062
R05  19579042.920   104661205.092 8      4362.266          48.437    19579042.980   104661205.096 8      4362.266          48.437    19579052.240    81403205.000 7      3392.874          46.687    19579051.980    81403201.001 7      3392.874          46.000
G06  22938078.200   120540410.405 6      5266.244          41.062    22938077.120   120540410.417 6      5266.244          36.625    22938084.800    93927628.635 6      4103.567          36.687    22938085.480    93927638.609 6      4103.567          41.562
G19  21039426.440   110562929.022 8      4827.983          48.687    21039424.940   110562929.030 6      4827.983          37.062    21039427.080    86152936.615 6      3762.064          37.000
G09  20768265.140   109137972.028 7      4895.034          46.812    20768264.640   109137972.041 7      4895.034          47.375    20768271.940    85042601.275 7      3814.312          47.062    20768272.260    85042602.282 8      3814.312          50.812
G03  21881798.720   114989629.238 6       633.242          40.500    21881796.420   114989629.249 6       633.242          36.000    21881806.560    89602334.078 5       493.435          35.687    21881808.000    89602338.103 7       493.435          43.062
> 2024 07 31 12 23 22.0000000  0 10
G04  20625827.980   108389456.784 7      2541.270          46.625    20625827.640   108389456.799 6      2541.270          37.000    20625831.900    84459333.583 6      1980.211          36.625    20625832.200    84459334.564 8      1980.211          50.187
G02  23154664.500   121678570.632 7      1168.375          42.750    23154662.660   121678570.648 4      1168.375          28.500    23154671.080    94814471.876 4       910.422          28.562
R19  19733823.920   105562638.375 6      2971.382          39.750    19733823.600   105562638.369 6      2971.382          39.312    19733833.160    82104320.008 7      2311.075          47.500    19733833.700    82104321.013 7      2311.075          47.375
G17  20582775.960   108163215.013 8      3142.848          48.125    20582774.040   108163215.018 7      3142.848          47.812    20582779.200    84283032.212 7      2448.972          47.500    20582779.260    84283037.218 8      2448.972          50.937
R04  19850730.640   106299759.762 8       540.131          49.750    19850732.400   106299759.811 8       540.131          48.812    19850741.260    82677635.249 8       420.102          49.875    19850741.100    82677634.254 8       420.102          50.562
R05  19578226.940   104656843.088 8      4361.635          48.625    19578226.840   104656843.090 8      4361.635          48.312    19578236.120    81399812.337 7      3392.383          45.875    19578235.640    81399808.336 7      3392.383          45.687
G06  22937076.100   120535144.081 6      5266.364          41.312    22937074.800   120535144.091 6      5266.364          36.812    22937082.540    93923525.007 6      4103.660          36.437    22937083.340    93923534.988 6      4103.660          41.562
G19  21038507.300   110558101.237 8      4827.531          48.500    21038506.340   110558101.242 6      4827.531          37.125    21038508.300    86149174.709 6      3761.712          37.312
G09  20767333.940   109133077.168 7      4894.579          46.625    20767332.940   109133077.186 7      4894.579          47.937    20767340.580    85038787.106 7      3813.958          47.687    20767340.740    85038788.109 8      3813.958          50.187
G03  21881678.420   114988995.915 6       633.381          40.500    21881675.960   114988995.927 6       633.381          36.000    21881686.120    89601840.581 6       493.544          36.125    21881687.400    89601844.600 7       493.544          43.000
> 2024 07 31 12 23 23.0000000  0 10
G04  20625344.460   108386915.985 7      2540.370          45.937    20625344.140   108386915.997 6      2540.370          36.937    20625348.320    84457353.740 6      1979.509          36.375    20625348.720    84457354.720 8      1979.509          50.500
G02  23154442.320   121677402.456 7      1168.018          43.500    23154440.240   121677402.474 4      1168.018          28.500    23154448.760    94813561.603 4       910.144          28.375
R19  19733268.620   105559667.272 6      2970.617          40.437    19733267.960   105559667.281 6      2970.617          39.625    19733277.840    82102009.160 7      2310.480          47.687    19733278.160    82102010.161 7      2310.480          47.375
G17  20582177.920   108160072.546 8      3142.049          48.187    20582175.940   108160072.546 8      3142.049          48.125    20582181.080    84280583.526 7      2448.350          47.875    20582181.280    84280588.528 8      2448.350          50.750
R04  19850629.780   106299219.878 8       539.529          50.187    19850631.640   106299219.928 8       539.529          48.500    19850640.260    82677215.337 8       419.634          49.750    19850640.160    82677214.344 8       419.634          50.500
R05  19577411.020   104652481.887 8      4360.770          49.000    19577411.120   104652481.888 8      4360.770          48.625    19577420.680    81396420.293 7      3391.710          45.875    19577419.980    81396416.288 7      3391.710          45.875
G06  22936073.780   120529877.837 6      5266.030          41.187    22936072.700   120529877.852 6      5266.030          36.437    22936080.260    93919421.452 6      4103.400          36.625    22936080.980    93919431.429 6      4103.400          40.937
G19  21037588.820   110553274.116 8      4826.682          48.312    21037587.860   110553274.124 6      4826.682          37.062    21037589.560    86145413.318 6      3761.051          37.250
G09  20766402.580   109128182.917 7      4893.890          46.625    20766401.780   109128182.929 8      4893.890          48.250    20766409.100    85034973.404 7      3813.421          47.812    20766409.300    85034974.409 8      3813.421          50.500
G03  21881557.960   114988362.767 6       632.907          39.687    21881555.680   114988362.780 6       632.907          36.000    21881566.000    89601347.211 6       493.175          36.437    21881567.060    89601351.230 7       493.175          43.750
> 2024 07 31 12 23 24.0000000  0 10
G04  20624860.940   108384375.829 7      2539.839          46.125    20624860.720   108384375.842 6      2539.839          36.750    20624864.920    84455374.396 6      1979.095          36.437    20624865.300    84455375.377 8      1979.095          50.875
G02  23154220.080   121676234.577 7      1167.642          42.375    23154217.740   121676234.598 4      1167.642          28.500    23154226.580    94812651.561 4       909.851          28.375
R19  19732713.440   105556696.794 6      2970.097          40.437    19732712.860   105556696.795 6      2970.097          39.625    19732722.540    82099698.790 7      2310.076          47.625    19732723.140    82099699.791 8      2310.076          48.062
G17  20581580.040   108156930.668 8      3141.571          48.000    20581578.040   108156930.671 7      3141.571          47.812    20581583.140    84278135.314 7      2447.977          47.687    20581583.260    84278140.318 8      2447.977          51.062
R04  19850529.320   106298680.583 8       539.061          49.875    19850530.960   106298680.630 8       539.061          48.875    19850539.320    82676795.875 8       419.269          49.812    19850539.260    82676794.880 8       419.269          50.187
R05  19576595.440   104648121.455 8      4360.055          48.625    19576595.380   104648121.466 8      4360.055          48.187    19576604.760    81393028.859 7      3391.154          46.437    19576604.220    81393024.855 7      3391.154          46.437
G06  22935071.820   120524611.587 6      5266.265          41.937    22935070.520   120524611.597 6      5266.265          37.187    22935078.080    93915317.885 6      4103.583          36.875    22935078.660    93915327.858 6      4103.583          40.937
G19  21036670.460   110548447.569 8      4826.279          48.312    21036669.280   110548447.576 6      4826.279          37.437    21036670.960    86141652.374 6      3760.737          37.312
G09  20765471.260   109123289.204 7      4893.484          46.625    20765470.360   109123289.217 8      4893.484          48.000    20765477.720    85031160.124 7      3813.105          47.375    20765478.220    85031161.129 8      3813.105          50.375
G03  21881437.600   114987729.661 6       633.035          40.750    21881435.160   114987729.671 6       633.035          36.812    21881445.560    89600853.878 6       493.274          36.250    21881446.660    89600857.895 7       493.274          43.750
> 2024 07 31 12 23 25.0000000  0 10
G04  20624377.620   108381836.386 7      2538.674          46.625    20624377.360   108381836.396 6      2538.674          37.000    20624381.660    84453395.609 6      1978.188          36.437    20624382.000    84453396.594 8      1978.188          50.187
G02  23153997.620   121675067.003 6      1167.175          41.875    23153995.420   121675067.021 4      1167.175          28.500    23154004.420    94811741.756 4       909.487          28.375
R19  19732158.220   105553727.009 6      2968.980          40.437    19732157.920   105553727.015 6      2968.980          39.625    19732167.540    82097388.955 7      2309.207          47.562    19732167.980    82097389.961 7      2309.207          47.812
G17  20580982.220   108153789.466 7      3140.549          47.812    20580980.320   108153789.471 7      3140.549          47.875    20580985.440    84275687.623 7      2447.181          47.375    20580985.660    84275692.627 8      2447.181          50.687
R04  19850428.560   106298141.899 8       537.992          49.875    19850430.280   106298141.946 8       537.992          48.937    19850438.820    82676376.901 8       418.438          49.562    19850438.560    82676375.905 8       418.438          50.000
R05  19575779.520   104643761.867 8      4358.860          48.812    19575779.480   104643761.871 8      4358.860          48.187    19575789.280    81389638.066 7      3390.225          46.250    19575788.860    81389634.065 7      3390.225          46.125
G06  22934069.680   120519345.416 6      5265.818          40.875    22934068.480   120519345.426 6      5265.818          36.625    22934075.860    93911214.375 6      4103.235          36.500    22934076.560    93911224.363 6      4103.235          41.125
G19  21035752.160   110543621.686 8      4825.233          48.375    21035750.960   110543621.693 6      4825.233          36.937    21035752.560    86137891.946 6      3759.922          37.125
G09  20764540.120   109118396.101 7      4892.417          46.687    20764539.180   109118396.114 8      4892.417          48.250    20764546.480    85027347.320 7      3812.273          47.812    20764546.880    85027348.326 8      3812.273          49.937
G03  21881317.080   114987096.700 6       632.581          41.625    21881314.600   114987096.710 6       632.581          36.562    21881325.000    89600360.665 6       492.920          36.500    21881325.940    89600364.685 7       492.920          43.187
> 2024 07 31 12 23 26.0000000  0 10
G04  20623894.660   108379297.833 7      2538.315          45.750    20623894.120   108379297.841 6      2538.315          37.000    20623898.520    84451417.514 6      1977.908          36.625    20623899.000    84451418.499 8      1977.908          50.250
G02  23153776.080   121673900.028 7      1166.766          42.937    23153773.160   121673900.046 4      1166.766          28.500    23153782.380    94810832.417 4       909.168          28.375
R19  19731603.560   105550758.069 6      2968.663          39.812    19731602.200   105550758.081 6      2968.663          39.375    19731612.560    82095079.788 8      2308.960          48.062    19731612.840    82095080.791 7      2308.960          47.937
G17  20580384.980   108150649.135 7      3140.096          47.750    20580382.760   108150649.138 8      3140.096          48.125    20580387.780    84273240.611 7      2446.828          47.750    20580387.800    84273245.613 8      2446.828          50.562
R04  19850328.540   106297604.055 8       537.573          49.875    19850330.000   106297604.099 8       537.573          49.000    19850338.080    82675958.578 8       418.113          49.687    19850337.820    82675957.583 8       418.113          50.062
R05  19574964.180   104639403.322 8      4358.178          48.750    19574964.260   104639403.326 7      4358.178          47.812    19574973.980    81386248.089 7      3389.694          46.437    19574973.620    81386244.088 7      3389.694          46.000
G06  22933067.500   120514079.519 6      5265.988          41.437    22933066.340   120514079.529 6      5265.988          36.437    22933073.840    93907111.082 6      4103.367          36.437    22933074.180    93907121.058 6      4103.367          41.125
G19  21034833.960   110538796.649 8      4824.841          48.687    21034832.860   110538796.654 6      4824.841          37.000    21034834.360    86134132.175 6      3759.616          37.062
G09  20763609.160   109113503.797 7      4892.077          46.250    20763608.140   109113503.807 7      4892.077          47.500    20763615.380    85023535.133 7      3812.008          47.000    20763615.940    85023536.133 8      3812.008          50.187
G03  21881196.620   114986464.117 6       632.593          41.562    21881194.420   114986464.128 6       632.593          37.000    21881204.740    89599867.740 6       492.930          36.625    21881205.540    89599871.757 7       492.930          43.375
> 2024 07 31 12 23 27.0000000  0 10
G04  20623411.680   108376760.079 7      2537.351          45.750    20623411.160   108376760.092 6      2537.351          36.812    20623415.540    84449440.049 6      1977.157          36.375    20623416.020    84449441.036 8      1977.157          50.250
G02  23153554.100   121672733.405 7      1166.291          42.000    23153550.880   121672733.425 4      1166.291          28.812    23153560.500    94809923.352 4       908.798          28.375
R19  19731048.700   105547789.926 6      2967.733          39.812    19731047.180   105547789.927 6      2967.733          39.375    19731057.820    82092771.222 7      2308.237          47.812    19731058.180    82092772.225 8      2308.237          48.250
G17  20579787.420   108147509.551 8      3139.160          48.312    20579785.420   108147509.556 8      3139.160          48.187    20579790.360    84270794.181 7      2446.099          47.812    20579790.600    84270799.183 8      2446.099          51.250
R04  19850228.160   106297066.961 8       536.674          49.750    19850229.680   106297067.006 8       536.674          48.187    19850237.720    82675540.834 8       417.413          49.687    19850237.760    82675539.837 8       417.413          49.187
R05  19574149.380   104635045.696 8      4357.127          48.687    19574149.260   104635045.700 8      4357.127          48.625    19574158.760    81382858.820 7      3388.877          46.375    19574158.440    81382854.821 7      3388.877          45.812
G06  22932065.220   120508813.763 6      5265.764          40.437    22932064.200   120508813.765 6      5265.764          36.437    22932071.600    93903007.888 6      4103.193          36.437    22932071.640    93903017.861 6      4103.193          40.562
G19  21033915.820   110533972.345 8      4823.899          48.375    21033914.720   110533972.350 6      4823.899          36.875    21033916.380    86130372.983 6      3758.883          37.000
G09  20762678.200   109108612.182 7      4891.264          46.750    20762677.340   109108612.189 7      4891.264          47.812    20762684.440    85019723.481 7      3811.374          47.250    20762685.080    85019724.486 8      3811.374          50.062
G03  21881076.020   114985831.734 6       632.153          41.375    21881074.340   114985831.744 6       632.153          36.937    21881084.360    89599374.969 6       492.587          36.812    21881085.280    89599378.995 7       492.587          43.437
> 2024 07 31 12 23 28.0000000  0 10
G04  20622929.060   108374223.006 7      2537.186          46.187    20622928.360   108374223.021 6      2537.186          36.562    20622932.680    84447463.111 6      1977.028          36.312    20622933.220    84447464.100 8      1977.028          50.687
G02  23153331.740   121671567.121 6      1166.505          41.562    23153328.780   121671567.139 4      1166.505          28.812    23153338.700    94809014.549 4       908.965          28.937
R19  19730493.500   105544822.398 6      2967.632          39.812    19730492.860   105544822.413 6      2967.632          39.375    19730503.140    82090463.155 8      2308.158          48.062    19730503.520    82090464.159 8      2308.158          48.250
G17  20579190.180   108144370.600 7      3139.027          47.750    20579187.940   108144370.608 7      3139.027          47.937    20579193.000    84268348.248 7      2445.995          47.562    20579193.120    84268353.248 8      2445.995          50.812
R04  19850127.940   106296530.472 8       536.582          49.750    19850129.240   106296530.525 8       536.582          49.062    19850137.360    82675123.573 8       417.341          49.812    19850137.600    82675122.580 8       417.341          49.500
R05  19573334.220   104630688.862 8      4356.821          49.000    19573334.020   104630688.860 8      4356.821          48.250    19573343.400    81379470.173 7      3388.639          46.312    19573343.160    81379466.170 7      3388.639          46.437
G06  22931063.260   120503548.049 6      5266.225          40.437    22931062.220   120503548.049 6      5266.225          36.437    22931069.620    93898904.740 6      4103.552          36.437    22931069.860    93898914.714 6      4103.552          40.562
G19  21032997.920   110529148.661 8      4823.788          48.812    21032996.880   110529148.671 6      4823.788          36.812    21032998.440    86126614.270 6      3758.796          37.500
G09  20761747.300   109103721.139 7      4891.121          46.187    20761746.440   109103721.152 7      4891.121          47.625    20761753.620    85015912.287 7      3811.263          47.187    20761754.260    85015913.290 8      3811.263          50.500
G03  21880955.840   114985199.483 6       632.498          40.625    21880953.940   114985199.498 6       632.498          37.250    21880963.960    89598882.310 6       492.856          37.062    21880965.060    89598886.329 7       492.856          43.312
> 2024 07 31 12 23 29.0000000  0 10
G04  20622446.280   108371686.408 7      2536.011          46.125    20622445.460   108371686.421 6      2536.011          36.250    20622450.060    84445486.543 6      1976.113          36.187    20622450.540    84445487.530 8      1976.113          50.562
G02  23153110.060   121670400.913 6      1165.753          40.750    23153106.740   121670400.933 4      1165.753          28.812    23153116.860    94808105.807 4       908.379          28.937
R19  19729938.040   105541855.338 6      2966.424          39.562    19729937.920   105541855.342 6      2966.424          39.375    19729948.520    82088155.430 7      2307.219          47.375    19729949.080    82088156.437 8      2307.219          48.250
G17  20578593.000   108141232.083 7      3137.882          47.562    20578590.740   108141232.090 7      3137.882          47.875    20578595.740    84265902.648 7      2445.103          47.187    20578595.720    84265907.648 8      2445.103          50.125
R04  19850027.540   106295994.364 8       535.560          49.812    19850029.020   106295994.411 8       535.560          48.500    19850037.160    82674706.598 8       416.547          49.750    19850037.340    82674705.601 8       416.547          49.500
R05  19572519.360   104626332.589 7      4355.587          47.875    19572519.140   104626332.587 7      4355.587          47.625    19572528.720    81376081.959 7      3387.679          46.187    19572528.400    81376077.962 7      3387.679          46.312
G06  22930061.680   120498282.162 6      5265.599          40.562    22930060.140   120498282.167 6      5265.599          36.562    22930067.720    93894801.460 6      4103.064          36.562    22930068.280    93894811.429 6      4103.064          40.625
G19  21032080.240   110524325.390 8      4822.725          48.937    21032078.940   110524325.397 6      4822.725          37.250    21032080.600    86122855.877 6      3757.967          37.625
G09  20760816.720   109098830.456 7      4890.104          46.625    20760815.800   109098830.466 7      4890.104          47.375    20760823.080    85012101.363 7      3810.471          47.062    20760823.540    85012102.366 8      3810.471          50.375
G03  21880836.140   114984567.100 6       632.024          41.562    21880833.520   114984567.110 6       632.024          37.062    21880843.700    89598389.542 6       492.486          36.937    21880845.200    89598393.561 7       492.486          43.312
> 2024 07 31 12 23 30.0000000  0 10
G04  20621963.600   108369150.520 7      2535.497          45.500    20621962.920   108369150.535 6      2535.497          36.812    20621967.400    84443510.529 6      1975.712          36.250    20621967.920    84443511.514 8      1975.712          50.437
G02  23152888.180   121669235.051 6      1165.631          41.625    23152884.860   121669235.069 4      1165.631          28.812    23152895.060    94807197.340 4       908.284          28.937
R19  19729383.660   105538888.921 6      2966.072          39.562    19729384.080   105538888.919 6      2966.072          39.312    19729394.240    82085848.212 7      2306.945          47.437    19729394.380    82085849.215 8      2306.945          48.250
G17  20577995.640   108138094.238 7      3137.417          47.375    20577993.640   108138094.238 7      3137.417          47.937    20577998.600    84263457.570 7      2444.741          47.562    20577998.840    84263462.570 8      2444.741          50.625
R04  19849927.680   106295458.887 8       535.128          49.750    19849929.120   106295458.937 8       535.128          48.937    19849937.000    82674290.114 8       416.211          49.562    19849937.420    82674289.117 8       416.211          50.000
R05  19571704.360   104621977.155 7      4354.978          47.687    19571704.180   104621977.156 8      4354.978          48.187    19571713.700    81372694.399 7      3387.205          46.375    19571713.540    81372690.402 7      3387.205          45.937
G06  22929059.320   120493016.348 6      5265.789          40.750    22929057.880   120493016.348 6      5265.789          36.500    22929065.600    93890698.229 6      4103.212          36.687    22929065.680    93890708.198 6      4103.212          40.625
G19  21031162.460   110519502.789 8      4822.193          49.062    21031161.260   110519502.794 6      4822.193          37.750    21031162.920    86119098.006 6      3757.553          37.750
G09  20759886.100   109093940.357 7      4889.883          46.000    20759885.080   109093940.364 7      4889.883          47.187    20759892.540    85008290.898 7      3810.299          47.000    20759892.880    85008291.895 8      3810.299          49.937
G03  21880715.600   114983934.882 6       632.033          41.562    21880713.440   114983934.892 6       632.033          37.125    21880723.160    89597896.905 6       492.493          37.375    21880724.280    89597900.914 7       492.493          43.187
> 2024 07 31 12 23 31.0000000  0 10
G04  20621480.900   108366615.541 7      2534.481          45.437    20621480.660   108366615.556 6      2534.481          36.375    20621485.080    84441535.220 6      1974.920          36.125    20621485.520    84441536.209 8      1974.920          50.812
G02  23152666.680   121668069.737 6      1165.060          40.812    23152662.880   121668069.755 4      1165.060          28.812    23152673.280    94806289.288 4       907.839          28.937
R19  19728828.880   105535923.428 6      2964.911          39.625    19728829.620   105535923.427 6      2964.911          39.312    19728839.940    82083541.716 7      2306.042          47.437    19728840.060    82083542.719 8      2306.042          48.312
G17  20577398.760   108134957.255 7      3136.543          47.937    20577396.660   108134957.255 8      3136.543          48.000    20577401.740    84261013.163 7      2444.059          47.500    20577402.060    84261018.165 8      2444.059          50.750
R04  19849827.660   106294924.251 8       534.185          49.000    19849828.920   106294924.298 8       534.185          48.187    19849837.180    82673874.282 8       415.478          49.625    19849837.520    82673873.289 8       415.478          49.750
R05  19570889.920   104617622.758 8      4353.892          49.000    19570889.500   104617622.753 8      4353.892          48.375    19570899.040    81369307.648 7      3386.360          46.312    19570898.860    81369303.645 7      3386.360          46.000
G06  22928057.160   120487750.785 6      5265.430          40.375    22928055.640   120487750.795 6      5265.430          36.375    22928063.700    93886595.200 6      4102.932          36.062    22928063.760    93886605.181 6      4102.932          40.812
G19  21030244.900   110514681.012 8      4821.389          49.437    21030243.720   110514681.020 6      4821.389          36.937    21030245.460    86115340.778 6      3756.927          37.187
G09  20758955.920   109089051.090 7      4888.868          46.312    20758954.700   109089051.105 7      4888.868          47.187    20758961.980    85004481.086 7      3809.508          46.687    20758962.440    85004482.085 8      3809.508          49.750
G03  21880595.220   114983302.985 6       631.862          41.312    21880593.440   114983302.992 6       631.862          37.687    21880602.700    89597404.507 6       492.360          37.625    21880604.680    89597408.522 7       492.360          43.125
> 2024 07 31 12 23 32.0000000  0 10
G04  20620998.860   108364081.413 7      2533.911          45.750    20620998.340   108364081.426 6      2533.911          36.250    20621002.780    84439560.573 6      1974.476          36.250    20621003.360    84439561.558 8      1974.476          49.500
G02  23152444.840   121666904.874 6      1164.813          41.750    23152441.280   121666904.892 4      1164.813          28.812    23152451.540    94805381.597 4       907.647          28.937
R19  19728275.700   105532958.720 6      2964.263          39.625    19728274.980   105532958.713 6      2964.263          39.312    19728285.760    82081235.825 7      2305.538          47.875    19728285.880    82081236.830 7      2305.538          47.687
G17  20576802.120   108131821.079 7      3136.017          47.187    20576799.940   108131821.079 7      3136.017          47.562    20576804.840    84258569.394 7      2443.650          47.187    20576805.000    84258574.394 8      2443.650          50.937
R04  19849728.220   106294390.375 8       533.778          49.500    19849729.460   106294390.420 8       533.778          48.437    19849737.540    82673459.047 8       415.161          48.937    19849737.880    82673458.056 8       415.161          49.062
R05  19570075.460   104613269.296 8      4353.326          48.312    19570075.380   104613269.295 7      4353.326          47.625    19570084.820    81365921.624 7      3385.920          46.437    19570084.540    81365917.625 7      3385.920          46.375
G06  22927055.280   120482485.462 6      5265.485          40.562    22927053.680   120482485.472 6      5265.485          36.062    22927061.660    93882492.354 5      4102.975          35.687    22927061.100    93882502.333 6      4102.975          40.812
G19  21029327.520   110509860.056 8      4820.802          49.437    21029326.240   110509860.064 6      4820.802          36.812    21029328.080    86111584.191 6      3756.469          37.250
G09  20758025.420   109084162.554 7      4888.430          45.875    20758024.280   109084162.567 7      4888.430          47.375    20758031.740    85000671.837 7      3809.166          46.687    20758032.240    85000672.836 8      3809.166          48.875
G03  21880474.860   114982671.395 6       631.765          41.625    21880473.020   114982671.398 6       631.765          37.562    21880482.500    89596912.357 6       492.285          37.312    21880484.280    89596916.377 7       492.285          43.187
> 2024 07 31 12 23 33.0000000  0 10
G04  20620516.940   108361548.073 7      2533.075          45.437    20620516.380   108361548.081 6      2533.075          36.500    20620520.720    84437586.542 6      1973.825          36.125    20620521.180    84437587.527 8      1973.825          50.500
G02  23152222.800   121665740.450 7      1164.329          42.125    23152219.780   121665740.466 4      1164.329          28.562    23152229.860    94804474.249 4       907.269          28.437
R19  19727721.900   105529994.722 6      2963.657          39.625    19727720.760   105529994.724 6      2963.657          39.187    19727731.620    82078930.498 7      2305.066          47.500    19727731.540    82078931.501 7      2305.066          47.250
G17  20576205.460   108128685.662 7      3135.127          47.625    20576203.160   108128685.667 7      3135.127          47.312    20576208.140    84256126.214 7      2442.956          46.750    20576208.480    84256131.212 8      2442.956          50.437
R04  19849628.640   106293857.239 8       532.934          49.500    19849629.800   106293857.281 8       532.934          48.500    19849637.860    82673044.381 8       414.504          49.375    19849638.240    82673043.386 8       414.504          48.875
R05  19569261.020   104608916.743 8      4352.206          48.500    19569261.020   104608916.745 8      4352.206          48.437    19569270.440    81362536.306 7      3385.049          46.375    19569270.280    81362532.309 7      3385.049          45.437
G06  22926053.340   120477220.290 6      5265.257          40.500    22926051.880   120477220.295 6      5265.257          36.125    22926059.560    93878389.622 6      4102.797          36.250    22926059.460    93878399.591 6      4102.797          40.812
G19  21028410.340   110505039.820 8      4820.032          48.875    21028409.080   110505039.827 6      4820.032          36.937    21028410.780    86107828.164 6      3755.869          37.125
G09  20757095.340   109079274.714 7      4887.660          45.937    20757094.260   109079274.724 7      4887.660          46.937    20757101.560    84996863.132 7      3808.566          46.625    20757102.100    84996864.128 8      3808.566          49.812
G03  21880354.540   114982040.006 6       631.532          40.812    21880353.060   114982040.008 6       631.532          37.000    21880362.200    89596420.365 6       492.103          37.000    21880363.700    89596424.389 7       492.103          43.062
> 2024 07 31 12 23 34.0000000  0 10
G04  20620035.400   108359015.551 7      2532.063          46.500    20620034.420   108359015.564 6      2532.063          36.437    20620038.800    84435613.152 6      1973.036          36.125    20620039.220    84435614.143 8      1973.036          50.750
G02  23152001.780   121664576.447 7      1163.762          42.187    23151998.320   121664576.459 4      1163.762          28.562    23152008.440    94803567.227 4       906.827          28.437
R19  19727167.840   105527031.498 6      2962.836          39.625    19727166.800   105527031.505 6      2962.836          39.187    19727177.740    82076625.774 8      2304.428          48.062    19727177.520    82076626.775 8      2304.428          48.437
G17  20575608.840   108125551.015 7      3134.167          47.187    20575606.640   108125551.017 7      3134.167          47.937    20575611.580    84253683.630 7      2442.208          47.500    20575612.040    84253688.630 8      2442.208          50.875
R04  19849529.400   106293324.852 8       531.937          49.312    19849530.120   106293324.894 8       531.937          48.187    19849538.440    82672630.301 8       413.729          49.000    19849538.740    82672629.307 8       413.729          49.375
R05  19568447.020   104604565.102 8      4351.150          48.375    19568447.040   104604565.103 8      4351.150          48.437    19568456.380    81359151.702 7      3384.228          46.375    19568456.100    81359147.699 7      3384.228          46.250
G06  22925051.580   120471955.275 6      5264.827          40.625    22925050.220   120471955.277 6      5264.827          36.125    22925057.640    93874287.017 5      4102.462          35.812    22925057.900    93874297.002 6      4102.462          40.812
G19  21027493.100   110500220.361 8      4818.966          48.687    21027491.900   110500220.371 6      4818.966          36.875    21027493.580    86104072.746 6      3755.039          37.062
G09  20756165.420   109074387.597 7      4886.745          45.750    20756164.160   109074387.599 7      4886.745          47.250    20756171.460    84993054.981 7      3807.853          46.562    20756172.200    84993055.980 8      3807.853          49.375
G03  21880234.500   114981408.894 6       631.056          41.250    21880232.820   114981408.904 6       631.056          37.750    21880242.240    89595928.592 6       491.732          37.437    21880243.440    89595932.612 7       491.732          43.062
> 2024 07 31 12 23 35.0000000  0 10
G04  20619553.580   108356483.730 7      2531.413          46.062    20619552.360   108356483.738 6      2531.413          36.437    20619556.980    84433640.303 6      1972.530          36.375    20619557.260    84433641.292 8      1972.530          50.687
G02  23151780.520   121663412.782 7      1163.473          42.375    23151776.960   121663412.798 4      1163.473          28.562    23151787.040    94802660.474 4       906.603          28.437
R19  19726613.420   105524068.948 6      2962.178          39.625    19726613.500   105524068.957 6      2962.178          39.187    19726623.640    82074321.577 7      2303.916          47.875    19726623.920    82074322.578 8      2303.916          48.062
G17  20575012.500   108122417.012 7      3133.663          47.812    20575010.400   108122417.017 7      3133.663          47.875    20575015.220    84251241.547 7      2441.815          47.437    20575015.460    84251246.549 8      2441.815          49.937
R04  19849430.180   106292793.078 8       531.396          49.500    19849430.980   106292793.117 8       531.396          48.625    19849439.000    82672216.697 8       413.308          49.250    19849439.580    82672215.701 8       413.308          49.937
R05  19567633.060   104600214.295 8      4350.346          48.937    19567633.100   104600214.299 8      4350.346          48.187    19567642.660    81355767.736 7      3383.603          47.062    19567642.280    81355763.735 7      3383.603          46.500
G06  22924049.760   120466690.302 6      5264.986          41.125    22924048.380   120466690.310 5      5264.986          35.750    22924055.420    93870184.447 5      4102.587          35.812    22924055.800    93870194.430 6      4102.587          40.812
G19  21026576.160   110495401.517 8      4818.474          49.062    21026574.980   110495401.524 6      4818.474          37.187    21026576.640    86100317.805 6      3754.655          37.312
G09  20755235.620   109069501.052 7      4886.201          46.000    20755234.300   109069501.062 7      4886.201          47.000    20755241.600    84989247.292 7      3807.429          46.250    20755242.320    84989248.283 8      3807.429          49.937
G03  21880114.360   114980777.917 6       630.957          41.375    21880112.520   114980777.924 6       630.957          37.312    21880122.360    89595436.915 6       491.655          37.312    21880123.420    89595440.927 7       491.655          42.937
> 2024 07 31 12 23 36.0000000  0 10
G04  20619071.740   108353952.629 7      2530.829          45.875    20619070.800   108353952.634 6      2530.829          36.500    20619075.220    84431668.012 6      1972.075          36.375    20619075.800    84431669.003 8      1972.075          50.562
G02  23151559.000   121662249.464 7      1163.147          42.687    23151555.900   121662249.480 4      1163.147          28.562    23151565.720    94801753.986 4       906.348          28.437
R19  19726060.080   105521107.091 6      2961.504          39.625    19726059.820   105521107.108 6      2961.504          39.125    19726070.140    82072017.910 8      2303.392          48.250    19726069.920    82072018.915 8      2303.392          48.000
G17  20574416.120   108119283.720 7      3132.990          47.500    20574414.000   108119283.723 7      3132.990          47.812    20574418.960    84248800.019 7      2441.291          47.562    20574419.300    84248805.021 8      2441.291          50.250
R04  19849330.840   106292261.955 8       530.849          49.250    19849331.700   106292261.997 8       530.849          48.187    19849339.720    82671803.597 8       412.883          49.750    19849340.280    82671802.604 8       412.883          49.187
R05  19566819.380   104595864.337 8      4349.576          48.250    19566819.280   104595864.341 7      4349.576          47.500    19566828.800    81352384.442 7      3383.004          46.812    19566828.580    81352380.437 7      3383.004          46.375
G06  22923047.900   120461425.466 6      5264.780          41.562    22923046.440   120461425.474 6      5264.780          36.250    22923053.700    93866081.977 6      4102.426          36.125    22923053.820    93866091.963 6      4102.426          40.687
G19  21025659.320   110490583.375 8      4817.854          48.812    21025658.120   110490583.380 6      4817.854          37.437    21025659.720    86096563.408 6      3754.172          37.562
G09  20754305.860   109064615.154 7      4885.580          45.750    20754304.640   109064615.167 7      4885.580          47.375    20754311.760    84985440.101 7      3806.946          47.125    20754312.320    84985441.098 8      3806.946          49.500
G03  21879994.160   114980147.100 6       630.794          40.937    21879992.540   114980147.099 6       630.794          37.000    21880002.240    89594945.364 6       491.528          36.875    21880003.800    89594949.385 7       491.528          42.875
> 2024 07 31 12 23 37.0000000  0 10
G04  20618590.120   108351422.306 7      2529.835          45.375    20618589.260   108351422.313 6      2529.835          36.500    20618593.780    84429696.332 5      1971.300          35.937    20618594.360    84429697.327 8      1971.300          50.937
G02  23151337.760   121661086.541 7      1162.674          42.812    23151334.680   121661086.556 4      1162.674          28.562    23151344.360    94800847.802 4       905.980          28.437
R19  19725506.400   105518145.955 6      2960.635          40.187    19725506.080   105518145.978 6      2960.635          39.125    19725516.620    82069714.805 8      2302.716          48.000    19725516.700    82069715.810 8      2302.716          48.375
G17  20573819.940   108116151.115 7      3132.286          47.062    20573817.800   108116151.117 7      3132.286          47.625    20573822.780    84246359.028 7      2440.743          47.625    20573823.140    84246364.028 8      2440.743          50.062
R04  19849231.860   106291731.525 8       530.011          48.812    19849232.460   106291731.564 8       530.011          48.187    19849240.760    82671391.036 8       412.231          49.500    19849241.000    82671390.041 8       412.231          48.875
R05  19566005.660   104591515.286 8      4348.534          48.812    19566005.640   104591515.287 8      4348.534          48.062    19566015.360    81349001.843 7      3382.193          46.812    19566014.800    81348997.842 7      3382.193          46.000
G06  22922046.200   120456160.727 6      5264.521          41.687    22922044.900   120456160.737 5      5264.521          35.875    22922051.740    93861979.587 5      4102.224          35.687    22922052.340    93861989.567 6      4102.224          40.687
G19  21024742.440   110485765.908 8      4817.113          48.875    21024741.420   110485765.910 6      4817.113          37.375    21024743.060    86092809.534 6      3753.594          37.875
G09  20753376.100   109059729.881 7      4884.943          45.937    20753375.060   109059729.889 7      4884.943          46.937    20753382.160    84981633.395 7      3806.449          46.562    20753382.760    84981634.392 8      3806.449          50.250
G03  21879874.340   114979516.446 6       630.668          40.750    21879872.540   114979516.445 6       630.668          37.687    21879882.080    89594453.939 6       491.429          37.500    21879883.040    89594457.956 7       491.429          42.875
> 2024 07 31 12 23 38.0000000  0 10
G04  20618108.680   108348892.724 7      2529.246          45.750    20618107.840   108348892.734 6      2529.246          36.500    20618112.320    84427725.233 6      1970.841          36.187    20618112.960    84427726.230 8      1970.841          50.375
G02  23151116.780   121659924.009 7      1162.380          42.375    23151113.540   121659924.024 4      1162.380          28.500    23151123.160    94799941.924 4       905.751          28.500
R19  19724953.300   105515185.534 6      2960.170          40.187    19724952.620   105515185.544 6      2960.170          39.125    19724962.900    82067412.245 8      2302.354          48.062    19724963.140    82067413.254 8      2302.354          48.562
G17  20573224.200   108113019.272 7      3131.505          47.937    20573221.960   108113019.274 8      3131.505          48.000    20573226.720    84243918.629 7      2440.134          47.500    20573227.120    84243923.631 8      2440.134          50.500
R04  19849133.280   106291201.805 8       529.304          49.125    19849133.460   106291201.844 7       529.304          47.750    19849141.760    82670979.036 8       411.681          49.437    19849142.140    82670978.036 8       411.681          49.187
R05  19565192.380   104587167.114 8      4347.723          48.375    19565191.880   104587167.104 8      4347.723          48.500    19565202.380    81345619.925 7      3381.562          46.562    19565201.600    81345615.918 7      3381.562          47.125
G06  22921044.500   120450896.088 6      5264.647          41.250    22921043.400   120450896.098 5      5264.647          35.312    22921049.860    93857877.273 5      4102.323          35.375    22921050.620    93857887.259 6      4102.323          40.437
G19  21023825.920   110480949.176 8      4816.353          48.750    21023824.820   110480949.181 6      4816.353          37.437    21023826.520    86089056.238 6      3753.002          37.562
G09  20752446.620   109054845.297 7      4884.300          46.250    20752445.520   109054845.302 7      4884.300          47.125    20752452.540    84977827.225 7      3805.948          46.750    20752453.420    84977828.220 8      3805.948          49.875
G03  21879754.440   114978886.038 6       630.353          41.437    21879752.860   114978886.043 6       630.353          37.375    21879762.000    89593962.712 6       491.184          37.875    21879762.900    89593966.736 7       491.184          42.687
> 2024 07 31 12 23 39.0000000  0 10
G04  20617627.680   108346363.790 7      2528.615          45.250    20617626.640   108346363.803 6      2528.615          36.250    20617631.040    84425754.637 6      1970.349          36.250    20617631.640    84425755.643 8      1970.349          50.625
