     3.05           OBSERVATION DATA    MIXED               RINEX VERSION / TYPE
TPS2RIN 1.0.29.3920 TPS-USER            20240801 093646 UTC PGM / RUN BY / DATE
Win64 build Feb 23, 2024 (c) Topcon Positioning Systems     COMMENT
SRC: 20240731_CARA.tps                                      COMMENT
OPT: -S -v 3.05                                             COMMENT
Observer            Agency                                  OBSERVER / AGENCY
O0M3X53SBGM         TPS HIPER_SR        4.8 HSR Jul,08,2022 REC # / TYPE / VERS
FW: 4.8 HSR Jul,08,2022 p3                                  COMMENT
SN: HiPer SR 1212-12575                                     COMMENT
000                 TPSHIPER_SR     NONE                    ANT # / TYPE
        1.8000        0.0000        0.0000                  ANTENNA: DELTA H/E/N
CARA                                                        MARKER NAME
  5389160.7406 -1600049.0766  3007564.9870                  APPROX POSITION XYZ
  2024     7    31    11    15   45.0000000     GPS         TIME OF FIRST OBS
  2024     7    31    11    30   45.0000000     GPS         TIME OF LAST OBS
     1.000                                                  INTERVAL
   901 EPOCHS                                               COMMENT
G   16 C1C L1C D1C S1C C1W L1W D1W S1W C2W L2W D2W S2W C2X  SYS / # / OBS TYPES
       L2X D2X S2X                                          SYS / # / OBS TYPES
R   16 C1C L1C D1C S1C C1P L1P D1P S1P C2P L2P D2P S2P C2C  SYS / # / OBS TYPES
       L2C D2C S2C                                          SYS / # / OBS TYPES
    17                                                      # OF SATELLITES
   G02   901   901   901   901   901   901   901   901   901PRN / # OF OBS
         901   901   901     0     0     0     0            PRN / # OF OBS
   G03   901   901   901   901   901   901   901   901   901PRN / # OF OBS
         901   901   901   901   901   901   901            PRN / # OF OBS
   G04   901   901   901   901   901   901   901   901   901PRN / # OF OBS
         901   901   901   901   901   901   901            PRN / # OF OBS
   G06   901   901   901   901   901   901   901   901   901PRN / # OF OBS
         901   901   901   901   901   901   901            PRN / # OF OBS
   G08   901   901   901   901   901   901   901   901   901PRN / # OF OBS
         901   901   901   901   901   901   901            PRN / # OF OBS
   G09   901   901   901   901   901   901   901   901   901PRN / # OF OBS
         901   901   901   901   901   901   901            PRN / # OF OBS
   G14   901   901   901   901   901   901   901   901   901PRN / # OF OBS
         901   901   901   901   901   901   901            PRN / # OF OBS
   G17   901   901   901   901   901   901   901   901   901PRN / # OF OBS
         901   901   901   901   901   901   901            PRN / # OF OBS
   G19   901   901   901   901   901   901   901   901   901PRN / # OF OBS
         901   901   901     0     0     0     0            PRN / # OF OBS
   G21   901   901   901   901   901   901   901   901   901PRN / # OF OBS
         901   901   901     0     0     0     0            PRN / # OF OBS
   G22   901   901   901   901   901   901   901   901   901PRN / # OF OBS
         901   901   901     0     0     0     0            PRN / # OF OBS
   R03   901   901   901   901   901   901   901   901   901PRN / # OF OBS
         901   901   901   901   901   901   901            PRN / # OF OBS
   R04   901   901   901   901   901   901   901   901   901PRN / # OF OBS
         901   901   901   901   901   901   901            PRN / # OF OBS
   R05   901   901   901   901   901   901   901   901   901PRN / # OF OBS
         901   901   901   901   901   901   901            PRN / # OF OBS
   R09    89    89    89    89    89    89    89    89    89PRN / # OF OBS
          89    89    89    89    89    89    89            PRN / # OF OBS
   R17   901   901   901   901   901   901   901   901   901PRN / # OF OBS
         901   901   901   901   901   901   901            PRN / # OF OBS
   R18   901   901   901   901   901   901   901   901   901PRN / # OF OBS
         901   901   901   901   901   901   901            PRN / # OF OBS
G L1C                                                       SYS / PHASE SHIFT
G L1W -0.25000                                              SYS / PHASE SHIFT
G L2W  0.00000                                              SYS / PHASE SHIFT
G L2X  0.25000                                              SYS / PHASE SHIFT
R L1C                                                       SYS / PHASE SHIFT
R L1P -0.25000                                              SYS / PHASE SHIFT
R L2P -0.25000                                              SYS / PHASE SHIFT
R L2C                                                       SYS / PHASE SHIFT
  6 R03  5 R04  6 R05  1 R09 -2 R17  4 R18 -3               GLONASS SLOT / FRQ #
                                                            GLONASS COD/PHS/BIS
    18    18  1929     7GPS                                 LEAP SECONDS
                                                            END OF HEADER
> 2024 07 31 11 15 45.0000000  0 17
G04  21473583.480   112844446.598 7      5013.154          46.062    21473582.540   112844446.608 6      5013.154          37.812    21473587.720    87930737.236 6      3906.354          37.937    21473589.400    87930759.242 8      3906.354          50.437
G08  24635796.420   129461982.820 6      -494.030          38.437    24635795.980   129461982.827 5      -494.030          33.937    24635812.180   100879528.682 5      -384.959          34.000    24635812.980   100879532.674 6      -384.959          41.375
G06  24858040.800   130629869.038 6      5144.762          38.187    24858039.780   130629869.038 5      5144.762          35.625    24858050.040   101789560.532 5      4008.906          35.312    24858050.720   101789560.543 7      4008.906          43.375
G02  22334817.080   117370261.599 7      2097.608          45.500    22334815.340   117370261.604 6      2097.608          38.500    22334818.700    91457341.942 6      1634.499          38.437
G09  23110241.160   121445134.224 7      6388.579          44.562    23110240.860   121445134.232 7      6388.579          44.000    23110249.560    94632611.144 7      4978.113          44.250    23110250.380    94632614.144 7      4978.113          46.250
R05  21838322.120   116738348.430 7      6918.813          45.062    21838322.240   116738348.425 7      6918.813          44.562    21838335.200    90796542.709 8      5381.299          48.187    21838334.840    90796543.710 8      5381.299          48.312
R17  23552726.520   126035370.103 6       488.870          41.687    23552725.380   126035370.115 6       488.870          41.250    23552746.720    98027605.768 7       380.232          45.000    23552745.880    98027604.767 7       380.232          44.875
R04  19284255.160   103266313.620 8      3768.320          48.375    19284255.920   103266313.654 7      3768.320          46.937    19284264.760    80318279.235 8      2930.916          50.687    19284264.700    80318278.242 8      2930.916          51.125
R09  24121967.080   128809954.910 6       725.370          41.187    24121967.400   128809954.903 6       725.370          41.687    24121978.920   100185570.815 7       564.176          42.875    24121978.940   100185571.810 7       564.176          43.437
G19  23375003.600   122836478.540 7      6404.098          43.062    23375001.640   122836478.545 5      6404.098          30.937    23375005.680    95716758.338 5      4990.206          30.937
G22  23388959.300   122909810.421 7      2478.767          44.125    23388958.340   122909810.426 5      2478.767          30.875    23388962.500    95773892.324 5      1931.507          31.125
G03  20528215.520   107876494.973 8      1524.926          48.125    20528214.660   107876494.972 8      1524.926          48.437    20528219.660    84059655.909 8      1188.254          48.625    20528220.400    84059629.907 8      1188.254          49.875
G14  22848294.680   120068589.935 7      1180.687          44.000    22848293.660   120068589.953 5      1180.687          33.625    22848299.980    93559966.308 5       920.016          33.250    22848300.220    93559966.308 7       920.016          47.500
R03  21021148.620   112527852.698 7        -6.061          46.687    21021149.480   112527852.726 7        -6.061          44.687    21021158.980    87521702.625 8        -4.714          49.000    21021158.380    87521703.623 8        -4.714          49.625
G21  23421513.860   123080892.431 7      1490.392          44.687    23421512.380   123080892.441 5      1490.392          32.625    23421518.360    95907182.878 5      1161.344          32.687
G17  21758899.280   114343805.911 7      5197.240          47.562    21758898.520   114343805.910 7      5197.240          46.375    21758901.260    89099076.062 7      4049.797          46.437    21758901.860    89099082.059 8      4049.797          48.500
R18  20610289.880   110019139.685 7      2436.965          46.875    20610290.000   110019139.688 7      2436.965          47.187    20610298.520    85570469.553 8      1895.417          49.812    20610298.840    85570471.557 8      1895.417          49.937
> 2024 07 31 11 15 46.0000000  0 17
G04  21472629.720   112839433.512 7      5013.085          45.687    21472628.420   112839433.522 6      5013.085          37.875    21472633.740    87926830.942 6      3906.300          37.937    21472635.480    87926852.945 8      3906.300          50.375
G08  24635890.700   129462476.541 6      -493.459          39.500    24635890.000   129462476.551 5      -493.459          34.812    24635906.220   100879913.395 5      -384.514          34.000    24635907.040   100879917.402 6      -384.514          41.625
G06  24857061.420   130624723.825 6      5145.495          38.187    24857060.660   130624723.828 5      5145.495          35.062    24857070.940   101785551.284 5      4009.477          34.687    24857071.820   101785551.286 7      4009.477          43.062
G02  22334417.940   117368163.884 7      2097.855          45.625    22334416.160   117368163.891 6      2097.855          37.937    22334419.400    91455707.363 6      1634.692          38.000
G09  23109025.320   121438745.515 7      6388.812          44.125    23109025.000   121438745.525 7      6388.812          43.812    23109033.940    94627632.941 7      4978.295          43.562    23109034.700    94627635.943 7      4978.295          45.937
R05  21837027.680   116731429.598 7      6918.959          45.500    21837028.420   116731429.597 7      6918.959          43.750    21837040.740    90791161.408 8      5381.413          48.562    21837040.340    90791162.402 8      5381.413          48.312
R17  23552635.120   126034881.193 6       489.075          41.437    23552633.960   126034881.211 6       489.075          41.375    23552655.160    98027225.481 7       380.391          44.625    23552654.720    98027224.474 7       380.391          45.062
R04  19283551.380   103262545.553 7      3767.827          47.875    19283552.240   103262545.589 7      3767.827          47.187    19283561.120    80315348.526 8      2930.532          50.562    19283560.860    80315347.533 8      2930.532          50.812
R09  24121831.020   128809229.329 6       725.550          41.625    24121831.320   128809229.322 6       725.550          41.562    24121843.180   100185006.488 7       564.317          43.125    24121843.080   100185007.486 7       564.317          43.062
G19  23373784.740   122830074.223 7      6404.483          43.000    23373783.060   122830074.228 5      6404.483          30.937    23373787.060    95711767.967 5      4990.506          30.937
G22  23388487.700   122907331.592 7      2478.902          44.500    23388486.920   122907331.594 5      2478.902          30.875    23388490.920    95771960.771 5      1931.612          31.125
G03  20527925.300   107874970.011 8      1525.000          48.000    20527924.600   107874970.011 8      1525.000          49.000    20527929.420    84058467.638 8      1188.312          49.187    20527930.320    84058441.640 8      1188.312          50.000
G14  22848069.900   120067409.194 7      1180.871          44.312    22848069.000   120067409.212 5      1180.871          33.562    22848075.320    93559046.254 5       920.159          33.625    22848075.620    93559046.254 7       920.159          47.937
R03  21021149.860   112527858.875 7        -6.303          46.562    21021150.600   112527858.912 7        -6.303          46.062    21021159.940    87521707.440 8        -4.902          49.312    21021159.600    87521708.440 8        -4.902          48.937
G21  23421230.480   123079401.777 7      1490.839          44.562    23421228.860   123079401.785 5      1490.839          32.812    23421234.640    95906021.327 5      1161.693          32.562
G17  21757910.180   114338608.578 7      5197.436          47.562    21757909.580   114338608.578 7      5197.436          46.500    21757912.340    89095026.201 7      4049.950          46.375    21757912.800    89095032.202 8      4049.950          48.187
R18  20609833.240   110016702.755 7      2436.947          47.812    20609833.480   110016702.754 7      2436.947          47.562    20609841.920    85568574.165 8      1895.403          49.937    20609842.200    85568576.167 8      1895.403          49.937
> 2024 07 31 11 15 47.0000000  0 17
G04  21471675.720   112834420.397 7      5013.144          46.437    21471674.660   112834420.405 6      5013.144          38.062    21471679.760    87922924.629 6      3906.346          37.937    21471681.240    87922946.633 8      3906.346          51.187
G08  24635984.760   129462969.899 6      -492.925          38.750    24635983.960   129462969.907 5      -492.925          34.812    24635999.940   100880297.830 5      -384.097          34.500    24636000.860   100880301.854 6      -384.097          41.625
G06  24856082.460   130619578.068 6      5146.181          38.125    24856081.460   130619578.073 5      5146.181          35.062    24856091.560   101781541.611 5      4010.012          35.187    24856092.820   101781541.615 7      4010.012          43.437
G02  22334018.840   117366065.832 7      2098.251          46.312    22334016.860   117366065.837 6      2098.251          37.812    22334020.140    91454072.521 6      1635.000          37.812
G09  23107809.340   121432356.461 7      6389.213          44.250    23107809.060   121432356.471 7      6389.213          44.187    23107818.080    94622654.472 7      4978.607          43.687    23107819.040    94622657.468 7      4978.607          45.750
R05  21835733.320   116724510.689 7      6918.981          45.500    21835733.900   116724510.690 7      6918.981          44.750    21835746.520    90785780.049 7      5381.430          47.687    21835746.040    90785781.043 8      5381.430          48.562
R17  23552543.260   126034392.112 6       489.229          41.437    23552542.980   126034392.127 6       489.229          41.375    23552563.680    98026845.075 7       380.511          44.375    23552563.320    98026844.072 7       380.511          44.875
R04  19282847.940   103258777.895 8      3767.489          48.562    19282849.020   103258777.924 7      3767.489          46.937    19282857.560    80312418.124 8      2930.269          50.375    19282857.440    80312417.129 8      2930.269          51.250
R09  24121695.600   128808503.559 6       725.774          41.750    24121695.240   128808503.549 6       725.774          41.875    24121707.000   100184441.994 7       564.491          42.937    24121707.500   100184442.996 7       564.491          43.625
G19  23372565.960   122823669.586 7      6404.925          43.187    23372564.360   122823669.593 5      6404.925          30.937    23372568.140    95706777.355 5      4990.851          31.000
G22  23388016.120   122904852.792 7      2478.779          44.500    23388015.360   122904852.794 5      2478.779          30.875    23388019.220    95770029.243 5      1931.516          31.125
G03  20527635.180   107873444.929 8      1525.097          48.312    20527634.420   107873444.931 8      1525.097          49.125    20527639.180    84057279.266 8      1188.387          49.062    20527640.200    84057253.268 8      1188.387          49.687
G14  22847844.960   120066228.330 7      1181.098          43.125    22847844.180   120066228.351 5      1181.098          33.562    22847850.520    93558126.100 5       920.336          33.625    22847850.740    93558126.106 7       920.336          47.250
R03  21021151.220   112527865.088 7        -6.214          47.062    21021152.140   112527865.119 7        -6.214          46.187    21021161.120    87521712.270 8        -4.833          49.062    21021160.860    87521713.269 8        -4.833          49.000
G21  23420946.860   123077910.740 7      1491.262          43.812    23420945.100   123077910.745 5      1491.262          32.812    23420950.980    95904859.484 5      1162.022          32.562
G17  21756921.280   114333411.109 7      5197.579          47.500    21756920.440   114333411.114 7      5197.579          46.875    21756923.400    89090976.231 7      4050.062          46.625    21756923.660    89090982.232 8      4050.062          48.437
R18  20609376.900   110014265.727 7      2437.070          47.625    20609377.080   110014265.731 7      2437.070          46.750    20609385.280    85566678.705 8      1895.499          49.875    20609385.920    85566680.709 8      1895.499          49.625
> 2024 07 31 11 15 48.0000000  0 17
G04  21470721.600   112829407.122 7      5013.208          46.312    21470720.660   112829407.127 6      5013.208          37.937    21470725.800    87919018.185 6      3906.396          37.750    21470727.280    87919040.189 8      3906.396          50.375
G08  24636078.540   129463462.806 6      -492.748          39.625    24636077.820   129463462.805 5      -492.748          34.562    24636093.760   100880681.909 5      -383.959          34.500    24636094.580   100880685.910 6      -383.959          41.750
G06  24855102.960   130614431.668 6      5146.580          38.125    24855102.240   130614431.678 5      5146.580          35.312    24855112.140   101777531.433 5      4010.322          35.000    24855113.860   101777531.437 7      4010.322          43.437
G02  22333619.540   117363967.296 7      2098.606          46.062    22333617.540   117363967.299 6      2098.606          37.625    22333620.760    91452437.303 6      1635.278          38.000
G09  23106593.680   121425966.924 7      6389.522          44.562    23106593.100   121425966.931 7      6389.522          43.687    23106602.180    94617675.625 7      4978.849          44.062    23106602.860    94617678.624 7      4978.849          46.437
R05  21834438.920   116717591.524 7      6919.104          45.375    21834439.740   116717591.520 7      6919.104          44.375    21834452.360    90780398.486 8      5381.526          48.500    21834451.420    90780399.479 8      5381.526          48.500
R17  23552451.560   126033902.718 6       489.449          41.562    23552451.560   126033902.736 6       489.449          41.687    23552472.420    98026464.410 7       380.682          44.750    23552472.220    98026463.401 7       380.682          45.187
R04  19282144.620   103255010.444 8      3767.147          48.375    19282145.360   103255010.475 7      3767.147          47.562    19282154.080    80309487.892 8      2930.003          50.750    19282153.480    80309486.899 8      2930.003          50.875
R09  24121559.900   128807777.409 6       726.124          41.750    24121559.380   128807777.402 6       726.124          41.875    24121571.220   100183877.219 7       564.763          43.000    24121571.560   100183878.215 7       564.763          43.687
G19  23371347.160   122817264.499 6      6405.244          41.937    23371345.560   122817264.504 5      6405.244          31.187    23371349.280    95701786.388 5      4991.099          31.000
G22  23387544.420   122902373.813 7      2478.871          44.687    23387543.560   122902373.813 5      2478.871          30.625    23387547.580    95768097.575 5      1931.588          30.812
G03  20527345.100   107871919.569 8      1525.248          48.562    20527344.080   107871919.573 8      1525.248          48.875    20527348.960    84056090.680 8      1188.505          48.937    20527349.900    84056064.684 8      1188.505          50.187
G14  22847620.380   120065047.235 7      1181.131          44.062    22847619.760   120065047.255 5      1181.131          33.312    22847625.740    93557205.766 5       920.362          33.437    22847626.040    93557205.756 7       920.362          47.500
R03  21021152.340   112527871.209 7        -6.251          46.125    21021153.440   112527871.248 7        -6.251          46.000    21021162.240    87521717.043 8        -4.862          49.000    21021161.940    87521718.043 8        -4.862          49.312
G21  23420663.240   123076419.164 7      1491.751          43.500    23420661.120   123076419.174 5      1491.751          32.625    23420667.160    95903697.215 5      1162.403          32.625
G17  21755932.140   114328213.348 7      5197.741          47.437    21755931.460   114328213.348 7      5197.741          46.312    21755934.180    89086926.034 7      4050.187          46.250    21755934.680    89086932.035 8      4050.187          48.437
R18  20608920.240   110011828.467 7      2437.214          47.812    20608920.460   110011828.470 7      2437.214          47.625    20608928.920    85564783.060 8      1895.611          49.562    20608929.260    85564785.060 8      1895.611          50.000
> 2024 07 31 11 15 49.0000000  0 17
G04  21469767.700   112824394.152 7      5012.737          46.062    21469766.760   112824394.157 6      5012.737          38.250    21469771.980    87915111.985 6      3906.029          38.125    21469773.220    87915133.986 8      3906.029          50.562
G08  24636172.480   129463955.615 6      -492.919          40.187    24636171.640   129463955.623 5      -492.919          35.250    24636187.600   100881065.910 5      -384.093          34.812    24636188.360   100881069.918 6      -384.093          41.875
G06  24854124.100   130609284.994 6      5146.671          37.750    24854122.780   130609285.001 5      5146.671          35.187    24854133.000   101773521.048 5      4010.393          35.000    24854134.160   101773521.056 7      4010.393          43.500
G02  22333220.200   117361868.722 7      2098.546          46.312    22333218.180   117361868.729 6      2098.546          37.625    22333221.520    91450802.056 6      1635.231          37.562
G09  23105377.880   121419577.347 7      6389.552          43.937    23105376.960   121419577.357 7      6389.552          43.937    23105386.400    94612696.744 7      4978.871          43.562    23105387.020    94612699.739 7      4978.871          46.062
R05  21833144.420   116710672.583 7      6918.855          44.812    21833145.000   116710672.579 7      6918.855          44.500    21833158.240    90775017.102 7      5381.332          47.562    21833157.200    90775018.093 8      5381.332          48.437
R17  23552360.360   126033413.434 6       489.239          41.562    23552360.160   126033413.446 6       489.239          41.687    23552380.760    98026083.843 7       380.519          44.625    23552380.340    98026082.838 7       380.519          44.937
R04  19281441.040   103251243.693 8      3766.341          48.500    19281442.020   103251243.727 7      3766.341          47.250    19281450.700    80306558.202 8      2929.376          50.375    19281450.280    80306557.207 8      2929.376          51.000
R09  24121424.100   128807051.369 7       725.907          42.437    24121423.460   128807051.367 6       725.907          41.625    24121435.040   100183312.523 7       564.594          42.312    24121435.400   100183313.525 7       564.594          43.562
G19  23370128.540   122810859.396 7      6405.039          42.812    23370126.740   122810859.401 5      6405.039          31.187    23370130.220    95696795.405 5      4990.939          31.000
G22  23387072.740   122899895.144 7      2478.480          44.125    23387072.040   122899895.144 5      2478.480          30.625    23387075.760    95766166.151 5      1931.283          30.812
G03  20527054.540   107870394.381 8      1525.123          48.375    20527053.920   107870394.381 8      1525.123          49.000    20527058.720    84054902.220 8      1188.408          49.125    20527059.740    84054876.224 8      1188.408          49.687
G14  22847395.800   120063866.302 7      1180.784          44.125    22847395.100   120063866.325 5      1180.784          33.562    22847400.960    93556285.563 5       920.091          33.437    22847401.060    93556285.559 7       920.091          47.125
R03  21021153.480   112527877.745 7        -6.831          46.250    21021154.480   112527877.776 7        -6.831          45.937    21021163.320    87521722.127 8        -5.313          48.750    21021163.320    87521723.122 8        -5.313          49.687
G21  23420379.340   123074927.511 7      1491.667          44.375    23420377.260   123074927.519 5      1491.667          32.625    23420383.200    95902534.886 5      1162.338          32.625
G17  21754942.900   114323015.742 7      5197.444          47.125    21754942.340   114323015.745 7      5197.444          46.562    21754945.100    89082875.955 7      4049.957          46.312    21754945.560    89082881.956 8      4049.957          48.375
R18  20608463.620   110009391.431 7      2436.877          46.000    20608463.900   110009391.437 7      2436.877          47.000    20608472.260    85562887.590 8      1895.349          49.687    20608472.620    85562889.592 8      1895.349          49.750
> 2024 07 31 11 15 50.0000000  0 17
G04  21468813.680   112819381.232 7      5012.782          45.437    21468812.720   112819381.242 6      5012.782          38.125    21468818.020    87911205.821 6      3906.064          37.625    21468819.560    87911227.821 8      3906.064          49.312
G08  24636266.320   129464448.133 6      -492.600          39.500    24636265.480   129464448.135 5      -492.600          35.812    24636281.500   100881449.682 5      -383.844          35.437    24636282.040   100881453.671 6      -383.844          41.875
G06  24853143.900   130604137.857 6      5147.291          38.187    24853143.500   130604137.865 5      5147.291          35.187    24853153.400   101769510.294 5      4010.876          35.125    24853154.360   101769510.294 7      4010.876          43.375
G02  22332820.860   117359769.900 7      2098.833          46.562    22332818.800   117359769.902 6      2098.833          37.750    22332822.240    91449166.611 6      1635.454          37.875
G09  23104161.800   121413187.502 7      6389.951          44.250    23104160.900   121413187.505 7      6389.951          42.687    23104170.500    94607717.652 7      4979.182          42.625    23104170.820    94607720.652 7      4979.182          45.312
R05  21831850.040   116703753.660 7      6918.637          44.812    21831850.580   116703753.664 7      6918.637          44.125    21831863.820    90769635.741 7      5381.162          46.562    21831862.940    90769636.733 7      5381.162          46.937
R17  23552269.040   126032924.071 7       489.104          42.187    23552268.300   126032924.094 6       489.104          41.625    23552289.320    98025703.228 7       380.414          44.375    23552288.840    98025702.225 7       380.414          44.750
R04  19280737.620   103247477.425 8      3765.913          48.437    19280738.980   103247477.459 7      3765.913          46.812    19280747.360    80303628.889 8      2929.043          48.375    19280746.860    80303627.893 8      2929.043          48.437
R09  24121287.960   128806325.193 7       726.032          42.250    24121287.640   128806325.194 6       726.032          41.625    24121299.340   100182747.728 7       564.692          42.250    24121299.260   100182748.728 7       564.692          43.187
G19  23368909.740   122804454.004 7      6405.396          43.250    23368907.920   122804454.007 5      6405.396          31.187    23368911.560    95691804.201 5      4991.218          30.937
G22  23386601.320   122897416.525 7      2478.503          44.500    23386600.420   122897416.527 5      2478.503          30.625    23386604.200    95764234.761 5      1931.301          30.812
G03  20526764.280   107868869.160 8      1525.131          48.625    20526763.820   107868869.159 7      1525.131          47.312    20526768.480    84053713.740 7      1188.414          47.250    20526769.320    84053687.744 8      1188.414          49.125
G14  22847171.100   120062685.333 7      1180.777          44.187    22847170.220   120062685.353 5      1180.777          33.562    22847176.320    93555365.327 5       920.086          33.375    22847176.620    93555365.325 7       920.086          47.062
R03  21021154.460   112527884.423 7        -6.899          46.750    21021155.800   112527884.449 7        -6.899          45.500    21021164.500    87521727.319 7        -5.366          47.937    21021164.460    87521728.316 7        -5.366          47.437
G21  23420095.300   123073435.541 7      1492.031          43.875    23420093.340   123073435.546 5      1492.031          32.625    23420099.220    95901372.312 5      1162.622          32.625
G17  21753954.060   114317818.063 7      5197.550          47.812    21753953.280   114317818.063 7      5197.550          45.125    21753956.000    89078825.817 7      4050.039          45.312    21753956.400    89078831.819 7      4050.039          47.187
R18  20608007.420   110006954.405 7      2436.936          47.125    20608007.220   110006954.401 7      2436.936          46.625    20608015.720    85560992.121 8      1895.395          48.000    20608016.180    85560994.123 8      1895.395          48.500
> 2024 07 31 11 15 51.0000000  0 17
G04  21467859.900   112814368.406 7      5012.715          46.500    21467858.740   112814368.414 6      5012.715          38.062    21467864.220    87907299.727 6      3906.011          38.125    21467865.560    87907321.733 8      3906.011          50.625
G08  24636359.740   129464940.335 6      -492.079          39.625    24636359.060   129464940.335 5      -492.079          35.812    24636375.200   100881833.211 6      -383.438          36.000    24636375.840   100881837.222 7      -383.438          42.812
G06  24852164.720   130598990.292 6      5147.749          38.375    24852164.000   130598990.303 5      5147.749          35.750    24852173.900   101765499.213 5      4011.233          35.000    24852174.960   101765499.215 7      4011.233          43.375
G02  22332421.500   117357670.826 7      2099.164          46.250    22332419.360   117357670.831 6      2099.164          37.812    22332422.660    91447530.973 6      1635.712          37.875
G09  23102946.020   121406797.445 7      6390.176          44.000    23102944.920   121406797.450 7      6390.176          43.937    23102954.540    94602738.397 7      4979.358          43.375    23102955.220    94602741.397 7      4979.358          45.812
R05  21830555.820   116696834.706 7      6918.942          45.187    21830556.120   116696834.710 7      6918.942          44.375    21830569.420    90764254.347 7      5381.400          47.437    21830568.640    90764255.345 8      5381.400          48.187
R17  23552177.700   126032434.608 7       489.501          42.187    23552177.440   126032434.625 6       489.501          41.625    23552197.740    98025322.511 7       380.723          43.687    23552197.480    98025321.510 7       380.723          44.312
R04  19280034.360   103243711.671 8      3765.443          48.937    19280035.700   103243711.711 7      3765.443          47.437    19280044.060    80300699.979 8      2928.678          49.687    19280043.560    80300698.982 8      2928.678          50.875
R09  24121151.860   128805598.880 7       726.362          42.250    24121151.280   128805598.886 6       726.362          41.875    24121163.260   100182182.826 7       564.948          42.250    24121163.260   100182183.832 7       564.948          42.687
G19  23367690.620   122798048.410 7      6405.710          42.625    23367688.940   122798048.415 5      6405.710          31.125    23367692.700    95686812.840 5      4991.462          30.937
G22  23386129.600   122894938.027 7      2478.404          45.062    23386128.860   122894938.029 5      2478.404          31.000    23386132.560    95762303.468 5      1931.224          31.000
G03  20526474.060   107867343.888 8      1525.302          48.312    20526473.520   107867343.890 8      1525.302          48.812    20526478.200    84052525.225 8      1188.547          48.562    20526478.940    84052499.227 8      1188.547          49.562
G14  22846946.340   120061504.324 7      1181.031          44.562    22846945.400   120061504.345 5      1181.031          33.375    22846951.500    93554445.058 5       920.284          33.375    22846952.100    93554445.050 7       920.284          47.687
R03  21021155.800   112527891.251 7        -6.942          47.062    21021156.880   112527891.282 7        -6.942          45.875    21021165.800    87521732.638 8        -5.400          49.062    21021165.840    87521733.635 8        -5.400          48.812
G21  23419811.240   123071943.292 7      1492.329          43.437    23419809.340   123071943.297 5      1492.329          32.625    23419815.340    95900209.519 5      1162.853          32.687
G17  21752965.020   114312620.328 7      5197.789          47.375    21752964.220   114312620.328 7      5197.789          46.562    21752966.880    89074775.643 7      4050.226          46.250    21752967.500    89074781.648 7      4050.226          47.750
R18  20607550.800   110004517.374 7      2436.994          47.187    20607550.760   110004517.375 7      2436.994          46.937    20607559.260    85559096.661 8      1895.440          49.562    20607559.560    85559098.663 8      1895.440          49.937
> 2024 07 31 11 15 52.0000000  0 17
G04  21466905.920   112809355.644 7      5012.692          46.562    21466904.780   112809355.657 6      5012.692          38.000    21466910.420    87903393.689 6      3905.994          37.875    21466911.760    87903415.695 8      3905.994          51.062
G08  24636453.840   129465432.304 6      -491.886          39.250    24636452.740   129465432.309 6      -491.886          36.187    24636468.940   100882216.556 6      -383.287          36.187    24636469.520   100882220.553 7      -383.287          42.937
G06  24851185.300   130593842.268 6      5148.175          38.250    24851184.360   130593842.273 5      5148.175          35.750    24851194.220   101761487.769 5      4011.565          35.625    24851195.440   101761487.765 7      4011.565          43.750
G02  22332021.820   117355571.494 7      2099.494          45.937    22332019.980   117355571.502 6      2099.494          38.250    22332023.120    91445895.132 6      1635.969          37.875
G09  23101729.740   121400407.114 7      6390.483          44.125    23101728.860   121400407.119 7      6390.483          43.562    23101738.520    94597758.933 7      4979.597          43.312    23101739.420    94597761.931 7      4979.597          46.125
R05  21829261.680   116689915.795 7      6918.832          45.312    21829261.920   116689915.790 7      6918.832          44.187    21829275.160    90758872.982 8      5381.314          48.125    21829274.480    90758873.976 8      5381.314          48.312
R17  23552085.840   126031945.080 7       489.576          42.187    23552086.000   126031945.103 6       489.576          41.812    23552105.800    98024941.788 7       380.781          44.187    23552105.640    98024940.785 7       380.781          44.250
R04  19279331.300   103239946.399 8      3765.017          48.937    19279332.800   103239946.436 7      3765.017          46.875    19279341.020    80297771.434 8      2928.346          50.937    19279340.620    80297770.437 8      2928.346          50.750
R09  24121015.860   128804872.480 7       726.423          42.875    24121015.500   128804872.483 6       726.423          41.875    24121027.340   100181617.850 7       564.996          42.625    24121027.360   100181618.850 7       564.996          43.687
G19  23366471.720   122791642.562 6      6405.970          41.750    23366469.960   122791642.567 5      6405.970          31.125    23366473.600    95681821.279 5      4991.665          30.937
G22  23385658.060   122892459.571 7      2478.532          44.625    23385657.120   122892459.573 5      2478.532          31.000    23385660.960    95760372.208 5      1931.324          31.000
G03  20526183.800   107865818.577 8      1525.401          48.437    20526183.220   107865818.580 8      1525.401          49.312    20526187.900    84051336.671 8      1188.625          49.250    20526188.820    84051310.677 8      1188.625          49.625
G14  22846721.640   120060323.273 7      1181.065          44.812    22846720.640   120060323.291 5      1181.065          33.375    22846726.620    93553524.759 5       920.310          33.250    22846727.360    93553524.753 7       920.310          47.437
R03  21021157.200   112527898.223 7        -7.033          47.062    21021157.840   112527898.254 7        -7.033          46.312    21021167.200    87521738.061 8        -5.470          49.250    21021167.220    87521739.060 8        -5.470          49.750
G21  23419527.320   123070450.702 7      1492.823          43.562    23419525.260   123070450.709 5      1492.823          32.500    23419531.380    95899046.463 5      1163.239          32.687
G17  21751975.840   114307422.536 7      5197.877          47.125    21751975.040   114307422.536 7      5197.877          47.187    21751977.780    89070725.421 7      4050.294          47.000    21751978.480    89070731.422 8      4050.294          48.125
R18  20607094.520   110002080.338 7      2437.007          47.062    20607094.440   110002080.339 7      2437.007          47.312    20607102.780    85557201.190 8      1895.450          49.500    20607103.040    85557203.197 8      1895.450          49.812
> 2024 07 31 11 15 53.0000000  0 17
G04  21465952.060   112804342.873 7      5012.682          46.250    21465950.940   112804342.886 6      5012.682          37.750    21465956.480    87899487.644 6      3905.986          37.750    21465957.860    87899509.652 8      3905.986          50.687
G08  24636547.600   129465923.878 6      -491.495          40.062    24636546.260   129465923.886 6      -491.495          36.437    24636562.520   100882599.597 6      -382.983          36.500    24636563.620   100882603.604 7      -382.983          42.937
G06  24850205.420   130588693.715 6      5148.508          38.250    24850204.520   130588693.723 5      5148.508          35.812    24850214.500   101757475.918 5      4011.824          35.625    24850215.520   101757475.920 7      4011.824          43.625
G02  22331622.240   117353471.861 7      2099.663          46.062    22331620.460   117353471.866 6      2099.663          38.812    22331623.560    91444259.056 6      1636.101          38.375
G09  23100513.700   121394016.463 7      6390.778          43.937    23100512.680   121394016.471 7      6390.778          43.875    23100522.400    94592779.219 7      4979.827          43.562    23100523.020    94592782.219 7      4979.827          46.187
R05  21827967.120   116682996.755 7      6918.996          45.750    21827967.900   116682996.751 7      6918.996          44.562    21827980.800    90753491.512 7      5381.441          47.937    21827979.880    90753492.509 8      5381.441          48.375
R17  23551994.380   126031455.423 7       489.569          42.187    23551994.620   126031455.446 6       489.569          41.812    23552014.140    98024560.931 7       380.776          43.937    23552014.100    98024559.924 7       380.776          43.375
R04  19278628.020   103236181.513 8      3764.475          48.625    19278629.600   103236181.555 7      3764.475          47.562    19278638.020    80294843.202 8      2927.925          50.750    19278637.420    80294842.206 8      2927.925          51.062
R09  24120880.200   128804145.863 6       726.656          41.812    24120879.060   128804145.866 6       726.656          41.875    24120890.760   100181052.706 7       565.177          42.687    24120891.000   100181053.708 7       565.177          43.500
G19  23365252.860   122785236.419 7      6406.188          42.937    23365250.940   122785236.421 5      6406.188          31.437    23365254.720    95676829.484 5      4991.835          31.375
G22  23385186.340   122889981.168 7      2478.306          44.875    23385185.360   122889981.170 5      2478.306          31.000    23385189.280    95758440.986 5      1931.148          31.000
G03  20525893.560   107864293.172 8      1525.359          48.312    20525893.020   107864293.177 8      1525.359          49.062    20525897.760    84050148.049 8      1188.592          49.437    20525898.620    84050122.054 8      1188.592          49.875
G14  22846496.860   120059142.128 7      1181.081          44.125    22846495.900   120059142.146 5      1181.081          33.500    22846501.920    93552604.388 5       920.323          33.250    22846502.300    93552604.382 7       920.323          47.937
R03  21021158.600   112527905.279 7        -7.202          46.750    21021159.100   112527905.307 7        -7.202          45.875    21021168.640    87521743.550 8        -5.602          49.625    21021168.540    87521744.550 8        -5.602          49.625
G21  23419242.940   123068957.757 7      1493.079          43.812    23419241.140   123068957.767 5      1493.079          32.500    23419247.340    95897883.131 5      1163.439          32.562
G17  21750986.880   114302224.641 7      5197.776          47.125    21750986.020   114302224.643 7      5197.776          46.625    21750988.700    89066675.122 7      4050.215          46.187    21750989.140    89066681.119 8      4050.215          48.437
R18  20606637.880   109999643.267 8      2436.944          48.437    20606637.640   109999643.265 7      2436.944          47.500    20606646.380    85555305.691 8      1895.401          49.562    20606646.340    85555307.699 8      1895.401          50.250
> 2024 07 31 11 15 54.0000000  0 17
G04  21464997.980   112799330.156 7      5012.645          46.687    21464997.100   112799330.168 6      5012.645          38.062    21465002.500    87895581.636 6      3905.957          38.062    21465003.800    87895603.642 8      3905.957          51.062
G08  24636641.340   129466415.150 6      -491.057          41.312    24636639.820   129466415.158 6      -491.057          36.750    24636656.080   100882982.399 6      -382.642          36.562    24636657.180   100882986.398 7      -382.642          42.937
G06  24849225.420   130583544.642 6      5149.136          38.062    24849224.760   130583544.650 5      5149.136          35.562    24849234.620   101753463.658 5      4012.313          35.187    24849235.600   101753463.656 7      4012.313          43.750
G02  22331222.720   117351371.909 7      2100.095          46.125    22331220.880   117351371.911 6      2100.095          37.937    22331224.020    91442622.734 6      1636.438          38.250
G09  23099297.720   121387625.525 7      6391.004          43.750    23099296.420   121387625.538 7      6391.004          43.562    23099306.360    94587799.284 7      4980.003          43.625    23099306.740    94587802.288 7      4980.003          46.562
R05  21826672.760   116676077.648 7      6919.106          45.750    21826673.260   116676077.641 7      6919.106          44.875    21826686.220    90748109.995 8      5381.527          48.062    21826685.780    90748110.992 8      5381.527          48.625
R17  23551903.160   126030965.596 7       489.901          42.250    23551903.140   126030965.613 6       489.901          41.437    23551922.740    98024179.940 7       381.034          43.375    23551922.680    98024178.941 7       381.034          43.500
R04  19277925.060   103232417.031 8      3764.196          48.500    19277926.380   103232417.072 7      3764.196          46.687    19277934.900    80291915.277 8      2927.708          50.625    19277934.520    80291914.280 8      2927.708          51.000
R09  24120744.120   128803419.102 6       726.729          41.812    24120742.960   128803419.103 6       726.729          41.812    24120755.060   100180487.453 7       565.233          42.750    24120754.880   100180488.449 7       565.233          43.625
G19  23364033.620   122778829.973 7      6406.602          42.875    23364031.820   122778829.976 5      6406.602          31.437    23364035.620    95671837.457 5      4992.157          31.375
G22  23384714.700   122887502.782 7      2478.251          44.625    23384713.760   122887502.785 5      2478.251          31.000    23384717.780    95756509.777 5      1931.104          31.312
G03  20525603.400   107862767.667 8      1525.556          48.625    20525602.720   107862767.666 8      1525.556          48.812    20525607.360    84048959.346 8      1188.745          49.062    20525608.400    84048933.350 8      1188.745          49.625
G14  22846272.360   120057960.901 7      1181.187          44.375    22846271.240   120057960.921 5      1181.187          33.500    22846277.140    93551683.955 5       920.406          33.562    22846277.380    93551683.950 7       920.406          47.625
R03  21021159.760   112527912.430 7        -7.250          47.125    21021160.420   112527912.461 7        -7.250          45.875    21021170.000    87521749.119 8        -5.639          49.562    21021169.700    87521750.119 8        -5.639          49.812
G21  23418958.800   123067464.467 7      1493.449          43.500    23418957.060   123067464.470 5      1493.449          32.625    23418963.100    95896719.525 5      1163.727          32.562
G17  21749997.780   114297026.612 7      5198.067          47.062    21749996.740   114297026.607 7      5198.067          46.312    21749999.480    89062624.712 7      4050.442          46.500    21749999.860    89062630.713 8      4050.442          48.687
R18  20606181.400   109997206.167 7      2437.119          47.000    20606181.260   109997206.165 7      2437.119          47.875    20606189.900    85553410.175 8      1895.537          49.875    20606189.860    85553412.185 8      1895.537          50.125
> 2024 07 31 11 15 55.0000000  0 17
G04  21464043.980   112794317.348 7      5012.821          46.062    21464043.120   112794317.356 6      5012.821          38.125    21464048.700    87891675.557 6      3906.094          38.062    21464049.700    87891697.563 8      3906.094          50.250
G08  24636734.280   129466905.989 6      -490.762          40.437    24636733.360   129466905.994 6      -490.762          37.000    24636749.480   100883364.868 6      -382.412          36.875    24636750.580   100883368.880 7      -382.412          42.625
G06  24848245.500   130578394.983 6      5149.783          38.250    24848244.760   130578394.993 5      5149.783          35.687    24848254.740   101749450.938 5      4012.818          35.562    24848255.960   101749450.945 7      4012.818          43.625
G02  22330823.320   117349271.571 7      2100.560          46.437    22330821.260   117349271.576 6      2100.560          38.125    22330824.340    91440986.107 6      1636.800          38.125
G09  23098081.340   121381234.204 7      6391.447          43.250    23098080.380   121381234.212 7      6391.447          43.250    23098090.040    94582819.044 7      4980.348          43.000    23098090.200    94582822.046 7      4980.348          46.000
R05  21825378.740   116669158.352 7      6919.430          45.312    21825378.860   116669158.342 7      6919.430          44.875    21825391.680    90742728.329 7      5381.779          47.937    21825391.280    90742729.327 8      5381.779          48.312
R17  23551811.160   126030475.527 7       490.160          42.187    23551811.800   126030475.558 6       490.160          41.437    23551830.900    98023798.779 7       381.236          43.250    23551831.000    98023797.777 7       381.236          43.250
R04  19277222.140   103228652.888 7      3763.964          47.937    19277223.720   103228652.930 7      3763.964          47.875    19277232.060    80288987.617 8      2927.527          50.437    19277231.600    80288986.620 8      2927.527          51.062
R09  24120608.120   128802692.055 7       727.184          42.125    24120607.040   128802692.050 6       727.184          41.812    24120619.000   100179921.968 7       565.588          42.875    24120618.740   100179922.964 7       565.588          43.750
G19  23362814.700   122772423.142 7      6407.023          42.187    23362812.680   122772423.139 5      6407.023          31.437    23362816.440    95666845.131 5      4992.486          31.375
G22  23384243.120   122885024.292 7      2478.582          44.687    23384242.260   122885024.297 5      2478.582          31.000    23384246.180    95754578.490 5      1931.363          31.312
G03  20525312.940   107861241.972 8      1525.779          48.562    20525312.340   107861241.972 8      1525.779          48.937    20525317.040    84047770.497 8      1188.919          49.312    20525317.700    84047744.501 8      1188.919          50.062
G14  22846047.420   120056779.485 7      1181.481          44.187    22846046.500   120056779.500 5      1181.481          33.875    22846052.360    93550763.367 5       920.635          33.562    22846052.560    93550763.366 7       920.635          47.312
R03  21021161.260   112527919.579 7        -7.217          46.687    21021161.920   112527919.608 7        -7.217          45.625    21021171.340    87521754.679 8        -5.613          49.187    21021171.000    87521755.679 8        -5.613          49.937
G21  23418674.800   123065970.711 7      1493.947          42.437    23418672.800   123065970.723 5      1493.947          32.625    23418678.760    95895555.565 5      1164.114          32.937
G17  21749008.480   114291828.384 7      5198.265          46.812    21749007.540   114291828.383 7      5198.265          46.250    21749010.360    89058574.152 7      4050.596          45.937    21749010.780    89058580.155 7      4050.596          47.937
R18  20605724.780   109994768.896 7      2437.344          47.437    20605724.580   109994768.902 7      2437.344          46.625    20605733.380    85551514.526 8      1895.712          49.750    20605733.520    85551516.538 8      1895.712          50.437
> 2024 07 31 11 15 56.0000000  0 17
G04  21463090.200   112789304.481 7      5012.610          45.812    21463089.300   112789304.488 6      5012.610          38.125    21463094.800    87887769.437 6      3905.930          37.750    21463095.920    87887791.449 8      3905.930          50.937
G08  24636827.620   129467396.381 6      -490.367          41.312    24636826.740   129467396.383 6      -490.367          38.062    24636842.840   100883746.982 6      -382.104          37.312    24636843.780   100883750.983 7      -382.104          42.875
G06  24847264.860   130573244.702 6      5150.389          38.437    24847264.780   130573244.704 5      5150.389          35.500    24847274.480   101745437.738 5      4013.290          35.062    24847276.080   101745437.734 7      4013.290          43.625
G02  22330423.480   117347170.831 7      2100.680          46.062    22330421.520   117347170.844 6      2100.680          37.937    22330424.520    91439349.177 6      1636.893          37.875
G09  23096864.840   121374842.468 7      6391.704          44.062    23096863.980   121374842.473 7      6391.704          43.625    23096873.880    94577838.474 7      4980.549          43.250    23096874.180    94577841.478 7      4980.549          46.250
R05  21824084.080   116662238.929 7      6919.174          46.000    21824084.240   116662238.920 7      6919.174          45.500    21824097.100    90737346.575 7      5381.580          47.875    21824096.580    90737347.569 8      5381.580          48.625
R17  23551719.320   126029985.253 7       490.098          42.187    23551720.220   126029985.284 7       490.098          42.000    23551739.440    98023417.453 7       381.187          43.312    23551739.320    98023416.454 7       381.187          42.812
R04  19276519.140   103224889.108 8      3763.372          48.312    19276520.940   103224889.152 7      3763.372          47.250    19276529.320    80286060.241 8      2927.067          50.812    19276528.500    80286059.243 8      2927.067          50.875
R09  24120471.620   128801964.736 6       727.280          41.437    24120470.820   128801964.726 6       727.280          41.875    24120482.580   100179356.280 7       565.662          42.937    24120482.780   100179357.278 7       565.662          43.625
G19  23361595.300   122766015.932 7      6407.104          43.062    23361593.420   122766015.934 5      6407.104          31.437    23361597.240    95661852.510 5      4992.549          31.437
G22  23383771.560   122882545.781 7      2478.267          44.812    23383770.480   122882545.783 5      2478.267          31.062    23383774.280    95752647.185 5      1931.117          31.312
G03  20525022.520   107859716.099 7      1525.727          47.625    20525022.000   107859716.099 8      1525.727          48.625    20525026.760    84046581.507 8      1188.878          48.687    20525027.740    84046555.509 8      1188.878          50.062
G14  22845822.500   120055597.898 7      1181.446          44.375    22845821.720   120055597.913 5      1181.446          33.562    22845827.320    93549842.648 5       920.607          33.437    22845828.000    93549842.645 7       920.607          47.687
R03  21021162.580   112527926.710 7        -7.372          47.312    21021163.140   112527926.738 7        -7.372          45.812    21021172.640    87521760.229 8        -5.734          49.062    21021172.300    87521761.229 8        -5.734          48.500
G21  23418390.300   123064476.528 7      1494.244          42.000    23418388.480   123064476.538 5      1494.244          32.875    23418394.480    95894391.265 5      1164.346          32.937
G17  21748019.120   114286629.958 7      5198.237          46.500    21748018.380   114286629.960 7      5198.237          46.687    21748021.100    89054523.439 7      4050.574          46.500    21748021.680    89054529.440 8      4050.574          48.562
R18  20605267.980   109992331.465 7      2437.270          47.875    20605268.080   109992331.471 7      2437.270          47.500    20605276.860    85549618.752 8      1895.655          49.625    20605277.040    85549620.760 8      1895.655          50.250
> 2024 07 31 11 15 57.0000000  0 17
G04  21462136.240   112784291.629 7      5013.090          46.250    21462135.320   112784291.639 6      5013.090          38.125    21462140.760    87883863.328 6      3906.304          38.000    21462142.100    87883885.332 8      3906.304          50.187
G08  24636920.920   129467886.458 6      -489.709          41.812    24636920.040   129467886.465 6      -489.709          37.562    24636936.140   100884128.858 6      -381.591          37.875    24636937.160   100884132.867 7      -381.591          43.312
G06  24846284.960   130568093.947 6      5151.208          38.437    24846284.680   130568093.947 5      5151.208          35.500    24846294.420   101741424.169 5      4013.929          35.125    24846295.400   101741424.169 7      4013.929          43.687
G02  22330023.740   117345069.792 7      2101.494          45.937    22330021.640   117345069.799 6      2101.494          37.937    22330024.800    91437712.002 6      1637.528          37.875
G09  23095648.480   121368450.450 7      6392.374          44.000    23095647.680   121368450.455 7      6392.374          43.875    23095657.480    94572857.696 7      4981.071          43.562    23095658.100    94572860.699 7      4981.071          46.312
R05  21822789.880   116655319.425 7      6919.720          45.625    21822789.760   116655319.423 7      6919.720          44.750    21822802.620    90731964.758 7      5382.005          47.500    21822802.160    90731965.755 8      5382.005          48.000
R17  23551628.180   126029494.874 7       490.690          42.250    23551628.340   126029494.900 7       490.690          42.000    23551647.740    98023036.035 7       381.648          43.062    23551647.580    98023035.042 7       381.648          42.937
R04  19275816.540   103221125.761 8      3763.455          48.062    19275818.080   103221125.797 7      3763.455          47.187    19275826.540    80283133.191 8      2927.132          50.500    19275825.980    80283132.194 8      2927.132          51.062
R09  24120334.920   128801237.267 6       727.801          41.437    24120334.680   128801237.260 6       727.801          41.875    24120346.040   100178790.477 7       566.067          42.875    24120346.660   100178791.477 7       566.067          43.000
G19  23360375.920   122759608.430 7      6407.907          42.062    23360373.980   122759608.435 5      6407.907          31.437    23360377.960    95656859.656 5      4993.174          31.437
G22  23383299.820   122880067.291 7      2478.666          45.187    23383298.820   122880067.293 5      2478.666          31.062    23383302.660    95750715.900 5      1931.428          30.937
G03  20524732.220   107858190.137 7      1526.202          47.937    20524731.660   107858190.136 8      1526.202          48.937    20524736.320    84045392.450 8      1189.248          48.625    20524737.180    84045366.452 8      1189.248          50.437
G14  22845597.660   120054416.224 7      1181.910          43.812    22845596.840   120054416.240 5      1181.910          33.562    22845602.360    93548921.868 5       920.969          33.437    22845603.140    93548921.868 8       920.969          48.062
R03  21021163.920   112527933.974 7        -7.059          47.562    21021164.340   112527934.005 7        -7.059          45.812    21021174.000    87521765.881 8        -5.490          49.187    21021173.560    87521766.881 8        -5.490          49.125
G21  23418106.260   123062981.985 7      1494.998          44.625    23418104.240   123062981.993 5      1494.998          32.875    23418110.300    95893226.686 5      1164.933          32.562
G17  21747029.820   114281431.422 7      5198.827          47.250    21747029.080   114281431.427 7      5198.827          46.375    21747031.820    89050472.640 7      4051.034          46.250    21747032.300    89050478.643 7      4051.034          47.875
R18  20604811.460   109989893.985 7      2437.776          46.500    20604811.300   109989893.992 7      2437.776          47.062    20604820.340    85547722.937 8      1896.048          50.312    20604820.460    85547724.943 8      1896.048          49.812
> 2024 07 31 11 15 58.0000000  0 17
G04  21461182.400   112779278.582 7      5013.115          46.062    21461181.460   112779278.590 6      5013.115          37.750    21461186.720    87879957.061 6      3906.323          37.812    21461187.980    87879979.064 8      3906.323          50.500
