     3.05           OBSERVATION DATA    MIXED               RINEX VERSION / TYPE
TPS2RIN 1.0.28.3459 TPS-USER            20260427 154622 UTC PGM / RUN BY / DATE
Win64 build Jun 01, 2022 (c) Topcon Positioning Systems     COMMENT
SRC: 20240731_OAST.tps                                      COMMENT
Observer            Agency                                  OBSERVER / AGENCY
O0M3X53SBGM         TPS HIPER_SR        4.8 HSR Jul,08,2022 REC # / TYPE / VERS
FW: 4.8 HSR Jul,08,2022 p3                                  COMMENT
SN: HiPer SR 1212-12575                                     COMMENT
000                 TPSHIPER_SR     NONE                    ANT # / TYPE
        1.8000        0.0000        0.0000                  ANTENNA: DELTA H/E/N
CAMI9                                                       MARKER NAME
  5390427.3241 -1597883.2517  3006690.6190                  APPROX POSITION XYZ
  2024     7    31    15    44    7.0000000     GPS         TIME OF FIRST OBS
  2024     7    31    15    59    8.0000000     GPS         TIME OF LAST OBS
     1.000                                                  INTERVAL
   902 EPOCHS                                               COMMENT
G   12 C1C L1C D1C C1W L1W D1W C2W L2W D2W C2X L2X D2X      SYS / # / OBS TYPES
R   12 C1C L1C D1C C1P L1P D1P C2P L2P D2P C2C L2C D2C      SYS / # / OBS TYPES
    18                                                      # OF SATELLITES
   G05   902   902   902   902   902   902   902   902   902PRN / # OF OBS
         902   902   902                                    PRN / # OF OBS
   G06   902   902   902   902   902   902   902   902   902PRN / # OF OBS
         902   902   902                                    PRN / # OF OBS
   G07   902   902   902   902   902   902   902   902   902PRN / # OF OBS
         902   902   902                                    PRN / # OF OBS
   G09   902   902   902   902   902   902   902   902   902PRN / # OF OBS
         902   902   902                                    PRN / # OF OBS
   G11   902   902   902   902   902   902   902   902   902PRN / # OF OBS
         902   902   902                                    PRN / # OF OBS
   G13   902   902   902   902   902   902   902   902   902PRN / # OF OBS
           0     0     0                                    PRN / # OF OBS
   G14   222   222   222   222   222   222   222   222   222PRN / # OF OBS
         222   222   222                                    PRN / # OF OBS
   G19   895   895   895   893   893   893   893   893   893PRN / # OF OBS
           0     0     0                                    PRN / # OF OBS
   G20   902   902   902   902   902   902   902   902   902PRN / # OF OBS
           0     0     0                                    PRN / # OF OBS
   G30   902   902   902   902   902   902   902   902   902PRN / # OF OBS
         902   902   902                                    PRN / # OF OBS
   R05   569   569   569   569   569   569   569   569   569PRN / # OF OBS
         569   569   569                                    PRN / # OF OBS
   R06   902   902   902   902   902   902     0     0     0PRN / # OF OBS
           0     0     0                                    PRN / # OF OBS
   R07   902   902   902   902   902   902   902   902   902PRN / # OF OBS
         902   902   902                                    PRN / # OF OBS
   R09   902   902   902   902   902   902   902   902   902PRN / # OF OBS
         902   902   902                                    PRN / # OF OBS
   R15   902   902   902   902   902   902   902   902   902PRN / # OF OBS
         902   902   902                                    PRN / # OF OBS
   R16   902   902   902   902   902   902   902   902   902PRN / # OF OBS
         902   902   902                                    PRN / # OF OBS
   R21   902   902   902   902   902   902   902   902   902PRN / # OF OBS
         902   902   902                                    PRN / # OF OBS
   R22   902   902   902   902   902   902   902   902   902PRN / # OF OBS
         902   902   902                                    PRN / # OF OBS
G L1C                                                       SYS / PHASE SHIFT
G L1W -0.25000                                              SYS / PHASE SHIFT
G L2W  0.00000                                              SYS / PHASE SHIFT
G L2X  0.25000                                              SYS / PHASE SHIFT
R L1C                                                       SYS / PHASE SHIFT
R L1P -0.25000                                              SYS / PHASE SHIFT
R L2P -0.25000                                              SYS / PHASE SHIFT
R L2C                                                       SYS / PHASE SHIFT
  8 R05  1 R06 -4 R07  5 R09 -2 R15  0 R16 -1 R21  4 R22 -3 GLONASS SLOT / FRQ #
                                                            GLONASS COD/PHS/BIS
               *** Undefined LeapSeconds ***                COMMENT
                                                            END OF HEADER
> 2024 07 31 15 44  7.0000000  0 17
G05  23472864.000   123350734.311 7      5239.018    23472863.200   123350734.316 6      5239.018    23472871.140    96117486.686 6      4082.352    23472871.920    96117488.685 7      4082.352
G30  20960716.580   110149312.320 8      3863.293    20960715.340   110149312.324 8      3863.293    20960727.920    85830677.819 8      3010.358    20960728.420    85830680.818 8      3010.358
G11  20583974.880   108169515.304 7      3598.141    20583973.920   108169515.309 6      3598.141    20583979.980    84287953.668 6      2803.747    20583980.520    84287955.669 8      2803.747
R15  22718651.060   121401581.338 7      2438.607    22718650.820   121401581.344 7      2438.607    22718666.920    94423520.899 7      1896.694    22718666.540    94423519.902 8      1896.694
R06  20495260.000   109366652.713 6      2499.705    20495260.440   109366652.725 6      2499.705
G09  22997132.040   120850742.386 7       -42.546    22997131.420   120850742.388 6       -42.546    22997141.740    94169441.765 6       -33.153    22997141.520    94169458.771 7       -33.153
R09  23856169.160   127390612.432 6      6385.938    23856168.880   127390612.428 6      6385.938    23856189.180    99081666.230 6      4966.840    23856189.100    99081670.233 6      4966.840
R07  22236200.020   119032117.346 7      4236.319    22236200.200   119032117.372 7      4236.319    22236215.740    92580604.717 7      3294.914    22236216.340    92580607.728 7      3294.914
R05  22756882.480   121648569.520 7       466.420    22756882.320   121648569.518 7       466.420    22756897.500    94615621.880 7       362.771    22756897.460    94615621.876 7       362.771
G07  21764911.200   114375392.636 7      1748.687    21764910.160   114375392.644 7      1748.687    21764918.160    89123692.307 7      1362.614    21764918.780    89123704.311 7      1362.614
R16  22041711.400   117742864.949 7      5377.934    22041708.640   117742864.956 7      5377.934    22041732.540    91577878.490 7      4182.837    22041733.260    91577878.497 7      4182.837
G19  24337412.480   127893970.772 6      -429.293    24337410.120   127893970.782 4      -429.293    24337425.680    99657662.594 4      -334.514
R22  22392040.640   119530240.592 7      6077.759    22392040.740   119530240.595 7      6077.759    22392052.940    92968005.716 7      4727.146    22392052.740    92968009.713 7      4727.146
G20  21539512.120   113190899.491 7      4788.430    21539510.820   113190899.496 6      4788.430    21539515.840    88200720.549 6      3731.244
G13  22251581.160   116932854.773 7      5166.339    22251580.040   116932854.780 5      5166.339    22251593.320    91116554.754 5      4025.718
G06  20743983.960   109010362.302 8       709.766    20743983.540   109010362.304 8       709.766    20743996.200    84943187.552 8       553.064    20743996.920    84943189.554 8       553.064
R21  19652123.920   105162479.612 8      2467.779    19652124.260   105162479.621 8      2467.779    19652136.960    81793090.951 8      1919.384    19652136.800    81793089.951 8      1919.384
> 2024 07 31 15 44  8.0000000  0 17
G05  23471866.960   123345495.359 7      5238.983    23471866.320   123345495.367 6      5238.983    23471874.240    96113404.392 6      4082.325    23471875.220    96113406.392 7      4082.325
G30  20959981.420   110145449.485 8      3862.664    20959980.280   110145449.490 8      3862.664    20959992.820    85827667.822 8      3009.868    20959993.280    85827670.824 8      3009.868
G11  20583290.000   108165917.546 7      3597.438    20583289.320   108165917.551 6      3597.438    20583295.320    84285150.219 6      2803.198    20583295.840    84285152.222 8      2803.198
R15  22718194.800   121399143.225 7      2437.836    22718194.440   121399143.229 7      2437.836    22718210.580    94421624.593 7      1896.094    22718210.220    94421623.594 8      1896.094
R06  20494792.420   109364153.460 6      2499.231    20494792.300   109364153.482 6      2499.231
G09  22997140.080   120850785.088 7       -42.609    22997139.520   120850785.090 6       -42.609    22997149.820    94169475.038 6       -33.202    22997149.940    94169492.042 7       -33.202
R09  23854972.840   127384226.460 6      6386.100    23854972.840   127384226.472 6      6386.100    23854993.320    99076699.371 6      4966.967    23854993.420    99076703.380 6      4966.967
R07  22235408.640   119027881.016 7      4236.313    22235408.720   119027881.044 7      4236.313    22235424.360    92577309.798 7      3294.910    22235424.960    92577312.813 7      3294.910
R05  22756795.040   121648103.158 7       466.477    22756794.860   121648103.157 7       466.477    22756810.100    94615259.148 7       362.815    22756810.200    94615259.149 7       362.815
G07  21764578.600   114373644.362 7      1748.075    21764577.500   114373644.362 7      1748.075    21764585.620    89122330.011 7      1362.136    21764585.840    89122342.014 7      1362.136
R16  22040704.580   117737487.349 7      5377.449    22040702.080   117737487.358 7      5377.449    22040725.800    91573695.924 7      4182.460    22040726.420    91573695.929 7      4182.460
G19  24337493.780   127894399.982 6      -428.949    24337491.900   127894399.990 4      -428.949    24337507.200    99657997.040 4      -334.246
R22  22390902.100   119524163.119 7      6077.384    22390901.980   119524163.117 7      6077.384    22390914.140    92963278.793 7      4726.854    22390913.940    92963282.794 7      4726.854
G20  21538601.000   113186111.239 7      4788.207    21538599.660   113186111.247 6      4788.207    21538604.460    88196989.446 6      3731.070
G13  22250598.340   116927688.805 7      5165.939    22250596.960   116927688.812 5      5165.939    22250610.220    91112529.335 5      4025.407
G06  20743848.920   109009652.904 8       709.228    20743848.560   109009652.906 8       709.228    20743861.180    84942634.766 8       552.645    20743861.740    84942636.770 8       552.645
R21  19651662.840   105160012.395 7      2466.933    19651663.140   105160012.404 7      2466.933    19651675.840    81791171.998 8      1918.726    19651675.600    81791170.996 8      1918.726
> 2024 07 31 15 44  9.0000000  0 17
G05  23470869.920   123340256.640 7      5238.648    23470869.340   123340256.651 6      5238.648    23470877.360    96109322.278 6      4082.063    23470877.820    96109324.274 7      4082.063
G30  20959246.560   110141587.438 8      3861.764    20959245.320   110141587.438 8      3861.764    20959257.860    85824658.437 8      3009.167    20959258.500    85824661.439 8      3009.167
G11  20582605.760   108162320.614 7      3596.618    20582604.820   108162320.619 6      3596.618    20582610.800    84282347.414 6      2802.559    20582611.440    84282349.415 8      2802.559
R15  22717738.500   121396706.139 7      2436.585    22717738.200   121396706.145 7      2436.585    22717754.460    94419729.088 7      1895.122    22717754.140    94419728.089 8      1895.122
R06  20494324.100   109361654.559 6      2498.823    20494324.160   109361654.570 6      2498.823
G09  22997148.560   120850828.027 7       -42.980    22997147.720   120850828.029 7       -42.980    22997158.080    94169508.496 7       -33.491    22997158.480    94169525.502 7       -33.491
R09  23853777.320   127377840.511 6      6385.965    23853777.080   127377840.531 6      6385.965    23853797.280    99071732.529 6      4966.862    23853797.720    99071736.537 6      4966.862
R07  22234617.420   119023645.139 7      4235.900    22234617.340   119023645.154 6      4235.900    22234633.060    92574015.223 7      3294.589    22234633.300    92574018.237 7      3294.589
R05  22756707.460   121647636.918 7       466.234    22756707.540   121647636.924 7       466.234    22756723.320    94614896.525 7       362.626    22756723.480    94614896.523 7       362.626
G07  21764245.860   114371896.845 7      1747.144    21764244.900   114371896.847 7      1747.144    21764253.060    89120968.312 7      1361.411    21764253.140    89120980.310 7      1361.411
R16  22039698.600   117732110.406 7      5376.691    22039695.580   117732110.410 7      5376.691    22039719.080    91569513.860 7      4181.871    22039719.860    91569513.869 7      4181.871
G19  24337575.340   127894829.321 6      -429.401    24337573.460   127894829.329 4      -429.401    24337589.040    99658331.587 4      -334.598
R22  22389764.020   119518086.428 7      6076.334    22389763.480   119518086.426 7      6076.334    22389775.480    92958552.482 7      4726.037    22389775.800    92958556.485 7      4726.037
G20  21537689.680   113181323.303 7      4787.857    21537688.500   113181323.308 6      4787.857    21537693.620    88193258.591 6      3730.798
G13  22249615.160   116922523.423 7      5165.216    22249614.020   116922523.428 5      5165.216    22249627.240    91108504.370 5      4024.843
G06  20743714.240   109008944.294 8       708.248    20743713.700   109008944.291 8       708.248    20743726.380    84942082.590 8       551.882    20743727.020    84942084.595 8       551.882
R21  19651202.020   105157546.360 8      2465.586    19651202.420   105157546.375 7      2465.586    19651214.960    81789253.973 8      1917.678    19651214.560    81789252.971 8      1917.678
> 2024 07 31 15 44 10.0000000  0 17
G05  23469873.000   123335017.909 7      5238.679    23469872.440   123335017.919 6      5238.679    23469880.600    96105240.149 6      4082.087    23469881.180    96105242.145 7      4082.087
G30  20958511.600   110137725.960 7      3861.124    20958510.460   110137725.967 8      3861.124    20958522.980    85821649.501 8      3008.668    20958523.660    85821652.502 8      3008.668
G11  20581921.480   108158724.330 7      3595.837    20581920.520   108158724.335 6      3595.837    20581926.520    84279545.114 6      2801.951    20581926.900    84279547.114 8      2801.951
R15  22717282.820   121394269.808 7      2435.912    22717282.020   121394269.804 7      2435.912    22717298.460    94417834.162 7      1894.598    22717298.380    94417833.163 7      1894.598
R06  20493855.440   109359155.818 6      2498.602    20493854.860   109359155.818 6      2498.602
G09  22997156.540   120850870.995 7       -42.974    22997155.940   120850871.002 7       -42.974    22997166.360    94169541.980 7       -33.486    22997166.460    94169558.982 7       -33.486
R09  23852580.940   127371454.395 6      6386.146    23852581.300   127371454.398 6      6386.146    23852601.600    99066765.534 6      4967.003    23852601.580    99066769.541 6      4967.003
R07  22233826.020   119019409.451 7      4235.536    22233825.900   119019409.472 6      4235.536    22233841.580    92570720.809 7      3294.306    22233841.860    92570723.816 7      3294.306
R05  22756620.260   121647170.599 7       466.287    22756620.540   121647170.614 7       466.287    22756636.080    94614533.835 7       362.668    22756635.660    94614533.829 7       362.668
G07  21763913.400   114370149.853 7      1746.697    21763912.480   114370149.858 7      1746.697    21763920.620    89119607.021 7      1361.063    21763920.780    89119619.024 7      1361.063
R16  22038691.400   117726733.923 7      5376.118    22038688.860   117726733.937 7      5376.118    22038712.680    91565332.169 7      4181.425    22038713.320    91565332.174 7      4181.425
G19  24337657.400   127895258.440 6      -429.007    24337655.080   127895258.450 4      -429.007    24337670.540    99658665.963 4      -334.291
R22  22388625.480   119512010.249 7      6075.904    22388625.560   119512010.239 7      6075.904    22388636.760    92953826.559 7      4725.703    22388636.900    92953830.558 7      4725.703
G20  21536778.440   113176535.508 7      4787.620    21536777.480   113176535.513 6      4787.620    21536782.460    88189527.842 6      3730.613
G13  22248632.140   116917358.388 7      5164.836    22248631.140   116917358.393 5      5164.836    22248644.300    91104479.680 5      4024.547
G06  20743579.420   109008236.212 7       707.730    20743578.880   109008236.219 8       707.730    20743591.600    84941530.836 8       551.478    20743592.580    84941532.836 8       551.478
R21  19650741.380   105155081.299 8      2464.507    19650741.760   105155081.314 8      2464.507    19650754.200    81787336.698 8      1916.839    19650754.360    81787335.697 8      1916.839
> 2024 07 31 15 44 11.0000000  0 17
G05  23468875.960   123329779.266 7      5238.455    23468875.500   123329779.271 6      5238.455    23468883.740    96101158.096 6      4081.913    23468884.400    96101160.091 7      4081.913
G30  20957776.900   110133865.153 7      3860.313    20957775.720   110133865.156 8      3860.313    20957788.380    85818641.084 8      3008.036    20957789.000    85818644.086 8      3008.036
G11  20581237.240   108155128.743 7      3595.086    20581236.120   108155128.748 6      3595.086    20581242.360    84276743.355 6      2801.366    20581242.700    84276745.358 8      2801.366
R15  22716826.800   121391834.344 7      2434.884    22716826.060   121391834.337 7      2434.884    22716842.800    94415939.920 7      1893.799    22716842.720    94415938.921 8      1893.799
R06  20493386.720   109356657.303 6      2498.280    20493386.900   109356657.304 6      2498.280
G09  22997165.200   120850914.091 7       -43.304    22997164.020   120850914.099 7       -43.304    22997174.540    94169575.560 7       -33.744    22997174.700    94169592.568 7       -33.744
R09  23851385.400   127365068.211 6      6386.025    23851385.560   127365068.215 6      6386.025    23851405.620    99061798.505 6      4966.908    23851405.660    99061802.518 6      4966.908
R07  22233035.000   119015174.050 7      4235.047    22233034.580   119015174.081 7      4235.047    22233050.380    92567426.621 7      3293.925    22233050.600    92567429.627 7      3293.925
R05  22756533.340   121646704.297 7       466.179    22756533.440   121646704.298 7       466.179    22756548.900    94614171.143 7       362.584    22756548.660    94614171.137 7       362.584
G07  21763581.180   114368403.520 8      1745.825    21763580.040   114368403.520 7      1745.825    21763588.260    89118246.243 7      1360.383    21763588.840    89118258.245 7      1360.383
R16  22037684.720   117721358.005 7      5375.473    22037682.440   117721358.012 7      5375.473    22037706.360    91561150.908 7      4180.924    22037706.760    91561150.911 7      4180.924
G19  24337738.880   127895687.574 6      -429.169    24337736.660   127895687.592 4      -429.169    24337752.300    99659000.358 4      -334.417
R22  22387487.400   119505934.711 7      6074.987    22387487.240   119505934.704 7      6074.987    22387498.680    92949101.153 7      4724.990    22387499.000    92949105.152 7      4724.990
G20  21535867.480   113171747.908 7      4787.409    21535866.400   113171747.908 6      4787.409    21535871.280    88185797.242 6      3730.448
G13  22247649.500   116912193.823 7      5164.183    22247648.360   116912193.831 5      5164.183    22247661.700    91100455.356 5      4024.039
G06  20743444.740   109007528.802 8       706.967    20743444.300   109007528.805 8       706.967    20743457.100    84940979.598 8       550.883    20743457.900    84940981.600 8       550.883
R21  19650280.940   105152617.304 8      2463.268    19650281.160   105152617.321 8      2463.268    19650293.900    81785420.257 8      1915.875    19650293.520    81785419.256 8      1915.875
> 2024 07 31 15 44 12.0000000  0 17
G05  23467879.120   123324540.860 7      5238.599    23467878.760   123324540.868 6      5238.599    23467886.920    96097076.225 6      4082.025    23467887.960    96097078.232 7      4082.025
G30  20957042.300   110130005.162 8      3859.863    20957041.300   110130005.166 8      3859.863    20957053.840    85815633.301 8      3007.686    20957054.640    85815636.302 8      3007.686
G11  20580553.340   108151534.052 7      3594.448    20580552.300   108151534.059 6      3594.448    20580558.260    84273942.297 6      2800.869    20580558.460    84273944.296 8      2800.869
R15  22716371.340   121389399.884 7      2434.213    22716370.740   121389399.882 7      2434.213    22716387.240    94414046.464 7      1893.277    22716386.880    94414045.465 7      1893.277
R06  20492918.640   109354159.205 6      2498.275    20492918.400   109354159.195 6      2498.275
G09  22997173.060   120850957.477 7       -43.277    22997172.320   120850957.477 6       -43.277    22997182.860    94169609.362 6       -33.722    22997183.080    94169626.368 7       -33.722
R09  23850189.340   127358682.094 6      6386.233    23850189.460   127358682.098 6      6386.233    23850210.000    99056831.527 6      4967.070    23850209.680    99056835.532 6      4967.070
R07  22232243.520   119010939.093 7      4234.921    22232243.260   119010939.119 7      4234.921    22232259.400    92564132.766 7      3293.827    22232259.500    92564135.772 7      3293.827
R05  22756445.980   121646238.182 7       466.286    22756446.240   121646238.175 7       466.286    22756461.720    94613808.600 7       362.667    22756461.360    94613808.597 7       362.667
G07  21763248.860   114366657.958 7      1745.408    21763248.020   114366657.963 7      1745.408    21763256.100    89116886.068 7      1360.058    21763256.600    89116898.071 7      1360.058
R16  22036678.520   117715982.822 7      5375.005    22036676.360   117715982.829 7      5375.005    22036700.020    91556970.217 7      4180.560    22036700.460    91556970.221 7      4180.560
G19  24337820.400   127896116.829 6      -428.953    24337818.320   127896116.839 4      -428.953    24337833.860    99659334.840 4      -334.249
R22  22386349.640   119499859.942 7      6074.618    22386349.140   119499859.932 7      6074.618    22386360.400    92944376.332 7      4724.703    22386360.880    92944380.333 7      4724.703
G20  21534956.560   113166960.702 7      4787.285    21534955.380   113166960.702 6      4787.285    21534960.200    88182066.954 6      3730.352
G13  22246666.820   116907029.863 7      5163.931    22246665.640   116907029.873 5      5163.931    22246678.980    91096431.501 5      4023.842
G06  20743310.260   109006822.210 8       706.392    20743309.760   109006822.210 8       706.392    20743322.640    84940428.996 8       550.435    20743323.360    84940430.997 8       550.435
R21  19649820.680   105150154.501 8      2462.405    19649820.800   105150154.527 8      2462.405    19649833.560    81783504.746 8      1915.204    19649833.300    81783503.745 8      1915.204
> 2024 07 31 15 44 13.0000000  0 17
G05  23466882.160   123319302.436 7      5238.397    23466882.080   123319302.444 6      5238.397    23466890.240    96092994.343 6      4081.868    23466890.840    96092996.347 7      4081.868
G30  20956307.940   110126145.719 8      3859.146    20956306.860   110126145.721 8      3859.146    20956319.360    85812625.947 8      3007.127    20956320.060    85812628.951 8      3007.127
G11  20579869.160   108147939.949 7      3593.688    20579868.280   108147939.957 6      3593.688    20579874.320    84271141.698 6      2800.276    20579874.800    84271143.696 8      2800.276
R15  22715915.780   121386966.201 7      2433.232    22715915.660   121386966.202 7      2433.232    22715931.620    94412153.604 7      1892.514    22715932.140    94412152.603 7      1892.514
R06  20492450.900   109351661.219 6      2498.034    20492450.020   109351661.223 6      2498.034
G09  22997181.240   120851000.847 7       -43.410    22997180.580   120851000.849 7       -43.410    22997191.120    94169643.157 7       -33.826    22997191.040    94169660.161 7       -33.826
R09  23848993.240   127352295.743 6      6386.289    23848993.340   127352295.757 6      6386.289    23849014.220    99051864.375 6      4967.113    23849013.960    99051868.378 6      4967.113
R07  22231452.080   119006704.313 7      4234.568    22231451.840   119006704.342 7      4234.568    22231468.260    92560839.061 7      3293.553    22231469.000    92560842.067 7      3293.553
R05  22756358.720   121645771.922 7       466.287    22756358.660   121645771.918 7       466.287    22756374.020    94613445.954 7       362.667    22756374.700    94613445.952 7       362.667
G07  21762916.680   114364912.918 7      1744.788    21762915.880   114364912.923 7      1744.788    21762924.120    89115526.297 7      1359.575    21762924.280    89115538.301 8      1359.575
R16  22035672.360   117710608.056 7      5374.452    22035670.240   117710608.055 7      5374.452    22035693.960    91552789.847 7      4180.130    22035694.260    91552789.854 7      4180.130
G19  24337902.520   127896545.874 6      -428.804    24337899.900   127896545.873 4      -428.804    24337915.780    99659669.148 4      -334.133
R22  22385211.360   119493785.698 7      6073.893    22385211.460   119493785.683 7      6073.893    22385222.360    92939651.918 7      4724.139    22385222.980    92939655.920 7      4724.139
G20  21534045.500   113162173.575 7      4787.044    21534044.360   113162173.583 6      4787.044    21534049.400    88178336.733 6      3730.164
G13  22245684.260   116901866.246 7      5163.372    22245683.200   116901866.256 5      5163.372    22245696.360    91092407.914 5      4023.407
G06  20743176.100   109006116.120 7       705.759    20743175.480   109006116.125 8       705.759    20743188.320    84939878.792 8       549.942    20743189.080    84939880.794 8       549.942
R21  19649360.460   105147692.614 8      2461.346    19649360.800   105147692.634 8      2461.346    19649373.560    81781589.936 8      1914.380    19649373.260    81781588.933 8      1914.380
> 2024 07 31 15 44 14.0000000  0 17
G05  23465885.660   123314064.096 7      5238.487    23465885.160   123314064.101 6      5238.487    23465893.380    96088912.521 6      4081.938    23465893.960    96088914.528 7      4081.938
G30  20955573.580   110122286.967 7      3858.528    20955572.480   110122286.970 8      3858.528    20955585.040    85809619.132 8      3006.646    20955585.800    85809622.133 8      3006.646
G11  20579185.540   108144346.587 7      3593.150    20579184.440   108144346.595 6      3593.150    20579190.500    84268341.669 6      2799.858    20579191.080    84268343.670 8      2799.858
R15  22715460.540   121384533.424 7      2432.413    22715460.180   121384533.423 7      2432.413    22715476.600    94410261.448 7      1891.877    22715476.100    94410260.449 7      1891.877
R06  20491982.180   109349163.511 6      2497.700    20491981.640   109349163.528 6      2497.700
G09  22997189.440   120851044.359 7       -43.415    22997188.820   120851044.361 7       -43.415    22997199.320    94169677.058 7       -33.830    22997199.340    94169694.062 7       -33.830
R09  23847797.740   127345909.330 6      6386.520    23847797.960   127345909.347 6      6386.520    23847818.000    99046897.163 6      4967.293    23847817.800    99046901.161 6      4967.293
R07  22230660.660   119002469.860 7      4234.507    22230660.760   119002469.880 7      4234.507    22230677.220    92557545.590 7      3293.505    22230677.720    92557548.595 7      3293.505
R05  22756271.660   121645305.702 7       466.287    22756271.360   121645305.696 7       466.287    22756287.160    94613083.337 7       362.667    22756286.820    94613083.333 7       362.667
G07  21762584.760   114363168.551 7      1744.121    21762583.920   114363168.554 7      1744.121    21762592.180    89114167.050 7      1359.055    21762592.380    89114179.052 7      1359.055
R16  22034666.560   117705233.827 7      5374.064    22034664.260   117705233.833 7      5374.064    22034687.740    91548609.905 7      4179.827    22034688.320    91548609.908 7      4179.827
G19  24337983.980   127896974.884 6      -428.949    24337981.460   127896974.884 4      -428.949    24337997.340    99660003.442 4      -334.246
R22  22384073.940   119487712.090 7      6073.403    22384073.880   119487712.080 7      6073.403    22384084.680    92934928.005 7      4723.758    22384084.680    92934932.000 7      4723.758
G20  21533134.740   113157386.690 7      4786.910    21533133.520   113157386.700 6      4786.910    21533138.480    88174606.695 6      3730.060
G13  22244701.860   116896703.114 7      5163.019    22244700.680   116896703.121 5      5163.019    22244713.800    91088384.706 5      4023.132
G06  20743041.860   109005410.711 7       705.189    20743041.280   109005410.715 8       705.189    20743054.020    84939329.114 8       549.498    20743055.000    84939331.116 8       549.498
R21  19648900.720   105145231.794 8      2460.442    19648901.060   105145231.812 8      2460.442    19648913.800    81779675.957 8      1913.677    19648913.500    81779674.954 8      1913.677
> 2024 07 31 15 44 15.0000000  0 17
G05  23464888.940   123308826.042 7      5237.848    23464888.400   123308826.047 6      5237.848    23464896.600    96084830.923 6      4081.440    23464896.960    96084832.921 7      4081.440
G30  20954839.460   110118429.038 8      3857.463    20954838.300   110118429.041 8      3857.463    20954850.980    85806612.957 8      3005.815    20954851.860    85806615.959 8      3005.815
G11  20578501.820   108140754.124 7      3591.934    20578500.800   108140754.134 6      3591.934    20578506.920    84265542.349 6      2798.910    20578507.440    84265544.350 8      2798.910
R15  22715005.280   121382101.698 7      2431.126    22715005.260   121382101.696 7      2431.126    22715021.600    94408370.111 7      1890.875    22715021.240    94408369.114 7      1890.875
R06  20491514.640   109346666.250 6      2496.876    20491514.080   109346666.251 6      2496.876
G09  22997197.940   120851088.186 7       -44.127    22997197.120   120851088.188 7       -44.127    22997207.720    94169711.207 7       -34.385    22997208.080    94169728.215 7       -34.385
R09  23846601.540   127339523.045 6      6386.054    23846601.620   127339523.062 6      6386.054    23846622.240    99041930.055 6      4966.931    23846621.860    99041934.055 6      4966.931
R07  22229869.540   118998235.872 7      4233.698    22229869.860   118998235.898 7      4233.698    22229886.500    92554252.497 7      3292.877    22229887.220    92554255.503 7      3292.877
R05  22756184.720   121644839.662 7       465.798    22756184.080   121644839.658 7       465.798    22756199.880    94612720.859 7       362.288    22756199.880    94612720.853 7       362.288
G07  21762252.920   114361424.983 7      1743.103    21762252.060   114361424.983 7      1743.103    21762260.360    89112808.424 7      1358.262    21762260.660    89112820.430 7      1358.262
R16  22033660.920   117699860.319 7      5373.049    22033658.540   117699860.320 7      5373.049    22033681.720    91544430.521 7      4179.038    22033682.300    91544430.530 7      4179.038
G19  24338065.500   127897404.042 6      -429.415    24338063.220   127897404.041 4      -429.415    24338079.000    99660337.851 4      -334.609
R22  22382936.380   119481639.296 7      6072.340    22382936.280   119481639.283 7      6072.340    22382947.060    92930204.723 7      4722.931    22382947.300    92930208.718 7      4722.931
G20  21532224.060   113152600.207 7      4786.218    21532222.580   113152600.211 6      4786.218    21532227.660    88170876.967 6      3729.521
G13  22243719.220   116891540.611 7      5162.123    22243718.280   116891540.616 5      5162.123    22243731.420    91084361.985 5      4022.433
G06  20742907.640   109004706.129 8       704.145    20742907.080   109004706.131 8       704.145    20742919.980    84938780.076 8       548.684    20742920.940    84938782.077 8       548.684
R21  19648441.280   105142772.197 8      2458.907    19648441.320   105142772.212 8      2458.907    19648454.120    81777762.931 8      1912.483    19648453.600    81777761.926 8      1912.483
> 2024 07 31 15 44 16.0000000  0 17
G05  23463892.300   123303587.923 7      5238.297    23463891.780   123303587.925 6      5238.297    23463899.840    96080749.275 6      4081.790    23463900.520    96080751.274 7      4081.790
G30  20954105.380   110114571.653 8      3857.291    20954104.220   110114571.661 8      3857.291    20954116.880    85803607.209 8      3005.682    20954117.740    85803610.208 8      3005.682
G11  20577818.080   108137162.266 7      3591.706    20577817.300   108137162.273 6      3591.706    20577823.440    84262743.498 6      2798.732    20577823.780    84262745.495 8      2798.732
R15  22714550.300   121379670.743 7      2430.672    22714550.180   121379670.747 7      2430.672    22714566.620    94406479.383 7      1890.523    22714566.380    94406478.387 7      1890.523
R06  20491046.660   109344169.030 6      2497.420    20491046.440   109344169.039 6      2497.420
G09  22997206.180   120851131.991 7       -43.606    22997205.480   120851131.994 7       -43.606    22997216.240    94169745.340 7       -33.979    22997216.400    94169762.344 7       -33.979
R09  23845405.520   127333136.544 6      6386.765    23845405.720   127333136.539 6      6386.765    23845425.900    99036962.755 6      4967.484    23845426.140    99036966.758 6      4967.484
R07  22229079.120   118994002.085 7      4233.871    22229079.060   118994002.105 7      4233.871    22229095.460    92550959.554 7      3293.011    22229096.040    92550962.560 7      3293.011
R05  22756097.400   121644373.499 7       466.306    22756096.660   121644373.508 7       466.306    22756112.660    94612358.295 7       362.682    22756112.720    94612358.294 7       362.682
G07  21761921.140   114359681.935 7      1742.918    21761920.520   114359681.932 7      1742.918    21761928.620    89111450.209 7      1358.118    21761928.880    89111462.211 7      1358.118
R16  22032655.080   117694487.214 7      5373.064    22032652.280   117694487.228 7      5373.064    22032676.020    91540251.458 7      4179.049    22032676.480    91540251.471 7      4179.049
G19  24338147.360   127897833.005 6      -428.769    24338144.840   127897833.007 4      -428.769    24338160.520    99660672.112 4      -334.106
R22  22381798.520   119475567.033 7      6072.165    22381798.880   119475567.015 7      6072.165    22381809.600    92925481.845 7      4722.795    22381809.740    92925485.840 7      4722.795
G20  21531313.180   113147813.805 7      4786.558    21531311.740   113147813.807 6      4786.558    21531316.820    88167147.303 6      3729.786
G13  22242736.820   116886378.451 7      5162.112    22242736.000   116886378.456 5      5162.112    22242749.020    91080339.528 5      4022.425
G06  20742773.780   109004002.080 8       704.009    20742773.100   109004002.077 8       704.009    20742786.060    84938231.459 8       548.578    20742787.120    84938233.457 8       548.578
R21  19647982.020   105140313.499 8      2458.387    19647981.980   105140313.516 8      2458.387    19647994.520    81775850.612 8      1912.079    19647994.120    81775849.609 8      1912.079
> 2024 07 31 15 44 17.0000000  0 17
G05  23462895.420   123298349.790 7      5238.203    23462894.960   123298349.790 6      5238.203    23462903.120    96076667.618 6      4081.717    23462903.640    96076669.618 7      4081.717
G30  20953371.580   110110714.838 8      3856.510    20953370.380   110110714.846 8      3856.510    20953382.980    85800601.904 8      3005.072    20953383.760    85800604.904 8      3005.072
G11  20577134.960   108133571.029 7      3590.850    20577133.940   108133571.032 6      3590.850    20577140.080    84259945.125 6      2798.065    20577140.680    84259947.125 8      2798.065
R15  22714095.820   121377240.561 7      2429.764    22714095.420   121377240.559 7      2429.764    22714111.900    94404589.242 7      1889.816    22714111.780    94404588.245 8      1889.816
R06  20490578.760   109341671.994 6      2497.043    20490578.520   109341672.003 6      2497.043
G09  22997214.480   120851175.829 7       -43.867    22997213.840   120851175.831 7       -43.867    22997224.640    94169779.497 7       -34.182    22997225.260    94169796.507 7       -34.182
R09  23844209.260   127326749.866 6      6386.784    23844210.060   127326749.867 6      6386.784    23844229.800    99031995.352 6      4967.499    23844230.320    99031999.344 6      4967.499
R07  22228288.040   118989768.504 7      4233.470    22228287.680   118989768.532 7      4233.470    22228304.600    92547666.779 7      3292.699    22228305.380    92547669.793 7      3292.699
R05  22756010.320   121643907.279 7       466.250    22756009.740   121643907.286 7       466.250    22756025.460    94611995.676 7       362.639    22756025.300    94611995.672 7       362.639
G07  21761589.740   114357939.413 7      1742.247    21761588.880   114357939.412 7      1742.247    21761597.100    89110092.401 7      1357.595    21761597.420    89110104.405 8      1357.595
R16  22031649.740   117689114.603 7      5372.393    22031646.760   117689114.615 7      5372.393    22031670.100    91536072.769 7      4178.528    22031670.780    91536072.778 7      4178.528
G19  24338229.180   127898261.821 6      -428.782    24338226.420   127898261.829 4      -428.782    24338242.240    99661006.256 4      -334.116
R22  22380661.340   119469495.277 7      6071.464    22380661.840   119469495.261 7      6071.464    22380672.500    92920759.375 7      4722.250    22380672.280    92920763.367 7      4722.250
G20  21530402.100   113143027.526 7      4786.191    21530401.120   113143027.534 6      4786.191    21530406.200    88163417.742 6      3729.499
G13  22241755.020   116881216.640 7      5161.526    22241753.580   116881216.645 5      5161.526    22241767.020    91076317.348 5      4021.968
G06  20742639.920   109003298.578 7       703.252    20742639.260   109003298.577 8       703.252    20742652.120    84937683.269 8       547.989    20742652.960    84937685.268 8       547.989
R21  19647522.880   105137855.737 7      2457.288    19647522.740   105137855.758 8      2457.288    19647535.400    81773939.016 8      1911.224    19647535.000    81773938.009 8      1911.224
> 2024 07 31 15 44 18.0000000  0 17
G05  23461898.560   123293111.444 7      5238.356    23461898.120   123293111.444 6      5238.356    23461906.220    96072585.794 6      4081.836    23461906.820    96072587.801 7      4081.836
G30  20952637.520   110106858.388 8      3856.053    20952636.460   110106858.393 8      3856.053    20952649.160    85797596.880 8      3004.717    20952649.900    85797599.882 8      3004.717
G11  20576451.680   108129980.193 7      3590.449    20576450.700   108129980.192 6      3590.449    20576456.720    84257147.070 6      2797.752    20576457.300    84257149.071 8      2797.752
R15  22713641.000   121374810.918 7      2429.265    22713640.880   121374810.909 7      2429.265    22713657.160    94402699.522 8      1889.429    22713656.800    94402698.518 8      1889.429
R06  20490110.640   109339174.939 6      2496.815    20490110.780   109339174.932 6      2496.815
G09  22997223.020   120851219.483 7       -43.682    22997222.060   120851219.485 7       -43.682    22997232.780    94169813.514 7       -34.038    22997233.580    94169830.514 7       -34.038
R09  23843013.100   127320362.828 6      6387.183    23843013.660   127320362.821 6      6387.183    23843033.660    99027027.645 6      4967.809    23843034.280    99027031.646 6      4967.809
R07  22227497.540   118985534.923 7      4233.541    22227497.260   118985534.941 7      4233.541    22227513.780    92544373.987 7      3292.754    22227514.520    92544377.004 7      3292.754
R05  22755922.800   121643440.760 7       466.545    22755922.180   121643440.764 7       466.545    22755938.380    94611632.828 7       362.868    22755938.160    94611632.824 7       362.868
G07  21761258.220   114356197.227 7      1741.830    21761257.320   114356197.229 7      1741.830    21761265.520    89108734.855 7      1357.270    21761266.200    89108746.859 7      1357.270
R16  22030643.460   117683742.225 7      5372.135    22030641.000   117683742.236 7      5372.135    22030664.500    91531894.265 7      4178.327    22030665.000    91531894.274 7      4178.327
G19  24338310.380   127898690.288 6      -428.374    24338308.000   127898690.295 4      -428.374    24338323.820    99661340.131 4      -333.798
R22  22379523.780   119463423.819 7      6071.161    22379524.840   119463423.812 7      6071.161    22379535.100    92916037.136 7      4722.014    22379535.140    92916041.127 7      4722.014
G20  21529491.500   113138241.159 7      4786.265    21529490.220   113138241.166 6      4786.265    21529495.240    88159688.105 6      3729.557
G13  22240772.740   116876054.991 7      5161.324    22240771.300   116876054.999 5      5161.324    22240784.720    91072295.282 5      4021.811
G06  20742506.140   109002595.422 7       702.832    20742505.400   109002595.425 8       702.832    20742518.420    84937135.350 8       547.661    20742519.200    84937137.349 8       547.661
R21  19647063.380   105135398.754 8      2456.456    19647063.760   105135398.769 7      2456.456    19647076.200    81772028.023 8      1910.577    19647075.840    81772027.020 8      1910.577
> 2024 07 31 15 44 19.0000000  0 17
G05  23460901.680   123287873.259 7      5238.144    23460901.440   123287873.256 6      5238.144    23460909.540    96068504.093 6      4081.671    23460909.720    96068506.100 7      4081.671
G30  20951903.880   110103002.666 8      3855.349    20951902.700   110103002.671 8      3855.349    20951915.280    85794592.426 8      3004.168    20951916.100    85794595.428 8      3004.168
G11  20575768.340   108126390.147 7      3589.693    20575767.520   108126390.152 6      3589.693    20575773.580    84254349.632 6      2797.164    20575774.120    84254351.632 8      2797.164
R15  22713186.260   121372382.261 7      2428.216    22713186.200   121372382.254 7      2428.216    22713202.700    94400810.577 7      1888.613    22713202.360    94400809.576 7      1888.613
R06  20489643.140   109336678.154 6      2496.677    20489643.360   109336678.160 6      2496.677
G09  22997231.240   120851263.328 7       -43.910    22997230.400   120851263.333 7       -43.910    22997241.140    94169847.680 7       -34.216    22997241.580    94169864.682 7       -34.216
R09  23841816.980   127313975.780 6      6387.117    23841817.700   127313975.783 6      6387.117    23841837.540    99022059.953 6      4967.758    23841838.140    99022063.945 6      4967.758
R07  22226707.040   118981301.690 7      4233.145    22226705.860   118981301.710 6      4233.145    22226723.160    92541081.485 7      3292.446    22226723.680    92541084.498 7      3292.446
R05  22755835.800   121642974.364 7       466.349    22755835.180   121642974.363 7       466.349    22755851.160    94611270.069 7       362.716    22755851.000    94611270.060 7       362.716
G07  21760926.720   114354455.721 8      1741.258    21760925.880   114354455.728 7      1741.258    21760934.040    89107377.846 7      1356.825    21760934.660    89107389.848 7      1356.825
R16  22029637.760   117678370.471 7      5371.469    22029635.220   117678370.478 7      5371.469    22029658.720    91527716.243 7      4177.809    22029659.340    91527716.250 7      4177.809
G19  24338392.380   127899118.786 6      -428.390    24338389.560   127899118.791 4      -428.390    24338405.300    99661674.023 4      -333.810
R22  22378386.540   119457353.080 7      6070.516    22378387.600   119457353.071 7      6070.516    22378398.000    92911315.450 7      4721.512    22378397.880    92911319.441 7      4721.512
G20  21528580.800   113133455.082 7      4785.966    21528579.520   113133455.095 6      4785.966    21528584.460    88155958.699 6      3729.324
G13  22239790.340   116870893.845 7      5160.898    22239789.120   116870893.855 5      5160.898    22239802.560    91068273.630 5      4021.479
G06  20742372.520   109001892.987 8       702.096    20742371.700   109001892.989 8       702.096    20742384.740    84936587.990 8       547.088    20742385.460    84936589.988 8       547.088
R21  19646604.360   105132942.916 8      2455.348    19646604.680   105132942.929 7      2455.348    19646617.340    81770117.918 8      1909.715    19646617.180    81770116.913 8      1909.715
> 2024 07 31 15 44 20.0000000  0 17
G05  23459904.820   123282635.161 7      5238.045    23459904.800   123282635.166 6      5238.045    23459912.760    96064422.468 6      4081.594    23459912.940    96064424.471 7      4081.594
G30  20951170.300   110099147.625 7      3854.610    20951169.120   110099147.630 8      3854.610    20951181.760    85791588.502 8      3003.592    20951182.380    85791591.503 8      3003.592
G11  20575085.220   108122800.840 7      3588.887    20575084.500   108122800.844 6      3588.887    20575090.440    84251552.769 6      2796.535    20575091.200    84251554.773 8      2796.535
R15  22712731.780   121369954.518 7      2427.224    22712732.020   121369954.528 7      2427.224    22712748.160    94398922.349 7      1887.841    22712747.980    94398921.350 8      1887.841
R06  20489175.280   109334181.670 6      2496.228    20489175.200   109334181.684 6      2496.228
G09  22997239.880   120851307.302 7       -44.107    22997238.720   120851307.307 7       -44.107    22997249.560    94169881.943 7       -34.369    22997249.980    94169898.947 7       -34.369
R09  23840620.560   127307588.670 6      6387.063    23840621.660   127307588.674 6      6387.063    23840641.820    99017092.197 6      4967.715    23840641.940    99017096.189 6      4967.715
R07  22225916.400   118977068.754 7      4232.732    22225915.500   118977068.766 6      4232.732    22225932.100    92537789.196 7      3292.125    22225932.960    92537792.210 7      3292.125
R05  22755748.680   121642507.979 7       466.279    22755747.740   121642507.978 7       466.279    22755764.000    94610907.321 7       362.661    22755763.700    94610907.316 7       362.661
G07  21760595.660   114352714.904 8      1740.443    21760594.660   114352714.909 7      1740.443    21760602.880    89106021.365 7      1356.189    21760603.480    89106033.365 7      1356.189
R16  22028632.260   117672999.257 7      5370.850    22028629.640   117672999.269 7      5370.850    22028653.420    91523538.644 7      4177.328    22028653.780    91523538.651 7      4177.328
G19  24338473.600   127899547.232 6      -428.280    24338471.260   127899547.234 4      -428.280    24338486.900    99662007.871 4      -333.725
R22  22377249.880   119451282.990 7      6069.767    22377250.800   119451282.983 7      6069.767    22377261.220    92906594.271 7      4720.930    22377260.840    92906598.264 7      4720.930
G20  21527670.100   113128669.235 7      4785.716    21527668.860   113128669.242 6      4785.716    21527673.820    88152229.467 6      3729.129
G13  22238808.440   116865733.182 7      5160.399    22238806.940   116865733.187 5      5160.399    22238820.420    91064252.343 5      4021.090
G06  20742238.860   109001191.209 7       701.370    20742238.220   109001191.216 8       701.370    20742251.200    84936041.147 8       546.522    20742251.980    84936043.146 8       546.522
R21  19646145.760   105130488.114 8      2454.302    19646146.100   105130488.126 7      2454.302    19646158.520    81768208.623 8      1908.901    19646158.280    81768207.623 8      1908.901
> 2024 07 31 15 44 21.0000000  0 17
G05  23458908.360   123277397.178 7      5237.956    23458908.040   123277397.177 6      5237.956    23458915.960    96060340.921 6      4081.524    23458916.380    96060342.928 7      4081.524
G30  20950436.980   110095293.264 7      3854.031    20950435.660   110095293.266 8      3854.031    20950448.280    85788585.105 8      3003.141    20950448.900    85788588.105 8      3003.141
G11  20574402.560   108119212.276 7      3588.201    20574401.740   108119212.281 6      3588.201    20574407.540    84248756.483 6      2796.001    20574408.260    84248758.486 8      2796.001
R15  22712277.960   121367527.668 7      2426.453    22712277.620   121367527.664 7      2426.453    22712294.240    94397034.796 7      1887.241    22712293.980    94397033.795 7      1887.241
R06  20488707.580   109331685.429 6      2496.305    20488708.240   109331685.438 6      2496.305
G09  22997248.140   120851351.413 7       -44.052    22997247.060   120851351.418 7       -44.052    22997257.940    94169916.313 7       -34.326    22997258.460    94169933.317 7       -34.326
R09  23839424.660   127301201.475 6      6387.146    23839425.580   127301201.486 6      6387.146    23839445.680    99012124.385 6      4967.780    23839445.900    99012128.379 6      4967.780
R07  22225125.480   118972836.110 7      4232.502    22225125.060   118972836.119 7      4232.502    22225141.440    92534497.145 7      3291.946    22225142.080    92534500.162 7      3291.946
R05  22755661.240   121642041.618 7       466.357    22755660.480   121642041.627 7       466.357    22755676.500    94610544.602 7       362.722    22755676.680    94610544.594 7       362.722
G07  21760264.320   114350974.709 7      1739.966    21760263.560   114350974.714 7      1739.966    21760271.820    89104665.369 7      1355.818    21760272.300    89104677.372 7      1355.818
R16  22027626.740   117667628.628 7      5370.321    22027624.080   117667628.640 7      5370.321    22027648.180    91519361.501 7      4176.916    22027648.520    91519361.504 7      4176.916
G19  24338555.240   127899975.680 6      -428.475    24338552.880   127899975.680 4      -428.475    24338568.320    99662341.723 4      -333.877
R22  22376112.240   119445213.556 7      6069.120    22376114.120   119445213.549 7      6069.120    22376124.240    92901873.602 7      4720.427    22376123.940    92901877.591 7      4720.427
G20  21526759.340   113123883.640 7      4785.478    21526757.960   113123883.642 6      4785.478    21526763.160    88148500.430 6      3728.944
G13  22237826.420   116860573.011 7      5159.903    22237825.120   116860573.013 5      5159.903    22237838.460    91060231.438 5      4020.703
G06  20742105.420   109000490.113 8       700.818    20742104.820   109000490.113 8       700.818    20742117.860    84935494.825 8       546.092    20742118.720    84935496.823 8       546.092
R21  19645687.080   105128034.328 8      2453.338    19645687.480   105128034.346 7      2453.338    19645699.980    81766300.123 8      1908.152    19645700.080    81766299.123 8      1908.152
> 2024 07 31 15 44 22.0000000  0 17
G05  23457911.620   123272159.253 7      5238.060    23457911.400   123272159.247 6      5238.060    23457919.300    96056259.421 6      4081.605    23457919.400    96056261.426 7      4081.605
G30  20949703.440   110091439.541 8      3853.571    20949702.280   110091439.546 8      3853.571    20949714.960    85785582.211 8      3002.783    20949715.420    85785585.211 8      3002.783
G11  20573719.680   108115624.408 7      3587.641    20573718.840   108115624.413 6      3587.641    20573724.960    84245960.740 6      2795.564    20573725.380    84245962.743 8      2795.564
R15  22711824.100   121365101.600 7      2425.778    22711824.100   121365101.601 7      2425.778    22711840.160    94395147.863 7      1886.716    22711839.880    94395146.860 8      1886.716
R06  20488240.120   109329189.446 6      2496.089    20488239.140   109329189.442 6      2496.089
G09  22997256.580   120851395.652 7       -44.135    22997255.540   120851395.655 7       -44.135    22997266.280    94169950.781 7       -34.391    22997266.800    94169967.783 7       -34.391
R09  23838228.540   127294814.218 6      6387.306    23838229.140   127294814.213 6      6387.306    23838249.920    99007156.500 6      4967.905    23838249.800    99007160.496 6      4967.905
R07  22224335.100   118968603.746 7      4232.304    22224334.120   118968603.775 7      4232.304    22224350.620    92531205.322 7      3291.792    22224351.320    92531208.336 7      3291.792
R05  22755574.180   121641575.278 7       466.463    22755573.540   121641575.285 7       466.463    22755589.640    94610181.889 7       362.805    22755589.160    94610181.888 7       362.805
G07  21759933.320   114349235.159 7      1739.379    21759932.580   114349235.163 7      1739.379    21759940.840    89103309.877 7      1355.360    21759941.340    89103321.882 7      1355.360
R16  22026621.480   117662258.552 7      5369.831    22026618.940   117662258.551 7      5369.831    22026642.660    91515184.775 7      4176.535    22026643.220    91515184.778 7      4176.535
G19  24338637.040   127900404.015 6      -428.166    24338634.420   127900404.015 4      -428.166    24338649.780    99662675.491 4      -333.636
R22  22374975.500   119439144.723 7      6068.664    22374977.220   119439144.713 7      6068.664    22374987.560    92897153.399 7      4720.072    22374987.140    92897157.391 7      4720.072
G20  21525848.800   113119098.207 7      4785.487    21525847.280   113119098.210 6      4785.487    21525852.500    88144771.523 6      3728.951
G13  22236844.460   116855413.262 7      5159.629    22236843.420   116855413.264 5      5159.629    22236856.560    91056210.867 5      4020.490
G06  20741972.080   108999789.638 8       700.360    20741971.500   108999789.638 8       700.360    20741984.500    84934948.990 8       545.735    20741985.200    84934950.986 8       545.735
R21  19645228.820   105125581.573 8      2452.320    19645229.020   105125581.590 7      2452.320    19645241.640    81764392.425 8      1907.360    19645241.620    81764391.422 8      1907.360
> 2024 07 31 15 44 23.0000000  0 17
G05  23456914.640   123266921.236 7      5238.003    23456914.740   123266921.235 6      5238.003    23456922.460    96052177.856 6      4081.561    23456922.480    96052179.868 7      4081.561
G30  20948970.120   110087586.331 7      3852.839    20948969.060   110087586.336 8      3852.839    20948981.780    85782579.714 8      3002.212    20948982.240    85782582.713 8      3002.212
G11  20573037.160   108112037.098 7      3586.875    20573036.280   108112037.102 6      3586.875    20573042.280    84243165.429 6      2794.968    20573042.680    84243167.434 8      2794.968
R15  22711370.100   121362676.206 7      2424.925    22711370.040   121362676.199 7      2424.925    22711386.240    94393261.445 8      1886.053    22711385.980    94393260.444 8      1886.053
R06  20487773.160   109326693.515 6      2495.729    20487771.600   109326693.521 6      2495.729
G09  22997264.760   120851439.813 7       -44.156    22997263.920   120851439.813 7       -44.156    22997274.700    94169985.188 7       -34.407    22997275.040    94170002.190 7       -34.407
R09  23837032.640   127288426.649 6      6387.549    23837033.180   127288426.644 6      6387.549    23837053.060    99002188.396 6      4968.093    23837054.000    99002192.393 6      4968.093
R07  22223544.360   118964371.528 7      4232.010    22223543.680   118964371.553 7      4232.010    22223560.160    92527913.596 7      3291.564    22223560.500    92527916.606 7      3291.564
R05  22755486.640   121641108.773 7       466.477    22755486.280   121641108.779 7       466.477    22755502.160    94609819.047 7       362.816    22755502.220    94609819.046 7       362.816
G07  21759602.400   114347496.062 7      1738.747    21759601.560   114347496.067 7      1738.747    21759609.840    89101954.738 7      1354.868    21759610.200    89101966.744 8      1354.868
R16  22025616.360   117656888.805 7      5369.391    22025613.500   117656888.811 7      5369.391    22025637.440    91511008.319 7      4176.193    22025638.080    91511008.322 7      4176.193
G19  24338718.240   127900832.167 6      -428.343    24338715.880   127900832.169 4      -428.343    24338731.080    99663009.119 4      -333.774
R22  22373838.860   119433076.324 7      6068.064    22373840.360   119433076.320 7      6068.064    22373850.700    92892433.544 7      4719.605    22373850.400    92892437.536 7      4719.605
G20  21524938.060   113114312.835 7      4785.225    21524936.820   113114312.840 6      4785.225    21524941.880    88141042.664 6      3728.747
G13  22235862.560   116850253.792 7      5159.228    22235861.520   116850253.797 5      5159.228    22235874.740    91052190.515 5      4020.178
G06  20741838.900   108999089.652 8       699.632    20741838.360   108999089.657 8       699.632    20741851.320    84934403.542 8       545.168    20741852.260    84934405.542 8       545.168
R21  19644770.860   105123129.695 8      2451.282    19644770.720   105123129.713 8      2451.282    19644783.480    81762485.404 8      1906.553    19644783.220    81762484.401 8      1906.553
> 2024 07 31 15 44 24.0000000  0 17
G05  23455917.680   123261683.363 7      5237.907    23455917.980   123261683.368 6      5237.907    23455925.600    96048096.409 6      4081.486    23455925.780    96048098.405 7      4081.486
G30  20948237.100   110083733.831 7      3852.207    20948235.940   110083733.836 8      3852.207    20948248.640    85779577.767 8      3001.720    20948249.380    85779580.767 8      3001.720
G11  20572354.720   108108450.536 7      3586.247    20572353.680   108108450.546 6      3586.247    20572359.860    84240370.706 6      2794.479    20572360.040    84240372.712 8      2794.479
R15  22710916.620   121360251.762 7      2424.043    22710916.120   121360251.758 7      2424.043    22710932.420    94391375.775 7      1885.367    22710932.060    94391374.778 8      1885.367
R06  20487305.360   109324197.877 6      2495.692    20487304.460   109324197.864 6      2495.692
G09  22997273.200   120851484.160 7       -44.328    22997272.360   120851484.165 7       -44.328    22997283.260    94170019.747 7       -34.541    22997283.720    94170036.749 7       -34.541
R09  23835836.200   127282039.063 6      6387.623    23835836.920   127282039.067 6      6387.623    23835857.000    98997220.277 6      4968.151    23835857.860    98997224.273 6      4968.151
R07  22222753.380   118960139.676 7      4231.823    22222753.120   118960139.696 7      4231.823    22222769.580    92524622.156 7      3291.418    22222769.960    92524625.168 7      3291.418
R05  22755399.560   121640642.323 7       466.487    22755399.060   121640642.314 7       466.487    22755414.720    94609456.245 7       362.823    22755414.840    94609456.244 7       362.823
G07  21759271.780   114345757.649 8      1738.119    21759270.720   114345757.657 7      1738.119    21759278.960    89100600.132 7      1354.378    21759279.360    89100612.134 8      1354.378
