     3.05           OBSERVATION DATA    MIXED               RINEX VERSION / TYPE
TPS2RIN 1.0.29.3920 TPS-USER            20240801 093645 UTC PGM / RUN BY / DATE
Win64 build Feb 23, 2024 (c) Topcon Positioning Systems     COMMENT
SRC: 20240731_CAMI3.tps                                     COMMENT
OPT: -S -v 3.05                                             COMMENT
Observer            Agency                                  OBSERVER / AGENCY
O0M3X53SBGM         TPS HIPER_SR        4.8 HSR Jul,08,2022 REC # / TYPE / VERS
FW: 4.8 HSR Jul,08,2022 p3                                  COMMENT
SN: HiPer SR 1212-12575                                     COMMENT
000                 TPSHIPER_SR     NONE                    ANT # / TYPE
        1.8000        0.0000        0.0000                  ANTENNA: DELTA H/E/N
CAMI3                                                       MARKER NAME
  5388115.0156 -1596624.6589  3010283.0578                  APPROX POSITION XYZ
  2024     7    31    12    50   19.0000000     GPS         TIME OF FIRST OBS
  2024     7    31    13     5   52.0000000     GPS         TIME OF LAST OBS
     1.000                                                  INTERVAL
   934 EPOCHS                                               COMMENT
G   16 C1C L1C D1C S1C C1W L1W D1W S1W C2W L2W D2W S2W C2X  SYS / # / OBS TYPES
       L2X D2X S2X                                          SYS / # / OBS TYPES
R   16 C1C L1C D1C S1C C1P L1P D1P S1P C2P L2P D2P S2P C2C  SYS / # / OBS TYPES
       L2C D2C S2C                                          SYS / # / OBS TYPES
    10                                                      # OF SATELLITES
   G03   866   866   866   866   861   861   861   861   861PRN / # OF OBS
         861   861   861   857   857   857   857            PRN / # OF OBS
   G04   934   934   934   934   934   934   934   934   934PRN / # OF OBS
         934   934   934   934   934   934   934            PRN / # OF OBS
   G06   934   934   934   934   934   934   934   934   934PRN / # OF OBS
         934   934   934   934   934   934   934            PRN / # OF OBS
   G09   934   934   934   934   934   934   934   934   934PRN / # OF OBS
         934   934   934   934   934   934   934            PRN / # OF OBS
   G11   323   323   323   323   323   323   323   323   323PRN / # OF OBS
         323   323   323   323   323   323   323            PRN / # OF OBS
   G17   934   934   934   934   934   934   934   934   934PRN / # OF OBS
         934   934   934   934   934   934   934            PRN / # OF OBS
   G19   830   830   830   830   818   818   818   818   819PRN / # OF OBS
         819   819   819     0     0     0     0            PRN / # OF OBS
   R04   934   934   934   934   934   934   934   934   934PRN / # OF OBS
         934   934   934   934   934   934   934            PRN / # OF OBS
   R05   934   934   934   934   934   934   934   934   934PRN / # OF OBS
         934   934   934   934   934   934   934            PRN / # OF OBS
   R19   821   821   821   821   815   815   815   815   815PRN / # OF OBS
         815   815   815   814   814   814   814            PRN / # OF OBS
G L1C                                                       SYS / PHASE SHIFT
G L1W -0.25000                                              SYS / PHASE SHIFT
G L2W  0.00000                                              SYS / PHASE SHIFT
G L2X  0.25000                                              SYS / PHASE SHIFT
R L1C                                                       SYS / PHASE SHIFT
R L1P -0.25000                                              SYS / PHASE SHIFT
R L2P -0.25000                                              SYS / PHASE SHIFT
R L2C                                                       SYS / PHASE SHIFT
  3 R04  6 R05  1 R19  3                                    GLONASS SLOT / FRQ #
                                                            GLONASS COD/PHS/BIS
    18    18  1929     7GPS                                 LEAP SECONDS
                                                            END OF HEADER
> 2024 07 31 12 50 19.0000000  0  8
G09  20328621.420   106827630.131 7      3844.665          47.875    20328619.900   106827630.133 8      3844.665          49.625    20328627.020    83242339.978 8      2995.843          50.125    20328627.500    83242335.978 8      2995.843          50.437
G06  22249326.820   116920997.986 7      5093.390          42.750    22249325.780   116920997.991 6      5093.390          39.187    22249334.000    91107285.402 6      3968.875          39.312    22249334.740    91107311.402 7      3968.875          44.500
G04  20924652.620   109959796.830 8      1436.685          48.000    20924652.300   109959796.838 6      1436.685          39.125    20924656.680    85682974.867 6      1119.495          38.687    20924656.860    85682971.871 8      1119.495          50.937
G17  20693491.600   108745019.980 7      2049.892          47.000    20693490.540   108745019.985 7      2049.892          46.937    20693495.120    84736404.231 7      1597.319          46.437    20693495.640    84736410.234 8      1597.319          49.500
R04  20732353.780   111020825.969 7      -301.393          46.437    20732356.300   111020826.022 7      -301.393          45.250    20732366.740    86349574.281 8      -234.417          49.937    20732366.580    86349574.281 8      -234.417          49.812
G19  20636063.100   108443234.118 7      3670.448          42.500    20636059.420   108443234.118 4      3670.448          26.625    20636060.680    84501222.865 4      2860.089          26.687
R05  19370439.620   103546042.288 7      3033.360          44.312    19370437.960   103546042.281 7      3033.360          43.812    19370449.780    80535894.231 8      2359.280          49.375    19370449.320    80535895.219 8      2359.280          49.750
G03  22624318.280   118891585.896 7       455.689          43.187    22624318.220   118891585.898 6       455.689          37.375    22624327.860    92642824.873 6       355.083          37.000    22624328.560    92642834.871 6       355.083          41.062
> 2024 07 31 12 50 20.0000000  0  8
G09  20327889.780   106823785.731 8      3844.008          48.250    20327888.320   106823785.736 8      3844.008          50.000    20327895.480    83239344.342 8      2995.331          50.375    20327895.880    83239340.339 8      2995.331          50.375
G06  22248357.640   116915904.651 7      5093.319          42.562    22248356.680   116915904.650 6      5093.319          40.000    22248364.680    91103316.565 6      3968.820          39.687    22248365.280    91103342.567 7      3968.820          44.625
G04  20924379.220   109958360.550 8      1435.934          48.500    20924378.980   109958360.563 6      1435.934          39.125    20924383.480    85681855.691 6      1118.909          39.062    20924383.780    85681852.692 8      1118.909          51.312
G17  20693101.620   108742970.471 8      2049.083          49.000    20693100.500   108742970.471 7      2049.083          47.250    20693105.060    84734807.203 7      1596.688          47.000    20693105.880    84734813.204 8      1596.688          49.250
R04  20732409.680   111021127.670 7      -301.909          46.000    20732412.940   111021127.723 7      -301.909          44.562    20732423.180    86349808.935 8      -234.818          49.500    20732422.860    86349808.933 8      -234.818          50.250
G19  20635364.440   108439563.952 7      3669.816          42.000    20635361.020   108439563.951 4      3669.816          26.625    20635362.240    84498362.993 4      2859.597          26.687
R05  19369872.280   103543009.320 7      3032.584          44.437    19369870.740   103543009.316 7      3032.584          44.687    19369882.500    80533535.255 8      2358.676          49.437    19369881.960    80533536.245 8      2358.676          50.062
G03  22624231.460   118891130.198 7       455.611          43.250    22624231.540   118891130.197 6       455.611          37.250    22624241.180    92642469.779 6       355.022          37.062    22624241.440    92642479.785 6       355.022          40.750
> 2024 07 31 12 50 21.0000000  0  8
G09  20327158.220   106819942.090 8      3843.175          48.500    20327157.020   106819942.095 8      3843.175          50.312    20327164.080    83236349.301 8      2994.682          50.437    20327164.420    83236345.299 8      2994.682          50.562
G06  22247388.500   116910811.531 7      5092.982          42.625    22247387.520   116910811.538 6      5092.982          39.125    22247395.560    91099347.910 6      3968.558          39.000    22247396.300    91099373.917 7      3968.558          44.187
G04  20924105.900   109956924.977 8      1435.115          48.125    20924105.840   109956924.990 6      1435.115          39.500    20924110.220    85680737.059 6      1118.271          38.812    20924110.260    85680734.066 8      1118.271          50.812
G17  20692711.760   108740921.688 7      2048.236          47.812    20692710.680   108740921.685 7      2048.236          46.875    20692715.200    84733210.748 7      1596.028          46.875    20692716.060    84733216.747 8      1596.028          49.312
R04  20732466.880   111021429.853 7      -302.503          46.000    20732469.160   111021429.905 7      -302.503          45.250    20732479.500    86350043.962 8      -235.280          49.687    20732479.420    86350043.962 8      -235.280          50.437
G19  20634666.300   108435894.657 7      3668.860          42.187    20634662.600   108435894.654 4      3668.860          26.625    20634663.980    84495503.800 4      2858.852          26.687
R05  19369305.060   103539977.238 7      3031.508          44.625    19369303.200   103539977.234 7      3031.508          44.625    19369315.200    80531176.974 8      2357.839          49.375    19369314.880    80531177.964 8      2357.839          50.000
G03  22624144.900   118890674.657 7       455.322          43.687    22624144.940   118890674.659 6       455.322          37.250    22624154.400    92642114.813 6       354.796          37.250    22624154.660    92642124.817 6       354.796          40.750
> 2024 07 31 12 50 22.0000000  0  8
G09  20326427.020   106816099.162 8      3842.594          49.187    20326425.620   106816099.167 8      3842.594          49.375    20326432.760    83233354.813 8      2994.229          49.000    20326433.000    83233350.813 8      2994.229          49.687
G06  22246419.640   116905718.610 7      5092.800          43.187    22246418.400   116905718.626 6      5092.800          39.125    22246426.220    91095379.409 6      3968.416          39.187    22246426.820    91095405.412 7      3968.416          43.937
G04  20923832.780   109955490.055 7      1434.703          47.812    20923832.840   109955490.071 6      1434.703          39.187    20923837.160    85679618.942 6      1117.951          38.500    20923837.320    85679615.943 8      1117.951          50.562
G17  20692322.000   108738873.575 7      2047.847          47.687    20692320.800   108738873.572 7      2047.847          47.125    20692325.560    84731614.812 7      1595.725          46.625    20692326.360    84731620.811 8      1595.725          48.250
R04  20732523.180   111021732.437 7      -302.744          45.687    20732525.320   111021732.490 7      -302.744          44.812    20732536.020    86350279.306 8      -235.467          49.125    20732535.840    86350279.304 8      -235.467          49.062
G19  20633968.040   108432226.135 7      3668.125          42.187    20633964.320   108432226.132 4      3668.125          26.625    20633966.220    84492645.212 4      2858.279          26.687
R05  19368738.240   103536945.932 7      3030.952          44.625    19368736.360   103536945.931 7      3030.952          44.500    19368748.140    80528819.298 8      2357.407          48.875    19368747.840    80528820.292 8      2357.407          48.625
G03  22624058.080   118890219.211 7       455.463          43.500    22624058.200   118890219.213 6       455.463          37.187    22624067.780    92641759.920 6       354.906          36.937    22624067.640    92641769.924 6       354.906          40.437
> 2024 07 31 12 50 23.0000000  0  8
G09  20325695.720   106812257.037 8      3841.643          48.875    20325694.660   106812257.039 8      3841.643          48.000    20325701.660    83230360.946 8      2993.488          49.375    20325701.860    83230356.945 8      2993.488          48.812
G06  22245450.480   116900625.937 7      5092.485          43.125    22245449.560   116900625.950 6      5092.485          38.937    22245457.060    91091411.092 6      3968.170          38.750    22245457.660    91091437.087 7      3968.170          43.625
G04  20923559.940   109954055.925 7      1433.699          47.562    20923559.900   109954055.938 6      1433.699          38.625    20923564.400    85678501.436 6      1117.168          38.812    20923564.420    85678498.438 8      1117.168          49.812
G17  20691932.360   108736826.281 7      2046.810          47.812    20691931.220   108736826.284 7      2046.810          45.875    20691935.960    84730019.518 7      1594.917          46.000    20691936.680    84730025.515 8      1594.917          48.375
R04  20732579.580   111022035.533 7      -303.440          45.750    20732582.200   111022035.580 7      -303.440          44.812    20732592.680    86350515.036 7      -236.009          47.750    20732592.440    86350515.032 7      -236.009          47.687
G19  20633269.980   108428558.486 7      3667.187          42.062    20633266.440   108428558.483 4      3667.187          26.187    20633268.240    84489787.301 4      2857.548          26.250
R05  19368170.780   103533915.554 7      3029.827          44.750    19368169.460   103533915.550 7      3029.827          44.750    19368181.200    80526462.337 7      2356.532          47.875    19368180.720    80526463.329 7      2356.532          47.875
G03  22623971.960   118889763.970 7       455.010          43.062    22623971.800   118889763.970 6       455.010          37.125    22623981.060    92641405.184 6       354.553          37.187    22623980.820    92641415.190 6       354.553          40.437
> 2024 07 31 12 50 24.0000000  0  8
G09  20324964.980   106808415.517 8      3841.214          49.062    20324963.700   106808415.514 8      3841.214          49.500    20324970.620    83227367.549 8      2993.154          49.500    20324970.880    83227363.551 8      2993.154          50.187
G06  22244481.480   116895533.358 7      5092.516          44.062    22244480.660   116895533.371 6      5092.516          39.250    22244488.120    91087442.845 6      3968.195          39.875    22244488.820    91087468.839 7      3968.195          43.812
G04  20923287.120   109952622.351 8      1433.258          48.250    20923287.140   109952622.361 6      1433.258          39.125    20923291.500    85677384.363 6      1116.825          38.750    20923291.400    85677381.362 8      1116.825          50.250
G17  20691542.940   108734779.579 7      2046.373          47.187    20691541.800   108734779.573 7      2046.373          46.625    20691546.420    84728424.675 7      1594.576          46.187    20691547.080    84728430.674 8      1594.576          48.500
R04  20732636.740   111022338.926 7      -303.504          46.187    20732638.960   111022338.970 7      -303.504          45.125    20732649.100    86350751.005 8      -236.059          48.875    20732649.120    86350751.003 8      -236.059          49.437
G19  20632572.460   108424891.551 7      3666.482          42.562    20632568.620   108424891.553 4      3666.482          26.187    20632570.320    84486929.951 4      2856.999          26.250
R05  19367604.140   103530885.865 7      3029.359          44.750    19367602.860   103530885.863 7      3029.359          44.750    19367614.520    80524105.912 8      2356.168          49.062    19367614.180    80524106.906 8      2356.168          49.000
G03  22623885.540   118889308.755 7       455.090          43.750    22623885.220   118889308.760 6       455.090          36.812    22623894.540    92641050.471 6       354.616          37.500    22623893.800    92641060.475 6       354.616          40.000
> 2024 07 31 12 50 25.0000000  0  8
G09  20324234.280   106804574.845 8      3840.401          49.500    20324232.900   106804574.848 8      3840.401          50.312    20324239.700    83224374.824 8      2992.520          49.875    20324240.200    83224370.828 8      2992.520          50.375
G06  22243512.260   116890441.095 7      5092.237          42.812    22243511.780   116890441.103 6      5092.237          39.875    22243519.000    91083474.846 6      3967.977          40.062    22243519.740    91083500.838 7      3967.977          44.187
G04  20923014.520   109951189.581 8      1432.564          48.062    20923014.560   109951189.592 6      1432.564          39.562    20923019.000    85676267.915 6      1116.283          39.375    20923019.000    85676264.912 8      1116.283          51.000
G17  20691153.640   108732733.686 7      2045.676          47.687    20691152.460   108732733.686 7      2045.676          47.500    20691157.120    84726830.473 7      1594.034          46.812    20691157.700    84726836.474 8      1594.034          48.937
R04  20732693.340   111022642.921 7      -304.067          46.187    20732695.580   111022642.966 7      -304.067          45.125    20732706.040    86350987.437 8      -236.497          49.437    20732705.960    86350987.437 8      -236.497          50.000
G19  20631875.060   108421225.525 6      3665.775          41.937    20631870.980   108421225.525 4      3665.775          26.187    20631872.720    84484073.310 4      2856.448          26.250
R05  19367037.460   103527857.138 7      3028.349          44.437    19367036.060   103527857.144 7      3028.349          44.687    19367048.040    80521750.250 8      2355.382          49.000    19367047.420    80521751.246 8      2355.382          49.375
G03  22623799.080   118888853.745 7       455.024          43.062    22623798.500   118888853.748 6       455.024          37.687    22623808.040    92640695.914 6       354.564          37.375    22623807.600    92640705.922 6       354.564          40.000
> 2024 07 31 12 50 26.0000000  0  8
G09  20323503.540   106800734.555 8      3839.786          48.750    20323502.080   106800734.557 8      3839.786          50.312    20323508.920    83221382.390 8      2992.041          50.312    20323509.280    83221378.390 8      2992.041          50.500
G06  22242543.100   116885348.643 7      5092.303          42.375    22242542.660   116885348.650 6      5092.303          39.187    22242549.780    91079506.703 6      3968.028          39.500    22242550.620    91079532.697 7      3968.028          44.000
G04  20922741.980   109949757.135 8      1432.075          48.125    20922741.940   109949757.142 6      1432.075          39.437    20922746.400    85675151.721 6      1115.903          39.687    20922746.420    85675148.720 8      1115.903          51.375
G17  20690764.120   108730688.161 7      2045.079          47.187    20690763.300   108730688.163 7      2045.079          46.875    20690767.960    84725236.557 7      1593.568          46.750    20690768.440    84725242.554 8      1593.568          49.187
R04  20732750.200   111022947.005 7      -304.384          45.500    20732751.900   111022947.050 7      -304.384          44.562    20732762.760    86351223.943 8      -236.743          49.750    20732762.660    86351223.938 8      -236.743          50.500
G19  20631177.460   108417559.959 7      3665.136          42.125    20631173.320   108417559.956 4      3665.136          26.187    20631175.240    84481217.023 4      2855.950          26.250
R05  19366471.060   103524828.889 7      3027.765          44.375    19366469.780   103524828.890 7      3027.765          44.125    19366481.600    80519394.939 8      2354.928          49.500    19366480.960    80519395.936 8      2354.928          50.062
G03  22623712.440   118888398.517 7       455.018          43.250    22623712.080   118888398.522 6       455.018          37.875    22623721.440    92640341.193 6       354.560          37.937    22623721.240    92640351.199 6       354.560          40.000
> 2024 07 31 12 50 27.0000000  0  8
G09  20322772.720   106796894.884 8      3839.485          49.312    20322771.620   106796894.884 8      3839.485          49.937    20322778.140    83218390.437 8      2991.807          50.312    20322778.500    83218386.437 8      2991.807          50.687
G06  22241574.260   116880256.324 7      5092.369          43.937    22241573.660   116880256.342 6      5092.369          39.312    22241580.520    91075538.671 6      3968.080          39.312    22241581.080    91075564.665 7      3968.080          43.875
G04  20922469.520   109948325.322 8      1431.599          48.500    20922469.380   109948325.332 6      1431.599          39.250    20922473.900    85674036.023 6      1115.531          39.000    20922474.040    85674033.021 8      1115.531          51.250
G17  20690375.260   108728643.261 7      2044.775          47.437    20690374.160   108728643.258 7      2044.775          47.312    20690378.840    84723643.122 7      1593.331          47.062    20690379.200    84723649.121 8      1593.331          48.625
R04  20732806.860   111023251.440 7      -304.485          45.062    20732808.620   111023251.489 7      -304.485          44.875    20732819.320    86351460.729 8      -236.822          49.562    20732819.320    86351460.727 8      -236.822          50.375
G19  20630479.920   108413895.113 7      3664.690          42.687    20630475.820   108413895.105 4      3664.690          26.187    20630477.900    84478361.295 4      2855.603          26.250
R05  19365905.020   103521801.448 7      3027.156          44.875    19365903.420   103521801.441 7      3027.156          44.625    19365915.140    80517040.259 8      2354.455          49.875    19365914.680    80517041.255 8      2354.455          49.937
G03  22623625.980   118887943.326 7       455.420          43.562    22623625.400   118887943.331 6       455.420          37.750    22623634.980    92639986.495 6       354.873          37.812    22623635.120    92639996.503 6       354.873          40.437
> 2024 07 31 12 50 28.0000000  0  8
G09  20322042.140   106793055.763 8      3838.823          49.125    20322041.000   106793055.768 8      3838.823          50.000    20322047.640    83215398.918 8      2991.291          50.125    20322048.040    83215394.914 8      2991.291          50.250
G06  22240605.000   116875164.013 7      5092.223          43.125    22240604.760   116875164.026 6      5092.223          39.125    22240611.360    91071570.636 6      3967.966          39.312    22240612.420    91071596.624 7      3967.966          43.875
G04  20922197.060   109946893.984 7      1430.995          47.812    20922197.000   109946893.997 6      1430.995          39.125    20922201.520    85672920.694 6      1115.061          39.187    20922201.580    85672917.695 8      1115.061          51.437
G17  20689986.220   108726598.897 8      2044.038          48.187    20689985.140   108726598.899 7      2044.038          46.625    20689989.700    84722050.116 7      1592.757          46.937    20689989.940    84722056.115 8      1592.757          48.687
R04  20732863.940   111023556.166 7      -304.876          45.562    20732866.040   111023556.210 7      -304.876          44.875    20732876.460    86351697.724 8      -237.126          49.437    20732876.300    86351697.720 8      -237.126          50.125
G19  20629782.600   108410230.885 6      3663.970          41.875    20629778.580   108410230.882 4      3663.970          26.125    20629780.460    84475506.056 4      2855.042          26.250
R05  19365339.000   103518774.637 7      3026.427          45.312    19365337.100   103518774.631 7      3026.427          44.687    19365349.040    80514686.075 8      2353.888          50.062    19365348.480    80514687.075 8      2353.888          50.000
G03  22623539.680   118887488.122 7       455.198          43.562    22623538.960   118887488.124 6       455.198          38.375    22623548.520    92639631.780 6       354.700          38.187    22623548.780    92639641.790 6       354.700          40.437
> 2024 07 31 12 50 29.0000000  0  8
G09  20321311.600   106789217.325 8      3838.109          49.312    20321310.600   106789217.324 8      3838.109          49.937    20321317.240    83212407.925 8      2990.734          50.312    20321317.660    83212403.929 8      2990.734          50.312
G06  22239636.140   116870071.847 7      5092.037          44.187    22239635.780   116870071.855 6      5092.037          39.937    22239642.400    91067602.715 6      3967.821          39.812    22239643.400    91067628.697 7      3967.821          43.875
G04  20921924.880   109945463.290 7      1430.325          47.750    20921924.620   109945463.303 6      1430.325          39.312    20921929.320    85671805.868 6      1114.539          38.937    20921929.600    85671802.869 8      1114.539          51.187
G17  20689597.400   108724555.188 8      2043.390          48.937    20689596.260   108724555.187 7      2043.390          47.062    20689600.900    84720457.606 7      1592.252          46.687    20689601.180    84720463.608 8      1592.252          49.375
R04  20732920.900   111023861.275 7      -305.374          45.625    20732922.660   111023861.325 7      -305.374          44.875    20732933.360    86351935.033 8      -237.513          49.687    20732933.140    86351935.033 8      -237.513          50.312
G19  20629085.340   108406567.445 6      3663.122          41.562    20629081.260   108406567.439 4      3663.122          26.125    20629083.340    84472651.427 4      2854.381          26.250
R05  19364772.700   103515748.623 7      3025.650          45.437    19364771.540   103515748.609 7      3025.650          45.000    19364782.880    80512332.506 8      2353.283          50.000    19364782.320    80512333.505 8      2353.283          49.625
G03  22623452.780   118887032.952 7       455.118          43.625    22623452.420   118887032.951 6       455.118          38.062    22623462.100    92639277.096 6       354.637          37.937    22623462.360    92639287.114 6       354.637          40.750
> 2024 07 31 12 50 30.0000000  0  8
G09  20320581.480   106785379.714 8      3837.039          49.062    20320580.320   106785379.719 8      3837.039          50.375    20320586.920    83209417.583 8      2989.900          50.187    20320587.480    83209413.583 8      2989.900          50.375
G06  22238666.920   116864979.941 7      5091.774          43.750    22238666.980   116864979.949 6      5091.774          40.062    22238673.500    91063634.998 6      3967.616          40.000    22238674.540    91063660.978 7      3967.616          43.625
G04  20921652.680   109944033.379 7      1429.410          47.812    20921652.440   109944033.392 6      1429.410          38.937    20921657.060    85670691.648 6      1113.826          39.125    20921657.440    85670688.646 8      1113.826          51.250
G17  20689208.560   108722512.290 8      2042.371          48.937    20689207.520   108722512.295 7      2042.371          47.062    20689211.920    84718865.740 7      1591.458          47.125    20689212.580    84718871.741 8      1591.458          48.937
R04  20732978.380   111024166.933 7      -306.138          45.187    20732979.420   111024166.986 7      -306.138          44.437    20732990.320    86352172.774 8      -238.108          49.937    20732990.260    86352172.774 8      -238.108          50.687
G19  20628388.580   108402904.887 7      3662.117          42.125    20628384.220   108402904.879 4      3662.117          26.125    20628386.420    84469797.488 4      2853.598          26.250
R05  19364206.580   103512723.556 7      3024.536          45.250    19364205.820   103512723.538 7      3024.536          44.562    19364217.020    80509979.676 8      2352.417          49.937    19364216.480    80509980.674 8      2352.417          49.687
G03  22623365.860   118886578.008 7       454.734          43.187    22623365.940   118886578.015 6       454.734          38.375    22623375.640    92638922.594 6       354.338          38.187    22623375.820    92638932.612 6       354.338          40.750
> 2024 07 31 12 50 31.0000000  0  8
G09  20319851.400   106781542.797 8      3836.752          49.125    20319850.200   106781542.800 8      3836.752          50.062    20319856.780    83206427.776 8      2989.677          49.687    20319857.140    83206423.776 8      2989.677          50.500
G06  22237697.860   116859888.253 7      5091.889          44.687    22237698.060   116859888.261 6      5091.889          39.625    22237704.440    91059667.445 6      3967.705          39.250    22237705.720    91059693.424 7      3967.705          43.812
G04  20921380.700   109942604.130 7      1429.133          47.812    20921380.540   109942604.143 6      1429.133          38.937    20921385.120    85669577.947 6      1113.610          38.625    20921385.560    85669574.948 8      1113.610          51.187
G17  20688819.920   108720470.088 8      2042.039          48.625    20688818.920   108720470.091 7      2042.039          47.250    20688823.440    84717274.410 7      1591.199          46.000    20688823.820    84717280.409 8      1591.199          48.687
R04  20733035.560   111024472.982 7      -306.029          45.500    20733037.200   111024473.032 7      -306.029          44.750    20733047.680    86352410.803 8      -238.022          49.312    20733047.440    86352410.806 8      -238.022          49.750
G19  20627691.600   108399243.136 6      3661.538          41.812    20627687.240   108399243.128 4      3661.538          26.125    20627689.680    84466944.168 4      2853.146          26.250
R05  19363641.240   103509699.303 7      3024.028          44.812    19363640.180   103509699.283 7      3024.028          44.750    19363651.240    80507627.473 8      2352.022          49.500    19363650.820    80507628.476 8      2352.022          49.937
G03  22623279.400   118886123.166 7       455.081          42.750    22623279.500   118886123.168 6       455.081          38.187    22623289.180    92638568.167 6       354.608          38.062    22623289.160    92638578.188 6       354.608          41.250
> 2024 07 31 12 50 32.0000000  0  8
G09  20319121.400   106777706.553 8      3835.824          48.750    20319120.120   106777706.558 8      3835.824          50.687    20319126.720    83203438.499 8      2988.953          50.125    20319126.980    83203434.497 8      2988.953          50.062
G06  22236729.320   116854796.699 7      5091.365          43.562    22236729.160   116854796.709 6      5091.365          40.125    22236735.560    91055700.002 6      3967.297          40.250    22236736.460    91055725.984 7      3967.297          43.812
G04  20921108.960   109941175.531 7      1428.128          47.500    20921108.620   109941175.541 6      1428.128          39.187    20921113.320    85668464.749 6      1112.827          38.875    20921113.820    85668461.741 8      1112.827          51.937
G17  20688431.440   108718428.547 8      2041.007          48.562    20688430.540   108718428.546 7      2041.007          47.500    20688434.820    84715683.592 7      1590.395          47.562    20688435.440    84715689.589 8      1590.395          48.375
R04  20733092.460   111024779.422 7      -306.761          45.500    20733094.340   111024779.472 7      -306.761          44.687    20733104.940    86352649.148 8      -238.592          49.812    20733104.520    86352649.148 8      -238.592          50.187
G19  20626994.800   108395582.137 6      3660.363          41.812    20626990.540   108395582.132 4      3660.363          26.125    20626993.200    84464091.441 4      2852.231          26.250
R05  19363075.180   103506675.817 7      3022.901          45.062    19363074.980   103506675.797 7      3022.901          44.500    19363085.520    80505275.875 8      2351.145          49.750    19363085.200    80505276.874 8      2351.145          49.062
G03  22623192.820   118885668.393 7       454.707          42.937    22623193.100   118885668.400 6       454.707          38.000    22623202.660    92638213.801 6       354.317          38.062    22623202.340    92638223.823 6       354.317          41.312
> 2024 07 31 12 50 33.0000000  0  8
G09  20318391.420   106773870.976 8      3835.151          49.000    20318390.260   106773870.984 8      3835.151          49.875    20318396.920    83200449.742 8      2988.430          50.250    20318397.280    83200445.739 8      2988.430          50.562
G06  22235760.820   116849705.242 7      5091.369          44.187    22235760.580   116849705.253 6      5091.369          39.625    22235766.840    91051732.633 6      3967.301          39.375    22235767.420    91051758.617 7      3967.301          44.187
G04  20920837.140   109939747.522 7      1427.616          47.687    20920836.840   109939747.535 6      1427.616          38.687    20920841.680    85667352.017 6      1112.428          38.875    20920841.920    85667349.011 8      1112.428          51.750
G17  20688042.980   108716387.609 8      2040.580          48.500    20688042.160   108716387.611 7      2040.580          46.812    20688046.500    84714093.249 7      1590.062          46.750    20688046.760    84714099.251 7      1590.062          47.875
R04  20733149.840   111025086.251 7      -307.192          45.875    20733151.880   111025086.300 7      -307.192          45.000    20733162.300    86352887.788 8      -238.927          49.562    20733162.120    86352887.790 8      -238.927          50.250
G19  20626298.120   108391921.839 6      3659.903          41.750    20626293.800   108391921.834 4      3659.903          25.875    20626296.700    84461239.259 4      2851.872          26.250
R05  19362509.720   103503653.072 7      3022.307          45.312    19362509.480   103503653.057 7      3022.307          45.000    19362520.080    80502924.857 8      2350.683          49.437    19362519.820    80502925.858 8      2350.683          49.562
G03  22623106.240   118885213.677 7       454.752          42.937    22623106.640   118885213.679 6       454.752          38.187    22623116.320    92637859.473 6       354.352          38.687    22623116.140    92637869.495 6       354.352          41.312
> 2024 07 31 12 50 34.0000000  0  8
G09  20317661.680   106770036.080 8      3834.766          49.062    20317660.500   106770036.085 8      3834.766          49.187    20317667.040    83197461.509 8      2988.130          48.937    20317667.680    83197457.507 8      2988.130          49.812
G06  22234791.760   116844613.972 7      5091.437          44.625    22234791.860   116844613.982 6      5091.437          39.625    22234797.900    91047765.410 6      3967.353          39.625    22234798.400    91047791.391 7      3967.353          43.875
G04  20920565.460   109938320.176 7      1427.230          47.250    20920565.140   109938320.191 6      1427.230          38.562    20920570.000    85666239.799 6      1112.128          38.500    20920570.580    85666236.795 8      1112.128          50.937
G17  20687654.640   108714347.394 8      2040.031          48.437    20687653.940   108714347.399 7      2040.031          46.250    20687658.260    84712503.471 7      1589.635          45.812    20687658.300    84712509.471 8      1589.635          48.062
R04  20733207.300   111025393.491 7      -307.293          45.812    20733208.680   111025393.544 7      -307.293          45.187    20733219.660    86353126.755 8      -239.006          48.500    20733219.360    86353126.759 8      -239.006          48.562
G19  20625602.040   108388262.348 6      3659.429          40.625    20625597.420   108388262.343 4      3659.429          25.875    20625600.320    84458387.707 4      2851.503          25.687
R05  19361944.320   103500631.177 7      3021.662          45.062    19361944.420   103500631.168 7      3021.662          44.187    19361954.840    80500574.501 8      2350.182          48.562    19361954.480    80500575.499 8      2350.182          48.750
G03  22623020.040   118884759.082 7       454.720          43.312    22623020.200   118884759.090 6       454.720          37.937    22623029.820    92637505.241 6       354.327          38.187    22623029.700    92637515.261 6       354.327          41.312
> 2024 07 31 12 50 35.0000000  0  8
G09  20316932.200   106766201.909 8      3833.824          48.812    20316930.880   106766201.914 7      3833.824          47.937    20316937.480    83194473.843 7      2987.396          47.812    20316938.100    83194469.843 8      2987.396          49.187
G06  22233823.080   116839522.870 7      5091.069          44.500    22233823.040   116839522.880 6      5091.069          39.437    22233828.940    91043798.317 6      3967.067          39.625    22233829.640    91043824.303 7      3967.067          43.500
G04  20920294.100   109936893.504 7      1426.388          46.812    20920293.700   109936893.520 6      1426.388          38.500    20920298.420    85665128.103 6      1111.471          38.250    20920299.260    85665125.097 8      1111.471          50.437
G17  20687266.720   108712307.854 8      2039.211          48.875    20687265.900   108712307.857 7      2039.211          45.875    20687270.080    84710914.216 7      1588.995          46.125    20687270.200    84710920.217 7      1588.995          47.375
R04  20733264.580   111025701.176 7      -307.991          46.250    20733266.220   111025701.237 7      -307.991          45.500    20733277.240    86353366.067 8      -239.549          48.437    20733276.920    86353366.071 7      -239.549          47.625
G19  20624905.960   108384603.669 6      3658.273          41.437    20624901.040   108384603.666 4      3658.273          25.875    20624904.080    84455536.788 4      2850.602          25.687
R05  19361378.980   103497610.105 7      3020.729          45.625    19361379.420   103497610.096 7      3020.729          44.687    19361389.700    80498224.778 7      2349.456          47.625    19361389.400    80498225.781 7      2349.456          47.875
G03  22622933.260   118884304.558 7       454.538          43.187    22622933.740   118884304.563 6       454.538          38.437    22622943.480    92637151.060 6       354.186          38.000    22622943.680    92637161.072 6       354.186          41.312
> 2024 07 31 12 50 36.0000000  0  8
G09  20316202.860   106762368.371 8      3833.237          48.500    20316201.400   106762368.376 8      3833.237          49.437    20316207.880    83191486.671 8      2986.938          49.250    20316208.680    83191482.670 8      2986.938          50.250
G06  22232854.260   116834431.889 7      5090.946          44.625    22232854.160   116834431.905 6      5090.946          40.000    22232860.060    91039831.325 6      3966.971          39.625    22232861.260    91039857.313 7      3966.971          43.875
G04  20920022.600   109935467.453 7      1425.720          47.562    20920022.220   109935467.463 6      1425.720          38.625    20920027.040    85664016.894 6      1110.951          38.437    20920027.840    85664013.889 8      1110.951          50.937
G17  20686878.620   108710268.964 8      2038.575          49.187    20686877.860   108710268.961 7      2038.575          46.875    20686882.000    84709325.466 7      1588.500          46.187    20686882.200    84709331.463 8      1588.500          48.750
R04  20733321.820   111026009.260 7      -308.320          45.687    20733323.680   111026009.313 7      -308.320          45.500    20733334.600    86353605.682 8      -239.804          49.000    20733334.360    86353605.684 8      -239.804          48.750
G19  20624209.800   108380945.710 6      3657.544          41.437    20624204.920   108380945.704 4      3657.544          25.875    20624207.820    84452686.431 4      2850.034          25.687
R05  19360814.020   103494589.837 7      3019.818          45.187    19360814.400   103494589.831 7      3019.818          44.625    19360824.640    80495875.687 8      2348.747          48.500    19360824.240    80495876.686 8      2348.747          49.000
G03  22622847.040   118883850.098 7       454.464          43.812    22622847.580   118883850.103 6       454.464          37.937    22622856.960    92636796.935 6       354.128          38.187    22622857.300    92636806.955 6       354.128          41.312
> 2024 07 31 12 50 37.0000000  0  8
G09  20315473.340   106758535.409 8      3832.596          48.250    20315472.120   106758535.416 8      3832.596          50.687    20315478.560    83188499.947 8      2986.438          50.625    20315479.340    83188495.946 8      2986.438          50.687
G06  22231885.280   116829340.940 7      5090.870          43.687    22231885.240   116829340.952 6      5090.870          39.562    22231891.300    91035864.351 6      3966.912          39.812    22231892.380    91035890.343 7      3966.912          43.875
G04  20919751.300   109934041.901 7      1425.289          47.562    20919750.680   109934041.909 6      1425.289          39.125    20919755.820    85662906.068 6      1110.615          38.562    20919756.500    85662903.067 8      1110.615          51.500
G17  20686490.760   108708230.620 8      2037.959          48.437    20686489.920   108708230.619 7      2037.959          47.062    20686494.100    84707737.143 7      1588.020          47.062    20686494.520    84707743.138 8      1588.020          48.812
R04  20733379.320   111026317.646 7      -308.630          45.937    20733381.160   111026317.699 7      -308.630          45.500    20733392.400    86353845.536 8      -240.046          49.812    20733392.180    86353845.540 8      -240.046          50.250
G19  20623513.820   108377288.347 6      3657.093          41.937    20623508.960   108377288.347 4      3657.093          25.875    20623511.760    84449836.540 4      2849.683          25.687
R05  19360249.080   103491570.244 7      3019.210          45.125    19360249.580   103491570.229 7      3019.210          44.812    19360259.740    80493527.110 8      2348.275          49.437    19360259.480    80493528.108 8      2348.275          49.500
G03  22622760.520   118883395.608 7       454.433          44.562    22622761.180   118883395.610 6       454.433          38.500    22622770.500    92636442.781 6       354.104          38.500    22622770.940    92636452.799 6       354.104          41.312
> 2024 07 31 12 50 38.0000000  0  8
G09  20314744.140   106754703.319 8      3831.818          48.375    20314742.920   106754703.323 8      3831.818          50.375    20314749.280    83185513.907 8      2985.832          50.437    20314750.180    83185509.906 8      2985.832          50.625
G06  22230916.860   116824250.342 7      5090.523          43.875    22230916.680   116824250.350 6      5090.523          39.875    22230922.780    91031897.654 6      3966.642          39.687    22230923.660    91031923.644 7      3966.642          43.812
G04  20919480.180   109932617.201 7      1424.459          46.875    20919479.560   109932617.211 6      1424.459          38.750    20919484.860    85661795.916 6      1109.968          38.437    20919485.400    85661792.909 8      1109.968          51.250
G17  20686103.000   108706193.121 7      2037.219          47.687    20686102.280   108706193.121 7      2037.219          47.312    20686106.460    84706149.480 7      1587.444          47.187    20686107.000    84706155.476 8      1587.444          48.500
R04  20733437.160   111026626.609 7      -308.980          45.312    20733438.420   111026626.656 7      -308.980          45.687    20733450.000    86354085.833 8      -240.318          50.125    20733449.640    86354085.840 8      -240.318          50.062
G19  20622817.880   108373632.001 6      3656.108          41.062    20622813.100   108373632.006 4      3656.108          25.875    20622816.020    84446987.443 4      2848.915          25.687
R05  19359684.340   103488551.622 7      3018.370          44.937    19359685.020   103488551.621 7      3018.370          45.500    19359695.060    80491179.302 8      2347.621          50.250    19359694.740    80491180.304 8      2347.621          49.812
G03  22622674.300   118882941.384 7       454.283          44.062    22622675.060   118882941.381 6       454.283          38.937    22622684.100    92636088.834 6       353.987          39.187    22622684.300    92636098.838 6       353.987          41.500
> 2024 07 31 12 50 39.0000000  0  8
G09  20314014.960   106750871.754 8      3831.164          48.312    20314013.760   106750871.759 8      3831.164          50.187    20314020.240    83182528.270 8      2985.323          50.687    20314021.080    83182524.272 8      2985.323          50.562
G06  22229947.880   116819159.708 7      5090.381          43.687    22229947.820   116819159.726 6      5090.381          39.625    22229954.220    91027930.936 6      3966.531          39.500    22229954.980    91027956.924 7      3966.531          44.000
G04  20919209.220   109931192.971 7      1423.778          47.562    20919208.580   109931192.983 6      1423.778          39.062    20919213.740    85660686.128 6      1109.437          38.812    20919214.280    85660683.123 8      1109.437          51.187
G17  20685715.260   108704156.128 8      2036.612          48.812    20685714.580   108704156.130 7      2036.612          47.125    20685718.860    84704562.209 7      1586.971          47.000    20685719.220    84704568.202 8      1586.971          48.937
R04  20733495.340   111026935.772 7      -309.381          46.312    20733496.080   111026935.813 7      -309.381          44.812    20733507.720    86354326.289 8      -240.629          50.187    20733507.640    86354326.292 8      -240.629          50.562
G19  20622122.180   108369976.236 6      3655.389          40.062    20622117.260   108369976.238 4      3655.389          25.812    20622120.300    84444138.793 4      2848.355          25.687
R05  19359119.880   103485533.662 7      3017.491          45.187    19359120.480   103485533.647 7      3017.491          45.125    19359130.520    80488831.995 8      2346.937          50.000    19359130.280    80488832.993 8      2346.937          49.750
G03  22622587.740   118882487.065 7       454.205          42.875    22622588.680   118882487.065 6       454.205          38.937    22622597.660    92635734.817 6       353.926          38.625    22622597.540    92635744.825 6       353.926          41.500
> 2024 07 31 12 50 40.0000000  0  8
G09  20313286.040   106747040.941 8      3830.389          49.062    20313284.800   106747040.948 8      3830.389          50.437    20313291.280    83179543.225 8      2984.719          50.000    20313291.940    83179539.226 8      2984.719          50.562
G06  22228979.460   116814069.328 7      5090.170          43.562    22228979.200   116814069.341 6      5090.170          40.000    22228985.420    91023964.403 6      3966.366          39.625    22228986.460    91023990.391 7      3966.366          44.125
G04  20918938.220   109929769.466 7      1423.094          47.437    20918937.560   109929769.476 6      1423.094          38.687    20918942.880    85659576.898 6      1108.904          38.562    20918943.220    85659573.890 8      1108.904          51.750
G17  20685327.860   108702119.901 8      2035.796          48.875    20685327.180   108702119.901 7      2035.796          46.875    20685331.280    84702975.537 7      1586.335          46.812    20685331.560    84702981.530 8      1586.335          48.187
R04  20733552.820   111027245.379 7      -309.884          46.062    20733553.940   111027245.429 7      -309.884          45.375    20733565.520    86354567.095 8      -241.021          49.812    20733565.380    86354567.104 8      -241.021          50.437
G19  20621426.500   108366321.327 6      3654.453          39.937    20621421.640   108366321.327 4      3654.453          25.812    20621425.160    84441290.812 4      2847.626          25.500
R05  19358555.640   103482516.545 7      3016.519          45.062    19358556.320   103482516.536 7      3016.519          45.125    19358566.240    80486485.351 8      2346.181          49.625    19358565.800    80486486.351 8      2346.181          49.125
G03  22622501.480   118882032.925 7       453.936          43.937    22622502.480   118882032.930 6       453.936          38.437    22622511.360    92635380.938 6       353.716          38.562    22622511.060    92635390.946 6       353.716          41.000
> 2024 07 31 12 50 41.0000000  0  8
G09  20312557.180   106743210.879 8      3829.625          48.750    20312555.940   106743210.889 8      3829.625          50.500    20312562.400    83176558.765 8      2984.124          50.625    20312563.140    83176554.767 8      2984.124          50.937
G06  22228010.680   116808979.135 7      5090.018          44.875    22228010.540   116808979.151 6      5090.018          40.062    22228016.720    91019998.021 6      3966.248          40.125    22228017.600    91020024.015 7      3966.248          44.062
G04  20918667.700   109928346.665 7      1422.429          47.187    20918666.660   109928346.672 6      1422.429          38.687    20918672.180    85658468.219 6      1108.386          38.437    20918672.540    85658465.208 8      1108.386          51.562
G17  20684940.560   108700084.395 8      2035.112          48.250    20684939.840   108700084.395 7      2035.112          47.500    20684944.040    84701389.426 7      1585.801          46.937    20684944.280    84701395.417 8      1585.801          48.937
R04  20733610.620   111027555.444 7      -310.326          46.187    20733612.040   111027555.491 7      -310.326          45.312    20733623.680    86354808.253 8      -241.365          50.187    20733623.220    86354808.259 8      -241.365          50.562
G19  20620731.360   108362667.241 6      3653.627          40.062    20620726.020   108362667.241 4      3653.627          25.812    20620729.840    84438443.478 4      2846.982          25.500
R05  19357991.420   103479500.260 7      3015.768          45.437    19357991.760   103479500.248 7      3015.768          45.250    19358001.980    80484139.349 8      2345.597          49.625    19358001.540    80484140.352 8      2345.597          50.125
G03  22622414.940   118881578.903 7       453.848          43.812    22622416.140   118881578.905 6       453.848          38.812    22622425.000    92635027.148 6       353.648          38.500    22622425.040    92635037.165 6       353.648          41.000
> 2024 07 31 12 50 42.0000000  0  8
G09  20311828.380   106739381.377 8      3829.387          49.062    20311827.200   106739381.385 8      3829.387          50.250    20311833.700    83173574.734 8      2983.938          50.312    20311834.480    83173570.731 8      2983.938          51.125
G06  22227041.720   116803888.998 7      5090.243          44.125    22227041.940   116803889.005 6      5090.243          39.500    22227048.080    91016031.682 6      3966.423          39.750    22227048.740    91016057.668 7      3966.423          43.937
G04  20918397.000   109926924.371 7      1422.221          46.937    20918396.120   109926924.379 6      1422.221          39.000    20918401.520    85657359.939 6      1108.224          38.750    20918401.780    85657356.929 8      1108.224          51.437
G17  20684553.260   108698049.435 8      2034.846          48.937    20684552.580   108698049.432 7      2034.846          47.125    20684556.680    84699803.739 7      1585.595          47.062    20684557.120    84699809.732 8      1585.595          49.000
R04  20733668.880   111027865.839 7      -310.407          46.562    20733670.280   111027865.881 7      -310.407          45.687    20733681.540    86355049.663 8      -241.428          50.250    20733681.260    86355049.667 8      -241.428          50.187
G19  20620036.020   108359013.783 6      3653.297          40.000    20620030.640   108359013.780 4      3653.297          25.812    20620034.540    84435596.619 4      2846.725          25.500
R05  19357426.980   103476484.651 7      3015.434          45.687    19357428.060   103476484.642 7      3015.434          45.375    19357437.960    80481793.874 8      2345.337          49.500    19357437.360    80481794.876 8      2345.337          49.750
G03  22622328.620   118881124.849 7       454.141          44.187    22622329.840   118881124.857 6       454.141          38.625    22622338.520    92634673.341 6       353.876          38.750    22622338.860    92634683.357 6       353.876          41.312
> 2024 07 31 12 50 43.0000000  0  8
G09  20311099.640   106735552.572 8      3828.456          49.125    20311098.620   106735552.579 8      3828.456          50.375    20311105.120    83170591.249 8      2983.213          50.250    20311105.860    83170587.248 8      2983.213          50.312
G06  22226073.240   116798798.997 7      5089.925          44.125    22226073.460   116798799.007 6      5089.925          39.687    22226079.440    91012065.447 6      3966.175          39.875    22226080.480    91012091.443 7      3966.175          43.687
G04  20918126.480   109925502.750 7      1421.284          47.375    20918125.340   109925502.757 6      1421.284          38.687    20918131.020    85656252.180 6      1107.494          38.312    20918131.240    85656249.168 8      1107.494          51.125
G17  20684166.260   108696015.161 8      2033.900          49.187    20684165.460   108696015.158 7      2033.900          47.250    20684169.520    84698218.588 7      1584.857          46.875    20684170.140    84698224.579 8      1584.857          48.875
R04  20733727.440   111028176.656 7      -311.063          46.437    20733727.660   111028176.698 7      -311.063          45.187    20733739.640    86355291.412 8      -241.938          49.062    20733739.520    86355291.416 8      -241.938          50.250
G19  20619340.740   108355361.120 6      3652.404          39.937    20619335.460   108355361.120 4      3652.404          25.812    20619339.440    84432750.389 4      2846.029          25.500
R05  19356863.060   103473469.876 7      3014.386          45.187    19356863.780   103473469.859 7      3014.386          45.500    19356874.060    80479449.047 8      2344.523          49.562    19356873.400    80479450.049 8      2344.523          49.500
G03  22622242.120   118880670.885 7       453.884          44.062    22622243.600   118880670.895 6       453.884          38.562    22622252.160    92634319.602 6       353.676          39.125    22622252.540    92634329.612 6       353.676          41.312
> 2024 07 31 12 50 44.0000000  0  8
G09  20310371.200   106731724.588 8      3827.861          48.562    20310370.140   106731724.593 8      3827.861          50.125    20310376.660    83167608.403 8      2982.749          50.187    20310377.420    83167604.402 8      2982.749          51.062
G06  22225104.900   116793709.311 7      5089.816          43.875    22225104.700   116793709.326 6      5089.816          39.562    22225110.980    91008099.466 6      3966.090          39.625    22225112.180    91008125.450 7      3966.090          44.062
G04  20917856.180   109924081.915 7      1420.659          47.875    20917854.980   109924081.922 6      1420.659          38.437    20917860.760    85655145.035 6      1107.007          38.125    20917860.740    85655142.026 8      1107.007          51.437
G17  20683779.240   108693981.704 8      2033.247          48.000    20683778.300   108693981.701 7      2033.247          47.125    20683782.580    84696634.068 7      1584.349          46.937    20683783.060    84696640.061 8      1584.349          48.812
R04  20733785.460   111028488.036 7      -311.366          46.312    20733785.800   111028488.084 7      -311.366          45.187    20733797.720    86355533.592 8      -242.174          50.000    20733797.440    86355533.600 8      -242.174          50.375
G19  20618646.020   108351709.367 6      3651.496          39.562    20618640.540   108351709.367 4      3651.496          25.812    20618644.480    84429904.863 4      2845.322          25.500
R05  19356299.080   103470456.042 7      3013.576          45.437    19356300.180   103470456.041 7      3013.576          45.375    19356310.360    80477104.962 8      2343.893          50.187    19356309.800    80477105.966 8      2343.893          49.937
G03  22622155.860   118880217.171 7       453.744          43.625    22622157.220   118880217.173 6       453.744          38.437    22622165.720    92633966.050 6       353.567          39.062    22622165.880    92633976.058 6       353.567          41.500
> 2024 07 31 12 50 45.0000000  0  8
G09  20309642.880   106727897.204 8      3827.040          48.937    20309641.880   106727897.214 8      3827.040          50.500    20309648.320    83164626.029 8      2982.109          50.125    20309649.080    83164622.027 8      2982.109          50.750
G06  22224136.380   116788619.696 7      5089.457          43.750    22224136.140   116788619.717 6      5089.457          39.812    22224142.440    91004133.535 6      3965.811          40.000    22224143.660    91004159.527 7      3965.811          44.062
G04  20917585.820   109922661.628 7      1419.944          46.312    20917584.700   109922661.636 6      1419.944          38.937    20917590.460    85654038.317 6      1106.450          38.812    20917590.560    85654035.301 8      1106.450          51.437
G17  20683392.140   108691948.812 8      2032.539          48.625    20683391.500   108691948.809 7      2032.539          47.312    20683395.760    84695049.996 7      1583.797          46.875    20683396.160    84695055.985 8      1583.797          48.562
R04  20733843.860   111028799.738 7      -311.995          45.500    20733844.100   111028799.782 7      -311.995          45.437    20733855.980    86355776.024 8      -242.662          49.437    20733855.900    86355776.028 8      -242.662          50.500
G19  20617951.360   108348058.305 6      3650.616          40.187    20617945.560   108348058.308 4      3650.616          25.250    20617949.880    84427059.880 4      2844.636          25.500
R05  19355735.680   103467442.943 7      3012.653          45.875    19355736.540   103467442.939 7      3012.653          45.062    19355746.660    80474761.440 8      2343.174          49.687    19355746.300    80474762.441 8      2343.174          50.187
G03  22622069.280   118879763.414 7       453.651          44.312    22622070.980   118879763.414 6       453.651          38.875    22622079.260    92633612.468 6       353.494          38.750    22622078.960    92633622.469 6       353.494          41.500
> 2024 07 31 12 50 46.0000000  0  8
G09  20308914.680   106724070.663 8      3826.240          49.625    20308913.820   106724070.676 8      3826.240          49.812    20308920.080    83161644.311 8      2981.486          50.000    20308920.740    83161640.307 8      2981.486          50.312
G06  22223168.000   116783530.394 7      5089.194          44.687    22223167.740   116783530.409 6      5089.194          39.125    22223174.060    91000167.843 6      3965.605          39.312    22223175.280    91000193.833 7      3965.605          43.750
