     3.05           OBSERVATION DATA    MIXED               RINEX VERSION / TYPE
TPS2RIN 1.0.29.3920 TPS-USER            20240801 093645 UTC PGM / RUN BY / DATE
Win64 build Feb 23, 2024 (c) Topcon Positioning Systems     COMMENT
SRC: 20240731_CAMI6.tps                                     COMMENT
OPT: -S -v 3.05                                             COMMENT
Observer            Agency                                  OBSERVER / AGENCY
O0M3X53SBGM         TPS HIPER_SR        4.8 HSR Jul,08,2022 REC # / TYPE / VERS
FW: 4.8 HSR Jul,08,2022 p3                                  COMMENT
SN: HiPer SR 1212-12575                                     COMMENT
000                 TPSHIPER_SR     NONE                    ANT # / TYPE
        1.8000        0.0000        0.0000                  ANTENNA: DELTA H/E/N
CAMI6                                                       MARKER NAME
  5389283.8418 -1596626.7044  3008844.9536                  APPROX POSITION XYZ
  2024     7    31    14    15    2.0000000     GPS         TIME OF FIRST OBS
  2024     7    31    14    30    7.0000000     GPS         TIME OF LAST OBS
     1.000                                                  INTERVAL
   906 EPOCHS                                               COMMENT
G   16 C1C L1C D1C S1C C1W L1W D1W S1W C2W L2W D2W S2W C2X  SYS / # / OBS TYPES
       L2X D2X S2X                                          SYS / # / OBS TYPES
R   16 C1C L1C D1C S1C C1P L1P D1P S1P C2P L2P D2P S2P C2C  SYS / # / OBS TYPES
       L2C D2C S2C                                          SYS / # / OBS TYPES
    14                                                      # OF SATELLITES
   G04   906   906   906   906   906   906   906   906   906PRN / # OF OBS
         906   906   906   906   906   906   906            PRN / # OF OBS
   G06   906   906   906   906   906   906   906   906   906PRN / # OF OBS
         906   906   906   906   906   906   906            PRN / # OF OBS
   G07   906   906   906   906   906   906   906   906   906PRN / # OF OBS
         906   906   906   906   906   906   906            PRN / # OF OBS
   G09   906   906   906   906   906   906   906   906   906PRN / # OF OBS
         906   906   906   906   906   906   906            PRN / # OF OBS
   G11   906   906   906   906   906   906   906   906   906PRN / # OF OBS
         906   906   906   906   906   906   906            PRN / # OF OBS
   G17   906   906   906   906   906   906   906   906   906PRN / # OF OBS
         906   906   906   906   906   906   906            PRN / # OF OBS
   G19   906   906   906   906   906   906   906   906   906PRN / # OF OBS
         906   906   906     0     0     0     0            PRN / # OF OBS
   G20   906   906   906   906   906   906   906   906   906PRN / # OF OBS
         906   906   906     0     0     0     0            PRN / # OF OBS
   G30   906   906   906   906   906   906   906   906   906PRN / # OF OBS
         906   906   906   906   906   906   906            PRN / # OF OBS
   R04   302   302   302   302   302   302   302   302   302PRN / # OF OBS
         302   302   302   302   302   302   302            PRN / # OF OBS
   R05   906   906   906   906   906   906   906   906   906PRN / # OF OBS
         906   906   906   906   906   906   906            PRN / # OF OBS
   R06   906   906   906   906   906   906   906   906     0PRN / # OF OBS
           0     0     0     0     0     0     0            PRN / # OF OBS
   R07   188   188   188   188   188   188   188   188   188PRN / # OF OBS
         188   188   188   188   188   188   188            PRN / # OF OBS
   R21   906   906   906   906   906   906   906   906   906PRN / # OF OBS
         906   906   906   906   906   906   906            PRN / # OF OBS
G L1C                                                       SYS / PHASE SHIFT
G L1W -0.25000                                              SYS / PHASE SHIFT
G L2W  0.00000                                              SYS / PHASE SHIFT
G L2X  0.25000                                              SYS / PHASE SHIFT
R L1C                                                       SYS / PHASE SHIFT
R L1P -0.25000                                              SYS / PHASE SHIFT
R L2P -0.25000                                              SYS / PHASE SHIFT
R L2C                                                       SYS / PHASE SHIFT
  5 R04  6 R05  1 R06 -4 R07  5 R21  4                      GLONASS SLOT / FRQ #
                                                            GLONASS COD/PHS/BIS
    18    18  1929     7GPS                                 LEAP SECONDS
                                                            END OF HEADER
> 2024 07 31 14 15  2.0000000  0 13
R06  20904352.180   111549632.136 6      3957.512          38.687    20904351.440   111549632.139 6      3957.512          37.375
G20  23764417.420   124882856.955 6      4748.469          39.562    23764415.420   124882856.960 4      4748.469          26.875    23764424.800    97311330.438 4      3700.106          26.500
G07  22239119.080   116867365.588 7      4307.819          44.875    22239117.900   116867365.585 7      4307.819          43.250    22239130.320    91065526.796 7      3356.742          43.062    22239130.760    91065543.806 7      3356.742          45.937
G06  20295910.620   106655727.132 8      3611.565          49.125    20295909.720   106655727.140 8      3611.565          50.500    20295916.640    83108384.565 8      2814.206          51.000    20295917.640    83108388.566 8      2814.206          51.250
G09  20552814.640   108005767.445 8       875.327          48.625    20552813.800   108005767.452 8       875.327          49.937    20552820.740    84160362.367 8       682.073          50.250    20552821.300    84160365.371 8       682.073          50.437
G11  22781429.040   119717215.678 7      5570.233          44.000    22781428.140   119717215.688 5      5570.233          33.250    22781434.160    93286158.929 5      4340.441          33.062    22781434.880    93286171.934 7      4340.441          47.687
G04  23087270.940   121324424.499 7      -516.423          42.500    23087270.320   121324424.509 4      -516.423          29.125    23087278.880    94538544.018 4      -402.408          29.000    23087279.680    94538545.986 7      -402.408          45.562
R21  21613102.900   115656077.788 7      6309.818          45.125    21613103.980   115656077.795 7      6309.818          44.375    21613116.040    89954787.289 8      4907.636          48.937    21613115.620    89954784.291 8      4907.636          48.937
G30  23297079.080   122426971.183 6      5563.537          41.625    23297078.260   122426971.185 6      5563.537          40.687    23297095.480    95397710.271 6      4335.224          40.500    23297095.860    95397716.274 7      4335.224          45.062
R05  20372359.240   108901932.267 8       407.609          49.500    20372359.180   108901932.274 7       407.609          47.875    20372369.640    84701544.205 8       317.029          49.750    20372369.660    84701547.204 8       317.029          49.687
R04  23796727.760   127430408.592 6      -625.547          40.437    23796730.320   127430408.653 6      -625.547          39.312    23796745.560    99112596.028 7      -486.537          43.812    23796744.920    99112598.038 7      -486.537          43.562
G19  21265325.100   111750024.613 7       228.825          47.437    21265323.080   111750024.616 6       228.825          38.250    21265331.660    87077968.033 6       178.306          38.437
G17  22425000.860   117844174.587 7      -278.725          43.750    22424998.720   117844174.586 7      -278.725          42.437    22425014.140    91826683.174 7      -217.189          42.187    22425014.680    91826680.175 7      -217.189          46.437
> 2024 07 31 14 15  3.0000000  0 13
R06  20903610.780   111545675.006 6      3956.976          38.312    20903610.420   111545675.017 6      3956.976          37.062
G20  23763513.720   124878108.408 6      4748.793          39.500    23763511.680   124878108.410 4      4748.793          26.875    23763521.200    97307630.272 4      3700.358          26.875
G07  22238299.200   116863058.043 7      4307.425          44.812    22238298.140   116863058.045 7      4307.425          42.875    22238310.680    91062170.276 7      3356.435          42.687    22238310.760    91062187.290 7      3356.435          45.937
G06  20295223.220   106652115.743 8      3611.146          48.250    20295222.500   106652115.751 8      3611.146          49.750    20295229.380    83105570.496 8      2813.880          50.625    20295230.420    83105574.496 8      2813.880          51.375
G09  20552648.180   108004892.363 8       874.967          48.000    20552647.300   108004892.368 8       874.967          49.500    20552654.280    84159680.481 8       681.793          50.000    20552654.800    84159683.485 8       681.793          50.062
G11  22780369.120   119711645.514 7      5570.364          44.062    22780368.460   119711645.516 5      5570.364          33.250    22780374.380    93281818.541 5      4340.543          33.062    22780374.860    93281831.530 7      4340.543          47.625
G04  23087369.500   121324941.027 6      -516.486          41.937    23087368.600   121324941.037 4      -516.486          29.125    23087377.180    94538946.501 4      -402.457          28.750    23087377.920    94538948.487 7      -402.457          45.062
R21  21611923.700   115649768.157 7      6309.572          43.937    21611924.280   115649768.174 7      6309.572          44.125    21611936.920    89949879.810 8      4907.445          48.562    21611936.880    89949876.816 8      4907.445          48.375
G30  23296020.500   122421407.850 6      5563.211          41.437    23296019.400   122421407.861 6      5563.211          40.437    23296036.800    95393375.213 6      4334.970          39.437    23296037.180    95393381.216 7      4334.970          44.687
R05  20372283.080   108901524.772 8       407.411          48.812    20372283.100   108901524.773 7       407.411          47.812    20372293.480    84701227.256 8       316.875          49.937    20372293.260    84701230.254 8       316.875          49.500
R04  23796844.640   127431034.008 6      -625.240          40.125    23796847.440   127431034.052 6      -625.240          39.312    23796862.080    99113082.450 7      -486.297          43.312    23796861.740    99113084.454 7      -486.297          43.500
G19  21265281.540   111749796.014 7       228.451          46.750    21265279.540   111749796.014 6       228.451          38.375    21265288.160    87077789.894 6       178.014          38.625
G17  22425054.120   117844453.469 7      -278.855          44.000    22425051.480   117844453.482 7      -278.855          42.375    22425067.160    91826900.489 7      -217.289          42.250    22425067.860    91826897.496 7      -217.289          46.312
> 2024 07 31 14 15  4.0000000  0 13
R06  20902869.880   111541718.249 6      3956.425          38.312    20902868.500   111541718.255 6      3956.425          37.062
G20  23762609.780   124873359.810 6      4748.601          38.875    23762608.140   124873359.815 4      4748.601          26.875    23762617.560    97303930.070 4      3700.209          26.875
G07  22237479.980   116858750.788 7      4307.020          45.250    22237478.500   116858750.795 7      4307.020          43.000    22237490.960    91058813.987 7      3356.120          42.562    22237491.400    91058831.001 7      3356.120          45.750
G06  20294536.120   106648504.759 8      3610.650          48.937    20294535.360   106648504.764 8      3610.650          50.250    20294542.260    83102756.739 8      2813.493          50.875    20294543.420    83102760.740 8      2813.493          51.375
G09  20552481.760   108004017.621 8       874.491          48.437    20552480.800   108004017.628 8       874.491          50.000    20552487.800    84158998.865 8       681.421          50.125    20552488.280    84159001.865 8       681.421          50.312
G11  22779308.820   119706075.452 7      5569.947          44.187    22779308.320   119706075.454 5      5569.947          33.250    22779314.480    93277478.239 5      4340.219          32.875    22779315.080    93277491.243 7      4340.219          47.312
G04  23087467.720   121325457.633 7      -516.626          43.375    23087466.920   121325457.649 4      -516.626          28.625    23087475.520    94539349.054 4      -402.566          28.750    23087475.920    94539351.048 7      -402.566          44.250
R21  21610744.660   115643458.868 7      6309.007          44.250    21610744.960   115643458.896 7      6309.007          43.875    21610757.880    89944972.602 8      4907.005          49.000    21610757.540    89944969.606 8      4907.005          48.625
G30  23294961.540   122415844.468 6      5563.328          41.437    23294960.520   122415844.473 6      5563.328          40.750    23294978.160    95389040.109 6      4335.061          40.062    23294978.440    95389046.117 7      4335.061          45.125
R05  20372207.020   108901117.401 8       407.226          49.062    20372206.880   108901117.400 8       407.226          48.500    20372217.320    84700910.410 8       316.731          49.750    20372217.140    84700913.411 8       316.731          49.500
R04  23796961.260   127431659.212 6      -625.253          40.125    23796964.220   127431659.257 6      -625.253          39.312    23796979.220    99113568.718 7      -486.308          43.250    23796978.140    99113570.724 7      -486.308          43.500
G19  21265237.780   111749567.830 7       227.898          46.125    21265236.260   111749567.830 6       227.898          38.687    21265244.800    87077612.080 6       177.583          38.687
G17  22425107.100   117844732.511 7      -279.196          44.375    22425104.520   117844732.519 7      -279.196          42.375    22425120.140    91827117.918 6      -217.556          41.812    22425120.900    91827114.927 7      -217.556          46.437
> 2024 07 31 14 15  5.0000000  0 13
R06  20902127.760   111537761.986 6      3956.083          38.312    20902127.440   111537761.981 6      3956.083          37.062
G20  23761705.920   124868611.266 6      4748.565          39.562    23761704.640   124868611.273 4      4748.565          26.875    23761713.980    97300229.912 4      3700.181          26.875
G07  22236660.120   116854443.997 7      4306.577          45.062    22236658.880   116854443.999 7      4306.577          42.750    22236671.380    91055458.051 7      3355.774          42.375    22236671.740    91055475.061 7      3355.774          45.750
G06  20293849.160   106644894.313 8      3610.179          48.937    20293848.300   106644894.318 8      3610.179          49.750    20293855.140    83099943.405 8      2813.126          50.500    20293856.320    83099947.406 8      2813.126          51.562
G09  20552315.360   108003143.380 8       873.983          48.125    20552314.460   108003143.387 8       873.983          49.812    20552321.520    84158317.637 8       681.026          50.187    20552322.100    84158320.640 8       681.026          50.125
G11  22778249.360   119700505.606 7      5569.748          43.687    22778248.540   119700505.610 5      5569.748          33.250    22778254.460    93273138.099 5      4340.063          32.875    22778255.040    93273151.103 7      4340.063          47.500
G04  23087566.180   121325974.482 6      -516.990          41.687    23087565.180   121325974.495 4      -516.990          28.625    23087573.800    94539751.789 4      -402.849          28.750    23087574.100    94539753.781 7      -402.849          44.000
R21  21609565.660   115637150.025 7      6308.670          44.250    21609566.180   115637150.051 7      6308.670          44.312    21609578.740    89940065.727 8      4906.743          48.687    21609578.700    89940062.728 7      4906.743          47.812
G30  23293902.880   122410281.274 6      5563.256          41.500    23293901.660   122410281.282 6      5563.256          39.875    23293919.500    95384705.154 6      4335.005          39.375    23293920.000    95384711.155 7      4335.005          45.000
R05  20372130.940   108900710.339 8       406.937          49.500    20372130.640   108900710.343 8       406.937          48.437    20372141.180    84700593.804 8       316.506          49.687    20372141.240    84700596.802 8       316.506          49.625
R04  23797078.080   127432284.344 6      -625.143          40.125    23797080.140   127432284.389 6      -625.143          38.750    23797095.300    99114054.932 7      -486.222          43.062    23797095.020    99114056.938 7      -486.222          43.562
G19  21265194.360   111749340.179 7       227.427          46.562    21265192.860   111749340.181 6       227.427          38.750    21265201.580    87077434.681 6       177.216          38.562
G17  22425160.300   117845011.814 7      -279.393          44.125    22425157.740   117845011.819 7      -279.393          42.125    22425173.420    91827335.551 6      -217.709          41.625    22425174.100    91827332.553 7      -217.709          46.375
> 2024 07 31 14 15  6.0000000  0 13
R06  20901386.540   111533806.256 6      3955.639          38.312    20901385.720   111533806.244 6      3955.639          37.062
G20  23760802.740   124863862.755 6      4748.636          40.250    23760801.040   124863862.760 4      4748.636          26.875    23760810.380    97296529.776 4      3700.236          26.875
G07  22235840.560   116850137.616 7      4306.185          45.000    22235839.340   116850137.621 7      4306.185          42.562    22235851.940    91052102.437 7      3355.469          42.625    22235852.400    91052119.450 7      3355.469          46.312
G06  20293162.120   106641284.398 8      3609.804          49.937    20293161.400   106641284.400 8      3609.804          50.250    20293168.200    83097130.480 8      2812.834          50.562    20293169.160    83097134.481 8      2812.834          50.937
G09  20552149.080   108002269.586 8       873.637          48.687    20552148.180   108002269.593 8       873.637          49.812    20552155.240    84157636.758 8       680.756          50.000    20552155.620    84157639.760 8       680.756          49.812
G11  22777189.420   119694935.954 7      5569.644          44.125    22777188.740   119694935.961 5      5569.644          33.375    22777194.540    93268798.119 5      4339.983          33.062    22777195.540    93268811.122 7      4339.983          47.375
G04  23087664.480   121326491.475 6      -516.955          41.875    23087663.440   121326491.488 4      -516.955          28.625    23087672.060    94540154.633 4      -402.822          28.750    23087672.340    94540156.637 7      -402.822          44.125
R21  21608386.960   115630841.632 7      6308.257          44.875    21608387.500   115630841.658 7      6308.257          43.625    21608399.900    89935159.201 8      4906.422          48.875    21608399.680    89935156.198 8      4906.422          48.500
G30  23292844.700   122404718.233 6      5563.076          41.375    23292843.220   122404718.238 6      5563.076          40.062    23292860.820    95380370.323 6      4334.864          40.125    23292861.280    95380376.324 7      4334.864          44.875
R05  20372054.980   108900303.549 8       406.756          49.187    20372054.740   108900303.547 8       406.756          48.187    20372064.980    84700277.410 8       316.366          49.625    20372065.160    84700280.410 8       316.366          49.562
R04  23797195.320   127432909.401 6      -625.189          40.125    23797196.140   127432909.446 6      -625.189          38.750    23797211.920    99114541.094 7      -486.258          42.750    23797211.700    99114543.095 7      -486.258          43.125
G19  21265151.460   111749113.067 8       226.923          48.062    21265149.580   111749113.069 6       226.923          39.062    21265158.400    87077257.701 6       176.823          39.000
G17  22425213.560   117845291.371 7      -279.574          43.687    22425210.860   117845291.379 7      -279.574          42.312    22425226.660    91827553.383 6      -217.850          41.875    22425227.480    91827550.390 7      -217.850          46.062
> 2024 07 31 14 15  7.0000000  0 13
R06  20900645.820   111529850.943 6      3954.788          38.375    20900644.280   111529850.936 6      3954.788          37.062
G20  23759899.180   124859114.174 6      4748.547          39.562    23759897.560   124859114.176 4      4748.547          26.875    23759906.920    97292829.587 4      3700.167          26.875
G07  22235021.060   116845831.546 7      4305.758          44.812    22235019.880   116845831.551 7      4305.758          42.250    22235032.340    91048747.068 7      3355.136          42.187    22235032.900    91048764.078 7      3355.136          45.250
G06  20292475.160   106637674.924 8      3609.067          49.375    20292474.500   106637674.924 8      3609.067          48.812    20292481.420    83094317.903 8      2812.260          48.875    20292482.480    83094321.904 8      2812.260          49.500
G09  20551982.860   108001396.172 8       872.998          48.125    20551981.960   108001396.177 8       872.998          49.375    20551989.080    84156956.174 8       680.258          49.375    20551989.620    84156959.178 8       680.258          48.500
G11  22776129.100   119689366.444 7      5569.243          43.875    22776128.840   119689366.449 5      5569.243          33.375    22776134.860    93264458.243 5      4339.670          33.062    22776135.620    93264471.236 7      4339.670          46.500
G04  23087762.780   121327008.584 6      -517.327          40.375    23087761.920   121327008.591 4      -517.327          28.625    23087770.480    94540557.568 4      -403.112          28.687    23087770.980    94540559.577 7      -403.112          44.437
R21  21607208.140   115624533.587 7      6307.663          44.375    21607208.640   115624533.605 7      6307.663          43.625    21607221.120    89930252.942 7      4905.960          47.375    21607220.720    89930249.945 7      4905.960          46.875
G30  23291785.940   122399155.185 6      5563.036          41.687    23291784.780   122399155.189 6      5563.036          39.937    23291802.060    95376035.479 6      4334.833          39.562    23291802.520    95376041.485 7      4334.833          44.812
R05  20371978.880   108899896.922 8       406.370          49.062    20371978.800   108899896.920 8       406.370          48.312    20371989.020    84699961.142 8       316.065          48.312    20371989.000    84699964.140 7       316.065          47.875
R04  23797311.640   127433534.140 6      -624.756          39.062    23797312.680   127433534.179 6      -624.756          38.750    23797328.300    99115026.997 7      -485.922          42.250    23797328.160    99115029.001 7      -485.922          42.500
G19  21265108.320   111748886.354 7       226.403          46.750    21265106.540   111748886.359 6       226.403          38.250    21265115.140    87077081.037 6       176.418          37.937
G17  22425266.640   117845571.091 7      -279.985          43.812    22425264.220   117845571.104 7      -279.985          42.312    22425279.800    91827771.347 6      -218.170          41.937    22425280.400    91827768.346 7      -218.170          45.687
> 2024 07 31 14 15  8.0000000  0 13
R06  20899904.940   111525896.094 6      3954.475          38.375    20899903.760   111525896.071 6      3954.475          37.312
G20  23758995.640   124854365.629 6      4748.434          39.812    23758993.980   124854365.634 4      4748.434          27.187    23759003.300    97289129.426 4      3700.078          27.062
G07  22234201.800   116841525.885 7      4305.399          45.062    22234200.420   116841525.892 7      4305.399          43.000    22234212.980    91045392.016 7      3354.856          42.562    22234213.400    91045409.026 7      3354.856          45.625
G06  20291788.340   106634065.931 8      3608.749          49.187    20291787.720   106634065.934 8      3608.749          50.125    20291794.600    83091505.697 8      2812.012          50.000    20291795.540    83091509.698 8      2812.012          51.750
G09  20551816.600   108000523.195 8       872.718          48.812    20551815.760   108000523.200 8       872.718          50.375    20551822.880    84156275.928 8       680.040          50.062    20551823.320    84156278.930 8       680.040          50.375
G11  22775069.680   119683797.092 7      5569.143          43.937    22775069.120   119683797.094 5      5569.143          33.125    22775074.960    93260118.486 5      4339.592          33.000    22775075.800    93260131.485 7      4339.592          47.312
G04  23087861.200   121327525.826 6      -517.325          40.312    23087860.260   121327525.834 4      -517.325          28.812    23087869.020    94540960.610 4      -403.110          28.687    23087869.800    94540962.619 7      -403.110          45.000
R21  21606029.080   115618226.002 7      6307.247          43.437    21606029.820   115618226.028 7      6307.247          44.250    21606042.300    89925347.049 8      4905.636          48.687    21606042.280    89925344.050 8      4905.636          48.375
G30  23290727.100   122393592.301 6      5562.920          41.437    23290726.220   122393592.306 6      5562.920          40.375    23290743.560    95371700.763 6      4334.743          39.750    23290743.860    95371706.770 7      4334.743          44.437
R05  20371903.160   108899490.546 8       406.197          49.125    20371902.480   108899490.544 8       406.197          48.375    20371912.980    84699645.070 8       315.931          49.562    20371913.140    84699648.066 8       315.931          49.875
R04  23797428.860   127434158.795 6      -624.556          39.062    23797429.060   127434158.837 6      -624.556          38.750    23797444.720    99115512.834 7      -485.766          42.250    23797444.760    99115514.840 6      -485.766          41.812
G19  21265065.540   111748660.167 7       225.958          47.062    21265063.520   111748660.172 6       225.958          38.437    21265072.240    87076904.777 6       176.071          38.500
G17  22425319.740   117845851.035 7      -280.008          42.750    22425317.480   117845851.043 7      -280.008          42.562    22425333.000    91827989.475 7      -218.188          42.062    22425333.780    91827986.478 7      -218.188          46.062
> 2024 07 31 14 15  9.0000000  0 13
R06  20899163.520   111521941.786 6      3953.842          38.375    20899162.700   111521941.771 6      3953.842          37.312
G20  23758091.760   124849617.163 6      4748.418          40.812    23758090.300   124849617.168 4      4748.418          27.187    23758099.700    97285429.329 4      3700.066          27.062
G07  22233382.560   116837220.731 7      4304.882          44.875    22233381.180   116837220.739 7      4304.882          42.937    22233393.760    91042037.357 7      3354.453          43.062    22233394.220    91042054.367 7      3354.453          45.750
G06  20291101.620   106630457.561 8      3608.071          49.437    20291101.040   106630457.563 8      3608.071          50.062    20291108.020    83088693.982 8      2811.484          50.562    20291109.020    83088697.983 8      2811.484          51.375
G09  20551650.580   107999650.775 8       872.128          48.125    20551649.780   107999650.780 8       872.128          50.375    20551656.900    84155596.121 8       679.581          50.000    20551657.280    84155599.120 8       679.581          50.000
G11  22774009.920   119678228.018 7      5568.900          44.625    22774009.160   119678228.023 5      5568.900          33.125    22774015.260    93255778.950 5      4339.402          33.000    22774015.880    93255791.951 7      4339.402          47.812
G04  23087959.580   121328043.347 7      -517.653          42.250    23087958.800   121328043.355 4      -517.653          28.812    23087967.640    94541363.867 4      -403.366          28.687    23087968.880    94541365.874 7      -403.366          45.625
R21  21604850.880   115611918.969 7      6306.727          45.375    21604851.440   115611918.986 7      6306.727          44.625    21604863.820    89920441.574 8      4905.232          48.437    21604863.620    89920438.575 8      4905.232          48.687
G30  23289668.320   122388029.626 6      5562.548          41.125    23289667.560   122388029.623 6      5562.548          40.125    23289685.060    95367366.208 6      4334.453          39.500    23289685.260    95367372.214 7      4334.453          44.312
R05  20371826.760   108899084.525 8       405.781          48.875    20371826.660   108899084.532 8       405.781          48.812    20371837.100    84699329.278 8       315.607          49.750    20371837.180    84699332.275 8       315.607          50.125
R04  23797544.900   127434783.413 6      -624.586          39.062    23797546.480   127434783.458 6      -624.586          38.750    23797561.580    99115998.657 7      -485.789          42.000    23797561.240    99116000.656 6      -485.789          41.812
G19  21265022.580   111748434.587 7       225.317          46.875    21265020.580   111748434.592 6       225.317          38.437    21265029.280    87076728.992 6       175.571          38.437
G17  22425373.320   117846131.331 7      -280.480          42.937    22425370.820   117846131.343 7      -280.480          42.500    22425386.480    91828207.885 6      -218.556          41.937    22425386.900    91828204.892 7      -218.556          46.312
> 2024 07 31 14 15 10.0000000  0 13
R06  20898422.080   111517987.925 6      3953.700          38.375    20898421.160   111517987.931 6      3953.700          37.312
G20  23757188.280   124844868.721 6      4748.599          41.062    23757186.800   124844868.726 4      4748.599          27.187    23757196.100    97281729.246 4      3700.207          27.062
G07  22232563.260   116832915.980 7      4304.622          45.062    22232562.040   116832915.987 7      4304.622          42.937    22232574.660    91038683.009 7      3354.251          42.562    22232575.020    91038700.023 7      3354.251          46.250
G06  20290415.100   106626849.706 8      3607.638          49.062    20290414.540   106626849.708 8      3607.638          49.937    20290421.460    83085882.662 8      2811.146          50.562    20290422.460    83085886.661 8      2811.146          51.750
G09  20551484.600   107998778.792 8       871.839          48.000    20551483.820   107998778.802 8       871.839          50.062    20551490.980    84154916.653 8       679.355          50.687    20551491.320    84154919.652 8       679.355          49.875
G11  22772950.180   119672659.149 7      5568.809          44.000    22772949.440   119672659.154 5      5568.809          33.375    22772955.340    93251439.572 5      4339.332          33.125    22772956.340    93251452.573 7      4339.332          47.375
G04  23088058.400   121328561.037 7      -517.714          42.937    23088057.260   121328561.049 4      -517.714          28.812    23088065.880    94541767.262 4      -403.413          28.687    23088067.240    94541769.260 7      -403.413          45.687
R21  21603672.160   115605612.323 7      6306.445          44.687    21603672.760   115605612.340 7      6306.445          44.062    21603685.140    89915536.405 8      4905.013          48.750    21603684.960    89915533.406 8      4905.013          48.625
G30  23288609.260   122382467.036 6      5562.851          40.500    23288608.900   122382467.033 6      5562.851          39.812    23288626.320    95363031.719 6      4334.689          39.500    23288627.280    95363037.729 7      4334.689          44.312
R05  20371750.940   108898678.708 7       405.800          47.812    20371750.620   108898678.712 7       405.800          47.812    20371761.220    84699013.639 8       315.622          49.375    20371761.280    84699016.635 8       315.622          50.062
R04  23797661.960   127435407.892 6      -624.313          39.062    23797662.780   127435407.931 6      -624.313          38.187    23797678.020    99116484.358 7      -485.577          42.187    23797678.120    99116486.366 7      -485.577          42.187
G19  21264979.700   111748209.527 7       224.870          47.375    21264977.760   111748209.532 6       224.870          38.250    21264986.400    87076553.608 6       175.223          38.250
G17  22425426.480   117846411.847 7      -280.557          44.125    22425424.240   117846411.860 7      -280.557          42.250    22425439.840    91828426.461 7      -218.616          42.187    22425440.120    91828423.466 7      -218.616          46.125
> 2024 07 31 14 15 11.0000000  0 13
R06  20897681.340   111514034.623 6      3953.191          38.625    20897680.520   111514034.619 6      3953.191          37.312
G20  23756284.880   124840120.326 6      4748.572          40.687    23756283.300   124840120.329 4      4748.572          27.187    23756292.480    97278029.198 4      3700.186          27.062
G07  22231744.240   116828611.661 7      4304.221          44.187    22231742.900   116828611.666 7      4304.221          42.375    22231755.640    91035329.003 7      3353.938          42.250    22231756.040    91035346.013 7      3353.938          45.875
G06  20289728.760   106623242.366 8      3607.217          49.875    20289728.080   106623242.368 8      3607.217          50.187    20289734.980    83083071.748 8      2810.818          50.937    20289735.980    83083075.751 8      2810.818          51.625
G09  20551318.800   107997907.302 8       871.390          48.062    20551317.940   107997907.309 8       871.390          49.750    20551325.160    84154237.568 8       679.005          50.250    20551325.540    84154240.567 8       679.005          50.062
G11  22771890.740   119667090.485 7      5568.586          44.250    22771889.800   119667090.495 5      5568.586          33.375    22771895.600    93247100.361 5      4339.158          33.125    22771896.620    93247113.361 7      4339.158          47.562
G04  23088157.060   121329078.941 7      -517.916          43.187    23088155.860   121329078.957 4      -517.916          28.812    23088164.560    94542170.820 4      -403.571          29.062    23088166.060    94542172.810 7      -403.571          45.687
R21  21602493.460   115599306.084 7      6306.130          44.687    21602493.880   115599306.104 7      6306.130          44.500    21602506.820    89910631.563 8      4904.768          48.687    21602506.580    89910628.566 8      4904.768          48.500
G30  23287551.120   122376904.618 6      5562.749          41.000    23287550.120   122376904.613 6      5562.749          39.500    23287567.860    95358697.365 6      4334.610          39.312    23287568.420    95358703.373 7      4334.610          44.312
R05  20371674.900   108898273.156 8       405.565          49.687    20371674.980   108898273.168 8       405.565          49.000    20371685.280    84698698.211 8       315.440          49.875    20371685.320    84698701.207 8       315.440          49.687
R04  23797779.000   127436032.253 6      -624.026          39.750    23797780.040   127436032.273 6      -624.026          38.187    23797794.740    99116969.964 7      -485.353          42.437    23797794.160    99116971.969 7      -485.353          42.375
G19  21264937.220   111747984.984 7       224.427          46.687    21264935.060   111747984.989 6       224.427          38.187    21264943.820    87076378.630 6       174.878          38.687
G17  22425480.000   117846692.637 7      -280.755          44.875    22425477.800   117846692.644 7      -280.755          42.312    22425493.200    91828645.250 7      -218.770          42.125    22425493.540    91828642.253 7      -218.770          46.562
> 2024 07 31 14 15 12.0000000  0 13
R06  20896940.120   111510081.658 6      3952.672          38.625    20896940.300   111510081.656 6      3952.672          37.312
G20  23755380.920   124835371.834 6      4748.521          40.625    23755379.880   124835371.837 4      4748.521          27.687    23755388.880    97274329.079 4      3700.146          27.062
G07  22230925.260   116824307.614 7      4303.906          45.125    22230923.740   116824307.616 7      4303.906          42.687    22230936.660    91031975.204 7      3353.693          42.312    22230937.220    91031992.210 7      3353.693          46.375
G06  20289042.320   106619635.415 8      3606.732          49.500    20289041.660   106619635.417 8      3606.732          51.187    20289048.660    83080261.136 8      2810.441          51.375    20289049.760    83080265.133 8      2810.441          51.687
G09  20551152.980   107997036.127 8       871.012          48.687    20551152.240   107997036.130 8       871.012          50.500    20551159.320    84153558.724 8       678.711          50.062    20551159.640    84153561.724 8       678.711          50.125
G11  22770831.040   119661521.866 7      5568.675          44.062    22770830.120   119661521.873 5      5568.675          33.250    22770836.080    93242761.178 5      4339.227          33.250    22770836.960    93242774.173 7      4339.227          47.687
G04  23088255.360   121329596.857 7      -517.917          42.125    23088254.500   121329596.872 4      -517.917          28.875    23088263.040    94542574.388 4      -403.572          29.062    23088264.160    94542576.384 7      -403.572          45.000
R21  21601315.060   115593000.155 7      6305.674          45.062    21601315.580   115593000.178 7      6305.674          44.500    21601328.360    89905726.956 8      4904.413          48.812    21601328.060    89905723.957 8      4904.413          48.125
G30  23286492.560   122371342.210 6      5562.277          41.187    23286491.640   122371342.210 6      5562.277          39.937    23286509.340    95354363.030 6      4334.242          39.562    23286510.180    95354369.025 7      4334.242          44.375
R05  20371599.200   108897867.734 8       405.342          49.062    20371599.000   108897867.738 8       405.342          48.812    20371609.500    84698382.877 8       315.266          49.687    20371609.420    84698385.873 8       315.266          49.625
R04  23797895.000   127436656.370 6      -624.055          39.750    23797895.900   127436656.407 6      -624.055          38.187    23797911.280    99117455.403 7      -485.376          42.437    23797911.020    99117457.415 7      -485.376          42.812
G19  21264894.420   111747760.834 7       223.922          46.687    21264892.560   111747760.833 6       223.922          38.250    21264901.280    87076203.957 6       174.485          38.687
G17  22425533.600   117846973.534 7      -281.016          44.625    22425531.180   117846973.542 7      -281.016          42.625    22425546.520    91828864.127 7      -218.973          42.062    22425546.960    91828861.128 7      -218.973          46.250
> 2024 07 31 14 15 13.0000000  0 13
R06  20896199.420   111506129.146 6      3952.470          38.625    20896199.320   111506129.147 6      3952.470          37.375
G20  23754477.520   124830623.332 6      4748.539          39.750    23754476.300   124830623.329 4      4748.539          27.687    23754485.140    97270628.945 4      3700.161          27.625
G07  22230106.360   116820003.974 7      4303.465          45.062    22230104.600   116820003.976 7      4303.465          42.812    22230117.640    91028621.730 7      3353.349          42.937    22230118.240    91028638.736 7      3353.349          46.062
G06  20288355.960   106616028.971 8      3606.244          48.875    20288355.380   106616028.970 8      3606.244          50.562    20288362.360    83077450.918 8      2810.060          51.000    20288363.280    83077454.917 8      2810.060          51.500
G09  20550987.300   107996165.397 8       870.576          48.437    20550986.500   107996165.404 8       870.576          50.187    20550993.620    84152880.235 8       678.371          50.500    20550993.940    84152883.237 8       678.371          50.312
G11  22769771.300   119655953.449 7      5568.474          44.625    22769770.540   119655953.454 5      5568.474          33.062    22769776.460    93238422.150 5      4339.071          33.250    22769777.560    93238435.151 7      4339.071          47.437
G04  23088353.960   121330114.966 7      -518.143          42.562    23088353.100   121330114.979 4      -518.143          28.875    23088361.820    94542978.100 4      -403.747          29.062    23088362.600    94542980.092 7      -403.747          45.125
R21  21600136.680   115586694.652 7      6305.391          45.062    21600137.380   115586694.675 7      6305.391          44.250    21600149.960    89900822.682 8      4904.193          48.500    21600149.660    89900819.681 8      4904.193          48.500
G30  23285434.260   122365779.908 6      5562.170          40.687    23285433.040   122365779.910 6      5562.170          39.812    23285450.820    95350028.770 6      4334.158          39.375    23285451.240    95350034.777 7      4334.158          44.062
R05  20371523.260   108897462.582 8       405.099          49.437    20371523.220   108897462.584 8       405.099          49.000    20371533.720    84698067.755 8       315.077          49.812    20371533.580    84698070.751 8       315.077          49.812
R04  23798012.080   127437280.383 6      -623.827          39.750    23798012.900   127437280.411 6      -623.827          38.187    23798027.960    99117940.744 7      -485.199          42.562    23798027.640    99117942.748 7      -485.199          42.687
G19  21264851.760   111747537.161 7       223.613          46.187    21264849.940   111747537.163 6       223.613          38.250    21264858.760    87076029.658 6       174.244          38.500
G17  22425587.040   117847254.663 7      -281.205          43.625    22425584.780   117847254.668 7      -281.205          42.187    22425600.140    91829083.182 7      -219.121          42.000    22425600.620    91829080.189 7      -219.121          46.500
> 2024 07 31 14 15 14.0000000  0 13
R06  20895458.460   111502176.992 6      3951.917          38.625    20895458.540   111502176.990 6      3951.917          37.375
G20  23753573.980   124825874.690 6      4748.512          39.625    23753572.840   124825874.692 4      4748.512          27.687    23753581.480    97266928.714 4      3700.139          27.625
G07  22229287.500   116815700.546 7      4303.122          45.062    22229285.700   116815700.554 7      4303.122          42.625    22229298.780    91025268.421 7      3353.082          42.562    22229299.300    91025285.429 7      3353.082          46.312
G06  20287669.920   106612422.868 8      3605.721          50.000    20287669.120   106612422.873 8      3605.721          50.500    20287676.160    83074640.968 8      2809.652          50.687    20287677.200    83074644.971 8      2809.652          51.500
G09  20550821.640   107995294.945 8       870.160          48.500    20550820.840   107995294.950 8       870.160          50.000    20550828.020    84152201.959 8       678.047          49.750    20550828.160    84152204.961 8       678.047          49.875
G11  22768711.800   119650385.077 7      5568.106          44.375    22768710.860   119650385.079 5      5568.106          33.062    22768716.780    93234083.164 5      4338.784          33.250    22768717.780    93234096.157 7      4338.784          47.375
G04  23088452.240   121330633.050 6      -518.217          41.875    23088451.640   121330633.068 4      -518.217          28.875    23088460.460    94543381.797 4      -403.806          29.062    23088461.340    94543383.785 7      -403.806          45.375
R21  21598958.620   115580389.480 7      6304.866          44.750    21598958.620   115580389.498 7      6304.866          44.062    21598971.800    89895918.657 8      4903.784          48.687    21598971.520    89895915.657 8      4903.784          48.187
G30  23284375.480   122360217.497 6      5562.368          40.562    23284374.720   122360217.497 6      5562.368          39.687    23284392.360    95345694.426 6      4334.313          39.625    23284393.040    95345700.428 7      4334.313          43.875
R05  20371447.620   108897057.524 8       404.874          49.500    20371447.520   108897057.528 8       404.874          48.937    20371457.880    84697752.709 8       314.902          49.375    20371458.000    84697755.706 8       314.902          49.937
R04  23798128.160   127437904.099 6      -623.693          39.750    23798129.040   127437904.127 6      -623.693          38.187    23798144.760    99118425.856 7      -485.094          42.437    23798144.320    99118427.862 7      -485.094          43.312
G19  21264809.180   111747313.864 7       222.957          46.250    21264807.380   111747313.866 6       222.957          38.750    21264816.360    87075855.652 6       173.733          38.812
G17  22425640.560   117847535.839 7      -281.336          43.812    22425638.340   117847535.849 7      -281.336          42.687    22425653.760    91829302.278 7      -219.223          42.250    22425653.860    91829299.279 7      -219.223          46.187
> 2024 07 31 14 15 15.0000000  0 13
R06  20894718.160   111498225.400 6      3951.444          38.750    20894718.200   111498225.404 6      3951.444          37.375
G20  23752670.220   124821126.101 6      4748.767          39.687    23752669.240   124821126.103 4      4748.767          27.687    23752677.760    97263228.517 4      3700.338          27.625
G07  22228468.480   116811397.597 7      4302.900          44.812    22228466.820   116811397.602 7      4302.900          42.312    22228479.900    91021915.477 6      3352.909          41.812    22228480.460    91021932.483 7      3352.909          45.937
G06  20286983.680   106608817.338 8      3605.304          49.000    20286983.080   106608817.341 8      3605.304          50.500    20286990.020    83071831.462 8      2809.327          50.750    20286990.960    83071835.461 8      2809.327          51.687
G09  20550656.000   107994424.995 8       869.869          48.125    20550655.300   107994425.002 8       869.869          50.062    20550662.460    84151524.074 8       677.820          50.062    20550662.620    84151527.075 8       677.820          50.125
G11  22767651.980   119644816.891 7      5568.324          44.312    22767651.240   119644816.899 5      5568.324          33.625    22767657.160    93229744.318 5      4338.953          33.250    22767658.000    93229757.316 7      4338.953          47.500
G04  23088551.200   121331151.388 6      -518.452          41.062    23088550.340   121331151.398 4      -518.452          28.875    23088559.020    94543785.693 4      -403.989          29.000    23088560.240    94543787.677 7      -403.989          45.375
R21  21597780.120   115574084.788 7      6304.532          45.062    21597780.820   115574084.811 7      6304.532          44.062    21597793.600    89891015.010 8      4903.525          48.687    21597793.000    89891012.009 8      4903.525          48.562
G30  23283317.220   122354655.329 6      5562.146          41.500    23283316.620   122354655.328 6      5562.146          39.937    23283333.840    95341360.271 6      4334.140          39.687    23283334.660    95341366.278 7      4334.140          43.937
R05  20371371.700   108896652.800 8       404.696          49.437    20371371.820   108896652.807 8       404.696          48.500    20371382.300    84697437.924 8       314.764          49.375    20371382.360    84697440.918 8       314.764          50.000
R04  23798244.320   127438527.694 6      -623.260          40.000    23798245.760   127438527.730 6      -623.260          38.750    23798261.380    99118910.877 7      -484.758          43.000    23798260.700    99118912.887 7      -484.758          43.312
G19  21264766.760   111747091.116 7       222.587          46.937    21264764.800   111747091.121 6       222.587          38.500    21264773.980    87075682.077 6       173.444          38.625
G17  22425693.900   117847817.333 7      -281.490          42.812    22425691.860   117847817.340 7      -281.490          42.812    22425707.420    91829521.616 7      -219.343          42.437    22425707.740    91829518.619 7      -219.343          46.187
> 2024 07 31 14 15 16.0000000  0 13
R06  20893978.240   111494274.303 6      3951.123          38.750    20893977.400   111494274.287 6      3951.123          37.375
G20  23751766.440   124816377.606 6      4748.618          40.875    23751765.620   124816377.603 4      4748.618          27.687    23751774.040    97259528.393 4      3700.221          27.625
G07  22227649.720   116807095.124 7      4302.298          44.625    22227648.060   116807095.126 7      4302.298          42.437    22227661.180    91018562.904 7      3352.440          42.125    22227661.720    91018579.913 7      3352.440          46.437
G06  20286297.820   106605212.368 8      3604.731          49.187    20286297.040   106605212.368 8      3604.731          50.687    20286303.980    83069022.391 8      2808.881          51.000    20286304.920    83069026.390 8      2808.881          51.500
G09  20550490.720   107993555.570 8       869.207          49.187    20550489.820   107993555.578 8       869.207          50.312    20550497.060    84150846.600 8       677.304          50.125    20550497.300    84150849.602 8       677.304          49.875
G11  22766592.660   119639249.005 7      5567.811          44.375    22766591.680   119639249.012 5      5567.811          33.625    22766597.560    93225405.706 5      4338.554          33.375    22766598.260    93225418.709 7      4338.554          47.750
G04  23088649.840   121331669.945 6      -518.651          41.062    23088648.980   121331669.952 4      -518.651          29.062    23088657.980    94544189.746 4      -404.143          29.000    23088658.740    94544191.724 7      -404.143          44.875
R21  21596602.140   115567780.542 7      6304.098          45.250    21596602.980   115567780.570 7      6304.098          44.062    21596615.300    89886111.714 8      4903.188          48.687    21596615.020    89886108.717 8      4903.188          48.250
G30  23282259.160   122349093.307 6      5562.127          41.500    23282258.240   122349093.302 6      5562.127          40.375    23282275.460    95337026.224 6      4334.125          39.625    23282276.960    95337032.223 7      4334.125          44.062
R05  20371296.040   108896248.394 8       404.299          48.875    20371295.940   108896248.398 8       404.299          49.250    20371306.460    84697123.382 8       314.455          50.125    20371306.320    84697126.378 8       314.455          49.937
R04  23798361.460   127439151.217 6      -623.414          40.000    23798362.040   127439151.242 6      -623.414          38.750    23798378.020    99119395.829 7      -484.877          42.812    23798377.520    99119397.834 7      -484.877          43.312
G19  21264724.360   111746868.944 7       221.951          47.125    21264722.700   111746868.943 6       221.951          38.187    21264731.680    87075508.941 6       172.949          38.500
G17  22425747.600   117848099.110 7      -281.804          44.187    22425745.560   117848099.118 7      -281.804          42.812    22425761.100    91829741.177 6      -219.588          41.687    22425760.980    91829738.180 7      -219.588          46.312
> 2024 07 31 14 15 17.0000000  0 13
R06  20893238.220   111490323.466 6      3950.505          38.750    20893237.100   111490323.443 6      3950.505          37.375
G20  23750862.940   124811628.854 6      4748.849          40.250    23750861.960   124811628.856 4      4748.849          27.687    23750870.360    97255828.069 4      3700.402          27.750
G07  22226830.980   116802792.766 7      4302.181          44.625    22226829.400   116802792.768 7      4302.181          42.875    22226842.480    91015210.424 7      3352.349          42.687    22226843.060    91015227.432 7      3352.349          46.125
G06  20285611.880   106601607.632 8      3604.525          48.687    20285611.160   106601607.632 8      3604.525          50.062    20285618.080    83066213.505 8      2808.721          50.812    20285619.060    83066217.508 8      2808.721          51.312
G09  20550325.220   107992686.311 8       868.973          48.437    20550324.480   107992686.321 8       868.973          50.000    20550331.660    84150169.255 8       677.122          49.812    20550331.840    84150172.255 8       677.122          50.375
G11  22765533.040   119633681.014 7      5567.934          44.500    22765532.080   119633681.019 5      5567.934          33.500    22765537.980    93221067.013 5      4338.650          33.375    22765538.680    93221080.011 7      4338.650          47.687
G04  23088748.460   121332188.364 6      -518.427          41.500    23088747.620   121332188.372 4      -518.427          29.062    23088756.440    94544593.712 4      -403.969          29.000    23088756.680    94544595.708 7      -403.969          44.562
R21  21595424.180   115561476.444 7      6303.909          44.125    21595424.880   115561476.461 7      6303.909          43.937    21595437.060    89881208.522 8      4903.040          48.062    21595437.120    89881205.525 8      4903.040          48.062
G30  23281200.640   122343531.144 7      5562.196          42.250    23281200.100   122343531.144 6      5562.196          39.937    23281217.020    95332692.075 6      4334.178          39.375    23281218.120    95332698.082 7      4334.178          43.937
R05  20371220.240   108895843.964 8       404.333          49.187    20371220.500   108895843.976 8       404.333          48.437    20371230.860    84696808.825 8       314.481          49.812    20371230.720    84696811.824 8       314.481          49.812
R04  23798477.980   127439774.303 6      -623.121          40.000    23798479.200   127439774.348 6      -623.121          38.750    23798494.260    99119880.462 7      -484.650          43.125    23798493.800    99119882.466 7      -484.650          43.687
G19  21264682.160   111746646.997 7       221.708          46.437    21264680.420   111746646.999 6       221.708          37.937    21264689.320    87075335.985 6       172.759          38.125
G17  22425801.020   117848380.867 7      -281.885          43.625    22425799.300   117848380.872 7      -281.885          42.625    22425814.520    91829960.721 7      -219.651          42.312    22425814.980    91829957.722 7      -219.651          46.312
> 2024 07 31 14 15 18.0000000  0 13
R06  20892497.860   111486372.977 6      3950.163          38.750    20892497.240   111486372.962 6      3950.163          37.625
G20  23749959.080   124806880.044 6      4748.871          40.500    23749958.220   124806880.046 4      4748.871          27.687    23749966.840    97252127.704 4      3700.419          27.750
G07  22226012.540   116798490.739 7      4301.938          44.312    22226010.500   116798490.738 7      4301.938          42.500    22226023.860    91011858.203 7      3352.160          42.312    22226024.420    91011875.213 7      3352.160          46.187
G06  20284925.920   106598003.335 8      3604.188          48.750    20284925.180   106598003.337 8      3604.188          50.375    20284932.180    83063404.964 8      2808.458          50.375    20284933.300    83063408.967 8      2808.458          51.437
G09  20550159.880   107991817.415 8       868.791          48.375    20550159.100   107991817.417 8       868.791          50.000    20550166.260    84149492.187 8       676.980          49.937    20550166.740    84149495.186 8       676.980          50.125
G11  22764473.140   119628113.136 7      5567.892          44.062    22764472.480   119628113.140 5      5567.892          33.500    22764478.460    93216728.413 5      4338.617          33.687    22764479.260    93216741.414 7      4338.617          47.312
G04  23088847.320   121332706.913 7      -518.603          42.437    23088846.140   121332706.923 4      -518.603          29.062    23088855.160    94544997.776 4      -404.106          29.000    23088855.120    94544999.772 7      -404.106          44.687
R21  21594246.140   115555172.714 7      6303.565          44.437    21594246.880   115555172.729 7      6303.565          44.812    21594258.980    89876305.623 8      4902.773          48.312    21594258.880    89876302.627 8      4902.773          48.125
G30  23280142.180   122337969.017 6      5562.200          41.937    23280141.820   122337969.020 6      5562.200          40.187    23280158.500    95328357.955 6      4334.181          39.500    23280159.660    95328363.960 7      4334.181          44.000
R05  20371144.820   108895439.716 8       404.240          49.500    20371144.900   108895439.723 8       404.240          48.437    20371155.200    84696494.408 8       314.409          49.437    20371155.120    84696497.404 8       314.409          49.562
R04  23798594.140   127440397.210 6      -622.772          40.000    23798595.160   127440397.268 6      -622.772          38.750    23798610.620    99120364.943 7      -484.378          43.187    23798610.300    99120366.947 7      -484.378          43.625
G19  21264639.980   111746425.484 7       221.332          46.437    21264638.120   111746425.487 6       221.332          38.375    21264647.160    87075163.370 6       172.467          38.750
G17  22425855.000   117848662.771 7      -281.918          44.250    22425852.920   117848662.776 7      -281.918          42.250    22425868.160    91830180.384 7      -219.676          42.000    22425868.600    91830177.391 7      -219.676          46.000
> 2024 07 31 14 15 19.0000000  0 13
R06  20891758.140   111482423.008 6      3949.818          38.562    20891757.580   111482422.993 6      3949.818          37.625
G20  23749055.360   124802131.336 6      4748.619          39.875    23749054.480   124802131.341 4      4748.619          27.687    23749063.240    97248427.416 4      3700.223          27.750
G07  22225194.040   116794189.190 7      4301.364          43.875    22225192.100   116794189.192 6      4301.364          41.812    22225205.280    91008506.357 6      3351.712          41.625    22225205.760    91008523.361 7      3351.712          45.562
G06  20284240.340   106594399.631 8      3603.454          49.250    20284239.540   106594399.633 8      3603.454          48.375    20284246.440    83060596.881 8      2807.886          48.437    20284247.360    83060600.884 8      2807.886          49.750
G09  20549994.560   107990949.062 8       868.062          48.187    20549993.900   107990949.064 8       868.062          49.500    20550001.000    84148815.546 8       676.412          49.562    20550001.400    84148818.546 8       676.412          48.437
G11  22763413.840   119622545.523 7      5567.547          44.250    22763413.060   119622545.530 5      5567.547          33.500    22763418.940    93212390.018 5      4338.348          33.687    22763419.880    93212403.013 7      4338.348          47.062
G04  23088946.180   121333225.682 7      -518.891          43.750    23088944.840   121333225.689 4      -518.891          29.062    23088953.820    94545402.009 4      -404.331          29.000    23088954.100    94545404.018 7      -404.331          44.625
