     3.05           OBSERVATION DATA    MIXED               RINEX VERSION / TYPE
TPS2RIN 1.0.29.3920 TPS-USER            20240801 093645 UTC PGM / RUN BY / DATE
Win64 build Feb 23, 2024 (c) Topcon Positioning Systems     COMMENT
SRC: 20240731_CAMI7.tps                                     COMMENT
OPT: -S -v 3.05                                             COMMENT
Observer            Agency                                  OBSERVER / AGENCY
O0M3X53SBGM         TPS HIPER_SR        4.8 HSR Jul,08,2022 REC # / TYPE / VERS
FW: 4.8 HSR Jul,08,2022 p3                                  COMMENT
SN: HiPer SR 1212-12575                                     COMMENT
000                 TPSHIPER_SR     NONE                    ANT # / TYPE
        1.8000        0.0000        0.0000                  ANTENNA: DELTA H/E/N
CAMI7                                                       MARKER NAME
  5389645.6939 -1598350.9603  3007680.2630                  APPROX POSITION XYZ
  2024     7    31    14    46   40.0000000     GPS         TIME OF FIRST OBS
  2024     7    31    15     1   51.0000000     GPS         TIME OF LAST OBS
     1.000                                                  INTERVAL
   912 EPOCHS                                               COMMENT
G   16 C1C L1C D1C S1C C1W L1W D1W S1W C2W L2W D2W S2W C2X  SYS / # / OBS TYPES
       L2X D2X S2X                                          SYS / # / OBS TYPES
R   16 C1C L1C D1C S1C C1P L1P D1P S1P C2P L2P D2P S2P C2C  SYS / # / OBS TYPES
       L2C D2C S2C                                          SYS / # / OBS TYPES
    17                                                      # OF SATELLITES
   G04   912   912   912   912   912   912   912   912   912PRN / # OF OBS
         912   912   912   912   912   912   912            PRN / # OF OBS
   G05   793   793   793   793   793   793   793   793   793PRN / # OF OBS
         793   793   793   793   793   793   793            PRN / # OF OBS
   G06   912   912   912   912   912   912   912   912   912PRN / # OF OBS
         912   912   912   912   912   912   912            PRN / # OF OBS
   G07   912   912   912   912   912   912   912   912   912PRN / # OF OBS
         912   912   912   912   912   912   912            PRN / # OF OBS
   G09   912   912   912   912   912   912   912   912   912PRN / # OF OBS
         912   912   912   912   912   912   912            PRN / # OF OBS
   G11   912   912   912   912   912   912   912   912   912PRN / # OF OBS
         912   912   912   912   912   912   912            PRN / # OF OBS
   G13   912   912   912   912   912   912   912   912   912PRN / # OF OBS
         912   912   912     0     0     0     0            PRN / # OF OBS
   G17   912   912   912   912   912   912   912   912   912PRN / # OF OBS
         912   912   912   912   912   912   912            PRN / # OF OBS
   G19   912   912   912   912   912   912   912   912   912PRN / # OF OBS
         912   912   912     0     0     0     0            PRN / # OF OBS
   G20   912   912   912   912   912   912   912   912   912PRN / # OF OBS
         912   912   912     0     0     0     0            PRN / # OF OBS
   G30   912   912   912   912   912   912   912   912   912PRN / # OF OBS
         912   912   912   912   912   912   912            PRN / # OF OBS
   R05   912   912   912   912   912   912   912   912   912PRN / # OF OBS
         912   912   912   912   912   912   912            PRN / # OF OBS
   R06   912   912   912   912   912   912   912   912     0PRN / # OF OBS
           0     0     0     0     0     0     0            PRN / # OF OBS
   R07   912   912   912   912   912   912   912   912   912PRN / # OF OBS
         912   912   912   912   912   912   912            PRN / # OF OBS
   R15   912   912   912   912   912   912   912   912   912PRN / # OF OBS
         912   912   912   912   912   912   912            PRN / # OF OBS
   R16   273   273   273   273   269   269   269   269   269PRN / # OF OBS
         269   269   269   268   268   268   268            PRN / # OF OBS
   R21   912   912   912   912   912   912   912   912   912PRN / # OF OBS
         912   912   912   912   912   912   912            PRN / # OF OBS
G L1C                                                       SYS / PHASE SHIFT
G L1W -0.25000                                              SYS / PHASE SHIFT
G L2W  0.00000                                              SYS / PHASE SHIFT
G L2X  0.25000                                              SYS / PHASE SHIFT
R L1C                                                       SYS / PHASE SHIFT
R L1P -0.25000                                              SYS / PHASE SHIFT
R L2P -0.25000                                              SYS / PHASE SHIFT
R L2C                                                       SYS / PHASE SHIFT
  6 R05  1 R06 -4 R07  5 R15  0 R16 -1 R21  4               GLONASS SLOT / FRQ #
                                                            GLONASS COD/PHS/BIS
    18    18  1929     7GPS                                 LEAP SECONDS
                                                            END OF HEADER
> 2024 07 31 14 46 40.0000000  0 15
R06  20838180.420   111196523.709 6      3173.259          39.125    20838179.720   111196523.699 6      3173.259          38.000
G06  20368818.920   107038878.067 8      2582.692          49.000    20368818.020   107038878.069 8      2582.692          50.812    20368825.820    83406933.829 8      2012.487          51.062    20368826.720    83406939.826 8      2012.487          52.500
G04  24505774.360   128778710.735 6      -651.084          39.687    24505773.460   128778710.745 4      -651.084          25.250    24505784.120   100347079.237 4      -507.338          25.312    24505784.900   100347092.204 7      -507.338          43.062
G11  22042214.960   115832613.919 7      5099.647          45.937    22042214.260   115832613.927 6      5099.647          37.250    22042219.700    90259205.790 6      3973.751          37.437    22042220.120    90259208.788 8      3973.751          49.562
R21  20741702.460   110993039.504 7      5265.074          45.500    20741701.920   110993039.516 7      5265.074          46.500    20741714.120    86327968.801 8      4095.057          49.500    20741714.000    86327970.803 8      4095.057          49.125
R15  23573159.020   125967825.966 6      4522.504          41.562    23573158.840   125967825.983 6      4522.504          40.625    23573182.940    97975070.055 7      3517.503          44.937    23573182.300    97975067.050 7      3517.503          45.062
G07  22028066.540   115758277.577 7      3452.538          47.812    22028065.480   115758277.580 7      3452.538          45.875    22028075.060    90201275.170 7      2690.290          46.250    22028075.480    90201289.171 7      2690.290          47.312
R07  23721849.940   126984925.591 7      4939.422          42.937    23721850.040   126984925.619 7      4939.422          42.375    23721874.240    98766158.124 7      3841.773          45.000    23721873.900    98766159.130 7      3841.773          45.375
R05  21481737.760   114832194.823 7       151.335          46.625    21481737.640   114832194.830 7       151.335          45.250    21481749.980    89313977.658 7       117.705          47.812    21481750.120    89313978.656 8       117.705          48.312
G09  21562548.600   113311952.268 7       222.991          46.812    21562547.660   113311952.275 7       222.991          47.375    21562555.560    88295056.737 7       173.759          47.500    21562555.780    88295061.741 8       173.759          48.125
G13  24492447.380   128708680.238 7      5994.296          44.625    24492445.960   128708680.245 5      5994.296          31.250    24492464.040   100292480.663 5      4670.880          31.312
G20  23243771.900   122146834.749 7      4760.306          42.937    23243770.240   122146834.753 5      4760.306          30.875    23243774.020    95179363.797 5      3709.329          30.750
G30  22538875.800   118442586.259 7      5200.235          45.062    22538874.900   118442586.267 7      5200.235          43.437    22538890.300    92292990.125 7      4052.131          43.562    22538891.400    92292999.132 7      4052.131          44.562
G17  23771111.780   124918032.793 7      -488.703          43.812    23771110.580   124918032.788 6      -488.703          41.750    23771125.240    97338781.948 6      -380.808          41.312    23771126.120    97338781.950 7      -380.808          45.437
G19  22518627.340   118336178.738 7      -472.376          45.812    22518625.240   118336178.740 6      -472.376          37.000    22518638.380    92210047.576 6      -368.085          37.625
> 2024 07 31 14 46 41.0000000  0 15
R06  20837585.540   111193350.337 6      3173.192          39.125    20837584.900   111193350.348 6      3173.192          38.000
G06  20368327.260   107036295.211 8      2582.584          48.875    20368326.560   107036295.211 8      2582.584          50.625    20368334.300    83404921.209 8      2012.403          51.125    20368335.180    83404927.210 8      2012.403          52.125
G04  24505898.020   128779361.240 6      -650.517          40.250    24505897.220   128779361.253 4      -650.517          25.250    24505907.920   100347586.126 4      -506.896          25.312    24505908.480   100347599.129 7      -506.896          42.750
G11  22041244.540   115827513.970 7      5099.844          46.250    22041243.820   115827513.978 6      5099.844          37.062    22041249.280    90255231.806 6      3973.904          37.187    22041249.740    90255234.799 8      3973.904          49.937
R21  20740718.600   110987774.341 7      5264.882          46.125    20740718.060   110987774.351 7      5264.882          46.500    20740730.360    86323873.676 8      4094.908          49.312    20740730.140    86323875.674 8      4094.908          49.250
R15  23572312.340   125963303.181 6      4522.523          41.562    23572311.920   125963303.187 6      4522.523          40.312    23572336.740    97971552.346 7      3517.518          45.125    23572335.800    97971549.346 7      3517.518          45.437
G07  22027409.460   115754824.874 7      3452.470          47.250    22027408.320   115754824.874 7      3452.470          45.875    22027417.900    90198584.755 7      2690.237          45.812    22027418.340    90198598.759 7      2690.237          47.625
R07  23720927.820   126979985.832 7      4939.628          42.937    23720927.420   126979985.857 7      4939.628          42.375    23720951.220    98762316.104 7      3841.933          44.937    23720951.160    98762317.114 7      3841.933          45.437
R05  21481709.500   114832043.148 7       151.663          46.250    21481709.320   114832043.144 7       151.663          45.937    21481721.660    89313859.676 8       117.960          48.312    21481721.720    89313860.672 8       117.960          48.625
G09  21562505.920   113311729.005 7       223.285          46.750    21562505.220   113311729.007 7       223.285          47.187    21562513.100    88294882.760 7       173.988          47.500    21562513.320    88294887.760 8       173.988          48.000
G13  24491306.300   128702685.703 7      5994.497          44.187    24491305.200   128702685.711 5      5994.497          31.250    24491323.200   100287809.595 5      4671.037          31.312
G20  23242865.900   122142074.075 7      4760.814          43.937    23242864.240   122142074.080 5      4760.814          30.500    23242868.060    95175654.188 5      3709.725          30.687
G30  22537886.480   118437385.900 7      5200.298          45.000    22537885.240   118437385.902 7      5200.298          43.625    22537900.680    92288937.897 7      4052.180          43.500    22537901.440    92288946.902 7      4052.180          44.562
G17  23771204.480   124918521.083 7      -488.179          43.250    23771203.440   124918521.088 6      -488.179          41.312    23771218.160    97339162.438 6      -380.399          41.562    23771218.500    97339162.442 7      -380.399          45.062
G19  22518717.320   118336650.937 7      -472.146          45.437    22518715.040   118336650.937 6      -472.146          37.187    22518728.360    92210415.518 6      -367.906          37.125
> 2024 07 31 14 46 42.0000000  0 15
R06  20836990.720   111190177.197 6      3173.089          39.125    20836990.100   111190177.201 6      3173.089          38.000
G06  20367835.820   107033712.795 8      2582.379          49.437    20367835.140   107033712.797 8      2582.379          50.687    20367842.880    83402908.934 8      2012.243          51.562    20367843.660    83402914.933 8      2012.243          51.687
G04  24506021.840   128780011.687 6      -650.029          38.125    24506021.120   128780011.703 4      -650.029          25.250    24506031.680   100348092.966 4      -506.516          25.312    24506031.860   100348105.951 6      -506.516          41.875
G11  22040274.100   115822414.218 7      5099.866          46.000    22040273.320   115822414.226 6      5099.866          37.437    22040278.860    90251257.975 6      3973.921          37.062    22040279.180    90251260.969 8      3973.921          50.125
R21  20739734.640   110982509.751 7      5264.476          46.687    20739734.220   110982509.763 7      5264.476          46.312    20739746.400    86319778.993 8      4094.592          49.625    20739746.300    86319780.995 8      4094.592          49.625
R15  23571465.960   125958780.730 6      4522.400          40.937    23571464.840   125958780.737 6      4522.400          40.312    23571490.080    97968034.905 7      3517.422          45.000    23571489.720    97968031.907 7      3517.422          45.250
G07  22026752.680   115751372.529 7      3452.327          47.500    22026751.440   115751372.531 7      3452.327          45.687    22026760.940    90195894.619 7      2690.125          46.125    22026761.520    90195908.622 7      2690.125          47.937
R07  23720004.460   126975046.180 7      4939.772          43.375    23720004.560   126975046.216 7      4939.772          42.500    23720028.420    98758474.175 7      3842.045          45.062    23720028.160    98758475.181 7      3842.045          45.375
R05  21481681.020   114831891.349 7       152.004          45.937    21481680.640   114831891.353 7       152.004          46.062    21481693.180    89313741.612 8       118.225          48.187    21481693.260    89313742.607 8       118.225          48.750
G09  21562463.500   113311505.850 7       223.326          46.562    21562462.800   113311505.860 7       223.326          47.312    21562470.620    88294708.874 7       174.020          47.312    21562470.800    88294713.877 8       174.020          48.562
G13  24490165.720   128696691.232 7      5994.558          44.187    24490164.440   128696691.237 5      5994.558          31.125    24490182.640   100283138.578 5      4671.085          31.312
G20  23241960.040   122137313.273 7      4761.024          43.562    23241958.300   122137313.281 5      4761.024          30.500    23241962.000    95171944.474 5      3709.889          30.687
G30  22536896.640   118432185.666 7      5200.372          45.187    22536895.640   118432185.666 7      5200.372          43.812    22536911.240    92284885.769 7      4052.238          43.375    22536912.040    92284894.772 7      4052.238          44.750
G17  23771297.460   124919009.276 7      -488.024          43.812    23771296.240   124919009.278 6      -488.024          41.750    23771311.020    97339542.846 6      -380.279          41.750    23771311.540    97339542.846 7      -380.279          45.250
G19  22518807.220   118337123.244 7      -472.141          45.125    22518804.980   118337123.244 6      -472.141          37.250    22518818.100    92210783.541 6      -367.902          37.562
> 2024 07 31 14 46 43.0000000  0 15
R06  20836396.760   111187004.167 6      3173.059          39.250    20836395.260   111187004.162 6      3173.059          37.812
G06  20367344.440   107031130.749 8      2581.913          49.312    20367343.760   107031130.754 8      2581.913          50.687    20367351.520    83400896.950 8      2011.881          51.062    20367352.540    83400902.951 8      2011.881          51.750
G04  24506145.460   128780661.861 6      -650.037          38.937    24506144.800   128780661.874 4      -650.037          25.500    24506155.460   100348599.587 4      -506.522          25.312    24506156.620   100348612.574 7      -506.522          43.375
G11  22039303.520   115817314.593 7      5099.665          45.625    22039303.060   115817314.595 6      5099.665          37.062    22039308.420    90247284.241 6      3973.765          36.875    22039308.780    90247287.233 8      3973.765          49.562
R21  20738751.260   110977245.602 7      5263.956          46.812    20738750.640   110977245.609 7      5263.956          46.437    20738762.880    86315684.655 8      4094.188          49.312    20738762.600    86315686.655 8      4094.188          49.375
R15  23570619.820   125954258.517 6      4522.233          40.937    23570618.760   125954258.518 6      4522.233          40.312    23570643.560    97964517.643 7      3517.293          44.812    23570643.520    97964514.644 7      3517.293          45.312
G07  22026095.700   115747920.480 7      3451.963          47.375    22026094.480   115747920.485 7      3451.963          46.062    22026104.000    90193204.715 7      2689.841          46.437    22026104.420    90193218.716 7      2689.841          47.437
R07  23719081.980   126970106.619 7      4939.555          43.375    23719081.600   126970106.647 7      4939.555          42.500    23719105.520    98754632.305 7      3841.876          44.375    23719105.440    98754633.313 7      3841.876          44.750
R05  21481652.700   114831739.378 7       152.111          47.000    21481652.660   114831739.384 7       152.111          46.312    21481664.820    89313623.408 7       118.309          47.937    21481664.740    89313624.408 8       118.309          48.312
G09  21562421.260   113311282.766 7       223.040          46.062    21562420.360   113311282.768 7       223.040          47.375    21562428.120    88294535.035 7       173.798          47.562    21562428.300    88294540.037 7       173.798          47.812
G13  24489024.560   128690696.739 7      5994.496          44.875    24489023.820   128690696.744 5      5994.496          31.125    24489041.940   100278467.541 5      4671.036          31.125
G20  23241053.940   122132552.248 7      4761.072          43.687    23241052.400   122132552.255 5      4761.072          30.500    23241056.040    95168234.588 5      3709.926          30.687
G30  22535907.220   118426985.499 7      5200.219          45.687    22535906.060   118426985.501 7      5200.219          43.562    22535921.640    92280833.701 7      4052.119          43.375    22535922.500    92280842.699 7      4052.119          44.312
G17  23771390.220   124919497.225 7      -487.793          44.562    23771389.140   124919497.229 6      -487.793          41.375    23771403.760    97339923.063 6      -380.098          41.250    23771404.260    97339923.063 7      -380.098          44.937
G19  22518896.960   118337595.580 7      -472.353          45.375    22518895.040   118337595.582 6      -472.353          37.312    22518908.000    92211151.590 6      -368.068          37.187
> 2024 07 31 14 46 44.0000000  0 15
R06  20835801.540   111183831.542 6      3172.322          39.250    20835800.980   111183831.540 6      3172.322          37.812
G06  20366853.260   107028549.315 8      2581.090          49.000    20366852.500   107028549.318 8      2581.090          51.000    20366860.340    83398885.437 8      2011.239          51.312    20366861.340    83398891.434 8      2011.239          52.125
G04  24506268.960   128781312.075 6      -650.136          41.125    24506268.640   128781312.088 4      -650.136          25.500    24506279.320   100349106.245 4      -506.600          25.312    24506279.520   100349119.230 7      -506.600          43.375
G11  22038333.180   115812215.311 7      5099.065          46.375    22038332.760   115812215.314 6      5099.065          37.312    22038337.960    90243310.773 6      3973.297          37.312    22038338.460    90243313.773 8      3973.297          49.812
R21  20737767.360   110971982.157 7      5263.069          46.312    20737767.080   110971982.167 7      5263.069          46.500    20737779.200    86311590.867 8      4093.498          49.687    20737778.860    86311592.869 8      4093.498          49.312
R15  23569773.540   125949736.852 6      4521.364          40.937    23569773.380   125949736.840 6      4521.364          40.125    23569796.660    97961000.781 7      3516.617          44.687    23569797.220    97960997.783 7      3516.617          44.750
G07  22025438.800   115744468.947 7      3451.238          47.125    22025437.720   115744468.947 7      3451.238          45.812    22025447.200    90190515.211 7      2689.276          46.000    22025447.660    90190529.215 7      2689.276          47.500
R07  23718159.360   126965167.355 7      4939.031          43.375    23718159.100   126965167.386 7      4939.031          42.375    23718182.980    98750790.678 7      3841.468          44.812    23718182.700    98750791.675 7      3841.468          44.875
R05  21481623.920   114831587.488 7       151.782          46.312    21481624.120   114831587.492 7       151.782          46.375    21481636.580    89313505.264 8       118.053          48.687    21481636.360    89313506.260 8       118.053          48.375
G09  21562379.000   113311059.926 7       222.689          46.812    21562377.900   113311059.931 8       222.689          48.250    21562385.800    88294361.391 7       173.524          47.562    21562386.060    88294366.395 8       173.524          48.062
G13  24487884.080   128684702.452 7      5994.216          44.437    24487883.260   128684702.457 5      5994.216          31.125    24487901.260   100273796.667 5      4670.817          31.125
G20  23240147.960   122127791.212 7      4760.967          43.937    23240146.420   122127791.225 5      4760.967          30.750    23240149.980    95164524.692 5      3709.845          30.625
G30  22534917.740   118421785.639 7      5199.691          44.750    22534916.660   118421785.641 7      5199.691          43.687    22534932.100    92276781.865 7      4051.707          43.062    22534932.780    92276790.864 7      4051.707          44.812
G17  23771483.020   124919985.199 7      -487.938          44.312    23771481.900   124919985.199 6      -487.938          41.812    23771496.780    97340303.297 6      -380.212          41.500    23771497.180    97340303.301 7      -380.212          45.000
G19  22518986.900   118338068.149 7      -472.692          45.000    22518984.820   118338068.157 6      -472.692          37.000    22518997.780    92211519.820 6      -368.331          37.250
> 2024 07 31 14 46 45.0000000  0 15
R06  20835207.160   111180659.230 6      3172.185          39.250    20835206.280   111180659.231 6      3172.185          37.812
G06  20366362.220   107025968.433 8      2580.640          49.250    20366361.420   107025968.438 8      2580.640          51.125    20366369.200    83396874.358 8      2010.888          51.312    20366370.220    83396880.353 8      2010.888          52.187
G04  24506392.800   128781962.278 6      -650.153          40.500    24506392.440   128781962.293 4      -650.153          25.500    24506403.080   100349612.896 4      -506.612          25.312    24506404.000   100349625.859 7      -506.612          42.687
G11  22037363.080   115807116.337 7      5098.885          46.687    22037362.260   115807116.339 6      5098.885          36.937    22037367.720    90239337.548 6      3973.157          36.812    22037368.300    90239340.542 8      3973.157          50.187
R21  20736783.940   110966719.397 7      5262.524          47.625    20736783.440   110966719.399 7      5262.524          46.187    20736795.760    86307497.605 8      4093.074          49.562    20736795.640    86307499.605 8      4093.074          48.937
R15  23568927.260   125945215.558 6      4521.096          40.937    23568928.040   125945215.562 6      4521.096          40.125    23568950.320    97957484.236 7      3516.408          44.687    23568950.860    97957481.234 7      3516.408          44.562
G07  22024782.260   115741017.897 7      3450.959          47.625    22024780.980   115741017.899 7      3450.959          45.875    22024790.500    90187826.085 7      2689.059          46.000    22024791.020    90187840.087 7      2689.059          47.500
R07  23717236.680   126960228.361 7      4938.981          43.562    23717236.520   126960228.390 7      4938.981          42.375    23717260.420    98746949.249 7      3841.429          44.562    23717259.960    98746950.248 7      3841.429          44.437
R05  21481595.560   114831435.615 7       151.971          46.687    21481595.800   114831435.614 7       151.971          46.562    21481608.160    89313387.132 8       118.200          48.375    21481607.940    89313388.136 8       118.200          48.687
G09  21562336.480   113310837.333 7       222.554          47.125    21562335.500   113310837.333 7       222.554          47.187    21562343.400    88294187.936 7       173.419          47.250    21562343.680    88294192.938 8       173.419          48.000
G13  24486743.660   128678708.374 7      5994.079          43.750    24486742.660   128678708.377 5      5994.079          31.125    24486760.500   100269125.954 5      4670.711          31.125
G20  23239241.920   122123030.184 7      4761.076          44.125    23239240.540   122123030.192 5      4761.076          30.750    23239244.060    95160814.798 5      3709.929          30.625
G30  22533928.220   118416586.031 7      5199.576          44.625    22533927.120   118416586.035 7      5199.576          43.750    22533942.680    92272730.225 7      4051.617          44.125    22533943.320    92272739.230 7      4051.617          44.625
G17  23771576.200   124920473.169 7      -487.842          43.937    23771574.780   124920473.171 6      -487.842          41.812    23771589.660    97340683.531 6      -380.137          41.625    23771590.020    97340683.533 7      -380.137          45.250
G19  22519076.820   118338540.974 7      -472.856          45.000    22519074.700   118338540.979 6      -472.856          37.250    22519087.860    92211888.245 6      -368.459          37.125
> 2024 07 31 14 46 46.0000000  0 15
R06  20834612.840   111177487.125 6      3171.932          39.250    20834612.260   111177487.115 6      3171.932          37.812
G06  20365871.180   107023387.959 8      2580.174          49.500    20365870.220   107023387.956 8      2580.174          50.000    20365878.080    83394863.591 8      2010.525          50.437    20365878.880    83394869.590 8      2010.525          51.812
G04  24506516.740   128782612.247 6      -649.915          40.500    24506516.220   128782612.265 4      -649.915          25.500    24506526.860   100350119.366 4      -506.427          25.187    24506527.560   100350132.328 7      -506.427          43.375
G11  22036392.760   115802017.521 7      5098.536          45.625    22036391.980   115802017.528 6      5098.536          37.187    22036397.260    90235364.451 6      3972.886          37.250    22036398.000    90235367.444 8      3972.886          49.187
R21  20735800.100   110961457.114 7      5261.836          46.562    20735799.880   110961457.121 7      5261.836          47.062    20735812.320    86303404.722 8      4092.539          48.687    20735811.860    86303406.722 8      4092.539          48.312
R15  23568081.360   125940694.574 7      4520.717          42.562    23568082.340   125940694.583 6      4520.717          40.750    23568103.940    97953967.905 7      3516.113          44.000    23568104.520    97953964.901 7      3516.113          43.937
G07  22024125.720   115737567.196 7      3450.387          46.875    22024124.480   115737567.193 7      3450.387          45.437    22024133.860    90185137.227 7      2688.613          45.562    22024134.480    90185151.230 7      2688.613          46.812
R07  23716314.180   126955289.515 7      4938.712          43.437    23716314.140   126955289.540 7      4938.712          43.000    23716337.920    98743107.936 7      3841.220          44.437    23716337.280    98743108.942 7      3841.220          44.125
R05  21481567.120   114831283.609 7       151.947          47.062    21481567.260   114831283.610 7       151.947          46.312    21481579.720    89313268.900 7       118.181          47.687    21481579.640    89313269.901 8       118.181          48.000
G09  21562294.080   113310614.832 7       222.175          46.562    21562293.200   113310614.835 7       222.175          47.812    21562300.980    88294014.557 7       173.123          47.562    21562301.500    88294019.559 7       173.123          47.312
G13  24485602.880   128672714.305 7      5993.883          44.812    24485602.040   128672714.307 5      5993.883          31.125    24485619.880   100264455.250 5      4670.558          31.312
G20  23238335.780   122118268.941 7      4761.190          42.812    23238334.420   122118268.948 5      4761.190          30.750    23238338.100    95157104.740 5      3710.018          30.625
G30  22532938.840   118411386.546 7      5199.271          45.000    22532937.640   118411386.556 7      5199.271          43.875    22532953.200    92268678.689 7      4051.380          43.437    22532954.000    92268687.689 7      4051.380          44.750
G17  23771668.800   124920960.946 7      -487.794          44.000    23771667.620   124920960.957 6      -487.794          41.312    23771682.480    97341063.620 6      -380.099          41.000    23771682.720    97341063.626 7      -380.099          45.125
G19  22519166.680   118339013.859 7      -473.117          46.062    22519164.660   118339013.864 6      -473.117          36.937    22519178.040    92212256.722 6      -368.662          36.812
> 2024 07 31 14 46 47.0000000  0 15
R06  20834018.360   111174315.538 6      3171.584          39.062    20834018.180   111174315.537 6      3171.584          37.812
G06  20365380.460   107020808.220 8      2579.730          49.312    20365379.420   107020808.225 8      2579.730          51.125    20365387.240    83392853.407 8      2010.179          51.500    20365388.120    83392859.404 8      2010.179          51.750
G04  24506640.460   128783262.434 6      -649.788          39.687    24506639.780   128783262.447 4      -649.788          25.500    24506650.380   100350625.999 4      -506.328          25.187    24506650.100   100350639.013 7      -506.328          43.375
G11  22035422.640   115796919.196 7      5098.372          45.375    22035421.720   115796919.201 6      5098.372          37.312    22035427.160    90231391.726 6      3972.757          36.937    22035427.680    90231394.722 8      3972.757          49.875
R21  20734817.200   110956195.659 7      5261.371          46.625    20734816.760   110956195.674 7      5261.371          46.500    20734829.080    86299312.486 8      4092.177          50.187    20734828.760    86299314.484 8      4092.177          49.250
R15  23567235.580   125936174.199 7      4520.450          42.562    23567236.320   125936174.203 6      4520.450          40.750    23567258.640    97950452.072 7      3515.905          44.062    23567258.580    97950449.070 7      3515.905          44.437
G07  22023469.000   115734117.163 7      3450.115          46.750    22023467.840   115734117.168 7      3450.115          46.187    22023477.340    90182448.877 7      2688.401          45.875    22023478.000    90182462.880 7      2688.401          47.625
R07  23715391.820   126950351.174 7      4938.444          43.437    23715391.180   126950351.205 7      4938.444          43.000    23715415.200    98739267.022 7      3841.012          44.875    23715415.080    98739268.023 7      3841.012          43.875
R05  21481538.940   114831131.792 7       152.102          46.937    21481538.860   114831131.796 7       152.102          45.875    21481551.320    89313150.818 8       118.301          48.000    21481551.320    89313151.812 8       118.301          48.687
G09  21562252.020   113310392.720 7       222.206          46.687    21562250.960   113310392.723 7       222.206          47.062    21562258.760    88293841.476 7       173.147          47.312    21562259.380    88293846.482 7       173.147          47.812
G13  24484462.360   128666720.601 7      5993.860          44.250    24484461.480   128666720.605 5      5993.860          31.437    24484479.320   100259784.829 5      4670.540          31.312
G20  23237429.780   122113507.876 7      4761.287          43.250    23237428.380   122113507.883 5      4761.287          30.812    23237432.100    95153394.820 5      3710.094          30.750
G30  22531949.600   118406187.485 7      5199.228          45.250    22531948.360   118406187.489 7      5199.228          43.500    22531963.920    92264627.470 7      4051.347          43.562    22531964.460    92264636.467 7      4051.347          44.750
G17  23771761.420   124921448.934 7      -487.838          43.562    23771760.640   124921448.937 6      -487.838          41.875    23771775.240    97341443.864 6      -380.134          41.625    23771775.480    97341443.862 7      -380.134          44.687
G19  22519256.740   118339487.135 7      -473.098          44.625    22519254.760   118339487.137 6      -473.098          36.625    22519268.220    92212625.501 6      -368.648          36.687
> 2024 07 31 14 46 48.0000000  0 15
R06  20833423.860   111171143.800 6      3171.724          39.062    20833423.800   111171143.784 6      3171.724          37.562
G06  20364889.500   107018228.639 8      2579.235          49.125    20364888.600   107018228.643 8      2579.235          51.062    20364896.400    83390843.341 8      2009.794          51.562    20364897.080    83390849.342 8      2009.794          52.000
G04  24506764.640   128783912.132 6      -649.659          41.062    24506763.420   128783912.145 4      -649.659          25.500    24506774.080   100351132.251 4      -506.228          25.187    24506774.800   100351145.244 6      -506.228          40.625
G11  22034452.520   115791820.737 7      5098.340          45.750    22034451.540   115791820.744 6      5098.340          37.562    22034456.980    90227418.903 6      3972.733          37.312    22034457.540    90227421.900 8      3972.733          49.812
R21  20733834.240   110950934.486 7      5260.806          46.312    20733833.620   110950934.498 7      5260.806          46.312    20733845.980    86295220.458 8      4091.738          49.500    20733845.900    86295222.460 8      4091.738          49.000
R15  23566390.200   125931653.827 6      4520.254          41.125    23566389.060   125931653.831 6      4520.254          40.312    23566413.300    97946936.242 7      3515.753          44.375    23566412.720    97946933.234 7      3515.753          45.437
G07  22022812.400   115730667.182 7      3449.645          47.437    22022811.320   115730667.192 7      3449.645          45.937    22022820.680    90179760.587 7      2688.035          46.125    22022821.560    90179774.591 7      2688.035          47.562
R07  23714469.140   126945412.692 7      4938.361          43.250    23714469.000   126945412.710 7      4938.361          42.687    23714492.620    98735425.992 7      3840.948          44.687    23714492.480    98735426.996 7      3840.948          43.812
R05  21481510.400   114830979.574 7       152.286          46.312    21481510.280   114830979.572 7       152.286          46.437    21481522.880    89313032.418 8       118.445          48.187    21481522.780    89313033.421 8       118.445          48.500
G09  21562209.560   113310170.417 7       222.233          46.437    21562208.700   113310170.422 7       222.233          47.437    21562216.480    88293668.253 7       173.169          47.937    21562216.960    88293673.257 7       173.169          47.875
G13  24483321.900   128660726.652 7      5993.839          44.375    24483320.880   128660726.659 5      5993.839          31.437    24483339.040   100255114.218 5      4670.524          31.312
G20  23236523.640   122108746.349 7      4761.575          42.812    23236522.260   122108746.356 5      4761.575          30.812    23236525.960    95149684.541 5      3710.318          30.750
G30  22530960.300   118400988.266 7      5199.072          45.437    22530958.920   118400988.276 7      5199.072          43.625    22530974.500    92260576.141 7      4051.225          43.625    22530975.520    92260585.141 7      4051.225          44.687
G17  23771854.240   124921936.433 7      -487.515          44.187    23771853.240   124921936.436 6      -487.515          41.812    23771867.900    97341823.733 6      -379.882          41.687    23771868.260    97341823.733 7      -379.882          44.812
G19  22519346.960   118339960.217 7      -473.197          44.625    22519344.740   118339960.217 6      -473.197          36.750    22519358.100    92212994.130 6      -368.725          37.437
> 2024 07 31 14 46 49.0000000  0 15
R06  20832829.240   111167972.474 6      3171.440          39.062    20832829.280   111167972.464 6      3171.440          37.562
G06  20364398.720   107015649.664 8      2578.826          49.312    20364397.700   107015649.666 8      2578.826          51.125    20364405.640    83388833.745 8      2009.475          51.562    20364406.300    83388839.742 8      2009.475          52.375
G04  24506888.580   128784561.881 6      -649.453          40.312    24506887.280   128784561.891 4      -649.453          25.187    24506897.900   100351638.545 4      -506.067          25.187    24506898.560   100351651.515 7      -506.067          43.562
G11  22033482.080   115786722.661 7      5098.065          45.187    22033481.460   115786722.671 6      5098.065          37.312    22033486.940    90223446.379 6      3972.518          37.125    22033487.560    90223449.378 8      3972.518          50.187
R21  20732851.160   110945674.070 7      5260.169          46.312    20732850.500   110945674.082 7      5260.169          46.500    20732862.940    86291129.031 8      4091.242          49.750    20732862.920    86291131.029 8      4091.242          49.687
R15  23565544.660   125927134.006 6      4519.743          41.125    23565542.480   125927134.007 6      4519.743          40.312    23565567.900    97943420.844 7      3515.355          45.000    23565567.060    97943417.844 7      3515.355          44.875
G07  22022155.920   115727217.698 7      3449.549          47.250    22022154.920   115727217.706 7      3449.549          46.375    22022164.400    90177072.677 7      2687.960          46.125    22022164.960    90177086.678 7      2687.960          47.375
R07  23713546.740   126940474.515 7      4938.170          43.875    23713546.260   126940474.538 7      4938.170          42.875    23713569.920    98731585.206 7      3840.799          45.125    23713569.600    98731586.210 7      3840.799          44.062
R05  21481482.100   114830827.431 7       152.254          46.812    21481481.680   114830827.435 7       152.254          46.125    21481494.320    89312914.087 8       118.420          48.500    21481494.200    89312915.087 8       118.420          48.500
G09  21562167.360   113309948.418 7       221.990          46.437    21562166.500   113309948.423 7       221.990          47.937    21562174.240    88293495.264 8       172.979          48.062    21562174.780    88293500.266 8       172.979          48.125
G13  24482181.280   128654732.924 7      5993.804          44.250    24482180.340   128654732.931 5      5993.804          31.437    24482198.400   100250443.778 5      4670.497          31.437
G20  23235617.700   122103984.850 7      4761.670          44.000    23235616.060   122103984.855 5      4761.670          30.812    23235619.940    95145974.282 5      3710.392          30.750
G30  22529970.780   118395789.362 7      5198.920          45.625    22529969.700   118395789.369 7      5198.920          43.875    22529985.180    92256525.051 7      4051.106          43.250    22529985.920    92256534.056 7      4051.106          44.812
G17  23771947.400   124922423.972 7      -487.391          44.312    23771946.040   124922423.972 7      -487.391          42.125    23771960.900    97342203.629 7      -379.785          42.062    23771961.320    97342203.631 7      -379.785          45.062
G19  22519437.060   118340433.562 7      -473.176          44.375    22519434.720   118340433.561 6      -473.176          36.500    22519448.120    92213362.960 6      -368.709          36.250
> 2024 07 31 14 46 50.0000000  0 15
R06  20832234.980   111164801.280 6      3171.270          39.062    20832234.480   111164801.278 6      3171.270          37.562
G06  20363908.140   107013071.084 8      2578.399          49.125    20363907.100   107013071.084 8      2578.399          50.750    20363915.000    83386824.455 8      2009.142          51.437    20363915.740    83386830.452 8      2009.142          51.937
G04  24507011.660   128785211.411 6      -649.400          41.125    24507010.820   128785211.424 4      -649.400          25.187    24507021.440   100352144.672 4      -506.026          25.187    24507021.900   100352157.678 7      -506.026          42.687
G11  22032512.120   115781624.728 7      5097.860          46.312    22032511.380   115781624.738 6      5097.860          37.562    22032516.920    90219473.965 6      3972.359          37.250    22032517.320    90219476.964 8      3972.359          49.437
R21  20731867.920   110940414.173 7      5259.604          47.375    20731867.860   110940414.185 7      5259.604          47.125    20731880.040    86287037.996 8      4090.803          49.125    20731879.760    86287039.996 8      4090.803          49.437
R15  23564698.660   125922614.478 6      4519.295          40.750    23564697.200   125922614.463 6      4519.295          40.312    23564722.520    97939905.670 7      3515.007          45.312    23564721.520    97939902.670 7      3515.007          45.687
G07  22021499.520   115723768.550 7      3448.961          47.437    22021498.500   115723768.558 7      3448.961          45.937    22021508.020    90174385.064 7      2687.502          46.312    22021508.420    90174399.065 7      2687.502          47.625
R07  23712624.300   126935536.404 7      4938.065          43.875    23712624.180   126935536.433 7      4938.065          42.875    23712647.300    98727744.473 7      3840.717          44.312    23712647.480    98727745.476 7      3840.717          43.750
R05  21481453.700   114830675.154 7       152.337          46.312    21481453.620   114830675.155 7       152.337          45.125    21481466.020    89312795.641 8       118.485          48.187    21481465.780    89312796.640 8       118.485          48.937
G09  21562125.040   113309726.471 7       221.912          46.375    21562124.220   113309726.476 7       221.912          47.875    21562131.980    88293322.317 7       172.918          47.687    21562132.560    88293327.319 7       172.918          47.937
G13  24481040.640   128648739.241 7      5993.621          44.437    24481039.840   128648739.248 5      5993.621          31.437    24481057.840   100245773.374 5      4670.354          31.437
G20  23234711.280   122099223.176 7      4761.747          43.437    23234709.900   122099223.184 5      4761.747          30.812    23234713.800    95142263.891 5      3710.452          31.062
G30  22528981.320   118390590.566 7      5198.753          45.500    22528980.380   118390590.568 7      5198.753          43.500    22528995.940    92252474.041 7      4050.976          43.437    22528996.780    92252483.044 7      4050.976          44.937
G17  23772040.080   124922911.334 7      -487.231          43.812    23772038.800   124922911.334 6      -487.231          41.437    23772053.580    97342583.390 6      -379.660          41.750    23772054.340    97342583.394 7      -379.660          45.187
G19  22519527.100   118340906.993 7      -473.489          44.750    22519524.900   118340906.993 6      -473.489          36.562    22519538.300    92213731.861 6      -368.952          36.625
> 2024 07 31 14 46 51.0000000  0 15
R06  20831640.380   111161630.328 6      3171.268          39.187    20831640.460   111161630.321 6      3171.268          37.562
G06  20363417.420   107010492.953 8      2578.181          49.250    20363416.500   107010492.950 8      2578.181          51.250    20363424.360    83384815.516 8      2008.972          52.000    20363425.080    83384821.515 8      2008.972          51.562
G04  24507134.980   128785860.836 6      -649.087          40.812    24507134.580   128785860.846 4      -649.087          25.187    24507145.060   100352650.714 4      -505.782          25.187    24507145.400   100352663.703 7      -505.782          42.375
G11  22031541.980   115776526.978 7      5097.869          46.250    22031541.180   115776526.991 6      5097.869          37.687    22031546.880    90215501.694 6      3972.365          37.187    22031547.420    90215504.694 8      3972.365          49.687
R21  20730884.900   110935154.776 7      5259.309          47.125    20730884.980   110935154.785 7      5259.309          46.687    20730897.240    86282947.352 8      4090.574          49.750    20730896.960    86282949.354 8      4090.574          49.312
R15  23563852.960   125918095.300 6      4519.084          40.750    23563851.660   125918095.274 6      4519.084          40.187    23563876.720    97936390.758 7      3514.843          45.312    23563875.880    97936387.756 7      3514.843          46.062
G07  22020843.320   115720319.791 7      3448.773          47.437    22020842.300   115720319.794 7      3448.773          46.125    22020851.780    90171697.714 7      2687.356          46.312    22020852.340    90171711.714 7      2687.356          47.500
R07  23711702.020   126930598.433 7      4938.056          44.437    23711701.440   126930598.461 7      4938.056          42.937    23711724.900    98723903.841 7      3840.710          44.500    23711724.960    98723904.842 7      3840.710          44.250
R05  21481425.240   114830522.781 7       152.544          46.750    21481424.680   114830522.785 7       152.544          46.375    21481437.520    89312677.127 8       118.646          48.812    21481437.340    89312678.127 8       118.646          48.625
G09  21562082.920   113309504.635 7       222.032          46.750    21562081.960   113309504.637 7       222.032          47.812    21562089.820    88293149.452 7       173.012          47.687    21562090.400    88293154.456 7       173.012          47.750
G13  24479899.940   128642745.592 7      5993.858          44.937    24479899.280   128642745.604 5      5993.858          31.437    24479917.200   100241102.998 5      4670.539          31.437
G20  23233805.100   122094461.334 7      4762.110          44.187    23233803.740   122094461.341 5      4762.110          30.812    23233807.720    95138553.364 5      3710.735          31.062
G30  22527991.840   118385391.898 7      5198.761          45.437    22527991.100   118385391.906 7      5198.761          43.687    22528006.660    92248423.138 7      4050.982          43.750    22528007.600    92248432.148 7      4050.982          44.812
G17  23772132.660   124923398.555 7      -486.943          44.062    23772131.580   124923398.560 6      -486.943          41.687    23772146.220    97342963.047 6      -379.436          41.812    23772147.040    97342963.049 7      -379.436          44.937
G19  22519616.900   118341380.498 7      -473.353          45.187    22519615.020   118341380.498 6      -473.353          37.062    22519628.340    92214100.820 6      -368.847          37.187
> 2024 07 31 14 46 52.0000000  0 15
R06  20831046.220   111158459.611 6      3170.278          39.187    20831046.540   111158459.601 6      3170.278          37.875
G06  20362926.820   107007915.274 8      2577.064          48.812    20362925.920   107007915.276 8      2577.064          51.312    20362933.840    83382806.935 8      2008.102          51.687    20362934.720    83382812.934 8      2008.102          51.875
G04  24507258.600   128786510.122 6      -649.712          40.312    24507258.040   128786510.137 4      -649.712          25.187    24507268.800   100353156.649 4      -506.269          25.187    24507268.940   100353169.613 7      -506.269          43.187
G11  22030572.000   115771429.449 7      5097.028          46.375    22030571.060   115771429.459 6      5097.028          37.312    22030576.720    90211529.592 6      3971.710          36.812    22030577.220    90211532.590 8      3971.710          49.562
R21  20729902.080   110929895.904 7      5258.199          46.625    20729902.080   110929895.918 7      5258.199          46.437    20729914.560    86278857.124 8      4089.710          49.750    20729914.200    86278859.124 8      4089.710          49.312
R15  23563007.480   125913576.392 6      4518.442          41.750    23563007.360   125913576.364 6      4518.442          40.187    23563030.700    97932876.058 7      3514.344          45.250    23563030.200    97932873.058 7      3514.344          45.312
G07  22020187.300   115716871.387 7      3447.824          47.187    22020186.080   115716871.395 7      3447.824          46.437    22020195.600    90169010.656 7      2686.616          46.500    22020196.020    90169024.656 7      2686.616          47.625
R07  23710779.200   126925660.593 7      4937.374          43.812    23710779.160   126925660.624 7      4937.374          42.937    23710802.560    98720063.322 7      3840.180          44.625    23710802.460    98720064.319 7      3840.180          44.625
R05  21481396.880   114830370.301 7       152.155          46.562    21481396.180   114830370.300 7       152.155          46.000    21481408.920    89312558.523 8       118.343          48.812    21481408.620    89312559.522 8       118.343          48.562
G09  21562040.560   113309282.944 7       221.224          46.687    21562039.760   113309282.951 7       221.224          47.812    21562047.680    88292976.703 7       172.383          47.750    21562048.020    88292981.709 7       172.383          47.750
G13  24478759.520   128636752.045 7      5993.108          44.687    24478758.740   128636752.053 5      5993.108          31.437    24478776.660   100236432.700 5      4669.954          31.625
G20  23232899.060   122089699.373 7      4761.593          43.937    23232897.480   122089699.378 5      4761.593          30.812    23232901.640    95134842.748 5      3710.332          31.062
G30  22527002.920   118380193.378 7      5198.121          45.062    22527001.780   118380193.386 7      5198.121          44.000    22527017.300    92244372.349 7      4050.484          43.562    22527018.720    92244381.353 7      4050.484          44.687
G17  23772225.540   124923885.650 7      -487.337          44.125    23772224.200   124923885.652 7      -487.337          42.062    23772238.800    97343342.597 6      -379.743          41.937    23772239.720    97343342.599 7      -379.743          44.750
G19  22519707.220   118341854.137 7      -474.112          45.000    22519705.020   118341854.137 6      -474.112          36.625    22519718.460    92214469.885 6      -369.438          36.687
> 2024 07 31 14 46 53.0000000  0 15
R06  20830451.720   111155289.241 6      3170.434          39.187    20830452.140   111155289.236 6      3170.434          37.875
G06  20362436.440   107005338.207 8      2576.882          49.937    20362435.520   107005338.212 8      2576.882          50.812    20362443.460    83380798.829 8      2007.960          51.500    20362444.300    83380804.826 8      2007.960          51.937
G04  24507382.080   128787159.395 6      -649.088          38.187    24507381.620   128787159.410 4      -649.088          25.187    24507392.180   100353662.571 4      -505.783          25.187    24507391.980   100353675.560 7      -505.783          43.187
G11  22029601.740   115766332.259 7      5097.189          46.250    22029601.220   115766332.264 6      5097.189          37.437    22029606.780    90207557.756 6      3971.835          37.812    22029606.940    90207560.753 8      3971.835          49.812
R21  20728919.620   110924637.740 7      5257.989          46.437    20728919.500   110924637.758 7      5257.989          46.562    20728931.900    86274767.446 8      4089.547          49.562    20728931.880    86274769.444 8      4089.547          49.625
R15  23562162.660   125909057.997 6      4518.235          41.750    23562162.020   125909057.988 6      4518.235          41.000    23562184.920    97929361.770 7      3514.183          45.125    23562184.580    97929358.776 7      3514.183          45.312
G07  22019530.940   115713423.516 7      3447.834          46.750    22019529.940   115713423.519 7      3447.834          46.250    22019539.440    90166324.003 7      2686.624          46.375    22019540.060    90166338.008 7      2686.624          47.375
R07  23709857.100   126920723.082 7      4937.612          43.437    23709856.740   126920723.105 7      4937.612          43.687    23709880.320    98716223.044 7      3840.365          44.937    23709880.480    98716224.043 7      3840.365          44.937
R05  21481367.980   114830217.891 7       152.610          46.375    21481367.620   114830217.892 7       152.610          46.062    21481380.240    89312439.982 7       118.696          47.812    21481380.680    89312440.974 8       118.696          48.437
G09  21561998.580   113309061.507 7       221.472          46.312    21561997.680   113309061.509 8       221.472          48.125    21562005.440    88292804.151 7       172.576          47.875    21562005.820    88292809.155 7       172.576          47.937
G13  24477619.400   128630758.706 7      5993.383          44.062    24477618.160   128630758.711 5      5993.383          31.687    24477636.220   100231762.565 5      4670.168          31.625
G20  23231993.020   122084937.415 7      4762.120          44.187    23231991.420   122084937.417 5      4762.120          30.687    23231995.280    95131132.133 5      3710.743          30.562
G30  22526013.620   118374995.189 7      5198.155          45.937    22526012.600   118374995.199 7      5198.155          43.687    22526028.200    92240321.818 7      4050.510          43.500    22526029.080    92240330.823 7      4050.510          44.937
G17  23772318.300   124924372.783 7      -487.024          43.625    23772316.880   124924372.788 6      -487.024          41.875    23772331.500    97343722.182 6      -379.499          41.687    23772332.260    97343722.188 7      -379.499          44.437
G19  22519797.440   118342328.031 7      -473.941          45.000    22519795.100   118342328.028 6      -473.941          36.687    22519808.620    92214839.149 6      -369.305          36.687
> 2024 07 31 14 46 54.0000000  0 15
R06  20829858.080   111152119.156 6      3169.915          39.187    20829858.480   111152119.159 6      3169.915          37.875
G06  20361946.100   107002761.635 8      2576.167          49.812    20361945.220   107002761.634 8      2576.167          51.062    20361953.100    83378791.104 8      2007.403          51.562    20361954.140    83378797.103 8      2007.403          52.000
G04  24507505.560   128787808.597 6      -649.363          41.062    24507505.260   128787808.615 4      -649.363          25.187    24507515.660   100354168.439 4      -505.997          25.187    24507514.900   100354181.459 6      -505.997          40.875
G11  22028632.200   115761235.314 7      5096.715          46.687    22028631.220   115761235.318 6      5096.715          37.250    22028636.940    90203586.110 6      3971.466          37.125    22028637.240    90203589.111 8      3971.466          50.062
R21  20727936.780   110919380.192 7      5257.154          47.500    20727937.080   110919380.207 7      5257.154          47.187    20727949.340    86270678.240 8      4088.898          49.937    20727949.140    86270680.242 8      4088.898          49.625
R15  23561316.500   125904539.931 7      4517.754          42.312    23561316.320   125904539.929 6      4517.754          41.000    23561338.620    97925847.737 7      3513.809          44.437    23561339.200    97925844.743 7      3513.809          44.562
G07  22018874.920   115709976.074 7      3447.093          46.500    22018873.980   115709976.076 7      3447.093          45.937    22018883.480    90163637.688 7      2686.047          46.000    22018883.760    90163651.693 7      2686.047          47.562
R07  23708934.360   126915785.783 7      4937.108          43.437    23708934.740   126915785.809 7      4937.108          43.187    23708958.280    98712382.941 7      3839.973          44.500    23708957.540    98712383.942 7      3839.973          44.812
R05  21481339.660   114830065.483 7       152.256          46.375    21481339.160   114830065.487 7       152.256          45.562    21481351.860    89312321.436 8       118.421          48.875    21481351.980    89312322.430 8       118.421          49.125
G09  21561956.360   113308840.262 7       220.948          46.375    21561955.500   113308840.270 7       220.948          47.187    21561963.360    88292631.752 7       172.167          47.375    21561963.720    88292636.756 8       172.167          48.250
G13  24476478.740   128624765.490 7      5993.035          44.625    24476477.760   128624765.495 5      5993.035          31.687    24476495.700   100227092.525 5      4669.897          31.437
G20  23231086.860   122080175.367 7      4762.026          43.312    23231085.300   122080175.375 5      4762.026          30.687    23231088.940    95127421.451 5      3710.670          30.562
G30  22525024.740   118369797.184 7      5197.764          45.687    22525023.560   118369797.191 7      5197.764          43.437    22525039.120    92236271.428 7      4050.205          44.062    22525039.900    92236280.433 7      4050.205          44.812
G17  23772410.740   124924859.831 7      -487.163          44.000    23772409.620   124924859.833 6      -487.163          41.937    23772424.280    97344101.695 7      -379.607          42.062    23772424.940    97344101.699 7      -379.607          44.687
G19  22519887.920   118342802.077 7      -474.284          45.562    22519885.440   118342802.077 6      -474.284          36.500    22519898.800    92215208.530 6      -369.572          36.187
> 2024 07 31 14 46 55.0000000  0 15
R06  20829264.680   111148949.397 6      3169.939          39.062    20829264.440   111148949.403 6      3169.939          37.875
G06  20361455.860   107000185.632 8      2575.881          49.250    20361455.060   107000185.637 8      2575.881          51.062    20361462.940    83376783.831 8      2007.180          51.187    20361463.880    83376789.832 8      2007.180          51.625
G04  24507629.320   128788457.801 6      -649.101          40.312    24507628.740   128788457.814 4      -649.101          25.250    24507639.280   100354674.306 4      -505.793          25.187    24507639.860   100354687.289 7      -505.793          42.750
