     3.05           OBSERVATION DATA    MIXED               RINEX VERSION / TYPE
TPS2RIN 1.0.29.3920 TPS-USER            20240511 180135 UTC PGM / RUN BY / DATE
Win64 build Feb 23, 2024 (c) Topcon Positioning Systems     COMMENT
SRC: 20240503_FA00.tps                                      COMMENT
OPT: -S -v 3.05                                             COMMENT
Observer            Agency                                  OBSERVER / AGENCY
O0M3X53SBGM         TPS HIPER_SR        4.8 HSR Jul,08,2022 REC # / TYPE / VERS
FW: 4.8 HSR Jul,08,2022 p3                                  COMMENT
SN: HiPer SR 1212-12575                                     COMMENT
000                 TPSHIPER_SR     NONE                    ANT # / TYPE
        1.8000        0.0000        0.0000                  ANTENNA: DELTA H/E/N
DELTA H stands for **SLANT** height here!                   COMMENT
FA00                                                        MARKER NAME
  5391016.4046 -1598413.4213  3005016.8463                  APPROX POSITION XYZ
  2024     5     3    14    21   41.0000000     GPS         TIME OF FIRST OBS
  2024     5     3    14    26   45.0000000     GPS         TIME OF LAST OBS
     1.000                                                  INTERVAL
   305 EPOCHS                                               COMMENT
G   16 C1C L1C D1C S1C C1W L1W D1W S1W C2W L2W D2W S2W C2X  SYS / # / OBS TYPES
       L2X D2X S2X                                          SYS / # / OBS TYPES
R   16 C1C L1C D1C S1C C1P L1P D1P S1P C2P L2P D2P S2P C2C  SYS / # / OBS TYPES
       L2C D2C S2C                                          SYS / # / OBS TYPES
    19                                                      # OF SATELLITES
   G02   305   305   305   305   305   305   305   305   305PRN / # OF OBS
         305   305   305     0     0     0     0            PRN / # OF OBS
   G03   305   305   305   305   305   305   305   305   305PRN / # OF OBS
         305   305   305   305   305   305   305            PRN / # OF OBS
   G07   305   305   305   305   305   305   305   305   305PRN / # OF OBS
         305   305   305   305   305   305   305            PRN / # OF OBS
   G08   305   305   305   305   305   305   305   305   305PRN / # OF OBS
         305   305   305   305   305   305   305            PRN / # OF OBS
   G10   305   305   305   305   305   305   305   305   305PRN / # OF OBS
         305   305   305   305   305   305   305            PRN / # OF OBS
   G14   305   305   305   305   305   305   305   305   305PRN / # OF OBS
         305   305   305   305   305   305   305            PRN / # OF OBS
   G16   305   305   305   305   305   305   305   305   305PRN / # OF OBS
         305   305   305     0     0     0     0            PRN / # OF OBS
   G21   305   305   305   305   305   305   305   305   305PRN / # OF OBS
         305   305   305     0     0     0     0            PRN / # OF OBS
   G27   305   305   305   305   305   305   305   305   305PRN / # OF OBS
         305   305   305   305   305   305   305            PRN / # OF OBS
   G30   305   305   305   305   305   305   305   305   305PRN / # OF OBS
         305   305   305   195   195   195   195            PRN / # OF OBS
   G32   305   305   305   305   305   305   305   305   305PRN / # OF OBS
         305   305   305   305   305   305   305            PRN / # OF OBS
   R01   305   305   305   305   305   305   305   305   305PRN / # OF OBS
         305   305   305   305   305   305   305            PRN / # OF OBS
   R02   305   305   305   305   305   305   305   305   305PRN / # OF OBS
         305   305   305   305   305   305   305            PRN / # OF OBS
   R08   305   305   305   305   305   305   305   305   305PRN / # OF OBS
         305   305   305   305   305   305   305            PRN / # OF OBS
   R14   305   305   305   305   305   305   305   305   305PRN / # OF OBS
         305   305   305   305   305   305   305            PRN / # OF OBS
   R15   305   305   305   305   305   305   305   305   305PRN / # OF OBS
         305   305   305   305   305   305   305            PRN / # OF OBS
   R17   305   305   305   305   305   305   305   305   305PRN / # OF OBS
         305   305   305   305   305   305   305            PRN / # OF OBS
   R23   243   243   243   243   238   238   238   238     0PRN / # OF OBS
           0     0     0     0     0     0     0            PRN / # OF OBS
   R24   305   305   305   305   305   305   305   305   305PRN / # OF OBS
         305   305   305   305   305   305   305            PRN / # OF OBS
G L1C                                                       SYS / PHASE SHIFT
G L1W -0.25000                                              SYS / PHASE SHIFT
G L2W  0.00000                                              SYS / PHASE SHIFT
G L2X  0.25000                                              SYS / PHASE SHIFT
R L1C                                                       SYS / PHASE SHIFT
R L1P -0.25000                                              SYS / PHASE SHIFT
R L2P -0.25000                                              SYS / PHASE SHIFT
R L2C                                                       SYS / PHASE SHIFT
  8 R01  1 R02 -4 R08  6 R14 -7 R15  0 R17  4 R23  3 R24  2 GLONASS SLOT / FRQ #
                                                            GLONASS COD/PHS/BIS
    18    18  1929     7GPS                                 LEAP SECONDS
                                                            END OF HEADER
> 2024 05 03 14 21 41.0000000  0 18
G30  25134571.580   132083071.922 7      2282.326          46.687    25134569.940   132083071.929 4      2282.326          28.062    25134577.640   102921875.955 4      1778.435          28.062    25134578.400   102921889.968 6      1778.435          37.250
G02  21380502.200   112355294.688 7      2812.872          46.312    21380500.180   112355294.695 6      2812.872          39.562    21380501.860    87549579.205 6      2191.848          39.687
G03  22809415.160   119864301.984 7      6245.987          43.000    22809414.740   119864301.987 5      6245.987          35.500    22809424.560    93400802.156 5      4867.003          35.250    22809425.240    93400808.167 8      4867.003          49.500
G14  24666596.920   129623844.155 6      5995.942          40.312    24666596.000   129623844.165 4      5995.942          24.250    24666600.500   101005599.781 4      4672.163          24.187    24666601.400   101005609.780 6      4672.163          41.125
G08  20618028.220   108348462.425 8      2637.356          48.187    20618027.160   108348462.428 8      2637.356          49.062    20618032.140    84427391.428 8      2055.083          49.562    20618032.980    84427394.434 8      2055.083          50.625
G21  20792368.560   109264629.030 7      1824.054          46.875    20792367.040   109264629.037 6      1824.054          40.875    20792369.260    85141273.286 6      1421.340          40.937
R14  20271640.260   108059234.587 8       588.146          49.062    20271638.380   108059234.577 8       588.146          48.687    20271648.060    84046101.413 8       457.447          51.375    20271648.320    84046102.422 8       457.447          51.375
R24  20797912.100   111215771.190 7      1847.944          47.187    20797912.100   111215771.202 7      1847.944          46.687    20797920.500    86501196.736 8      1437.290          49.437    20797920.240    86501193.738 8      1437.290          49.625
G27  22053204.660   115890355.416 7       949.522          46.500    22053204.420   115890355.413 7       949.522          45.937    22053209.320    90304192.178 7       739.887          46.062    22053210.520    90304199.185 8       739.887          48.750
R02  22818912.460   121766136.078 7      6496.976          44.937    22818911.900   121766136.084 7      6496.976          44.062    22818927.560    94707084.698 7      5053.204          42.500    22818927.780    94707086.702 7      5053.204          43.312
G16  23443267.060   123195168.503 7      -819.439          44.125    23443265.520   123195168.508 5      -819.439          31.312    23443273.520    95996253.342 5      -638.524          31.250
R15  21415553.280   114438217.459 7      4415.001          46.187    21415553.380   114438217.449 7      4415.001          44.750    21415561.680    89007541.043 8      3433.890          48.375    21415561.540    89007542.049 8      3433.890          49.062
R17  21631992.840   115757161.577 7      3786.236          43.312    21631992.980   115757161.586 7      3786.236          43.750    21632002.680    90033393.488 8      2944.850          48.250    21632002.640    90033389.497 8      2944.850          49.875
G10  23808669.360   125115381.827 7      -239.092          45.375    23808668.140   125115381.830 7      -239.092          42.812    23808676.340    97492533.181 7      -186.306          43.187    23808675.940    97492535.190 7      -186.306          45.000
R08  23147412.460   123953331.888 6       948.492          41.500    23147413.540   123953331.924 6       948.492          40.500    23147424.600    96408193.005 7       737.716          44.937    23147424.700    96408198.009 7       737.716          45.500
G07  24207490.460   127211202.483 7      1404.536          44.937    24207488.840   127211202.485 4      1404.536          28.625    24207495.300    99125615.047 4      1094.444          28.500    24207495.060    99125638.038 6      1094.444          39.562
R01  21156691.340   113094643.997 7      4408.372          43.125    21156690.780   113094644.007 6      4408.372          41.875    21156701.660    87962557.273 7      3428.733          43.000    21156700.900    87962550.265 7      3428.733          43.375
G32  24996823.420   131359204.407 7      3535.522          43.687    24996822.440   131359204.407 5      3535.522          34.250    24996834.660   102357884.019 5      2754.952          34.625    24996835.540   102357889.036 6      2754.952          38.812
> 2024 05 03 14 21 42.0000000  0 18
G30  25134137.220   132080789.870 7      2281.963          46.687    25134135.400   132080789.872 4      2281.963          27.500    25134143.460   102920097.729 4      1778.153          28.062    25134143.460   102920111.731 6      1778.153          37.250
G02  21379966.960   112352482.119 7      2812.605          47.125    21379965.040   112352482.127 6      2812.605          39.750    21379966.720    87547387.596 6      2191.641          39.812
G03  22808226.860   119858056.275 7      6245.686          43.375    22808226.240   119858056.277 5      6245.686          35.625    22808236.140    93395935.377 5      4866.769          35.250    22808236.880    93395941.381 8      4866.769          48.937
G14  24665455.920   129617848.396 6      5995.740          39.625    24665454.940   129617848.409 4      5995.740          24.250    24665459.580   101000927.763 4      4672.005          24.187    24665460.280   101000937.765 6      4672.005          41.125
G08  20617526.400   108345825.320 8      2637.079          48.687    20617525.320   108345825.320 8      2637.079          49.312    20617530.320    84425336.541 8      2054.867          49.625    20617531.060    84425339.544 8      2054.867          50.625
G21  20792021.660   109262805.099 7      1823.867          47.875    20792019.940   109262805.101 6      1823.867          41.375    20792022.140    85139852.039 6      1421.195          41.062
R14  20271530.040   108058646.893 8       587.458          49.312    20271528.180   108058646.888 8       587.458          48.687    20271537.780    84045644.318 8       456.912          50.812    20271538.060    84045645.324 8       456.912          51.500
R24  20797566.400   111213923.481 7      1847.763          47.562    20797566.680   111213923.493 7      1847.763          47.500    20797575.080    86499759.627 8      1437.149          49.937    20797574.900    86499756.629 8      1437.149          49.625
G27  22053023.860   115889406.188 7       949.168          46.125    22053023.700   115889406.191 7       949.168          46.250    22053028.760    90303452.520 7       739.611          46.187    22053029.580    90303459.527 8       739.611          48.750
R02  22817695.220   121759639.212 7      6496.975          45.562    22817694.520   121759639.207 7      6496.975          44.125    22817709.780    94702031.584 7      5053.203          42.562    22817710.400    94702033.588 7      5053.203          42.750
G16  23443422.840   123195988.173 7      -819.621          44.062    23443421.460   123195988.173 5      -819.621          31.500    23443429.580    95996892.035 5      -638.666          31.250
R15  21414727.380   114433802.948 7      4414.233          46.187    21414727.060   114433802.949 7      4414.233          45.187    21414735.360    89004107.543 8      3433.292          48.500    21414735.620    89004108.554 8      3433.292          49.437
R17  21631285.780   115753375.406 7      3786.220          43.312    21631285.180   115753375.410 7      3786.220          44.000    21631295.240    90030448.682 8      2944.838          48.812    21631294.960    90030444.685 8      2944.838          49.062
G10  23808715.040   125115621.270 7      -239.488          45.625    23808713.800   125115621.273 7      -239.488          42.875    23808721.860    97492719.758 7      -186.614          43.125    23808721.780    97492721.761 7      -186.614          45.250
R08  23147235.600   123952383.914 6       947.522          41.500    23147236.600   123952383.963 6       947.522          40.500    23147247.620    96407455.694 7       736.962          45.187    23147247.700    96407460.698 7       736.962          45.125
G07  24207223.020   127209798.221 7      1404.162          44.375    24207221.600   127209798.221 4      1404.162          28.625    24207228.000    99124520.814 4      1094.152          28.812    24207228.020    99124543.817 6      1094.152          39.562
R01  21155866.420   113090236.051 7      4407.683          42.687    21155866.660   113090236.050 6      4407.683          41.875    21155877.580    87959128.866 7      3428.198          43.250    21155876.220    87959121.856 7      3428.198          43.812
G32  24996150.640   131355669.287 7      3534.864          42.812    24996149.660   131355669.287 5      3534.864          34.250    24996161.720   102355129.390 5      2754.440          34.625    24996162.400   102355134.401 6      2754.440          38.812
> 2024 05 03 14 21 43.0000000  0 18
G30  25133702.920   132078508.278 7      2281.309          46.625    25133701.200   132078508.283 4      2281.309          27.500    25133709.080   102918319.863 4      1777.644          28.062    25133710.220   102918333.863 6      1777.644          37.250
G02  21379431.880   112349669.787 7      2812.206          46.937    21379429.780   112349669.797 6      2812.206          39.812    21379431.560    87545196.168 6      2191.329          39.562
G03  22807038.100   119851810.820 7      6245.203          42.687    22807037.680   119851810.820 5      6245.203          35.625    22807047.760    93391068.796 5      4866.392          35.125    22807048.160    93391074.799 8      4866.392          49.125
G14  24664315.300   129611852.889 6      5995.192          40.375    24664314.000   129611852.905 4      5995.192          24.250    24664318.580   100996255.945 4      4671.578          24.187    24664319.260   100996265.937 6      4671.578          41.312
G08  20617024.500   108343188.503 8      2636.618          49.125    20617023.640   108343188.503 8      2636.618          49.562    20617028.600    84423281.878 8      2054.508          49.562    20617029.340    84423284.880 8      2054.508          50.687
G21  20791674.560   109260981.394 7      1823.528          47.625    20791672.780   109260981.399 6      1823.528          41.437    20791675.220    85138430.971 6      1420.931          41.062
R14  20271419.940   108058059.977 8       586.402          49.187    20271418.040   108058059.972 8       586.402          48.687    20271427.840    84045187.823 8       456.090          50.875    20271428.260    84045188.828 8       456.090          51.750
R24  20797220.700   111212075.833 7      1847.513          47.187    20797220.980   111212075.845 7      1847.513          47.187    20797229.560    86498322.569 8      1436.955          49.875    20797229.320    86498319.569 8      1436.955          49.937
G27  22052843.380   115888457.203 7       948.723          46.375    22052843.260   115888457.207 7       948.723          46.875    22052848.140    90302713.055 7       739.265          46.625    22052849.140    90302720.062 8       739.265          48.750
R02  22816477.800   121753142.382 7      6496.724          45.500    22816477.060   121753142.383 7      6496.724          44.375    22816492.380    94696978.517 7      5053.007          42.875    22816493.080    94696980.521 7      5053.007          42.812
G16  23443579.080   123196808.043 7      -820.083          43.562    23443577.760   123196808.045 5      -820.083          31.500    23443585.620    95997530.890 5      -639.025          31.437
R15  21413901.380   114429389.247 7      4413.239          46.375    21413901.260   114429389.250 7      4413.239          44.500    21413909.460    89000674.666 8      3432.519          48.562    21413909.700    89000675.677 8      3432.519          48.937
R17  21630578.000   115749589.348 7      3785.980          44.000    21630577.620   115749589.360 7      3785.980          44.000    21630587.680    90027503.976 8      2944.651          48.875    21630587.440    90027499.973 8      2944.651          48.937
G10  23808760.680   125115861.013 7      -240.046          45.750    23808759.380   125115861.018 7      -240.046          43.187    23808767.600    97492906.567 7      -187.049          43.062    23808767.340    97492908.573 7      -187.049          45.437
R08  23147058.760   123951436.619 6       946.891          41.687    23147059.900   123951436.653 6       946.891          40.500    23147070.820    96406718.895 7       736.471          44.937    23147070.820    96406723.897 7       736.471          45.062
G07  24206955.920   127208394.247 7      1403.854          44.062    24206954.540   127208394.246 4      1403.854          28.625    24206960.980    99123426.803 4      1093.912          28.812    24206960.540    99123449.792 6      1093.912          39.562
R01  21155041.740   113085828.789 7      4407.024          42.812    21155041.640   113085828.785 7      4407.024          42.187    21155053.100    87955700.991 7      3427.685          43.062    21155051.920    87955693.980 7      3427.685          43.375
G32  24995477.820   131352134.448 6      3534.604          41.437    24995476.980   131352134.450 5      3534.604          34.375    24995489.200   102352374.978 5      2754.237          34.437    24995490.020   102352379.993 6      2754.237          38.812
> 2024 05 03 14 21 44.0000000  0 18
G30  25133268.880   132076226.918 7      2281.096          47.000    25133267.100   132076226.925 4      2281.096          27.500    25133275.100   102916542.175 4      1777.477          27.437    25133276.380   102916556.174 6      1777.477          37.250
G02  21378896.720   112346857.529 7      2812.095          47.000    21378894.780   112346857.528 6      2812.095          39.687    21378896.420    87543004.792 6      2191.243          39.312
G03  22805849.560   119845565.373 7      6245.295          43.750    22805849.060   119845565.373 5      6245.295          35.312    22805859.260    93386202.222 5      4866.463          34.937    22805859.600    93386208.227 8      4866.463          49.000
G14  24663174.680   129605857.343 6      5995.386          39.625    24663173.080   129605857.353 4      5995.386          24.250    24663177.920   100991584.091 4      4671.729          24.187    24663178.140   100991594.085 6      4671.729          41.312
G08  20616522.880   108340551.839 8      2636.398          49.125    20616521.920   108340551.842 8      2636.398          48.187    20616526.840    84421227.335 8      2054.336          49.250    20616527.540    84421230.337 8      2054.336          50.375
G21  20791327.440   109259157.752 8      1823.442          48.125    20791325.840   109259157.757 6      1823.442          40.625    20791328.200    85137009.953 6      1420.864          40.812
R14  20271310.020   108057473.569 8       586.009          49.312    20271308.120   108057473.565 8       586.009          48.375    20271317.800    84044731.722 8       455.785          51.562    20271318.080    84044732.727 8       455.785          51.937
R24  20796875.140   111210228.072 8      1847.704          48.500    20796875.620   111210228.082 7      1847.704          46.250    20796884.080    86496885.418 8      1437.103          49.812    20796883.720    86496882.420 8      1437.103          49.875
G27  22052662.680   115887508.345 7       948.624          46.812    22052662.660   115887508.342 7       948.624          46.750    22052667.600    90301973.674 7       739.187          46.250    22052668.500    90301980.684 8       739.187          48.500
R02  22815260.160   121746645.412 7      6496.888          45.875    22815259.440   121746645.418 7      6496.888          44.562    22815274.740    94691925.335 7      5053.135          42.750    22815275.340    94691927.338 7      5053.135          43.125
G16  23443735.040   123197627.931 7      -820.155          43.437    23443733.820   123197627.936 5      -820.155          31.500    23443741.540    95998169.752 5      -639.082          31.437
R15  21413075.180   114424976.144 7      4412.672          46.375    21413075.500   114424976.132 7      4412.672          44.375    21413083.540    88997242.241 8      3432.079          48.750    21413083.860    88997243.253 8      3432.079          48.625
R17  21629870.280   115745803.260 7      3785.967          44.062    21629869.620   115745803.267 7      3785.967          43.500    21629880.440    90024559.242 8      2944.641          49.250    21629879.800    90024555.234 8      2944.641          49.375
G10  23808806.280   125116100.924 7      -240.181          45.500    23808805.080   125116100.929 7      -240.181          43.687    23808813.180    97493093.504 7      -187.154          43.562    23808813.180    97493095.511 7      -187.154          45.062
R08  23146882.100   123950489.946 6       946.201          41.687    23146882.880   123950489.978 6       946.201          40.625    23146893.940    96405982.594 7       735.934          45.375    23146893.840    96405987.596 7       735.934          45.375
G07  24206688.580   127206990.390 7      1403.595          43.937    24206687.340   127206990.390 4      1403.595          28.625    24206693.840    99122332.883 4      1093.710          28.812    24206694.260    99122355.876 6      1093.710          39.687
R01  21154217.420   113081422.137 7      4406.164          42.812    21154217.420   113081422.135 6      4406.164          41.750    21154229.080    87952273.601 7      3427.016          43.562    21154227.700    87952266.594 7      3427.016          44.000
G32  24994805.120   131348599.906 7      3534.196          42.062    24994804.420   131348599.911 5      3534.196          34.375    24994816.660   102349620.798 5      2753.919          34.500    24994817.440   102349625.812 6      2753.919          38.875
> 2024 05 03 14 21 45.0000000  0 18
G30  25132835.000   132073946.046 7      2280.548          46.875    25132833.140   132073946.048 4      2280.548          27.500    25132841.020   102914764.874 4      1777.050          27.437    25132841.700   102914778.875 6      1777.050          37.250
G02  21378361.460   112344045.536 7      2811.822          47.312    21378359.560   112344045.538 6      2811.822          39.812    21378361.360    87540813.630 6      2191.030          39.812
G03  22804661.140   119839320.176 7      6245.009          43.437    22804660.600   119839320.176 5      6245.009          35.312    22804670.740    93381335.845 5      4866.241          34.937    22804671.420    93381341.852 8      4866.241          49.000
G14  24662033.820   129599862.091 6      5995.141          40.437    24662032.260   129599862.101 4      5995.141          24.250    24662037.140   100986912.473 4      4671.539          24.187    24662037.580   100986922.466 6      4671.539          41.375
G08  20616021.120   108337915.509 8      2636.105          48.750    20616020.120   108337915.511 8      2636.105          49.625    20616025.240    84419173.051 8      2054.108          49.687    20616025.860    84419176.055 8      2054.108          50.625
G21  20790980.500   109257334.378 7      1823.221          47.812    20790978.880   109257334.383 6      1823.221          41.250    20790981.040    85135589.138 6      1420.692          41.187
R14  20271199.920   108056887.959 8       585.158          49.312    20271198.400   108056887.952 8       585.158          49.437    20271207.980    84044276.243 8       455.123          51.312    20271208.380    84044277.248 8       455.123          51.500
R24  20796529.860   111208380.427 7      1847.526          47.875    20796529.940   111208380.436 7      1847.526          47.500    20796538.500    86495448.365 8      1436.964          49.437    20796538.060    86495445.367 8      1436.964          50.187
G27  22052482.060   115886559.777 7       948.371          45.937    22052482.120   115886559.782 7       948.371          46.187    22052487.100    90301234.532 7       738.991          46.062    22052487.880    90301241.542 8       738.991          48.812
R02  22814042.460   121740148.481 7      6496.856          45.500    22814041.960   121740148.479 7      6496.856          45.125    22814057.120    94686872.168 7      5053.110          42.750    22814057.580    94686874.170 7      5053.110          43.125
G16  23443891.180   123198447.990 7      -820.237          43.562    23443889.720   123198447.992 5      -820.237          31.500    23443897.580    95998808.749 5      -639.145          31.437
R15  21412249.780   114420563.883 7      4411.802          46.125    21412249.480   114420563.868 7      4411.802          44.375    21412257.760    88993810.482 8      3431.402          48.750    21412258.020    88993811.497 8      3431.402          48.625
R17  21629163.020   115742017.301 7      3785.872          44.000    21629161.440   115742017.310 7      3785.872          43.375    21629173.080    90021614.611 8      2944.567          48.937    21629172.280    90021610.605 8      2944.567          49.375
G10  23808852.100   125116341.208 7      -240.535          45.187    23808850.900   125116341.213 7      -240.535          43.562    23808859.000    97493280.734 7      -187.430          43.500    23808858.940    97493282.737 7      -187.430          45.625
R08  23146705.680   123949544.058 6       945.413          41.687    23146705.760   123949544.086 6       945.413          40.625    23146717.360    96405246.901 7       735.321          45.250    23146717.260    96405251.901 7       735.321          45.125
G07  24206421.200   127205586.820 7      1403.425          44.062    24206420.080   127205586.823 4      1403.425          28.937    24206426.780    99121239.186 4      1093.578          28.812    24206426.600    99121262.189 6      1093.578          39.687
R01  21153392.940   113077016.179 7      4405.466          42.000    21153392.360   113077016.185 6      4405.466          41.750    21153404.620    87948846.755 7      3426.473          43.625    21153403.340    87948839.746 7      3426.473          43.937
G32  24994132.600   131345065.742 7      3533.870          42.125    24994131.900   131345065.742 5      3533.870          34.375    24994144.040   102346866.910 5      2753.665          34.500    24994144.580   102346871.923 6      2753.665          38.875
> 2024 05 03 14 21 46.0000000  0 18
G30  25132401.000   132071665.691 7      2280.094          47.250    25132399.260   132071665.694 4      2280.094          27.500    25132407.120   102912987.973 4      1776.697          27.437    25132407.900   102913001.969 6      1776.697          36.875
G02  21377826.400   112341233.868 7      2811.523          47.375    21377824.520   112341233.868 6      2811.523          39.937    21377826.260    87538622.721 6      2190.797          40.000
G03  22803472.640   119833075.350 7      6244.652          43.812    22803472.340   119833075.347 5      6244.652          35.312    22803482.300    93376469.748 5      4865.962          35.187    22803483.120    93376475.755 8      4865.962          49.062
G14  24660892.860   129593867.113 6      5994.797          40.750    24660891.420   129593867.123 4      5994.797          24.250    24660896.280   100982241.063 4      4671.271          24.187    24660896.900   100982251.067 6      4671.271          41.375
G08  20615519.580   108335279.544 8      2635.793          49.187    20615518.620   108335279.546 8      2635.793          48.750    20615523.560    84417119.055 8      2053.864          48.687    20615524.020    84417122.054 8      2053.864          50.750
G21  20790633.820   109255511.309 7      1822.944          47.812    20790631.920   109255511.311 6      1822.944          41.062    20790634.160    85134168.567 6      1420.476          41.062
R14  20271090.420   108056303.212 8       584.260          49.125    20271088.880   108056303.199 8       584.260          49.000    20271098.360    84043821.434 8       454.424          50.375    20271098.720    84043822.437 8       454.424          50.500
R24  20796184.060   111206532.886 8      1847.383          48.250    20796184.480   111206532.898 7      1847.383          47.000    20796193.020    86494011.388 8      1436.853          49.062    20796192.840    86494008.390 8      1436.853          49.562
G27  22052301.760   115885611.553 7       948.101          46.062    22052301.620   115885611.556 7       948.101          46.125    22052306.660    90300495.656 7       738.780          45.750    22052307.700    90300502.667 8       738.780          48.812
R02  22812825.140   121733651.702 7      6496.701          46.000    22812824.620   121733651.701 7      6496.701          44.812    22812839.380    94681819.137 7      5052.990          42.625    22812840.120    94681821.138 7      5052.990          42.937
G16  23444047.040   123199268.364 7      -820.554          43.375    23444045.780   123199268.366 5      -820.554          31.500    23444053.660    95999447.999 5      -639.393          31.312
R15  21411424.000   114416152.520 7      4410.870          45.187    21411423.860   114416152.513 7      4410.870          45.000    21411432.120    88990379.428 8      3430.677          48.687    21411432.220    88990380.439 7      3430.677          47.812
R17  21628455.460   115738231.518 7      3785.656          44.000    21628454.020   115738231.538 7      3785.656          43.437    21628465.740    90018670.123 8      2944.399          48.312    21628464.820    90018666.124 8      2944.399          49.000
G10  23808897.620   125116581.859 7      -240.863          45.937    23808896.700   125116581.862 7      -240.863          43.250    23808904.820    97493468.249 7      -187.685          42.875    23808904.780    97493470.253 7      -187.685          45.500
R08  23146528.520   123948598.967 7       944.530          42.062    23146529.860   123948599.001 6       944.530          40.625    23146541.080    96404511.832 7       734.635          45.187    23146540.660    96404516.832 7       734.635          45.187
G07  24206154.280   127204183.686 7      1402.942          43.500    24206153.100   127204183.691 4      1402.942          28.937    24206159.620    99120145.833 4      1093.201          29.062    24206159.740    99120168.828 6      1093.201          39.625
R01  21152568.780   113072611.031 7      4404.749          43.437    21152568.380   113072611.022 7      4404.749          42.250    21152581.000    87945420.523 7      3425.916          43.312    21152579.160    87945413.514 7      3425.916          43.562
G32  24993460.460   131341532.022 7      3533.428          43.375    24993459.500   131341532.025 5      3533.428          34.375    24993471.420   102344113.375 5      2753.321          34.437    24993471.680   102344118.385 6      2753.321          38.875
> 2024 05 03 14 21 47.0000000  0 18
G30  25131967.000   132069385.865 7      2279.513          47.500    25131965.340   132069385.873 4      2279.513          26.812    25131973.280   102911211.483 4      1776.244          27.437    25131974.060   102911225.475 6      1776.244          36.875
G02  21377291.420   112338422.522 7      2811.113          47.562    21377289.460   112338422.524 6      2811.113          39.812    21377291.260    87536432.063 6      2190.477          39.937
G03  22802284.640   119826830.846 7      6244.296          43.437    22802284.020   119826830.846 5      6244.296          35.500    22802294.160    93371603.909 5      4865.685          35.125    22802295.020    93371609.919 8      4865.685          49.250
G14  24659752.320   129587872.405 6      5994.572          39.437    24659750.760   129587872.415 4      5994.572          24.437    24659755.680   100977569.860 4      4671.095          24.187    24659755.760   100977579.855 6      4671.095          41.000
G08  20615018.000   108332643.944 8      2635.394          48.125    20615016.980   108332643.943 8      2635.394          49.250    20615022.040    84415065.340 8      2053.554          49.437    20615022.640    84415068.344 8      2053.554          50.562
G21  20790286.840   109253688.521 7      1822.653          47.000    20790285.120   109253688.526 6      1822.653          41.187    20790287.360    85132748.217 6      1420.249          41.125
R14  20270980.800   108055719.278 8       583.434          49.750    20270979.460   108055719.274 8       583.434          49.062    20270988.760    84043367.268 8       453.782          51.500    20270989.040    84043368.272 8       453.782          51.937
R24  20795838.680   111204685.441 8      1847.229          48.437    20795839.020   111204685.461 7      1847.229          47.750    20795847.500    86492574.495 8      1436.733          49.312    20795847.440    86492571.495 8      1436.733          50.312
G27  22052121.460   115884663.669 7       947.665          46.437    22052121.320   115884663.668 7       947.665          47.312    22052126.300    90299757.042 7       738.441          46.562    22052127.160    90299764.051 8       738.441          48.562
R02  22811607.560   121727155.103 7      6496.358          45.750    22811606.780   121727155.106 7      6496.358          44.937    22811621.700    94676766.247 7      5052.723          42.625    22811622.460    94676768.254 7      5052.723          42.750
G16  23444203.580   123200089.014 7      -820.892          43.187    23444201.960   123200089.019 5      -820.892          31.500    23444209.880    96000087.460 5      -639.656          31.312
R15  21410598.900   114411742.035 7      4409.994          44.875    21410598.140   114411742.036 7      4409.994          45.062    21410606.800    88986949.060 8      3429.996          48.500    21410606.940    88986950.068 7      3429.996          47.875
R17  21627748.080   115734445.917 7      3785.439          43.375    21627746.580   115734445.924 7      3785.439          43.437    21627758.460    90015725.763 8      2944.230          48.625    21627757.700    90015721.766 8      2944.230          50.125
G10  23808943.600   125116822.868 7      -241.235          45.437    23808942.560   125116822.868 7      -241.235          42.812    23808950.720    97493656.042 7      -187.976          42.625    23808950.860    97493658.048 7      -187.976          45.687
R08  23146351.660   123947654.616 7       943.802          42.062    23146352.980   123947654.658 6       943.802          40.937    23146364.560    96403777.345 7       734.068          45.312    23146364.360    96403782.349 7       734.068          45.375
G07  24205887.520   127202780.923 7      1402.554          44.125    24205886.300   127202780.930 4      1402.554          28.937    24205892.640    99119052.766 4      1092.900          29.062    24205892.440    99119075.767 6      1092.900          39.625
R01  21151745.220   113068206.642 7      4403.940          43.437    21151744.180   113068206.638 7      4403.940          42.250    21151756.960    87941994.898 7      3425.287          43.875    21151755.240    87941987.889 7      3425.287          44.250
G32  24992787.920   131337998.726 7      3532.975          42.000    24992787.180   131337998.728 5      3532.975          34.375    24992799.000   102341360.165 5      2752.968          34.625    24992799.560   102341365.179 6      2752.968          38.875
> 2024 05 03 14 21 48.0000000  0 18
G30  25131533.420   132067106.546 8      2279.180          48.375    25131531.720   132067106.551 4      2279.180          26.812    25131539.600   102909435.384 4      1775.984          27.437    25131540.640   102909449.372 6      1775.984          36.875
G02  21376756.760   112335611.469 8      2811.029          48.375    21376754.720   112335611.474 6      2811.029          40.125    21376756.340    87534241.634 6      2190.412          39.875
G03  22801096.640   119820586.645 7      6244.169          43.625    22801095.780   119820586.650 5      6244.169          35.500    22801105.780    93366738.306 5      4865.586          35.125    22801106.580    93366744.313 8      4865.586          49.312
G14  24658611.600   129581877.944 6      5994.467          39.562    24658610.160   129581877.951 4      5994.467          24.437    24658615.000   100972898.851 4      4671.013          24.187    24658615.360   100972908.863 6      4671.013          41.375
G08  20614516.740   108330008.701 8      2635.205          49.812    20614515.540   108330008.703 8      2635.205          48.562    20614520.640    84413011.904 8      2053.407          49.125    20614521.180    84413014.906 8      2053.407          50.937
G21  20789940.100   109251866.044 8      1822.501          48.562    20789938.300   109251866.051 6      1822.501          41.125    20789940.720    85131328.104 6      1420.131          40.937
R14  20270871.360   108055136.155 8       582.912          50.687    20270870.200   108055136.147 8       582.912          49.312    20270879.420    84042913.717 8       453.376          51.562    20270879.780    84042914.721 8       453.376          51.687
R24  20795493.100   111202838.140 8      1847.356          49.125    20795493.440   111202838.158 8      1847.356          48.125    20795502.040    86491137.702 8      1436.833          49.437    20795501.800    86491134.704 8      1436.833          50.187
G27  22051941.460   115883716.104 7       947.483          46.437    22051941.020   115883716.112 7       947.483          46.187    22051945.980    90299018.683 7       738.298          46.062    22051947.060    90299025.689 8       738.298          49.250
R02  22810390.220   121720658.636 7      6496.492          45.625    22810389.700   121720658.640 7      6496.492          44.562    22810404.780    94671713.458 7      5052.827          42.625    22810405.140    94671715.458 7      5052.827          43.125
G16  23444359.880   123200909.905 7      -820.863          43.687    23444358.240   123200909.913 5      -820.863          31.125    23444365.940    96000727.108 5      -639.633          31.312
R15  21409773.920   114407332.454 7      4409.200          45.562    21409773.080   114407332.458 7      4409.200          45.312    21409781.700    88983519.385 8      3429.378          48.312    21409781.580    88983520.390 7      3429.378          47.812
R17  21627040.640   115730660.519 7      3785.461          43.375    21627039.120   115730660.521 7      3785.461          43.500    21627051.160    90012781.557 8      2944.248          48.750    21627050.620    90012777.568 8      2944.248          50.125
G10  23808989.540   125117064.256 7      -241.417          45.125    23808988.620   125117064.258 7      -241.417          43.187    23808996.540    97493844.132 7      -188.117          43.125    23808996.720    97493846.138 7      -188.117          45.562
R08  23146175.660   123946711.076 7       943.244          42.062    23146177.540   123946711.109 6       943.244          40.937    23146188.380    96403043.466 7       733.634          45.562    23146188.120    96403048.470 7       733.634          45.062
G07  24205620.660   127201378.520 7      1402.435          44.000    24205619.500   127201378.527 4      1402.435          28.937    24205626.000    99117959.980 4      1092.807          29.062    24205626.440    99117982.977 6      1092.807          39.625
R01  21150921.520   113063803.018 7      4403.353          42.937    21150919.820   113063803.017 6      4403.353          41.937    21150933.360    87938569.859 7      3424.830          43.812    21150931.880    87938562.847 7      3424.830          44.250
G32  24992115.760   131334465.847 7      3532.758          42.937    24992114.800   131334465.849 5      3532.758          34.625    24992126.620   102338607.280 5      2752.799          34.625    24992126.460   102338612.299 6      2752.799          38.875
> 2024 05 03 14 21 49.0000000  0 18
G30  25131099.780   132064827.437 8      2278.919          48.375    25131098.120   132064827.442 4      2278.919          26.812    25131105.800   102907659.453 4      1775.781          27.437    25131107.060   102907673.457 6      1775.781          36.875
G02  21376221.780   112332800.480 8      2810.838          49.000    21376219.800   112332800.482 6      2810.838          40.062    21376221.480    87532051.251 6      2190.263          39.750
G03  22799908.380   119814342.415 7      6244.256          43.812    22799907.540   119814342.417 5      6244.256          35.750    22799917.560    93361872.678 5      4865.654          35.187    22799917.980    93361878.682 8      4865.654          49.437
G14  24657470.860   129575883.543 6      5994.297          39.875    24657469.540   129575883.553 4      5994.297          24.437    24657474.300   100968227.894 4      4670.881          24.187    24657474.920   100968237.908 6      4670.881          41.375
G08  20614015.200   108327373.616 8      2634.874          48.937    20614014.140   108327373.616 8      2634.874          50.375    20614019.180    84410958.591 8      2053.149          50.312    20614019.800    84410961.595 8      2053.149          50.312
G21  20789593.460   109250043.616 8      1822.302          48.000    20789591.520   109250043.626 6      1822.302          41.250    20789593.740    85129908.035 6      1419.976          41.187
R14  20270762.340   108054553.530 8       582.275          50.562    20270761.220   108054553.536 8       582.275          50.062    20270770.080    84042460.572 8       452.881          51.437    20270770.380    84042461.575 8       452.881          51.375
R24  20795147.480   111200990.797 8      1847.274          49.375    20795147.980   111200990.812 8      1847.274          48.875    20795156.540    86489700.879 8      1436.769          49.750    20795156.460    86489697.879 8      1436.769          50.250
G27  22051761.140   115882768.661 7       947.274          47.000    22051760.660   115882768.666 7       947.274          47.062    22051765.640    90298280.413 7       738.136          46.625    22051767.040    90298287.421 8       738.136          49.062
R02  22809172.620   121714162.044 7      6496.606          45.812    22809172.220   121714162.053 7      6496.606          45.562    22809186.720    94666660.564 7      5052.916          42.625    22809187.500    94666662.571 7      5052.916          42.812
G16  23444516.040   123201730.776 7      -820.944          43.437    23444514.380   123201730.784 5      -820.944          31.125    23444522.180    96001366.739 5      -639.696          31.062
R15  21408948.840   114402923.455 7      4408.630          47.687    21408948.140   114402923.448 7      4408.630          46.437    21408956.580    88980090.158 8      3428.935          48.500    21408956.420    88980091.160 8      3428.935          48.750
R17  21626333.720   115726875.042 7      3785.484          45.875    21626331.540   115726875.041 7      3785.484          44.375    21626343.520    90009837.298 8      2944.266          49.125    21626343.140    90009833.313 8      2944.266          49.812
G10  23809035.460   125117305.864 7      -241.849          45.937    23809034.680   125117305.869 7      -241.849          43.312    23809042.460    97494032.398 7      -188.454          43.687    23809042.700    97494034.405 7      -188.454          45.562
R08  23145999.780   123945768.164 7       942.440          42.062    23146001.140   123945768.209 6       942.440          41.312    23146012.400    96402310.103 7       733.009          45.437    23146012.040    96402315.103 7       733.009          45.562
G07  24205353.800   127199976.169 7      1402.277          44.187    24205352.660   127199976.174 4      1402.277          28.812    24205359.160    99116867.235 4      1092.684          29.062    24205359.700    99116890.232 6      1092.684          39.812
R01  21150098.000   113059399.958 7      4402.710          43.750    21150096.100   113059399.946 7      4402.710          43.187    21150110.120    87935145.252 7      3424.330          43.937    21150108.380    87935138.245 7      3424.330          44.562
G32  24991443.580   131330933.223 7      3532.397          43.000    24991442.560   131330933.225 5      3532.397          34.437    24991454.380   102335854.594 5      2752.517          34.625    24991455.560   102335859.613 6      2752.517          38.875
> 2024 05 03 14 21 50.0000000  0 18
G30  25130666.320   132062548.707 8      2278.223          48.562    25130664.580   132062548.714 4      2278.223          26.812    25130672.260   102905883.817 4      1775.239          27.125    25130673.500   102905897.807 6      1775.239          36.875
G02  21375686.800   112329989.624 8      2810.643          48.312    21375684.840   112329989.626 6      2810.643          39.937    21375686.700    87529860.976 6      2190.112          39.937
G03  22798720.060   119808098.363 7      6243.707          43.187    22798719.320   119808098.363 5      6243.707          35.750    22798729.400    93357007.192 5      4865.226          35.062    22798730.080    93357013.201 8      4865.226          49.125
G14  24656330.080   129569889.266 6      5994.060          39.437    24656328.840   129569889.276 4      5994.060          24.437    24656333.560   100963557.032 4      4670.696          24.187    24656333.920   100963567.042 6      4670.696          41.437
G08  20613513.800   108324738.715 8      2634.739          48.437    20613512.660   108324738.717 8      2634.739          49.750    20613517.740    84408905.424 8      2053.043          49.812    20613518.440    84408908.426 8      2053.043          50.500
G21  20789246.700   109248221.335 8      1822.057          48.750    20789244.800   109248221.340 6      1822.057          41.312    20789246.800    85128488.072 6      1419.785          40.937
R14  20270652.720   108053971.600 8       581.289          50.437    20270652.260   108053971.609 8       581.289          50.062    20270660.820    84042007.956 8       452.113          50.937    20270661.380    84042008.961 8       452.113          51.250
R24  20794802.140   111199143.408 8      1847.391          49.312    20794802.560   111199143.420 8      1847.391          48.937    20794811.000    86488264.019 8      1436.860          49.375    20794811.040    86488261.019 8      1436.860          49.812
G27  22051580.880   115881821.388 7       947.116          46.812    22051580.340   115881821.390 7       947.116          46.687    22051585.380    90297542.272 7       738.013          46.562    22051586.820    90297549.277 8       738.013          49.000
R02  22807955.160   121707665.474 7      6496.451          45.937    22807954.320   121707665.472 7      6496.451          45.375    22807969.200    94661607.686 7      5052.795          42.625    22807969.780    94661609.687 7      5052.795          42.937
G16  23444672.360   123202551.757 7      -821.188          43.562    23444670.460   123202551.767 5      -821.188          31.125    23444678.680    96002006.457 5      -639.887          31.062
R15  21408124.080   114398515.191 7      4407.753          47.562    21408123.040   114398515.174 7      4407.753          46.125    21408131.520    88976661.500 8      3428.252          48.312    21408131.700    88976662.504 8      3428.252          48.437
R17  21625626.460   115723089.556 7      3785.416          46.062    21625624.520   115723089.549 7      3785.416          44.375    21625636.020    90006893.029 8      2944.212          48.875    21625636.000    90006889.047 8      2944.212          49.875
G10  23809081.540   125117547.651 7      -241.871          45.750    23809080.620   125117547.658 7      -241.871          42.812    23809088.540    97494220.801 7      -188.471          43.250    23809088.580    97494222.806 7      -188.471          45.937
R08  23145823.380   123944825.899 7       941.939          43.000    23145825.860   123944825.951 6       941.939          41.312    23145836.100    96401577.231 7       732.619          45.125    23145835.820    96401582.236 7       732.619          45.750
G07  24205086.900   127198574.052 7      1401.735          44.187    24205085.840   127198574.054 4      1401.735          28.812    24205092.340    99115774.668 4      1092.261          29.062    24205092.800    99115797.659 6      1092.261          39.812
R01  21149274.040   113054997.504 7      4402.103          43.750    21149272.840   113054997.495 7      4402.103          43.187    21149286.520    87931721.132 7      3423.858          43.562    21149284.760    87931714.123 7      3423.858          43.500
G32  24990770.960   131327400.851 7      3532.337          42.312    24990770.380   131327400.853 5      3532.337          34.875    24990782.360   102333102.107 5      2752.470          34.625    24990783.180   102333107.130 6      2752.470          38.875
> 2024 05 03 14 21 51.0000000  0 18
G30  25130232.740   132060270.465 8      2278.249          48.687    25130231.020   132060270.472 4      2278.249          26.812    25130238.600   102904108.557 4      1775.259          27.125    25130238.080   102904122.564 6      1775.259          36.000
G02  21375151.820   112327179.097 7      2810.544          47.437    21375150.060   112327179.102 6      2810.544          40.125    21375151.900    87527670.959 6      2190.034          39.875
G03  22797531.960   119801854.677 7      6243.716          42.937    22797531.100   119801854.684 5      6243.716          35.562    22797541.280    93352141.992 5      4865.233          35.312    22797541.940    93352147.995 8      4865.233          49.562
G14  24655189.020   129563895.210 6      5994.250          39.500    24655188.100   129563895.217 4      5994.250          24.437    24655192.800   100958886.341 4      4670.844          24.187    24655193.160   100958896.345 6      4670.844          41.437
G08  20613012.360   108322104.158 8      2634.660          48.375    20613011.420   108322104.163 8      2634.660          49.625    20613016.440    84406852.524 8      2052.982          49.500    20613016.880    84406855.524 8      2052.982          50.687
G21  20788899.940   109246399.309 7      1822.135          47.500    20788897.960   109246399.319 6      1822.135          41.437    20788900.200    85127068.315 6      1419.845          41.000
R14  20270543.940   108053390.526 8       580.874          50.312    20270543.540   108053390.527 8       580.874          49.250    20270551.960    84041556.001 8       451.791          51.187    20270552.120    84041557.006 8       451.791          51.375
R24  20794456.720   111197296.119 8      1847.480          48.062    20794457.020   111197296.131 7      1847.480          47.750    20794465.740    86486827.238 8      1436.929          49.812    20794465.580    86486824.238 8      1436.929          50.187
G27  22051400.480   115880874.425 7       947.030          46.375    22051400.240   115880874.428 7       947.030          46.437    22051405.140    90296804.379 7       737.945          45.750    22051406.860    90296811.388 8       737.945          49.375
R02  22806737.900   121701169.050 7      6496.624          45.187    22806737.440   121701169.059 7      6496.624          44.875    22806752.120    94656554.933 7      5052.930          42.500    22806752.620    94656556.938 7      5052.930          43.000
G16  23444828.420   123203373.038 7      -821.270          43.187    23444826.800   123203373.048 5      -821.270          31.000    23444834.900    96002646.405 5      -639.950          31.062
R15  21407299.280   114394107.798 7      4407.147          46.562    21407298.440   114394107.789 7      4407.147          45.312    21407306.900    88973233.538 8      3427.781          48.625    21407306.760    88973234.538 8      3427.781          48.437
R17  21624919.100   115719304.231 7      3785.429          44.937    21624916.960   115719304.232 7      3785.429          44.125    21624928.600    90003948.892 8      2944.223          49.187    21624928.360    90003944.913 8      2944.223          49.312
G10  23809127.540   125117789.790 7      -242.081          45.437    23809126.600   125117789.797 7      -242.081          43.000    23809134.660    97494409.477 7      -188.634          42.750    23809134.640    97494411.481 7      -188.634          45.562
R08  23145647.140   123943884.396 7       941.369          43.000    23145649.940   123943884.448 6       941.369          41.312    23145660.420    96400844.949 7       732.176          45.125    23145660.380    96400849.952 7       732.176          45.312
G07  24204820.680   127197172.323 7      1401.751          44.312    24204819.180   127197172.323 4      1401.751          28.812    24204825.680    99114682.409 4      1092.274          28.937    24204826.100    99114705.401 6      1092.274          39.875
R01  21148450.800   113050595.796 7      4401.724          43.187    21148448.180   113050595.792 7      4401.724          42.625    21148463.120    87928297.585 7      3423.563          43.812    21148461.520    87928290.580 7      3423.563          44.000
G32  24990099.080   131323868.900 6      3532.055          41.750    24990098.300   131323868.899 5      3532.055          34.875    24990110.380   102330349.945 5      2752.251          34.812    24990111.780   102330354.958 6      2752.251          38.750
> 2024 05 03 14 21 52.0000000  0 18
G30  25129799.300   132057992.478 8      2277.832          48.062    25129797.540   132057992.483 4      2277.832          26.750    25129805.160   102902333.500 4      1774.934          27.125    25129804.820   102902347.503 6      1774.934          36.000
G02  21374616.940   112324368.610 7      2810.426          47.875    21374615.260   112324368.612 6      2810.426          39.750    21374617.080    87525480.969 6      2189.942          39.062
G03  22796343.680   119795610.967 7      6243.788          43.062    22796342.780   119795610.966 5      6243.788          35.000    22796353.140    93347276.768 5      4865.290          35.312    22796353.880    93347282.777 8      4865.290          49.500
G14  24654048.120   129557901.214 6      5993.956          38.875    24654047.500   129557901.221 4      5993.956          24.437    24654051.980   100954215.695 4      4670.615          24.187    24654052.200   100954225.705 6      4670.615          41.187
G08  20612511.080   108319469.738 8      2634.402          48.437    20612510.040   108319469.743 8      2634.402          48.812    20612515.100    84404799.730 8      2052.781          49.125    20612515.780    84404802.731 8      2052.781          50.687
G21  20788553.340   109244577.351 7      1821.919          47.812    20788551.280   109244577.362 6      1821.919          41.062    20788553.600    85125648.608 6      1419.677          41.000
R14  20270435.340   108052809.945 8       580.319          50.437    20270434.700   108052809.951 8       580.319          49.437    20270443.040    84041104.438 8       451.359          51.187    20270443.400    84041105.441 8       451.359          51.625
R24  20794111.400   111195448.727 8      1847.396          48.500    20794111.560   111195448.734 7      1847.396          47.250    20794120.320    86485390.374 8      1436.863          49.500    20794119.940    86485387.376 8      1436.863          49.937
G27  22051220.120   115879927.549 7       946.917          46.312    22051219.980   115879927.552 7       946.917          46.125    22051224.980    90296066.552 7       737.857          46.062    22051226.400    90296073.558 8       737.857          49.125
R02  22805520.540   121694672.504 7      6496.668          45.312    22805520.020   121694672.510 7      6496.668          44.187    22805534.240    94651502.072 7      5052.964          42.312    22805534.900    94651504.075 7      5052.964          42.687
G16  23444984.780   123204194.282 7      -821.265          42.312    23444983.180   123204194.289 5      -821.265          31.000    23444991.060    96003286.328 5      -639.946          31.375
R15  21406474.480   114389701.007 7      4406.498          45.250    21406473.660   114389701.013 7      4406.498          45.187    21406482.160    88969806.046 8      3427.276          48.437    21406482.160    88969807.054 8      3427.276          48.812
R17  21624211.600   115715518.831 7      3785.414          44.500    21624209.680   115715518.837 7      3785.414          43.062    21624221.160    90001004.698 8      2944.211          49.250    21624220.960    90001000.719 8      2944.211          49.500
G10  23809173.440   125118032.097 7      -242.375          44.750    23809172.800   125118032.099 7      -242.375          42.750    23809180.780    97494598.279 7      -188.864          42.750    23809180.780    97494600.280 7      -188.864          45.562
R08  23145471.920   123942943.501 7       940.616          43.000    23145474.320   123942943.551 6       940.616          41.312    23145484.980    96400113.142 7       731.590          45.562    23145484.700    96400118.142 7       731.590          45.687
G07  24204553.860   127195770.669 7      1401.514          43.500    24204552.460   127195770.674 4      1401.514          28.812    24204558.980    99113590.204 4      1092.089          28.937    24204559.520    99113613.207 6      1092.089          39.875
R01  21147627.600   113046194.665 7      4400.964          43.187    21147625.380   113046194.667 7      4400.964          42.625    21147639.960    87924874.490 7      3422.972          43.937    21147638.200    87924867.483 7      3422.972          44.062
G32  24989427.000   131320337.161 7      3531.725          42.250    24989426.340   131320337.161 5      3531.725          34.500    24989438.060   102327597.948 5      2751.993          34.812    24989438.960   102327602.968 6      2751.993          38.750
> 2024 05 03 14 21 53.0000000  0 18
G30  25129365.960   132055714.906 7      2277.569          47.500    25129364.300   132055714.911 4      2277.569          26.750    25129371.640   102900558.767 4      1774.729          27.125    25129372.280   102900572.778 6      1774.729          36.000
