     3.05           OBSERVATION DATA    MIXED               RINEX VERSION / TYPE
TPS2RIN 1.0.29.3920 TPS-USER            20240511 180527 UTC PGM / RUN BY / DATE
Win64 build Feb 23, 2024 (c) Topcon Positioning Systems     COMMENT
SRC: 20240503_FA01.tps                                      COMMENT
OPT: -S -v 3.05                                             COMMENT
Observer            Agency                                  OBSERVER / AGENCY
O0M3X53SBGM         TPS HIPER_SR        4.8 HSR Jul,08,2022 REC # / TYPE / VERS
FW: 4.8 HSR Jul,08,2022 p3                                  COMMENT
SN: HiPer SR 1212-12575                                     COMMENT
000                 TPSHIPER_SR     NONE                    ANT # / TYPE
        1.8000        0.0000        0.0000                  ANTENNA: DELTA H/E/N
DELTA H stands for **SLANT** height here!                   COMMENT
FA01                                                        MARKER NAME
  5391015.3617 -1598429.6387  3005018.3664                  APPROX POSITION XYZ
  2024     5     3    14    59   46.0000000     GPS         TIME OF FIRST OBS
  2024     5     3    15     4   59.0000000     GPS         TIME OF LAST OBS
     1.000                                                  INTERVAL
   314 EPOCHS                                               COMMENT
G   16 C1C L1C D1C S1C C1W L1W D1W S1W C2W L2W D2W S2W C2X  SYS / # / OBS TYPES
       L2X D2X S2X                                          SYS / # / OBS TYPES
R   16 C1C L1C D1C S1C C1P L1P D1P S1P C2P L2P D2P S2P C2C  SYS / # / OBS TYPES
       L2C D2C S2C                                          SYS / # / OBS TYPES
    17                                                      # OF SATELLITES
   G02   314   314   314   314   314   314   314   314   314PRN / # OF OBS
         314   314   314     0     0     0     0            PRN / # OF OBS
   G03   314   314   314   314   314   314   314   314   314PRN / # OF OBS
         314   314   314   314   314   314   314            PRN / # OF OBS
   G08   314   314   314   314   314   314   314   314   314PRN / # OF OBS
         314   314   314   314   314   314   314            PRN / # OF OBS
   G10   232   232   232   232   232   232   232   232   232PRN / # OF OBS
         232   232   232   232   232   232   232            PRN / # OF OBS
   G14   314   314   314   314   314   314   314   314   314PRN / # OF OBS
         314   314   314   314   314   314   314            PRN / # OF OBS
   G16   314   314   314   314   314   314   314   314   314PRN / # OF OBS
         314   314   314     0     0     0     0            PRN / # OF OBS
   G21   314   314   314   314   314   314   314   314   314PRN / # OF OBS
         314   314   314     0     0     0     0            PRN / # OF OBS
   G27   314   314   314   314   314   314   314   314   314PRN / # OF OBS
         314   314   314   314   314   314   314            PRN / # OF OBS
   G32   314   314   314   314   314   314   314   314   314PRN / # OF OBS
         314   314   314   314   314   314   314            PRN / # OF OBS
   R01   314   314   314   314   314   314   314   314   314PRN / # OF OBS
         314   314   314   314   314   314   314            PRN / # OF OBS
   R02   314   314   314   314   314   314   314   314   314PRN / # OF OBS
         314   314   314   314   314   314   314            PRN / # OF OBS
   R14   314   314   314   314   314   314   314   314   314PRN / # OF OBS
         314   314   314   314   314   314   314            PRN / # OF OBS
   R15   314   314   314   314   314   314   314   314   314PRN / # OF OBS
         314   314   314   314   314   314   314            PRN / # OF OBS
   R16   314   314   314   314   314   314   314   314   314PRN / # OF OBS
         314   314   314   314   314   314   314            PRN / # OF OBS
   R17   314   314   314   314   314   314   314   314   314PRN / # OF OBS
         314   314   314   314   314   314   314            PRN / # OF OBS
   R18   314   314   314   314   314   314   314   314   314PRN / # OF OBS
         314   314   314   314   314   314   314            PRN / # OF OBS
   R24   314   314   314   314   314   314   314   314   314PRN / # OF OBS
         314   314   314   314   314   314   314            PRN / # OF OBS
G L1C                                                       SYS / PHASE SHIFT
G L1W -0.25000                                              SYS / PHASE SHIFT
G L2W  0.00000                                              SYS / PHASE SHIFT
G L2X  0.25000                                              SYS / PHASE SHIFT
R L1C                                                       SYS / PHASE SHIFT
R L1P -0.25000                                              SYS / PHASE SHIFT
R L2P -0.25000                                              SYS / PHASE SHIFT
R L2C                                                       SYS / PHASE SHIFT
  8 R01  1 R02 -4 R14 -7 R15  0 R16 -1 R17  4 R18 -3 R24  2 GLONASS SLOT / FRQ #
                                                            GLONASS COD/PHS/BIS
    18    18  1929     7GPS                                 LEAP SECONDS
                                                            END OF HEADER
> 2024 05 03 14 59 46.0000000  0 17
G02  21447900.700   112709472.494 7      2403.123          47.375    21447899.240   112709472.499 6      2403.123          40.125    21447899.800    87825572.165 6      1872.563          40.125
G03  21437628.060   112655516.580 7      5465.932          46.375    21437627.520   112655516.585 6      5465.932          39.500    21437634.640    87783539.805 6      4259.168          39.000    21437635.200    87783557.810 8      4259.168          50.500
R02  21319942.740   113767328.018 7      5928.517          47.875    21319942.300   113767328.013 7      5928.517          46.562    21319952.880    88485753.007 8      4611.069          49.000    21319953.280    88485755.012 8      4611.069          48.812
R01  20847288.140   111440703.363 7      2553.407          43.562    20847287.940   111440703.394 7      2553.407          43.375    20847295.940    86676144.211 7      1985.983          42.562    20847296.140    86676141.207 7      1985.983          42.812
G21  21278519.100   111819358.879 7      1474.688          47.062    21278517.180   111819358.884 6      1474.688          39.250    21278519.600    87131972.222 6      1149.107          39.062
G16  25050513.780   131641262.408 6     -1012.389          37.937    25050511.940   131641262.416 2     -1012.389          17.812    25050528.660   102577623.148 2      -788.875          17.000
G14  23386606.640   122897445.449 7      5294.056          45.250    23386606.160   122897445.459 5      5294.056          32.937    23386609.360    95764253.323 5      4125.238          32.687    23386609.680    95764264.300 7      4125.238          45.375
G08  20823192.460   109426609.920 8      1874.166          48.062    20823191.440   109426609.925 8      1874.166          48.500    20823196.820    85267505.503 8      1460.389          48.875    20823197.700    85267500.505 8      1460.389          50.750
R14  21519100.180   114708878.708 8      -707.807          48.500    21519099.980   114708878.703 7      -707.807          47.687    21519111.020    89218049.894 8      -550.516          49.562    21519111.080    89218050.894 8      -550.516          49.500
R24  21224397.340   113496384.442 7      1738.481          45.375    21224396.240   113496384.457 7      1738.481          44.562    21224404.320    88274998.295 7      1352.152          47.625    21224405.600    88274999.304 7      1352.152          46.750
R15  21128888.220   112906376.631 7      2485.500          45.812    21128889.020   112906376.624 7      2485.500          45.437    21128897.280    87816103.723 7      1933.167          47.750    21128896.780    87816103.726 7      1933.167          47.687
R17  21245207.480   113687388.281 7      3637.274          45.000    21245207.340   113687388.293 7      3637.274          44.375    21245216.100    88423568.831 8      2828.991          48.562    21245216.140    88423566.834 8      2828.991          48.937
G10  25224333.040   132554760.774 7      -706.438          42.125    25224331.920   132554760.773 5      -706.438          35.312    25224341.780   103289460.884 5      -550.471          35.375    25224341.260   103289463.890 6      -550.471          39.312
G32  24858301.720   130631264.789 7      2538.558          42.750    24858301.240   130631264.786 6      2538.558          41.375    24858311.180   101790639.363 6      1978.097          40.812    24858311.860   101790643.362 7      1978.097          46.375
G27  22965358.000   120683743.578 7       338.496          45.000    22965356.860   120683743.585 7       338.496          43.812    22965365.240    94039301.796 7       263.763          43.937    22965366.300    94039307.791 7       263.763          46.937
R16  23929283.560   127825932.471 7      5514.458          42.312    23929283.160   127825932.467 7      5514.458          42.062    23929293.500    99420211.481 7      4289.023          43.187    23929293.480    99420211.486 7      4289.023          43.875
R18  23944890.100   127819444.510 7      4542.118          42.250    23944890.080   127819444.511 7      4542.118          42.312    23944900.800    99415171.340 7      3532.758          43.062    23944900.860    99415171.345 7      3532.758          43.187
> 2024 05 03 14 59 47.0000000  0 17
G02  21447443.500   112707069.555 7      2403.018          47.750    21447442.000   112707069.560 6      2403.018          39.625    21447442.480    87823699.747 6      1872.481          39.687
G03  21436588.140   112650051.143 7      5465.212          47.562    21436587.480   112650051.148 6      5465.212          39.562    21436594.420    87779281.028 6      4258.607          39.312    21436595.140    87779299.031 8      4258.607          49.750
R02  21318831.340   113761399.928 8      5927.926          48.000    21318831.440   113761399.921 7      5927.926          47.250    21318841.980    88481142.276 8      4610.609          49.125    21318842.060    88481144.282 8      4610.609          49.062
R01  20846810.460   111438150.481 7      2552.590          43.250    20846810.980   111438150.511 7      2552.590          43.375    20846818.400    86674158.640 7      1985.347          42.687    20846818.760    86674155.634 7      1985.347          42.437
G21  21278238.340   111817884.266 7      1474.683          47.625    21278236.620   111817884.271 6      1474.683          39.625    21278238.920    87130823.173 6      1149.104          39.500
G16  25050706.280   131642274.843 6     -1012.446          37.937    25050704.600   131642274.851 2     -1012.446          16.750    25050721.420   102578412.040 2      -788.919          17.000
G14  23385599.420   122892151.613 7      5293.772          45.875    23385598.860   122892151.620 5      5293.772          32.937    23385602.240    95760128.254 5      4125.017          32.687    23385602.540    95760139.228 7      4125.017          46.187
G08  20822835.820   109424736.163 8      1873.685          48.000    20822834.880   109424736.171 8      1873.685          48.500    20822840.260    85266045.435 8      1460.014          49.375    20822841.260    85266040.437 8      1460.014          51.062
R14  21519233.160   114709586.820 8      -708.219          49.062    21519232.840   114709586.815 7      -708.219          47.375    21519243.820    89218600.635 8      -550.837          49.437    21519244.100    89218601.636 8      -550.837          49.375
R24  21224072.200   113494646.160 7      1738.358          45.562    21224071.160   113494646.169 7      1738.358          44.437    21224079.440    88273646.295 7      1352.056          47.500    21224080.540    88273647.302 7      1352.056          47.375
R15  21128423.400   112903891.651 7      2484.651          46.625    21128424.020   112903891.639 7      2484.651          45.437    21128432.200    87814170.957 7      1932.506          47.750    21128431.800    87814170.958 7      1932.506          47.437
R17  21244527.980   113683751.162 7      3637.303          45.062    21244527.640   113683751.175 7      3637.303          44.437    21244536.240    88420739.959 8      2829.014          48.375    21244536.560    88420737.962 8      2829.014          48.500
G10  25224467.400   132555467.584 6      -706.743          41.187    25224466.600   132555467.583 5      -706.743          35.312    25224476.140   103290011.645 5      -550.709          35.437    25224475.960   103290014.635 6      -550.709          39.500
G32  24857818.760   130628726.680 7      2538.129          42.562    24857818.220   130628726.683 6      2538.129          41.250    24857828.180   101788661.618 6      1977.763          40.687    24857829.260   101788665.621 7      1977.763          46.062
G27  22965293.760   120683405.411 7       338.061          44.375    22965292.580   120683405.419 7       338.061          43.375    22965300.900    94039038.288 7       263.424          42.812    22965301.960    94039044.281 7       263.424          47.062
R16  23928251.260   127820418.407 7      5513.971          42.875    23928250.380   127820418.410 7      5513.971          42.187    23928261.100    99415922.766 7      4288.644          43.312    23928260.840    99415922.769 7      4288.644          44.187
R18  23944039.300   127814902.503 7      4542.135          42.062    23944039.280   127814902.498 7      4542.135          42.312    23944050.160    99411638.672 7      3532.772          42.687    23944049.780    99411638.675 7      3532.772          42.687
> 2024 05 03 14 59 48.0000000  0 17
G02  21446986.300   112704666.743 8      2402.461          48.000    21446984.660   112704666.748 6      2402.461          39.750    21446985.420    87821827.428 6      1872.048          39.687
G03  21435548.160   112644586.146 7      5464.431          46.812    21435547.520   112644586.148 6      5464.431          39.312    21435554.540    87775022.592 6      4257.998          39.125    21435555.120    87775040.593 8      4257.998          50.062
R02  21317720.800   113755472.302 7      5927.056          47.750    21317720.540   113755472.292 7      5927.056          47.125    21317731.120    88476531.909 8      4609.932          48.937    21317731.440    88476533.910 8      4609.932          49.125
R01  20846332.760   111435598.501 7      2551.274          44.250    20846333.780   111435598.527 7      2551.274          43.687    20846341.260    86672173.771 7      1984.324          42.687    20846341.100    86672170.765 7      1984.324          42.562
G21  21277957.520   111816409.774 7      1474.138          47.687    21277956.060   111816409.779 6      1474.138          40.000    21277958.300    87129674.218 6      1148.679          39.875
G16  25050898.380   131643287.308 6     -1012.891          38.437    25050897.400   131643287.315 2     -1012.891          16.750    25050914.120   102579200.956 2      -789.266          17.000
G14  23384591.980   122886858.192 7      5292.826          45.687    23384591.680   122886858.199 5      5292.826          33.437    23384595.320    95756003.509 5      4124.280          33.187    23384595.800    95756014.491 7      4124.280          46.812
G08  20822479.380   109422862.796 8      1872.850          48.437    20822478.340   109422862.801 8      1872.850          49.625    20822483.920    85264585.670 8      1459.363          49.562    20822484.820    85264580.674 8      1459.363          50.562
R14  21519366.240   114710295.358 8      -709.100          48.812    21519365.880   114710295.354 7      -709.100          47.687    21519376.660    89219151.717 8      -551.522          49.562    21519377.000    89219152.719 8      -551.522          50.000
R24  21223747.460   113492907.945 7      1737.792          45.875    21223746.040   113492907.959 7      1737.792          45.187    21223754.100    88272294.352 7      1351.616          47.312    21223755.320    88272295.361 7      1351.616          47.687
R15  21127958.960   112901407.506 7      2483.340          47.062    21127958.920   112901407.488 7      2483.340          45.750    21127967.420    87812238.842 8      1931.487          48.187    21127966.920    87812238.840 8      1931.487          48.187
R17  21243848.580   113680114.122 7      3636.684          45.687    21243847.860   113680114.129 7      3636.684          44.687    21243856.680    88417911.152 8      2828.532          48.500    21243856.680    88417909.152 8      2828.532          48.187
G10  25224602.220   132556174.462 7      -707.240          42.125    25224601.120   132556174.464 5      -707.240          35.000    25224610.800   103290562.466 5      -551.096          35.437    25224610.300   103290565.465 6      -551.096          39.500
G32  24857335.960   130626189.124 7      2536.837          42.625    24857335.340   130626189.131 6      2536.837          41.250    24857345.300   101786684.309 6      1976.756          41.187    24857346.080   101786688.319 7      1976.756          46.125
G27  22965228.980   120683067.533 7       337.420          43.562    22965228.240   120683067.533 7       337.420          43.750    22965236.680    94038774.996 7       262.925          43.437    22965237.500    94038780.989 7       262.925          47.000
R16  23927218.940   127814904.959 7      5512.676          42.875    23927218.320   127814904.962 7      5512.676          42.437    23927228.760    99411634.529 7      4287.637          43.250    23927228.960    99411634.538 7      4287.637          43.875
R18  23943188.580   127810360.512 7      4541.587          42.562    23943188.440   127810360.513 6      4541.587          41.875    23943199.020    99408106.021 7      3532.345          42.687    23943198.940    99408106.019 7      3532.345          42.625
> 2024 05 03 14 59 49.0000000  0 17
G02  21446528.900   112702264.246 8      2402.472          48.187    21446527.480   112702264.251 6      2402.472          40.625    21446528.280    87819955.354 6      1872.056          40.437
G03  21434508.160   112639121.778 7      5464.160          46.812    21434507.840   112639121.781 6      5464.160          39.250    21434514.720    87770764.650 6      4257.787          38.875    21434515.660    87770782.653 8      4257.787          50.062
R02  21316610.140   113749545.295 8      5926.830          48.375    21316609.980   113749545.291 7      5926.830          47.250    21316620.380    88471922.023 8      4609.757          49.312    21316620.520    88471924.027 8      4609.757          49.375
R01  20845855.780   111433047.546 7      2550.553          44.000    20845856.660   111433047.574 7      2550.553          43.812    20845864.060    86670189.705 7      1983.763          42.812    20845863.980    86670186.699 7      1983.763          42.687
G21  21277677.200   111814935.529 7      1474.252          46.875    21277675.700   111814935.531 6      1474.252          39.187    21277677.720    87128525.458 6      1148.768          39.250
G16  25051091.820   131644299.900 6     -1012.599          38.437    25051090.000   131644299.905 2     -1012.599          16.750    25051106.860   102579989.969 2      -789.038          17.000
G14  23383584.820   122881565.365 7      5292.639          45.562    23383584.360   122881565.372 5      5292.639          33.437    23383588.500    95751879.230 5      4124.134          33.187    23383588.640    95751890.229 7      4124.134          47.812
G08  20822123.000   109420989.961 8      1872.661          48.750    20822121.920   109420989.964 8      1872.661          48.687    20822127.440    85263126.312 8      1459.216          49.812    20822128.480    85263121.313 8      1459.216          51.000
R14  21519499.400   114711004.502 8      -709.322          49.687    21519498.860   114711004.500 7      -709.322          47.812    21519510.000    89219703.266 8      -551.695          49.250    21519510.080    89219704.269 8      -551.695          49.562
R24  21223422.240   113491169.970 7      1737.905          45.812    21223421.220   113491169.982 7      1737.905          45.312    21223429.060    88270942.594 7      1351.704          47.500    21223430.120    88270943.599 7      1351.704          47.312
R15  21127494.380   112898924.375 7      2482.797          46.437    21127494.180   112898924.368 7      2482.797          44.625    21127502.560    87810307.524 8      1931.065          48.187    21127502.300    87810307.527 8      1931.065          48.187
R17  21243168.960   113676477.311 7      3636.903          46.000    21243168.380   113676477.318 7      3636.903          45.000    21243176.900    88415082.521 8      2828.702          48.250    21243177.220    88415080.520 8      2828.702          48.500
G10  25224736.600   132556881.627 7      -707.204          42.000    25224735.580   132556881.632 5      -707.204          34.875    25224745.260   103291113.503 5      -551.068          35.250    25224744.900   103291116.507 6      -551.068          39.500
G32  24856853.080   130623652.150 7      2536.736          42.875    24856852.480   130623652.158 6      2536.736          41.312    24856862.440   101784707.453 6      1976.677          41.187    24856863.280   101784711.454 7      1976.677          46.625
G27  22965164.880   120682730.066 7       337.252          43.687    22965163.980   120682730.068 7       337.252          43.437    22965172.400    94038512.028 7       262.794          43.125    22965173.200    94038518.021 7       262.794          46.937
R16  23926187.020   127809392.235 7      5512.446          42.687    23926186.780   127809392.225 7      5512.446          42.437    23926197.040    99407346.849 7      4287.458          43.437    23926197.020    99407346.854 7      4287.458          44.187
R18  23942337.700   127805818.699 7      4541.783          42.562    23942337.700   127805818.703 7      4541.783          42.875    23942348.260    99404573.504 7      3532.498          42.687    23942347.980    99404573.509 7      3532.498          43.187
> 2024 05 03 14 59 50.0000000  0 17
G02  21446071.720   112699861.628 8      2402.448          48.062    21446070.200   112699861.635 6      2402.448          39.812    21446071.100    87818083.180 6      1872.037          39.937
G03  21433468.560   112633657.572 7      5463.951          47.312    21433467.940   112633657.574 6      5463.951          39.687    21433475.020    87766506.832 6      4257.624          39.437    21433475.780    87766524.839 8      4257.624          50.312
R02  21315499.420   113743618.491 8      5926.550          48.187    21315499.440   113743618.490 7      5926.550          46.312    21315509.860    88467312.293 8      4609.539          48.812    21315509.920    88467314.296 8      4609.539          48.875
R01  20845378.760   111430497.213 7      2549.879          44.312    20845379.760   111430497.241 7      2549.879          43.750    20845387.020    86668206.113 7      1983.240          42.937    20845387.020    86668203.109 7      1983.240          43.125
G21  21277396.480   111813461.134 7      1474.288          47.062    21277395.160   111813461.139 6      1474.288          39.562    21277397.140    87127376.581 6      1148.796          39.625
G16  25051284.640   131645312.217 6     -1012.315          38.875    25051282.500   131645312.219 2     -1012.315          16.750    25051299.380   102580778.769 2      -788.817          17.000
G14  23382577.460   122876272.685 7      5292.411          44.812    23382577.060   122876272.695 5      5292.411          33.250    23382581.460    95747755.072 5      4123.957          33.437    23382581.680    95747766.081 7      4123.957          47.687
G08  20821766.540   109419117.230 8      1872.514          48.312    20821765.580   109419117.232 8      1872.514          48.625    20821771.020    85261667.041 8      1459.102          49.062    20821772.180    85261662.045 8      1459.102          51.500
R14  21519632.400   114711713.781 8      -709.573          48.750    21519631.920   114711713.779 7      -709.573          47.750    21519642.860    89220254.922 8      -551.890          49.437    21519643.060    89220255.924 8      -551.890          49.437
R24  21223097.220   113489431.776 7      1738.115          45.250    21223096.120   113489431.786 7      1738.115          44.812    21223104.100    88269590.660 7      1351.867          47.250    21223105.300    88269591.664 7      1351.867          47.250
R15  21127029.620   112896441.841 7      2482.006          46.437    21127029.920   112896441.836 7      2482.006          45.375    21127038.180    87808376.664 7      1930.449          47.625    21127037.960    87808376.667 8      1930.449          48.250
R17  21242489.100   113672840.278 7      3636.972          45.750    21242488.820   113672840.291 7      3636.972          45.187    21242497.260    88412253.722 8      2828.756          48.312    21242497.300    88412251.718 8      2828.756          48.000
G10  25224871.320   132557588.632 6      -707.050          41.812    25224870.160   132557588.634 5      -707.050          34.875    25224879.940   103291664.416 5      -550.948          35.250    25224879.460   103291667.416 6      -550.948          39.375
G32  24856370.300   130621115.453 6      2536.425          41.687    24856369.780   130621115.457 6      2536.425          41.062    24856379.840   101782730.810 6      1976.435          41.375    24856380.640   101782734.811 7      1976.435          46.312
G27  22965100.740   120682392.598 7       337.259          44.312    22965099.800   120682392.605 7       337.259          43.812    22965108.120    94038249.068 7       262.799          43.187    22965108.480    94038255.063 7       262.799          46.687
R16  23925155.060   127803879.842 7      5511.993          42.687    23925154.460   127803879.840 7      5511.993          42.687    23925164.580    99403059.436 7      4287.106          43.312    23925164.820    99403059.441 7      4287.106          43.937
R18  23941486.860   127801276.575 7      4542.103          43.000    23941486.800   127801276.576 7      4542.103          42.875    23941497.360    99401040.738 7      3532.747          42.750    23941497.060    99401040.743 7      3532.747          43.000
> 2024 05 03 14 59 51.0000000  0 17
G02  21445614.880   112697459.283 8      2402.259          48.187    21445613.040   112697459.288 6      2402.259          40.250    21445613.860    87816211.227 6      1871.890          40.125
G03  21432429.040   112628193.982 7      5463.447          46.875    21432428.220   112628193.982 6      5463.447          39.375    21432435.300    87762249.494 6      4257.231          39.187    21432435.980    87762267.495 8      4257.231          49.562
R02  21314388.980   113737692.288 8      5926.031          48.125    21314388.600   113737692.281 7      5926.031          46.687    21314399.060    88462703.028 8      4609.135          48.187    21314399.400    88462705.033 8      4609.135          48.750
R01  20844901.580   111427947.909 7      2548.831          44.125    20844902.860   111427947.940 7      2548.831          43.937    20844910.100    86666223.323 7      1982.424          42.812    20844910.100    86666220.319 7      1982.424          42.875
G21  21277116.140   111811986.986 7      1474.126          46.562    21277114.660   111811986.991 6      1474.126          39.437    21277116.640    87126227.890 6      1148.669          39.000
G16  25051477.180   131646324.668 6     -1012.498          39.187    25051475.000   131646324.665 2     -1012.498          16.750    25051491.860   102581567.672 2      -788.959          17.000
G14  23381570.660   122870980.623 7      5291.879          44.875    23381570.020   122870980.635 5      5291.879          33.250    23381574.300    95743631.389 5      4123.542          33.437    23381574.720    95743642.400 7      4123.542          47.625
G08  20821410.400   109417245.023 7      1872.009          47.562    20821409.320   109417245.028 8      1872.009          48.937    20821414.840    85260208.179 8      1458.708          49.000    20821415.840    85260203.181 8      1458.708          50.437
R14  21519765.600   114712423.610 8      -709.955          48.500    21519765.080   114712423.607 7      -709.955          47.500    21519775.960    89220807.002 8      -552.187          48.687    21519776.180    89220808.005 8      -552.187          48.625
R24  21222772.300   113487693.754 7      1737.996          44.562    21222771.100   113487693.768 7      1737.996          45.250    21222779.040    88268238.868 7      1351.774          47.437    21222780.160    88268239.867 7      1351.774          46.437
R15  21126565.180   112893960.295 7      2481.150          45.812    21126565.240   112893960.296 7      2481.150          45.375    21126573.800    87806446.573 7      1929.784          47.312    21126573.660    87806446.579 7      1929.784          47.375
R17  21241809.080   113669203.449 7      3636.737          44.875    21241809.480   113669203.469 7      3636.737          44.437    21241817.520    88409425.081 8      2828.573          48.125    21241817.840    88409423.080 7      2828.573          47.937
G10  25225006.080   132558295.888 7      -707.312          42.375    25225004.900   132558295.891 5      -707.312          35.062    25225014.460   103292215.525 5      -551.152          35.250    25225015.000   103292218.537 6      -551.152          39.375
G32  24855887.600   130618579.380 7      2535.865          43.062    24855887.200   130618579.377 6      2535.865          40.625    24855897.240   101780754.639 6      1975.999          40.375    24855898.140   101780758.646 7      1975.999          46.437
G27  22965036.480   120682055.548 7       336.911          45.187    22965035.540   120682055.550 7       336.911          43.250    22965044.060    94037986.421 7       262.528          43.000    22965044.400    94037992.414 7       262.528          46.562
R16  23924123.000   127798368.170 7      5511.385          43.375    23924123.160   127798368.176 7      5511.385          42.625    23924133.040    99398772.583 7      4286.633          43.500    23924133.020    99398772.581 7      4286.633          44.062
R18  23940635.960   127796734.656 7      4541.893          42.875    23940635.900   127796734.657 7      4541.893          42.375    23940646.260    99397508.135 7      3532.584          42.687    23940646.300    99397508.135 7      3532.584          42.875
> 2024 05 03 14 59 52.0000000  0 17
G02  21445157.760   112695057.078 8      2402.110          48.125    21445155.880   112695057.082 6      2402.110          40.062    21445156.780    87814339.379 6      1871.774          39.750
G03  21431389.240   112622730.847 7      5462.806          46.875    21431388.680   112622730.852 6      5462.806          39.812    21431395.680    87757992.512 6      4256.732          39.625    21431396.160    87758010.517 8      4256.732          50.437
R02  21313278.280   113731766.508 8      5925.515          48.562    21313278.120   113731766.504 7      5925.515          46.125    21313288.720    88458094.098 8      4608.734          48.750    21313288.760    88458096.104 8      4608.734          48.937
R01  20844425.200   111425399.490 7      2547.863          44.812    20844426.220   111425399.515 7      2547.863          43.937    20844433.700    86664241.217 7      1981.671          42.750    20844433.520    86664238.214 7      1981.671          43.250
G21  21276835.760   111810512.930 7      1473.979          47.375    21276834.020   111810512.938 6      1473.979          39.500    21276836.040    87125079.278 6      1148.555          39.437
G16  25051669.380   131647337.119 6     -1012.644          39.312    25051667.600   131647337.119 2     -1012.644          16.750    25051684.600   102582356.576 2      -789.073          17.250
G14  23380563.580   122865688.967 7      5291.402          43.937    23380562.800   122865688.980 5      5291.402          32.812    23380567.500    95739508.023 5      4123.170          32.812    23380567.780    95739519.047 7      4123.170          47.000
G08  20821054.200   109415373.193 7      1871.547          47.312    20821053.120   109415373.195 8      1871.547          49.000    20821058.640    85258749.608 8      1458.348          48.812    20821059.400    85258744.608 8      1458.348          50.875
R14  21519898.840   114713133.798 8      -710.429          49.125    21519898.300   114713133.801 7      -710.429          47.750    21519909.120    89221359.371 8      -552.556          49.125    21519909.460    89221360.373 8      -552.556          48.937
R24  21222447.200   113485955.777 7      1737.877          45.812    21222446.260   113485955.786 7      1737.877          45.250    21222454.200    88266887.100 8      1351.682          48.000    21222455.320    88266888.097 7      1351.682          46.750
R15  21126100.900   112891479.620 7      2480.278          46.312    21126100.700   112891479.613 7      2480.278          45.625    21126109.560    87804517.159 7      1929.105          47.500    21126109.320    87804517.164 7      1929.105          47.812
R17  21241129.520   113665566.617 7      3636.797          45.312    21241129.800   113665566.640 7      3636.797          44.875    21241138.180    88406596.438 8      2828.620          48.062    21241138.080    88406594.439 8      2828.620          48.250
G10  25225140.560   132559003.266 7      -707.461          42.375    25225139.480   132559003.268 5      -707.461          35.187    25225149.200   103292766.724 5      -551.268          35.062    25225149.060   103292769.722 6      -551.268          39.375
G32  24855405.040   130616043.805 7      2535.263          42.625    24855404.740   130616043.804 6      2535.263          40.875    24855414.760   101778778.870 6      1975.530          40.750    24855415.620   101778782.875 7      1975.530          46.187
G27  22964972.420   120681718.771 7       336.439          44.750    22964971.720   120681718.776 7       336.439          43.687    22964980.060    94037723.996 7       262.161          43.187    22964980.580    94037729.993 7       262.161          46.750
R16  23923091.180   127792857.070 7      5510.866          43.375    23923091.160   127792857.066 7      5510.866          42.625    23923101.580    99394486.161 7      4286.229          43.375    23923101.420    99394486.162 7      4286.229          43.625
R18  23939784.820   127792192.742 7      4541.804          42.125    23939784.800   127792192.743 7      4541.804          42.312    23939795.500    99393975.537 7      3532.514          42.625    23939795.600    99393975.548 7      3532.514          42.937
> 2024 05 03 14 59 53.0000000  0 17
G02  21444700.620   112692654.938 7      2402.015          47.437    21444698.640   112692654.943 6      2402.015          39.875    21444699.660    87812467.582 6      1871.700          39.812
G03  21430349.700   112617268.096 7      5462.503          46.500    21430349.280   112617268.098 6      5462.503          39.750    21430356.080    87753735.827 6      4256.496          39.625    21430356.720    87753753.828 8      4256.496          50.375
R02  21312167.940   113725841.097 8      5925.136          48.562    21312167.760   113725841.090 7      5925.136          47.062    21312178.280    88453485.449 8      4608.439          49.125    21312178.540    88453487.455 8      4608.439          49.000
R01  20843948.260   111422851.881 7      2547.029          45.437    20843949.400   111422851.906 7      2547.029          43.750    20843957.100    86662259.745 7      1981.022          42.812    20843957.000    86662256.742 7      1981.022          42.812
G21  21276555.320   111809038.906 7      1473.913          47.062    21276553.660   111809038.911 6      1473.913          39.062    21276555.640    87123930.687 6      1148.503          39.375
G16  25051861.620   131648349.467 6     -1012.300          39.312    25051860.180   131648349.467 2     -1012.300          16.750    25051877.320   102583145.398 2      -788.805          17.250
G14  23379556.580   122860397.656 7      5290.968          44.312    23379555.900   122860397.669 5      5290.968          32.812    23379560.360    95735384.928 5      4122.832          32.812    23379561.020    95735395.951 7      4122.832          46.687
G08  20820697.940   109413501.673 8      1871.256          48.562    20820696.920   109413501.675 8      1871.256          48.625    20820702.440    85257291.278 8      1458.121          49.312    20820703.320    85257286.278 8      1458.121          51.062
R14  21520031.960   114713844.271 8      -710.723          48.562    21520031.640   114713844.272 7      -710.723          47.687    21520042.400    89221911.951 8      -552.785          49.125    21520042.620    89221912.951 8      -552.785          49.000
R24  21222122.100   113484217.802 7      1737.869          45.687    21222121.100   113484217.803 7      1737.869          45.375    21222129.020    88265535.334 7      1351.676          47.562    21222130.340    88265536.332 7      1351.676          47.312
R15  21125636.580   112888999.725 7      2479.425          46.437    21125636.720   112888999.723 7      2479.425          45.312    21125645.340    87802588.352 7      1928.442          47.812    21125645.200    87802588.354 7      1928.442          47.625
R17  21240449.600   113661929.779 7      3636.771          46.125    21240450.120   113661929.800 7      3636.771          45.250    21240458.400    88403767.785 8      2828.599          48.437    21240458.720    88403765.783 8      2828.599          49.000
G10  25225275.280   132559710.652 7      -707.509          42.125    25225274.120   132559710.657 5      -707.509          35.250    25225283.660   103293317.934 5      -551.306          35.187    25225283.340   103293320.940 6      -551.306          39.125
G32  24854922.680   130613508.647 7      2534.890          42.125    24854922.120   130613508.647 6      2534.890          41.187    24854932.320   101776803.423 6      1975.239          40.875    24854933.300   101776807.432 7      1975.239          46.687
G27  22964908.180   120681382.196 7       336.340          44.812    22964907.700   120681382.198 7       336.340          43.875    22964916.080    94037461.724 7       262.083          43.687    22964916.520    94037467.715 7       262.083          47.062
R16  23922059.760   127787346.464 7      5510.185          42.812    23922059.600   127787346.468 7      5510.185          42.250    23922069.940    99390200.140 7      4285.700          43.437    23922069.820    99390200.143 7      4285.700          44.437
R18  23938934.160   127787650.767 7      4541.885          43.062    23938934.440   127787650.768 7      4541.885          42.312    23938944.700    99390442.890 7      3532.577          43.125    23938944.760    99390442.893 7      3532.577          42.937
> 2024 05 03 14 59 54.0000000  0 17
G02  21444243.480   112690253.024 7      2402.080          47.500    21444241.660   112690253.029 6      2402.080          40.000    21444242.600    87810595.961 6      1871.751          40.000
G03  21429310.240   112611805.899 7      5462.161          47.062    21429309.760   112611805.904 6      5462.161          39.125    21429316.760    87749479.575 6      4256.230          39.687    21429317.260    87749497.576 8      4256.230          50.562
R02  21311057.720   113719916.196 8      5924.878          48.312    21311057.420   113719916.196 7      5924.878          46.812    21311067.940    88448877.209 8      4608.238          49.250    21311068.160    88448879.213 8      4608.238          49.062
R01  20843471.880   111420305.263 7      2546.267          45.125    20843473.280   111420305.291 7      2546.267          44.062    20843480.820    86660279.049 7      1980.430          43.125    20843480.780    86660276.045 7      1980.430          42.875
G21  21276274.740   111807565.076 8      1474.001          48.125    21276273.240   111807565.084 6      1474.001          39.625    21276275.120    87122782.250 6      1148.572          39.562
G16  25052054.780   131649361.945 6     -1012.244          39.000    25052052.840   131649361.942 2     -1012.244          16.750    25052069.880   102583934.319 2      -788.761          17.250
G14  23378549.720   122855106.868 7      5290.749          45.125    23378549.120   122855106.884 5      5290.749          32.812    23378553.120    95731262.236 5      4122.661          32.750    23378553.860    95731273.257 7      4122.661          45.750
G08  20820341.880   109411630.615 8      1871.108          48.062    20820340.980   109411630.619 8      1871.108          49.250    20820346.440    85255833.315 8      1458.007          49.562    20820347.240    85255828.315 8      1458.007          50.875
R14  21520165.320   114714555.206 8      -710.828          48.937    21520165.040   114714555.204 8      -710.828          48.062    21520175.760    89222464.888 8      -552.866          49.187    21520176.080    89222465.890 8      -552.866          49.125
R24  21221797.100   113482480.017 7      1737.976          44.875    21221796.160   113482480.024 7      1737.976          45.562    21221804.540    88264183.730 7      1351.759          47.562    21221805.140    88264184.724 7      1351.759          47.187
R15  21125172.740   112886520.789 7      2478.773          46.250    21125172.860   112886520.780 7      2478.773          45.625    21125181.480    87800660.291 7      1927.935          47.375    21125181.400    87800660.293 7      1927.935          47.625
R17  21239770.300   113658293.087 7      3636.860          45.812    21239770.680   113658293.107 7      3636.860          44.687    21239778.760    88400939.248 8      2828.669          48.375    21239778.760    88400937.246 8      2828.669          49.062
G10  25225409.920   132560418.261 7      -707.346          42.625    25225408.600   132560418.265 5      -707.346          35.250    25225418.120   103293869.316 5      -551.179          35.375    25225418.560   103293872.313 6      -551.179          39.125
G32  24854440.600   130610974.112 7      2534.428          42.687    24854439.800   130610974.114 6      2534.428          41.312    24854450.100   101774828.466 6      1974.879          40.750    24854450.880   101774832.473 7      1974.879          46.375
G27  22964844.320   120681045.987 7       336.311          44.937    22964843.620   120681045.989 7       336.311          43.625    22964852.160    94037199.734 7       262.061          43.437    22964852.740    94037205.730 7       262.061          47.000
R16  23921028.680   127781836.563 7      5509.832          42.375    23921028.040   127781836.556 7      5509.832          42.250    23921038.260    99385914.656 7      4285.425          43.562    23921038.240    99385914.663 7      4285.425          44.062
R18  23938083.460   127783108.872 7      4542.131          42.750    23938083.360   127783108.875 7      4542.131          42.625    23938093.820    99386910.313 7      3532.768          42.812    23938094.140    99386910.316 7      3532.768          43.062
> 2024 05 03 14 59 55.0000000  0 17
G02  21443786.360   112687851.228 7      2401.568          47.500    21443784.700   112687851.238 6      2401.568          39.562    21443785.380    87808724.436 6      1871.351          39.500
G03  21428270.980   112606344.110 7      5461.574          47.062    21428270.360   112606344.112 6      5461.574          39.500    21428277.320    87745223.640 6      4255.772          39.375    21428278.000    87745241.643 8      4255.772          50.437
R02  21309947.340   113713991.761 8      5924.096          48.312    21309947.140   113713991.759 7      5924.096          47.125    21309957.680    88444269.322 8      4607.630          49.250    21309957.780    88444271.327 8      4607.630          49.062
R01  20842995.960   111417759.482 7      2545.252          45.125    20842996.880   111417759.510 7      2545.252          43.937    20843004.500    86658299.005 7      1979.640          43.312    20843004.600    86658296.000 7      1979.640          43.375
G21  21275994.380   111806091.341 7      1473.457          47.750    21275992.820   111806091.346 6      1473.457          39.062    21275994.700    87121633.885 6      1148.149          39.250
G16  25052247.200   131650374.382 6     -1012.514          39.062    25052245.460   131650374.385 2     -1012.514          16.750    25052262.660   102584723.211 2      -788.972          17.250
G14  23377543.020   122849816.453 7      5290.107          45.375    23377542.640   122849816.471 5      5290.107          32.875    23377546.280    95727139.834 5      4122.162          32.750    23377546.460    95727150.852 7      4122.162          45.250
G08  20819985.840   109409759.943 7      1870.354          47.875    20819984.960   109409759.945 8      1870.354          48.750    20819990.460    85254375.644 8      1457.419          49.062    20819991.260    85254370.645 8      1457.419          51.000
R14  21520298.720   114715266.545 8      -711.630          48.625    21520298.400   114715266.546 7      -711.630          47.500    21520309.300    89223018.150 8      -553.490          49.187    21520309.500    89223019.152 8      -553.490          49.375
R24  21221471.800   113480742.289 7      1737.612          45.062    21221471.160   113480742.301 7      1737.612          45.000    21221479.420    88262832.165 7      1351.476          47.750    21221480.200    88262833.160 7      1351.476          47.437
R15  21124709.300   112884042.663 7      2477.571          46.187    21124709.020   112884042.656 7      2477.571          45.125    21124717.920    87798732.859 8      1927.000          48.250    21124717.440    87798732.862 7      1927.000          47.812
R17  21239090.860   113654656.391 7      3636.537          45.750    21239091.200   113654656.411 7      3636.537          44.625    21239099.080    88398110.707 8      2828.417          48.437    21239099.260    88398108.703 8      2828.417          48.687
G10  25225544.520   132561125.964 7      -707.834          42.437    25225543.380   132561125.966 5      -707.834          35.000    25225552.960   103294420.769 5      -551.559          35.375    25225553.320   103294423.770 6      -551.559          39.125
G32  24853958.000   130608440.039 7      2533.721          42.125    24853957.620   130608440.036 6      2533.721          40.625    24853967.760   101772853.864 6      1974.328          40.625    24853968.420   101772857.871 7      1974.328          46.687
G27  22964780.280   120680710.048 7       335.704          45.312    22964779.640   120680710.048 7       335.704          43.750    22964788.100    94036937.960 7       261.588          43.312    22964788.740    94036943.953 7       261.588          47.000
R16  23919997.780   127776327.199 7      5508.840          42.375    23919996.440   127776327.187 7      5508.840          42.062    23920007.320    99381629.590 7      4284.653          44.187    23920006.860    99381629.593 7      4284.653          43.875
R18  23937232.600   127778566.953 7      4541.901          42.750    23937232.920   127778566.948 7      4541.901          43.187    23937242.820    99383377.707 7      3532.589          42.687    23937242.960    99383377.708 7      3532.589          42.750
> 2024 05 03 14 59 56.0000000  0 17
G02  21443329.360   112685449.617 7      2401.618          47.375    21443327.560   112685449.619 6      2401.618          40.562    21443328.440    87806853.048 6      1871.391          40.250
G03  21427231.840   112600882.893 7      5461.105          46.812    21427231.320   112600882.892 6      5461.105          39.750    21427238.020    87740968.152 6      4255.406          39.750    21427238.700    87740986.155 8      4255.406          50.562
R02  21308837.520   113708067.852 8      5923.800          48.312    21308837.180   113708067.850 7      5923.800          47.125    21308847.560    88439661.843 8      4607.400          49.250    21308847.700    88439663.849 8      4607.400          49.187
R01  20842520.080   111415214.650 7      2544.596          44.812    20842521.060   111415214.672 7      2544.596          44.562    20842528.740    86656319.693 7      1979.130          43.375    20842528.220    86656316.688 7      1979.130          43.187
G21  21275713.820   111804617.716 7      1473.659          47.750    21275712.380   111804617.721 6      1473.659          39.500    21275714.380    87120485.604 6      1148.305          39.375
G16  25052440.200   131651386.867 6     -1012.238          39.250    25052438.220   131651386.872 2     -1012.238          16.750    25052455.340   102585512.140 2      -788.757          17.250
G14  23376536.280   122844526.535 7      5289.734          45.625    23376536.160   122844526.548 5      5289.734          32.875    23376539.420    95723017.822 5      4121.870          32.750    23376539.380    95723028.827 7      4121.870          44.937
G08  20819630.000   109407889.673 8      1870.227          48.062    20819629.060   109407889.675 8      1870.227          49.062    20819634.540    85252918.293 8      1457.319          48.625    20819635.500    85252913.294 8      1457.319          51.000
R14  21520432.740   114715978.354 8      -711.887          48.500    21520432.020   114715978.357 7      -711.887          47.937    21520442.780    89223571.775 8      -553.690          49.000    21520443.420    89223572.775 8      -553.690          49.312
R24  21221146.760   113479004.662 7      1737.735          44.375    21221146.380   113479004.669 7      1737.735          44.937    21221154.660    88261480.669 7      1351.572          47.500    21221155.460    88261481.664 7      1351.572          47.187
R15  21124245.360   112881565.478 7      2476.796          46.000    21124245.520   112881565.468 7      2476.796          45.125    21124254.420    87796806.153 7      1926.397          47.750    21124254.420    87796806.156 8      1926.397          48.250
R17  21238411.060   113651019.829 7      3636.564          45.000    21238411.560   113651019.847 7      3636.564          44.812    21238419.720    88395282.270 8      2828.438          48.500    21238419.460    88395280.266 8      2828.438          48.937
G10  25225679.520   132561833.781 7      -707.800          42.687    25225678.120   132561833.788 5      -707.800          34.625    25225687.440   103294972.318 5      -551.533          35.062    25225687.600   103294975.336 6      -551.533          39.250
G32  24853475.720   130605906.521 6      2533.300          41.312    24853475.560   130605906.526 6      2533.300          41.125    24853485.840   101770879.702 6      1974.000          40.687    24853486.380   101770883.703 7      1974.000          46.562
G27  22964716.260   120680374.422 7       335.708          44.312    22964715.880   120680374.425 7       335.708          43.562    22964724.260    94036676.429 7       261.591          43.062    22964724.660    94036682.422 7       261.591          46.937
R16  23918966.460   127770818.441 7      5508.584          42.812    23918965.440   127770818.442 7      5508.584          42.062    23918975.860    99377345.012 7      4284.454          43.250    23918975.500    99377345.016 7      4284.454          44.500
R18  23936381.500   127774025.138 7      4541.799          43.625    23936381.540   127774025.138 7      4541.799          43.250    23936392.160    99379845.193 7      3532.510          42.687    23936392.060    99379845.194 7      3532.510          42.812
> 2024 05 03 14 59 57.0000000  0 17
G02  21442872.400   112683048.134 7      2401.415          47.125    21442870.580   112683048.144 6      2401.415          40.062    21442871.520    87804981.767 6      1871.233          39.937
G03  21426192.840   112595422.099 7      5460.480          46.562    21426191.920   112595422.101 6      5460.480          39.625    21426198.900    87736712.992 6      4254.919          39.250    21426199.520    87736731.002 8      4254.919          49.875
R02  21307727.500   113702144.407 8      5923.162          48.062    21307727.020   113702144.408 7      5923.162          47.000    21307737.680    88435054.732 8      4606.904          49.187    21307737.700    88435056.737 8      4606.904          49.187
R01  20842044.100   111412670.721 7      2543.491          44.937    20842045.100   111412670.746 7      2543.491          43.937    20842053.140    86654341.086 7      1978.271          43.687    20842052.540    86654338.079 7      1978.271          43.437
G21  21275433.460   111803144.212 7      1473.470          47.875    21275431.820   111803144.219 6      1473.470          39.062    21275433.900    87119337.421 6      1148.158          39.187
G16  25052633.060   131652399.371 6     -1012.503          39.250    25052631.080   131652399.373 2     -1012.503          17.375    25052648.140   102586301.083 2      -788.963          17.250
G14  23375529.980   122839237.034 7      5289.304          46.312    23375529.620   122839237.050 5      5289.304          32.375    23375532.860    95718896.133 5      4121.536          32.312    23375532.780    95718907.126 7      4121.536          44.625
G08  20819274.140   109406019.805 8      1869.652          48.625    20819273.300   109406019.810 8      1869.652          48.625    20819278.740    85251461.252 8      1456.871          49.250    20819279.700    85251456.254 8      1456.871          51.125
R14  21520565.800   114716690.565 8      -712.397          49.250    21520565.600   114716690.563 8      -712.397          48.062    21520576.380    89224125.704 8      -554.087          49.000    21520576.480    89224126.707 8      -554.087          49.187
R24  21220822.060   113477267.083 7      1737.540          46.875    21220821.300   113477267.082 7      1737.540          45.500    21220829.700    88260129.217 7      1351.420          47.562    21220830.380    88260130.205 7      1351.420          47.187
R15  21123782.420   112879089.150 7      2475.946          47.000    21123781.840   112879089.130 7      2475.946          45.375    21123790.700    87794880.112 7      1925.736          47.875    21123790.520    87794880.117 8      1925.736          48.000
R17  21237731.640   113647383.326 7      3636.468          46.000    21237731.620   113647383.341 7      3636.468          45.000    21237739.980    88392453.881 8      2828.364          48.937    21237740.080    88392451.879 8      2828.364          49.000
G10  25225814.020   132562541.742 7      -708.001          42.562    25225812.800   132562541.749 5      -708.001          34.687    25225822.320   103295523.978 5      -551.689          34.812    25225822.200   103295526.984 6      -551.689          39.250
G32  24852993.980   130603373.507 7      2532.564          42.500    24852993.520   130603373.512 6      2532.564          41.437    24853003.580   101768905.925 6      1973.426          41.125    24853004.220   101768909.928 7      1973.426          46.625
G27  22964652.620   120680039.098 7       335.117          44.812    22964652.140   120680039.095 7       335.117          43.250    22964660.460    94036415.130 7       261.130          43.000    22964660.920    94036421.125 7       261.130          47.312
R16  23917934.560   127765310.325 7      5507.841          42.562    23917933.980   127765310.320 7      5507.841          42.062    23917944.800    99373060.919 7      4283.876          43.812    23917944.700    99373060.919 7      4283.876          44.125
R18  23935530.980   127769483.299 7      4541.825          42.750    23935530.980   127769483.305 7      4541.825          43.250    23935541.540    99376312.660 7      3532.531          42.687    23935541.580    99376312.662 7      3532.531          42.812
> 2024 05 03 14 59 58.0000000  0 17
G02  21442415.380   112680646.761 7      2401.342          47.687    21442413.600   112680646.769 6      2401.342          39.937    21442414.580    87803110.567 6      1871.175          40.000
G03  21425153.460   112589961.657 7      5460.221          46.562    21425152.880   112589961.660 6      5460.221          39.875    21425159.820    87732458.105 6      4254.717          39.625    21425160.600    87732476.108 8      4254.717          50.625
R02  21306617.100   113696221.333 8      5922.917          48.750    21306617.240   113696221.331 7      5922.917          47.250    21306627.520    88430447.899 8      4606.713          49.062    21306627.720    88430449.904 8      4606.713          49.312
R01  20841567.960   111410127.618 7      2542.776          45.375    20841569.200   111410127.643 7      2542.776          44.562    20841577.280    86652363.123 7      1977.715          43.187    20841577.000    86652360.118 7      1977.715          44.125
G21  21275153.240   111801670.760 7      1473.477          47.187    21275151.520   111801670.768 6      1473.477          39.250    21275153.520    87118189.279 6      1148.164          39.562
G16  25052825.760   131653411.743 6     -1012.271          39.250    25052823.860   131653411.745 2     -1012.271          17.375    25052840.800   102587089.924 2      -788.783          17.250
G14  23374523.520   122833947.920 7      5288.911          45.937    23374523.120   122833947.925 5      5288.911          32.375    23374526.260    95714774.741 5      4121.229          32.312    23374526.680    95714785.732 7      4121.229          45.187
G08  20818918.420   109404150.250 8      1869.466          48.500    20818917.360   109404150.250 8      1869.466          48.937    20818922.960    85250004.455 8      1456.727          49.000    20818923.660    85249999.456 8      1456.727          50.500
R14  21520699.360   114717403.027 8      -712.568          48.687    21520699.380   114717403.025 8      -712.568          48.000    21520709.980    89224679.835 8      -554.220          48.875    21520710.240    89224680.837 8      -554.220          49.187
R24  21220497.500   113475529.515 7      1737.585          46.125    21220496.460   113475529.519 7      1737.585          45.812    21220504.960    88258777.777 7      1351.455          47.812    21220505.520    88258778.769 7      1351.455          47.750
R15  21123319.180   112876613.594 7      2475.195          46.187    21123318.400   112876613.585 7      2475.195          45.187    21123327.420    87792954.682 8      1925.152          48.375    21123327.300    87792954.689 8      1925.152          48.375
R17  21237052.400   113643746.807 7      3636.558          46.187    21237052.220   113643746.827 7      3636.558          45.000    21237060.520    88389625.477 8      2828.434          48.375    21237060.660    88389623.480 8      2828.434          48.937
G10  25225948.420   132563249.802 6      -708.015          41.812    25225947.560   132563249.807 5      -708.015          34.687    25225957.000   103296075.712 5      -551.700          34.812    25225957.380   103296078.716 6      -551.700          39.250
G32  24852511.840   130600840.935 7      2532.419          42.500    24852511.560   130600840.939 6      2532.419          41.375    24852521.760   101766932.494 6      1973.313          40.187    24852522.780   101766936.501 7      1973.313          47.187
G27  22964588.660   120679703.953 7       335.078          43.875    22964588.300   120679703.953 7       335.078          43.000    22964596.860    94036153.976 7       261.099          42.812    22964597.360    94036159.967 7       261.099          46.937
