     3.05           OBSERVATION DATA    MIXED               RINEX VERSION / TYPE
TPS2RIN 1.0.29.3920 TPS-USER            20240511 180811 UTC PGM / RUN BY / DATE
Win64 build Feb 23, 2024 (c) Topcon Positioning Systems     COMMENT
SRC: 20240503_FA02.tps                                      COMMENT
OPT: -S -v 3.05                                             COMMENT
Observer            Agency                                  OBSERVER / AGENCY
O0M3X53SBGM         TPS HIPER_SR        4.8 HSR Jul,08,2022 REC # / TYPE / VERS
FW: 4.8 HSR Jul,08,2022 p3                                  COMMENT
SN: HiPer SR 1212-12575                                     COMMENT
000                 TPSHIPER_SR     NONE                    ANT # / TYPE
        1.8000        0.0000        0.0000                  ANTENNA: DELTA H/E/N
DELTA H stands for **SLANT** height here!                   COMMENT
FA02                                                        MARKER NAME
  5391005.1666 -1598444.8526  3005028.2186                  APPROX POSITION XYZ
  2024     5     3    15    15    0.0000000     GPS         TIME OF FIRST OBS
  2024     5     3    15    20    5.0000000     GPS         TIME OF LAST OBS
     1.000                                                  INTERVAL
   306 EPOCHS                                               COMMENT
G   16 C1C L1C D1C S1C C1W L1W D1W S1W C2W L2W D2W S2W C2X  SYS / # / OBS TYPES
       L2X D2X S2X                                          SYS / # / OBS TYPES
R   16 C1C L1C D1C S1C C1P L1P D1P S1P C2P L2P D2P S2P C2C  SYS / # / OBS TYPES
       L2C D2C S2C                                          SYS / # / OBS TYPES
    18                                                      # OF SATELLITES
   G02   306   306   306   306   306   306   306   306   306PRN / # OF OBS
         306   306   306     0     0     0     0            PRN / # OF OBS
   G03   306   306   306   306   306   306   306   306   306PRN / # OF OBS
         306   306   306   306   306   306   306            PRN / # OF OBS
   G04    16    16    16    16    16    16    16    16    16PRN / # OF OBS
          16    16    16    16    16    16    16            PRN / # OF OBS
   G08   306   306   306   306   306   306   306   306   306PRN / # OF OBS
         306   306   306   306   306   306   306            PRN / # OF OBS
   G14   306   306   306   306   306   306   306   306   306PRN / # OF OBS
         306   306   306   306   306   306   306            PRN / # OF OBS
   G21   306   306   306   306   306   306   306   306   306PRN / # OF OBS
         306   306   306     0     0     0     0            PRN / # OF OBS
   G22   306   306   306   306   306   306   306   306   306PRN / # OF OBS
         306   306   306     0     0     0     0            PRN / # OF OBS
   G27   306   306   306   306   306   306   306   306   306PRN / # OF OBS
         306   306   306   306   306   306   306            PRN / # OF OBS
   G32   306   306   306   306   306   306   306   306   306PRN / # OF OBS
         306   306   306   306   306   306   306            PRN / # OF OBS
   R01   306   306   306   306   306   306   306   306   306PRN / # OF OBS
         306   306   306   306   306   306   306            PRN / # OF OBS
   R02   306   306   306   306   306   306   306   306   306PRN / # OF OBS
         306   306   306   306   306   306   306            PRN / # OF OBS
   R03   306   306   306   306   306   306   306   306   306PRN / # OF OBS
         306   306   306   306   306   306   306            PRN / # OF OBS
   R14   306   306   306   306   306   306   306   306   306PRN / # OF OBS
         306   306   306   306   306   306   306            PRN / # OF OBS
   R15   306   306   306   306   306   306   306   306   306PRN / # OF OBS
         306   306   306   306   306   306   306            PRN / # OF OBS
   R16   306   306   306   306   306   306   306   306   306PRN / # OF OBS
         306   306   306   306   306   306   306            PRN / # OF OBS
   R17   306   306   306   306   306   306   306   306   306PRN / # OF OBS
         306   306   306   306   306   306   306            PRN / # OF OBS
   R18   306   306   306   306   306   306   306   306   306PRN / # OF OBS
         306   306   306   306   306   306   306            PRN / # OF OBS
   R24   306   306   306   306   306   306   306   306   306PRN / # OF OBS
         306   306   306   306   306   306   306            PRN / # OF OBS
G L1C                                                       SYS / PHASE SHIFT
G L1W -0.25000                                              SYS / PHASE SHIFT
G L2W  0.00000                                              SYS / PHASE SHIFT
G L2X  0.25000                                              SYS / PHASE SHIFT
R L1C                                                       SYS / PHASE SHIFT
R L1P -0.25000                                              SYS / PHASE SHIFT
R L2P -0.25000                                              SYS / PHASE SHIFT
R L2C                                                       SYS / PHASE SHIFT
  9 R01  1 R02 -4 R03  5 R14 -7 R15  0 R16 -1 R17  4 R18 -3 GLONASS SLOT / FRQ #
    R24  2                                                  GLONASS SLOT / FRQ #
                                                            GLONASS COD/PHS/BIS
    18    18  1929     7GPS                                 LEAP SECONDS
                                                            END OF HEADER
> 2024 05 03 15 15  0.0000000  0 17
G22  25260333.860   132743953.149 7      5515.954          44.312    25260333.720   132743953.151 3      5515.954          19.562    25260337.140   103436844.534 3      4298.146          19.625
G02  21634086.920   113687889.368 7      2348.660          47.562    21634084.960   113687889.373 6      2348.660          39.687    21634085.900    88587969.424 6      1830.124          39.625
G03  21119243.180   110982405.865 7      5072.565          47.250    21119242.360   110982405.867 6      5072.565          40.937    21119248.840    86479819.864 6      3952.648          40.750    21119249.260    86479837.863 8      3952.648          51.187
R02  20937862.280   111728450.572 8      5504.689          49.312    20937861.660   111728450.570 8      5504.689          48.000    20937871.200    86899950.381 8      4281.425          49.562    20937871.720    86899945.385 8      4281.425          49.750
G21  21623182.220   113630575.442 7      1455.150          46.687    21623180.760   113630575.444 6      1455.150          39.250    21623183.140    88543319.629 6      1133.883          39.875
G08  21122176.060   110997784.337 7      1572.811          47.937    21122174.640   110997784.337 8      1572.811          48.375    21122180.720    86491825.464 8      1225.567          48.937    21122181.840    86491801.464 8      1225.567          50.375
G14  23095683.860   121368642.298 7      4927.076          45.312    23095683.140   121368642.306 5      4927.076          35.250    23095686.980    94572978.530 5      3839.280          35.062    23095686.940    94572989.541 7      3839.280          47.437
R01  21074157.880   112653453.977 6      1800.338          40.687    21074154.500   112653453.984 6      1800.338          39.875    21074168.100    87619395.328 7      1400.263          43.375    21074167.180    87619390.321 7      1400.263          43.812
R14  22261171.260   118664495.352 7      -937.238          47.375    22261170.460   118664495.347 7      -937.238          46.125    22261183.600    92294681.712 8      -728.963          50.125    22261184.160    92294682.717 8      -728.963          50.875
R24  21526864.460   115113807.968 7      1727.815          45.687    21526863.940   115113807.985 7      1727.815          44.875    21526873.620    89533004.078 7      1343.856          47.312    21526873.620    89533006.081 7      1343.856          47.250
R15  21363509.120   114160107.999 7      1783.486          45.937    21363507.960   114160107.995 7      1783.486          45.062    21363518.040    88791228.657 8      1387.156          48.625    21363517.620    88791230.661 8      1387.156          49.000
G27  23522281.760   123610417.252 7       147.257          42.437    23522280.220   123610417.262 6       147.257          41.750    23522291.180    96319837.912 6       114.746          41.375    23522291.340    96319841.917 7       114.746          46.437
R16  23628175.760   126217479.668 6      4991.479          40.062    23628174.560   126217479.669 6      4991.479          39.625    23628184.960    98169183.941 7      3882.262          46.875    23628185.520    98169184.941 7      3882.262          47.500
R18  23761031.140   126838005.336 7      4606.823          44.625    23761031.180   126838005.339 7      4606.823          44.937    23761040.560    98651818.295 5      3583.084          35.125    23761040.420    98651819.299 5      3583.084          35.125
R03  23839692.360   127615733.038 6      6994.295          40.375    23839693.240   127615733.059 6      6994.295          39.875    23839717.180    99256792.865 7      5440.007          46.937    23839717.500    99256793.867 7      5440.007          47.250
G32  25051321.580   131645581.154 7      2127.000          44.125    25051320.200   131645581.159 6      2127.000          40.687    25051330.280   102581008.258 6      1657.402          40.812    25051331.180   102581013.252 7      1657.402          44.312
R17  21221405.560   113560031.129 7      3656.177          46.750    21221406.060   113560031.138 7      3656.177          46.437    21221415.180    88324506.996 8      2843.693          49.875    21221414.600    88324509.993 8      2843.693          50.062
> 2024 05 03 15 15  1.0000000  0 17
G22  25259284.260   132738437.346 7      5515.518          43.812    25259284.120   132738437.350 3      5515.518          19.562    25259287.600   103432546.499 3      4297.806          19.625
G02  21633640.100   113685540.874 7      2348.414          47.125    21633638.020   113685540.882 6      2348.414          40.375    21633639.020    88586139.771 6      1829.933          39.937
G03  21118277.860   110977333.465 7      5072.141          47.187    21118277.220   110977333.465 6      5072.141          40.812    21118283.680    86475867.347 6      3952.318          40.437    21118284.220    86475885.347 8      3952.318          51.625
R02  20936830.680   111722946.191 8      5504.058          49.687    20936830.380   111722946.187 8      5504.058          48.750    20936839.720    86895669.194 8      4280.934          49.625    20936840.080    86895664.196 8      4280.934          49.875
G21  21622905.380   113629120.299 7      1455.093          47.812    21622903.900   113629120.298 6      1455.093          39.312    21622906.140    88542185.748 6      1133.838          39.187
G08  21121876.760   110996211.702 8      1572.372          48.250    21121875.220   110996211.702 8      1572.372          48.812    21121881.380    86490600.030 8      1225.225          48.687    21121882.500    86490576.030 8      1225.225          50.375
G14  23094746.480   121363715.542 7      4926.426          46.125    23094745.520   121363715.547 5      4926.426          35.250    23094749.340    94569139.501 5      3838.774          34.937    23094749.100    94569150.494 7      3838.774          46.875
R01  21073821.080   112651653.911 6      1799.590          40.687    21073818.100   112651653.918 6      1799.590          40.312    21073831.200    87617995.273 7      1399.681          43.750    21073830.480    87617990.262 7      1399.681          44.125
R14  22261346.840   118665432.705 7      -937.468          46.750    22261346.420   118665432.703 7      -937.468          46.125    22261359.280    92295410.756 8      -729.142          50.187    22261359.820    92295411.761 8      -729.142          50.562
R24  21526540.940   115112080.103 7      1727.731          45.812    21526540.900   115112080.115 7      1727.731          45.125    21526550.600    89531660.177 7      1343.790          46.937    21526550.680    89531662.182 7      1343.790          47.875
R15  21363175.200   114158324.888 7      1782.637          45.875    21363174.420   114158324.881 7      1782.637          45.250    21363184.120    88789841.790 8      1386.495          48.812    21363184.000    88789843.794 8      1386.495          48.875
G27  23522253.460   123610270.061 6       147.000          41.687    23522252.240   123610270.071 6       147.000          41.562    23522263.120    96319723.212 6       114.545          41.250    23522263.120    96319727.208 7       114.545          46.125
R16  23627241.360   126212488.493 6      4990.584          40.062    23627239.940   126212488.499 6      4990.584          40.562    23627250.700    98165301.930 7      3881.565          47.312    23627251.100    98165302.932 7      3881.565          47.125
R18  23760168.240   126833398.514 7      4606.736          45.625    23760168.100   126833398.515 7      4606.736          44.875    23760177.540    98648235.213 5      3583.017          35.125    23760177.360    98648236.217 5      3583.017          35.125
R03  23838385.180   127608738.519 6      6994.500          39.000    23838386.480   127608738.545 6      6994.500          39.875    23838410.620    99251352.687 7      5440.167          47.187    23838410.980    99251353.689 8      5440.167          48.062
G32  25050916.920   131643454.357 7      2126.372          43.375    25050915.500   131643454.359 6      2126.372          40.937    25050925.660   102579351.016 6      1656.914          41.000    25050926.340   102579356.012 7      1656.914          44.250
R17  21220723.100   113556375.056 7      3655.941          46.687    21220722.640   113556375.071 7      3655.941          46.250    21220732.060    88321663.384 8      2843.510          49.750    21220731.380    88321666.381 8      2843.510          50.312
> 2024 05 03 15 15  2.0000000  0 17
G22  25258234.600   132732921.729 7      5515.641          44.250    25258234.540   132732921.734 3      5515.641          19.562    25258237.940   103428248.613 3      4297.902          19.625
G02  21633193.120   113683192.483 7      2348.456          47.687    21633191.180   113683192.490 6      2348.456          40.250    21633192.160    88584309.463 6      1829.966          39.937
G03  21117312.700   110972261.739 7      5071.474          47.750    21117312.200   110972261.738 6      5071.474          41.000    21117318.360    86471915.355 6      3951.798          40.625    21117319.380    86471933.352 8      3951.798          51.687
R02  20935799.140   111717442.558 8      5503.262          49.500    20935798.860   111717442.545 8      5503.262          48.062    20935808.460    86891388.591 8      4280.315          49.625    20935808.720    86891383.592 8      4280.315          50.375
G21  21622628.380   113627665.227 7      1455.196          47.687    21622626.920   113627665.232 6      1455.196          39.812    21622629.360    88541051.923 6      1133.919          39.625
G08  21121577.600   110994639.535 8      1572.007          48.875    21121576.060   110994639.529 8      1572.007          49.312    21121582.220    86489374.958 8      1224.940          48.875    21121583.400    86489350.957 8      1224.940          50.250
G14  23093809.000   121358789.262 7      4926.235          44.062    23093808.080   121358789.269 5      4926.235          34.875    23093812.060    94565300.845 5      3838.624          34.625    23093811.820    94565311.824 7      3838.624          47.312
R01  21073484.460   112649854.771 6      1798.730          40.937    21073482.260   112649854.782 6      1798.730          40.312    21073494.540    87616595.950 7      1399.012          43.187    21073494.000    87616590.944 7      1399.012          43.812
R14  22261522.780   118666370.455 7      -937.958          47.062    22261522.240   118666370.455 7      -937.958          45.812    22261535.280    92296140.107 8      -729.523          50.062    22261536.020    92296141.111 8      -729.523          50.125
R24  21526218.420   115110352.307 7      1727.929          46.187    21526217.860   115110352.317 7      1727.929          45.750    21526227.380    89530316.331 7      1343.945          46.750    21526227.180    89530318.334 7      1343.945          47.000
R15  21362842.140   114156542.639 7      1781.910          46.562    21362841.180   114156542.630 7      1781.910          45.250    21362850.700    88788455.593 8      1385.930          48.625    21362850.740    88788457.595 8      1385.930          49.000
G27  23522225.740   123610123.243 7       146.652          42.937    23522224.320   123610123.251 7       146.652          42.000    23522235.280    96319608.798 6       114.275          41.875    23522235.440    96319612.797 7       114.275          45.875
R16  23626307.140   126207497.934 6      4990.403          40.437    23626305.840   126207497.935 6      4990.403          40.562    23626316.320    98161420.389 7      3881.425          46.750    23626316.820    98161421.391 7      3881.425          47.437
R18  23759305.060   126828791.687 7      4607.045          45.187    23759304.840   126828791.682 7      4607.045          45.250    23759313.600    98644652.130 5      3583.257          35.125    23759314.220    98644653.131 5      3583.257          35.125
R03  23837079.460   127601744.109 6      6994.340          39.000    23837079.580   127601744.148 6      6994.340          39.875    23837103.920    99245912.608 7      5440.043          47.125    23837104.040    99245913.611 7      5440.043          47.312
G32  25050511.820   131641328.067 7      2126.150          44.562    25050510.900   131641328.070 6      2126.150          41.062    25050521.060   102577694.164 6      1656.740          41.062    25050521.340   102577699.162 7      1656.740          44.250
R17  21220039.220   113552718.971 7      3656.252          47.187    21220039.720   113552718.986 7      3656.252          46.625    21220048.920    88318819.768 8      2843.751          50.250    21220048.260    88318822.768 8      2843.751          49.687
> 2024 05 03 15 15  3.0000000  0 17
G22  25257185.120   132727406.374 7      5515.027          44.875    25257185.100   132727406.379 3      5515.027          19.562    25257188.500   103423950.933 3      4297.424          19.625
G02  21632746.220   113680844.155 7      2348.063          47.125    21632744.360   113680844.162 6      2348.063          40.062    21632745.400    88582479.482 6      1829.659          40.250
G03  21116347.760   110967190.382 7      5071.002          47.562    21116347.180   110967190.385 6      5071.002          41.000    21116353.420    86467963.655 6      3951.430          41.062    21116354.060    86467981.654 8      3951.430          51.375
R02  20934768.180   111711939.359 8      5502.897          49.250    20934767.380   111711939.352 8      5502.897          48.250    20934777.100    86887108.331 8      4280.031          49.687    20934777.540    86887103.335 8      4280.031          50.375
G21  21622351.520   113626210.155 7      1454.886          47.250    21622349.940   113626210.162 6      1454.886          39.062    21622352.520    88539918.103 6      1133.677          39.562
G08  21121278.460   110993067.649 8      1571.535          48.250    21121277.060   110993067.656 8      1571.535          48.562    21121283.080    86488150.120 8      1224.573          48.687    21121284.240    86488126.120 8      1224.573          50.687
G14  23092871.580   121353863.457 7      4925.325          44.187    23092870.880   121353863.467 5      4925.325          34.875    23092874.700    94561462.558 5      3837.915          34.625    23092875.020    94561473.536 7      3837.915          47.937
R01  21073148.140   112648056.418 6      1797.712          40.937    21073146.360   112648056.438 6      1797.712          41.000    21073158.060    87615197.233 7      1398.221          43.687    21073157.360    87615192.232 7      1398.221          44.000
R14  22261698.680   118667308.266 7      -937.995          47.500    22261698.180   118667308.266 7      -937.995          46.312    22261711.200    92296869.505 8      -729.551          50.000    22261711.920    92296870.508 8      -729.551          50.187
R24  21525895.020   115108624.514 7      1727.611          46.312    21525894.480   115108624.524 7      1727.611          45.500    21525904.120    89528972.494 7      1343.697          47.000    21525904.620    89528974.502 7      1343.697          47.125
R15  21362508.660   114154761.075 7      1781.041          46.625    21362507.900   114154761.071 7      1781.041          45.562    21362517.480    88787069.936 8      1385.254          49.187    21362517.080    88787071.938 8      1385.254          48.875
G27  23522198.060   123609976.536 7       146.578          42.625    23522196.500   123609976.543 6       146.578          41.687    23522207.300    96319494.474 6       114.217          41.125    23522207.920    96319498.473 7       114.217          45.937
R16  23625372.700   126202508.051 6      4989.316          40.437    23625371.780   126202508.045 6      4989.316          40.687    23625382.420    98157539.362 7      3880.579          47.125    23625382.700    98157540.362 7      3880.579          47.250
R18  23758442.220   126824184.830 7      4606.684          45.312    23758441.920   126824184.825 7      4606.684          44.750    23758451.760    98641069.029 5      3582.976          35.125    23758451.280    98641070.035 5      3582.976          35.125
R03  23835772.300   127594749.464 6      6994.684          39.000    23835773.620   127594749.500 6      6994.684          38.687    23835797.340    99240472.334 7      5440.310          47.437    23835797.760    99240473.336 7      5440.310          46.875
G32  25050107.440   131639202.256 7      2125.387          44.937    25050106.340   131639202.258 6      2125.387          41.562    25050116.460   102576037.686 6      1656.146          41.625    25050117.460   102576042.682 7      1656.146          43.812
R17  21219355.960   113549062.888 7      3655.825          46.562    21219356.760   113549062.905 7      3655.825          47.187    21219365.740    88315976.153 8      2843.419          49.875    21219365.020    88315979.152 8      2843.419          50.687
> 2024 05 03 15 15  4.0000000  0 17
G22  25256135.780   132721891.556 7      5514.844          45.000    25256135.740   132721891.564 3      5514.844          19.562    25256139.040   103419653.668 3      4297.281          19.625
G02  21632299.540   113678496.134 7      2348.090          47.125    21632297.540   113678496.139 6      2348.090          39.937    21632298.600    88580650.402 6      1829.681          39.750
G03  21115382.940   110962119.691 7      5070.410          47.937    21115382.360   110962119.693 6      5070.410          40.812    21115388.500    86464012.471 6      3950.969          40.562    21115389.100    86464030.470 8      3950.969          51.687
R02  20933737.040   111706436.911 8      5502.005          49.562    20933736.100   111706436.912 7      5502.005          47.937    20933745.900    86882828.659 8      4279.337          49.937    20933745.960    86882823.666 8      4279.337          50.250
G21  21622074.840   113624755.385 7      1454.773          47.750    21622073.100   113624755.392 6      1454.773          39.437    21622075.740    88538784.516 6      1133.590          39.687
G08  21120979.320   110991496.327 8      1571.017          48.312    21120977.900   110991496.329 8      1571.017          48.625    21120984.080    86486925.712 8      1224.169          48.625    21120985.220    86486901.714 8      1224.169          50.562
G14  23091934.440   121348938.411 7      4924.967          44.000    23091933.720   121348938.419 5      4924.967          34.750    23091937.420    94557624.858 5      3837.637          34.875    23091938.120    94557635.836 8      3837.637          48.562
R01  21072811.860   112646259.130 6      1796.781          41.062    21072810.060   112646259.155 6      1796.781          41.000    21072822.040    87613799.348 7      1397.496          43.500    21072821.060    87613794.343 7      1397.496          43.562
R14  22261874.580   118668246.432 7      -938.213          46.750    22261874.060   118668246.427 7      -938.213          45.750    22261887.200    92297599.169 8      -729.721          50.250    22261887.600    92297600.171 8      -729.721          50.125
R24  21525572.180   115106897.005 7      1727.471          46.437    21525572.120   115106897.017 7      1727.471          45.562    21525580.860    89527628.878 7      1343.589          47.187    21525581.620    89527630.881 7      1343.589          47.437
R15  21362175.220   114152980.534 7      1780.346          47.000    21362174.340   114152980.519 7      1780.346          46.000    21362184.060    88785685.058 8      1384.713          48.750    21362184.160    88785687.060 8      1384.713          48.937
G27  23522170.060   123609830.215 7       146.080          43.000    23522168.600   123609830.225 6       146.080          41.937    23522179.420    96319380.454 6       113.828          41.375    23522180.220    96319384.454 7       113.828          45.812
R16  23624438.880   126197519.112 6      4988.837          41.562    23624438.280   126197519.107 6      4988.837          40.687    23624448.480    98153659.066 7      3880.207          46.750    23624448.440    98153660.065 7      3880.207          47.437
R18  23757579.340   126819578.171 7      4607.070          45.250    23757578.760   126819578.161 7      4607.070          44.562    23757588.560    98637486.062 5      3583.276          35.562    23757588.340    98637487.073 5      3583.276          35.562
R03  23834465.580   127587754.872 6      6994.648          39.687    23834466.700   127587754.895 6      6994.648          38.687    23834490.600    99235032.090 7      5440.282          47.562    23834490.780    99235033.089 7      5440.282          47.625
G32  25049702.760   131637077.130 7      2124.777          44.375    25049701.960   131637077.132 6      2124.777          41.312    25049712.020   102574381.752 6      1655.671          41.375    25049712.720   102574386.746 7      1655.671          44.000
R17  21218672.720   113545407.112 7      3655.941          46.125    21218673.500   113545407.130 7      3655.941          46.500    21218682.620    88313132.768 8      2843.509          50.062    21218682.260    88313135.765 8      2843.509          50.125
> 2024 05 03 15 15  5.0000000  0 17
G22  25255086.400   132716376.927 7      5514.627          44.625    25255086.300   132716376.932 3      5514.627          19.562    25255089.580   103415356.550 3      4297.112          19.625
G02  21631852.540   113676148.239 7      2348.012          47.375    21631850.760   113676148.244 6      2348.012          40.125    21631851.800    88578820.012 6      1829.620          39.812
G03  21114418.080   110957049.583 7      5069.964          47.750    21114417.600   110957049.585 6      5069.964          41.125    21114423.700    86460061.737 6      3950.621          41.125    21114424.440    86460079.742 8      3950.621          51.625
R02  20932705.760   111700935.231 8      5501.553          49.000    20932705.340   111700935.231 8      5501.553          48.750    20932715.000    86878549.577 8      4278.985          49.937    20932715.140    86878544.583 8      4278.985          50.000
G21  21621798.040   113623300.720 8      1454.757          48.437    21621796.320   113623300.720 6      1454.757          39.250    21621798.940    88537651.009 6      1133.577          39.250
G08  21120680.520   110989925.508 8      1570.791          48.000    21120678.980   110989925.510 8      1570.791          48.250    21120685.080    86485701.695 8      1223.993          48.375    21120686.240    86485677.697 8      1223.993          50.250
G14  23090997.080   121344013.792 7      4924.486          44.562    23090996.480   121344013.799 5      4924.486          34.750    23091000.320    94553787.492 5      3837.262          34.875    23091001.360    94553798.485 8      3837.262          49.000
R01  21072475.800   112644462.846 6      1796.003          41.062    21072474.060   112644462.866 6      1796.003          41.187    21072485.980    87612402.233 7      1396.891          43.500    21072485.300    87612397.223 7      1396.891          43.750
R14  22262050.600   118669184.890 7      -938.454          47.062    22262050.060   118669184.888 7      -938.454          46.250    22262063.300    92298329.069 8      -729.909          49.875    22262063.820    92298330.071 8      -729.909          50.250
R24  21525249.440   115105169.685 7      1727.546          46.250    21525249.180   115105169.697 7      1727.546          46.187    21525258.040    89526285.401 7      1343.647          46.937    21525258.160    89526287.408 7      1343.647          47.562
R15  21361842.260   114151200.735 7      1779.529          46.812    21361841.560   114151200.726 7      1779.529          45.500    21361851.160    88784300.768 8      1384.078          48.187    21361850.740    88784302.770 8      1384.078          48.875
G27  23522142.180   123609684.335 7       145.892          42.812    23522140.960   123609684.347 6       145.892          41.375    23522151.720    96319266.773 6       113.682          40.937    23522152.300    96319270.768 7       113.682          45.812
R16  23623505.240   126192530.818 6      4988.121          41.562    23623504.660   126192530.819 6      4988.121          41.250    23623514.840    98149779.284 7      3879.650          46.875    23623514.740    98149780.286 7      3879.650          47.187
R18  23756716.240   126814971.423 7      4606.876          44.375    23756715.960   126814971.424 7      4606.876          44.187    23756725.800    98633903.046 5      3583.126          35.562    23756725.440    98633904.050 5      3583.126          35.562
R03  23833158.940   127580760.347 6      6994.612          39.687    23833160.180   127580760.376 6      6994.612          38.687    23833183.980    99229591.914 7      5440.254          47.375    23833184.400    99229592.916 7      5440.254          47.437
G32  25049298.540   131634952.645 7      2124.415          44.062    25049297.420   131634952.647 6      2124.415          41.312    25049307.620   102572726.307 6      1655.388          41.375    25049308.500   102572731.301 7      1655.388          44.000
R17  21217989.460   113541751.351 7      3655.970          47.312    21217990.060   113541751.368 7      3655.970          46.687    21217999.320    88310289.399 8      2843.532          49.687    21217999.140    88310292.400 8      2843.532          50.750
> 2024 05 03 15 15  6.0000000  0 17
G22  25254037.040   132710862.498 7      5514.337          45.562    25254036.940   132710862.503 3      5514.337          19.562    25254040.200   103411059.592 3      4296.886          19.625
G02  21631405.660   113673800.381 7      2347.736          47.750    21631403.980   113673800.389 6      2347.736          40.125    21631404.880    88576990.113 6      1829.405          39.750
G03  21113453.460   110951979.945 7      5069.252          47.937    21113452.640   110951979.945 6      5069.252          41.000    21113458.920    86456111.372 6      3950.066          40.625    21113459.680    86456129.375 8      3950.066          52.062
R02  20931674.780   111695434.060 8      5500.778          49.437    20931674.400   111695434.058 7      5500.778          47.812    20931684.220    86874270.895 8      4278.383          49.875    20931684.480    86874265.897 8      4278.383          50.687
G21  21621521.220   113621846.013 8      1454.614          48.125    21621519.420   113621846.013 6      1454.614          39.312    21621522.100    88536517.471 6      1133.465          39.562
G08  21120381.520   110988355.009 7      1570.151          47.687    21120380.160   110988355.014 8      1570.151          48.562    21120386.260    86484477.929 8      1223.494          48.437    21120387.420    86484453.932 8      1223.494          50.625
G14  23090059.920   121339089.629 7      4923.900          45.000    23090059.420   121339089.634 5      4923.900          35.250    23090063.400    94549950.482 5      3836.805          34.875    23090064.380    94549961.481 8      3836.805          48.812
R01  21072140.400   112642667.329 6      1795.022          41.562    21072138.180   112642667.349 6      1795.022          41.187    21072149.760    87611005.718 7      1396.128          43.312    21072149.460    87611000.710 7      1396.128          44.062
R14  22262226.340   118670123.573 7      -938.921          47.312    22262226.280   118670123.571 7      -938.921          46.562    22262239.520    92299059.137 8      -730.272          49.687    22262239.680    92299060.139 8      -730.272          50.312
R24  21524926.000   115103442.363 7      1727.249          46.562    21524926.400   115103442.380 7      1727.249          46.062    21524935.180    89524941.936 7      1343.416          47.125    21524935.140    89524943.941 7      1343.416          47.750
R15  21361509.120   114149421.682 7      1778.562          46.562    21361508.540   114149421.686 7      1778.562          45.875    21361518.120    88782917.069 8      1383.326          48.375    21361517.840    88782919.068 8      1383.326          48.562
G27  23522114.340   123609538.618 7       145.399          42.625    23522113.180   123609538.628 6       145.399          41.500    23522124.060    96319153.217 6       113.298          41.062    23522124.200    96319157.210 7       113.298          46.062
R16  23622571.560   126187543.144 6      4987.349          41.875    23622570.960   126187543.159 6      4987.349          41.250    23622581.000    98145899.990 7      3879.049          47.062    23622581.200    98145900.992 7      3879.049          47.812
R18  23755853.040   126810364.569 7      4606.904          44.562    23755852.620   126810364.565 7      4606.904          44.562    23755862.700    98630319.933 5      3583.147          35.562    23755862.620    98630320.939 5      3583.147          35.562
R03  23831852.020   127573765.673 6      6994.534          39.687    23831853.220   127573765.696 6      6994.534          38.687    23831877.260    99224151.618 7      5440.193          47.125    23831877.520    99224152.618 7      5440.193          47.937
G32  25048894.460   131632828.584 7      2123.656          43.937    25048893.280   131632828.586 6      2123.656          41.125    25048903.520   102571071.196 6      1654.797          41.250    25048903.900   102571076.196 7      1654.797          43.687
R17  21217306.380   113538095.543 7      3655.773          47.000    21217306.760   113538095.563 7      3655.773          47.750    21217316.180    88307445.998 8      2843.379          50.125    21217315.700    88307448.995 8      2843.379          50.375
> 2024 05 03 15 15  7.0000000  0 17
G22  25252987.520   132705348.318 7      5513.932          45.062    25252987.620   132705348.321 3      5513.932          22.750    25252990.900   103406762.827 3      4296.571          19.625
G02  21630959.100   113671452.584 7      2347.682          47.375    21630957.080   113671452.586 6      2347.682          39.812    21630958.160    88575161.524 6      1829.362          39.812
G03  21112488.640   110946910.841 7      5068.937          47.687    21112488.040   110946910.846 6      5068.937          40.687    21112494.360    86452161.427 6      3949.821          40.562    21112495.020    86452179.428 8      3949.821          50.625
R02  20930643.980   111689933.431 8      5500.580          48.875    20930643.540   111689933.426 8      5500.580          48.125    20930653.400    86869992.632 8      4278.229          49.750    20930653.760    86869987.634 8      4278.229          49.375
G21  21621244.320   113620391.314 7      1454.702          47.750    21621242.560   113620391.314 6      1454.702          39.187    21621245.220    88535383.942 6      1133.534          39.375
G08  21120082.820   110986784.849 7      1570.027          47.500    21120081.380   110986784.854 8      1570.027          49.000    21120087.420    86483254.428 8      1223.398          48.687    21120088.460    86483230.428 8      1223.398          50.000
G14  23089123.240   121334165.952 7      4923.311          44.312    23089122.400   121334165.957 5      4923.311          34.812    23089126.380    94546113.853 5      3836.346          34.750    23089127.100    94546124.862 8      3836.346          48.187
R01  21071804.180   112640872.620 6      1794.284          41.562    21071802.900   112640872.648 6      1794.284          41.187    21071814.260    87609609.845 7      1395.554          43.562    21071813.820    87609604.829 7      1395.554          44.000
R14  22262402.620   118671062.560 7      -939.142          47.125    22262402.400   118671062.558 7      -939.142          45.750    22262415.580    92299789.447 8      -730.444          50.062    22262416.220    92299790.450 8      -730.444          49.750
R24  21524602.500   115101715.008 7      1727.424          46.000    21524603.120   115101715.023 7      1727.424          45.687    21524611.760    89523598.436 7      1343.552          46.750    21524612.300    89523600.441 7      1343.552          47.500
R15  21361176.500   114147643.468 7      1777.708          46.562    21361175.840   114147643.459 7      1777.708          46.250    21361185.440    88781534.007 8      1382.662          48.562    21361185.020    88781536.007 8      1382.662          48.375
G27  23522086.700   123609393.109 6       145.499          41.500    23522085.580   123609393.113 6       145.499          41.125    23522096.360    96319039.819 6       113.376          40.750    23522096.460    96319043.811 7       113.376          45.750
R16  23621637.580   126182556.128 7      4986.571          42.187    23621637.180   126182556.134 6      4986.571          41.562    23621647.460    98142021.197 7      3878.444          46.687    23621647.800    98142022.197 7      3878.444          47.000
R18  23754990.240   126805757.750 7      4606.689          45.312    23754989.720   126805757.743 7      4606.689          44.750    23754999.720    98626736.854 5      3582.980          35.562    23754999.780    98626737.859 5      3582.980          35.562
R03  23830545.080   127566770.947 6      6994.926          39.687    23830546.640   127566770.976 6      6994.926          38.750    23830570.740    99218711.286 7      5440.498          46.937    23830570.820    99218712.290 7      5440.498          46.687
G32  25048490.340   131630704.911 7      2123.605          44.125    25048489.320   131630704.913 6      2123.605          41.312    25048499.340   102569416.384 6      1654.757          41.187    25048499.560   102569421.380 7      1654.757          43.875
R17  21216623.160   113534439.730 8      3655.663          48.000    21216624.080   113534439.745 7      3655.663          46.875    21216632.980    88304602.584 8      2843.293          49.875    21216632.500    88304605.583 8      2843.293          50.000
> 2024 05 03 15 15  8.0000000  0 17
G22  25251938.220   132699834.176 7      5513.679          44.750    25251938.280   132699834.180 3      5513.679          22.750    25251941.640   103402466.094 3      4296.373          22.937
G02  21630512.180   113669104.679 7      2347.651          47.187    21630510.320   113669104.686 6      2347.651          40.625    21630511.440    88573331.462 6      1829.338          39.687
G03  21111524.080   110941842.136 7      5068.483          47.000    21111523.640   110941842.138 6      5068.483          40.937    21111529.640    86448211.790 6      3949.467          40.437    21111530.500    86448229.787 8      3949.467          50.875
R02  20929613.320   111684433.258 8      5500.001          49.625    20929612.820   111684433.254 8      5500.001          48.625    20929622.520    86865714.722 8      4277.779          48.875    20929622.740    86865709.726 8      4277.779          49.250
G21  21620967.440   113618936.484 7      1454.602          47.500    21620965.740   113618936.489 6      1454.602          38.812    21620968.220    88534250.314 6      1133.456          39.125
G08  21119784.000   110985214.926 7      1569.740          47.750    21119782.860   110985214.925 8      1569.740          48.187    21119788.820    86482031.101 8      1223.174          48.125    21119789.780    86482007.101 8      1223.174          50.000
G14  23088186.400   121329242.557 7      4922.948          44.375    23088185.580   121329242.562 5      4922.948          34.812    23088189.320    94542277.439 5      3836.063          34.875    23088190.240    94542288.448 8      3836.063          48.062
R01  21071468.460   112639078.582 6      1793.565          41.625    21071468.280   112639078.618 6      1793.565          41.187    21071478.700    87608214.484 7      1394.995          43.750    21071478.040    87608209.477 7      1394.995          43.375
R14  22262579.000   118672001.648 7      -939.098          46.500    22262578.460   118672001.635 7      -939.098          45.437    22262591.980    92300519.830 8      -730.409          48.875    22262592.480    92300520.833 8      -730.409          49.437
R24  21524279.340   115099987.528 7      1727.296          46.937    21524280.460   115099987.543 7      1727.296          45.625    21524288.640    89522254.840 7      1343.452          46.375    21524289.220    89522256.843 7      1343.452          46.937
R15  21360844.060   114145865.850 7      1777.105          46.937    21360843.340   114145865.838 7      1777.105          46.125    21360852.780    88780151.411 8      1382.193          48.562    21360851.960    88780153.413 8      1382.193          48.187
G27  23522058.760   123609247.712 7       145.386          42.625    23522057.880   123609247.712 6       145.386          41.250    23522068.720    96318926.517 6       113.288          40.687    23522068.940    96318930.512 7       113.288          45.875
R16  23620704.120   126177569.541 7      4985.988          42.187    23620703.740   126177569.558 6      4985.988          41.562    23620713.860    98138142.755 7      3877.991          46.562    23620714.240    98138143.757 7      3877.991          46.812
R18  23754127.040   126801150.688 7      4606.961          44.437    23754126.620   126801150.675 7      4606.961          44.625    23754136.820    98623153.594 5      3583.192          35.562    23754137.300    98623154.601 5      3583.192          35.562
R03  23829238.340   127559776.058 6      6995.118          39.437    23829239.680   127559776.084 6      6995.118          38.750    23829263.940    99213270.817 7      5440.647          46.500    23829263.700    99213271.817 7      5440.647          46.937
G32  25048086.340   131628581.585 7      2122.969          43.937    25048085.360   131628581.590 6      2122.969          41.375    25048095.360   102567761.851 6      1654.261          41.625    25048095.840   102567766.853 7      1654.261          43.875
R17  21215940.080   113530783.714 7      3655.799          47.312    21215940.900   113530783.734 7      3655.799          47.187    21215949.660    88301759.022 8      2843.399          49.125    21215949.300    88301762.021 8      2843.399          49.750
> 2024 05 03 15 15  9.0000000  0 17
G22  25250888.780   132694320.327 7      5513.863          44.437    25250889.020   132694320.332 3      5513.863          22.750    25250892.340   103398169.593 3      4296.517          22.937
G02  21630065.520   113666756.894 7      2347.789          47.687    21630063.600   113666756.904 6      2347.789          39.625    21630064.700    88571502.464 6      1829.446          39.562
G03  21110559.700   110936773.814 7      5068.107          47.500    21110559.280   110936773.814 6      5068.107          40.562    21110565.260    86444262.447 6      3949.175          40.375    21110566.080    86444280.448 8      3949.175          51.312
R02  20928582.500   111678933.526 8      5499.381          49.375    20928582.140   111678933.524 8      5499.381          48.625    20928591.960    86861437.160 8      4277.297          49.562    20928592.080    86861432.164 8      4277.297          50.250
G21  21620690.660   113617481.722 7      1454.790          47.562    21620689.000   113617481.727 6      1454.790          39.812    21620691.500    88533116.733 6      1133.603          39.875
G08  21119485.340   110983645.325 7      1569.370          47.812    21119484.020   110983645.328 8      1569.370          48.312    21119490.180    86480808.038 8      1222.885          48.250    21119491.040    86480784.038 8      1222.885          50.500
G14  23087249.780   121324319.692 7      4922.726          45.187    23087249.000   121324319.702 5      4922.726          35.000    23087252.680    94538441.449 5      3835.890          34.875    23087253.040    94538452.452 7      3835.890          47.375
R01  21071133.080   112637285.425 6      1792.711          41.937    21071133.760   112637285.464 7      1792.711          42.000    21071143.060    87606819.815 7      1394.331          43.750    21071142.080    87606814.803 7      1394.331          43.687
R14  22262754.940   118672940.797 7      -939.161          46.687    22262754.700   118672940.795 7      -939.161          45.000    22262768.080    92301250.269 8      -730.459          49.937    22262768.340    92301251.274 8      -730.459          49.812
R24  21523956.500   115098260.136 7      1727.264          47.250    21523957.500   115098260.153 7      1727.264          45.937    21523965.360    89520911.311 7      1343.427          46.687    21523966.040    89520913.316 7      1343.427          47.187
R15  21360511.460   114144089.023 7      1776.546          46.250    21360510.840   114144089.011 7      1776.546          46.062    21360520.040    88778769.430 8      1381.758          48.500    21360519.760    88778771.430 8      1381.758          48.687
G27  23522031.220   123609102.455 7       145.073          42.750    23522030.220   123609102.463 6       145.073          41.750    23522040.960    96318813.325 6       113.044          41.187    23522041.240    96318817.320 7       113.044          45.875
R16  23619771.120   126172583.705 7      4985.710          42.312    23619770.620   126172583.714 6      4985.710          41.875    23619780.440    98134264.870 7      3877.774          47.500    23619780.740    98134265.870 7      3877.774          47.437
R18  23753263.660   126796543.610 7      4607.346          43.812    23753263.800   126796543.602 7      4607.346          44.062    23753273.640    98619570.319 5      3583.491          35.500    23753274.080    98619571.320 5      3583.491          35.625
R03  23827931.660   127552780.899 6      6995.095          39.437    23827932.480   127552780.920 6      6995.095          38.750    23827957.160    99207830.148 7      5440.629          46.937    23827957.120    99207831.148 7      5440.629          46.437
G32  25047682.460   131626458.782 7      2122.427          44.562    25047681.400   131626458.784 6      2122.427          41.437    25047691.400   102566107.722 6      1653.839          41.687    25047692.280   102566112.722 7      1653.839          44.250
R17  21215256.760   113527127.821 7      3655.980          47.750    21215257.800   113527127.844 7      3655.980          47.500    21215266.380    88298915.549 8      2843.540          49.687    21215265.940    88298918.544 8      2843.540          50.250
> 2024 05 03 15 15 10.0000000  0 17
G22  25249839.480   132688806.760 7      5513.298          44.000    25249839.980   132688806.764 3      5513.298          22.750    25249843.220   103393873.309 3      4296.076          22.937
G02  21629618.820   113664409.215 7      2347.666          46.687    21629616.880   113664409.220 6      2347.666          39.437    21629617.980    88569673.302 6      1829.350          39.437
G03  21109595.140   110931705.963 7      5067.616          46.750    21109594.920   110931705.965 6      5067.616          40.812    21109600.800    86440313.476 6      3948.792          40.375    21109601.680    86440331.479 8      3948.792          51.437
R02  20927552.080   111673434.359 8      5498.852          48.875    20927551.600   111673434.362 8      5498.852          48.187    20927561.460    86857160.039 8      4276.885          49.937    20927561.780    86857155.043 8      4276.885          50.062
G21  21620413.940   113616027.047 7      1454.712          47.312    21620412.240   113616027.049 6      1454.712          39.187    21620414.680    88531983.216 6      1133.542          39.625
G08  21119186.760   110982076.132 7      1569.003          47.562    21119185.380   110982076.132 7      1569.003          47.750    21119191.460    86479585.288 8      1222.600          48.375    21119192.420    86479561.288 8      1222.600          50.125
G14  23086313.080   121319397.295 7      4922.188          44.687    23086312.300   121319397.305 5      4922.188          34.937    23086315.840    94534605.819 5      3835.471          34.937    23086316.260    94534616.814 7      3835.471          47.687
R01  21070797.780   112635493.156 6      1791.948          41.937    21070798.180   112635493.184 7      1791.948          42.812    21070807.680    87605425.818 7      1393.737          43.250    21070807.120    87605420.808 7      1393.737          43.812
R14  22262931.160   118673880.063 7      -939.335          46.687    22262931.000   118673880.067 7      -939.335          45.250    22262944.100    92301980.797 8      -730.594          50.062    22262944.720    92301981.800 8      -730.594          50.375
R24  21523633.560   115096532.888 7      1727.312          45.562    21523634.540   115096532.900 7      1727.312          46.125    21523642.140    89519567.884 7      1343.465          46.875    21523642.900    89519569.893 7      1343.465          46.937
R15  21360178.980   114142312.933 7      1775.669          45.937    21360178.140   114142312.918 7      1775.669          45.687    21360187.740    88777388.025 8      1381.076          48.437    21360187.760    88777390.029 8      1381.076          48.250
G27  23522003.860   123608957.466 7       144.865          42.562    23522002.740   123608957.476 6       144.865          41.250    23522013.480    96318700.343 6       112.882          40.750    23522013.940    96318704.338 7       112.882          45.875
R16  23618837.780   126167598.539 7      4984.887          42.312    23618837.200   126167598.548 7      4984.887          42.125    23618847.400    98130387.515 7      3877.135          47.250    23618847.540    98130388.517 7      3877.135          47.750
R18  23752400.820   126791936.465 7      4607.185          44.000    23752400.380   126791936.458 7      4607.185          43.750    23752410.920    98615986.980 5      3583.366          35.500    23752410.840    98615987.981 5      3583.366          35.625
R03  23826625.660   127545785.563 6      6995.493          39.437    23826626.340   127545785.584 6      6995.493          38.750    23826650.400    99202389.334 7      5440.939          47.250    23826650.320    99202390.335 7      5440.939          47.500
G32  25047278.640   131624336.499 7      2122.145          44.875    25047277.660   131624336.501 6      2122.145          41.437    25047287.580   102564453.995 6      1653.620          41.375    25047288.640   102564458.993 7      1653.620          44.312
R17  21214573.760   113523471.966 7      3655.871          46.875    21214574.600   113523471.980 7      3655.871          46.500    21214583.380    88296072.096 8      2843.455          49.937    21214582.720    88296075.097 8      2843.455          50.687
> 2024 05 03 15 15 11.0000000  0 17
G22  25248790.740   132683293.347 7      5513.094          44.375    25248790.820   132683293.355 3      5513.094          22.750    25248794.060   103389577.147 3      4295.917          22.937
G02  21629172.120   113662061.615 7      2347.413          47.250    21629170.300   113662061.622 6      2347.413          40.000    21629171.320    88567844.140 6      1829.153          40.125
G03  21108631.040   110926638.669 7      5066.935          47.437    21108630.660   110926638.671 6      5066.935          41.062    21108636.440    86436364.939 6      3948.261          41.187    21108637.240    86436382.943 8      3948.261          51.687
R02  20926521.800   111667935.907 8      5498.178          49.187    20926521.240   111667935.908 8      5498.178          48.500    20926531.020    86852883.465 8      4276.361          50.125    20926530.920    86852878.469 8      4276.361          49.562
G21  21620137.100   113614572.429 8      1454.521          48.125    21620135.320   113614572.434 6      1454.521          39.437    21620137.840    88530849.750 6      1133.393          39.812
G08  21118888.160   110980507.375 8      1568.579          48.187    21118886.800   110980507.380 8      1568.579          48.812    21118892.860    86478362.882 8      1222.270          48.625    21118894.020    86478338.886 8      1222.270          50.375
G14  23085376.320   121314475.353 7      4921.530          45.625    23085375.600   121314475.360 5      4921.530          34.875    23085379.360    94530770.535 5      3834.959          34.937    23085379.780    94530781.526 8      3834.959          48.312
R01  21070462.860   112633701.785 7      1790.948          42.375    21070462.900   112633701.818 7      1790.948          42.812    21070472.580    87604032.531 7      1392.960          43.500    21070471.580    87604027.528 7      1392.960          43.937
R14  22263107.280   118674819.578 7      -939.754          47.062    22263107.340   118674819.584 7      -939.754          45.500    22263120.640    92302711.516 8      -730.920          49.875    22263120.700    92302712.519 8      -730.920          50.312
R24  21523310.600   115094805.780 7      1727.183          47.125    21523311.600   115094805.789 7      1727.183          45.500    21523319.420    89518224.579 7      1343.365          46.875    21523319.720    89518226.589 7      1343.365          47.312
R15  21359846.880   114140537.583 7      1774.681          46.312    21359845.920   114140537.571 7      1774.681          46.062    21359855.600    88776007.197 8      1380.307          48.937    21359855.400    88776009.199 8      1380.307          48.687
G27  23521976.280   123608812.816 7       144.675          42.125    23521975.160   123608812.818 6       144.675          41.187    23521985.840    96318587.614 6       112.734          40.875    23521986.420    96318591.611 7       112.734          45.812
R16  23617904.700   126162614.003 7      4984.012          42.937    23617903.860   126162614.012 7      4984.012          42.125    23617914.220    98126510.650 7      3876.454          47.125    23617914.740    98126511.656 8      3876.454          48.062
R18  23751537.600   126787329.208 7      4606.994          44.062    23751537.480   126787329.203 7      4606.994          44.000    23751547.200    98612403.568 5      3583.218          35.500    23751547.640    98612404.572 5      3583.218          35.625
R03  23825319.080   127538790.292 6      6995.264          40.000    23825318.880   127538790.320 6      6995.264          39.000    23825343.460    99196948.582 7      5440.761          47.062    23825343.900    99196949.583 7      5440.761          47.687
G32  25046874.940   131622214.802 7      2121.543          44.625    25046873.760   131622214.804 6      2121.543          41.375    25046883.780   102562800.727 6      1653.151          41.437    25046885.240   102562805.717 7      1653.151          43.812
R17  21213890.200   113519816.067 8      3655.795          48.250    21213891.140   113519816.085 7      3655.795          46.937    21213900.140    88293228.627 8      2843.396          49.750    21213899.440    88293231.626 8      2843.396          50.750
> 2024 05 03 15 15 12.0000000  0 17
G22  25247741.520   132677780.284 7      5512.838          44.062    25247741.500   132677780.292 3      5512.838          22.750    25247744.960   103385281.258 3      4295.718          22.937
G02  21628725.300   113659714.088 7      2347.490          47.125    21628723.460   113659714.095 6      2347.490          40.187    21628724.500    88566014.487 6      1829.213          40.062
G03  21107666.860   110921571.874 7      5066.547          47.375    21107666.460   110921571.874 6      5066.547          41.312    21107672.420    86432416.788 6      3947.958          41.000    21107672.940    86432434.791 8      3947.958          51.375
R02  20925491.740   111662437.938 8      5497.648          49.875    20925490.780   111662437.939 8      5497.648          48.375    20925500.600    86848607.273 8      4275.948          50.000    20925500.660    86848602.279 8      4275.948          49.687
G21  21619860.140   113613117.801 8      1454.677          48.437    21619858.620   113613117.804 6      1454.677          39.687    21619861.020    88529716.273 6      1133.515          39.687
G08  21118589.880   110978938.908 8      1568.306          48.000    21118588.380   110978938.913 8      1568.306          48.687    21118594.400    86477140.697 8      1222.057          48.812    21118595.560    86477116.698 8      1222.057          50.562
G14  23084439.440   121309553.952 7      4921.123          45.187    23084439.000   121309553.957 5      4921.123          34.875    23084442.920    94526935.675 5      3834.642          34.937    23084443.740    94526946.670 8      3834.642          48.375
R01  21070127.580   112631911.136 7      1790.360          43.000    21070128.240   112631911.166 7      1790.360          42.687    21070137.280    87602639.806 7      1392.502          43.687    21070136.880    87602634.801 7      1392.502          44.062
R14  22263283.940   118675759.327 7      -939.882          47.000    22263283.660   118675759.333 7      -939.882          45.750    22263296.800    92303442.418 8      -731.019          50.312    22263297.340    92303443.418 8      -731.019          50.062
R24  21522987.400   115093078.623 7      1727.141          47.437    21522988.520   115093078.646 7      1727.141          45.937    21522996.440    89516881.244 7      1343.332          46.812    21522997.120    89516883.251 7      1343.332          47.000
R15  21359514.320   114138763.051 7      1774.021          46.500    21359513.720   114138763.036 7      1774.021          46.312    21359523.460    88774626.997 8      1379.794          48.937    21359523.180    88774629.001 8      1379.794          49.000
G27  23521948.780   123608668.279 7       144.492          42.312    23521947.860   123608668.286 6       144.492          41.687    23521958.380    96318474.980 6       112.591          41.500    23521958.820    96318478.972 7       112.591          45.937
R16  23616971.780   126157630.189 7      4983.471          42.187    23616971.360   126157630.182 7      4983.471          42.187    23616981.220    98122634.337 7      3876.033          47.437    23616981.820    98122635.339 7      3876.033          47.625
R18  23750674.780   126782722.009 7      4607.213          44.187    23750674.800   126782722.005 7      4607.213          44.500    23750685.300    98608820.194 6      3583.388          36.812    23750685.120    98608821.197 5      3583.388          35.625
