     3.05           OBSERVATION DATA    MIXED               RINEX VERSION / TYPE
TPS2RIN 1.0.29.3920 TPS-USER            20240511 181330 UTC PGM / RUN BY / DATE
Win64 build Feb 23, 2024 (c) Topcon Positioning Systems     COMMENT
SRC: 20240503_FA03.tps                                      COMMENT
OPT: -S -v 3.05                                             COMMENT
Observer            Agency                                  OBSERVER / AGENCY
O0M3X53SBGM         TPS HIPER_SR        4.8 HSR Jul,08,2022 REC # / TYPE / VERS
FW: 4.8 HSR Jul,08,2022 p3                                  COMMENT
SN: HiPer SR 1212-12575                                     COMMENT
000                 TPSHIPER_SR     NONE                    ANT # / TYPE
        1.8000        0.0000        0.0000                  ANTENNA: DELTA H/E/N
DELTA H stands for **SLANT** height here!                   COMMENT
FA03                                                        MARKER NAME
  5391001.7445 -1598456.0403  3005036.2275                  APPROX POSITION XYZ
  2024     5     3    15    33   11.0000000     GPS         TIME OF FIRST OBS
  2024     5     3    15    38   16.0000000     GPS         TIME OF LAST OBS
     1.000                                                  INTERVAL
   306 EPOCHS                                               COMMENT
G   16 C1C L1C D1C S1C C1W L1W D1W S1W C2W L2W D2W S2W C2X  SYS / # / OBS TYPES
       L2X D2X S2X                                          SYS / # / OBS TYPES
R   16 C1C L1C D1C S1C C1P L1P D1P S1P C2P L2P D2P S2P C2C  SYS / # / OBS TYPES
       L2C D2C S2C                                          SYS / # / OBS TYPES
    19                                                      # OF SATELLITES
   G02   306   306   306   306   306   306   306   306   306PRN / # OF OBS
         306   306   306     0     0     0     0            PRN / # OF OBS
   G03   306   306   306   306   306   306   306   306   306PRN / # OF OBS
         306   306   306   306   306   306   306            PRN / # OF OBS
   G04   306   306   306   306   306   306   306   306   306PRN / # OF OBS
         306   306   306   306   306   306   306            PRN / # OF OBS
   G08   306   306   306   306   306   306   306   306   306PRN / # OF OBS
         306   306   306   306   306   306   306            PRN / # OF OBS
   G14   306   306   306   306   306   306   306   306   306PRN / # OF OBS
         306   306   306   306   306   306   306            PRN / # OF OBS
   G17   306   306   306   306   306   306   306   306   306PRN / # OF OBS
         306   306   306   306   306   306   306            PRN / # OF OBS
   G21   306   306   306   306   306   306   306   306   306PRN / # OF OBS
         306   306   306     0     0     0     0            PRN / # OF OBS
   G22   306   306   306   306   306   306   306   306   306PRN / # OF OBS
         306   306   306     0     0     0     0            PRN / # OF OBS
   G27   306   306   306   306   306   306   306   306   306PRN / # OF OBS
         306   306   306   306   306   306   306            PRN / # OF OBS
   G32   306   306   306   306   306   306   306   306   306PRN / # OF OBS
         306   306   306   306   306   306   306            PRN / # OF OBS
   R01   306   306   306   306   306   306   306   306   306PRN / # OF OBS
         306   306   306   306   306   306   306            PRN / # OF OBS
   R02   306   306   306   306   306   306   306   306   306PRN / # OF OBS
         306   306   306   306   306   306   306            PRN / # OF OBS
   R03   306   306   306   306   306   306   306   306   306PRN / # OF OBS
         306   306   306   306   306   306   306            PRN / # OF OBS
   R14   306   306   306   306   306   306   306   306   306PRN / # OF OBS
         306   306   306   306   306   306   306            PRN / # OF OBS
   R15   306   306   306   306   306   306   306   306   306PRN / # OF OBS
         306   306   306   306   306   306   306            PRN / # OF OBS
   R16   306   306   306   306   306   306   306   306   306PRN / # OF OBS
         306   306   306   306   306   306   306            PRN / # OF OBS
   R17   306   306   306   306   306   306   306   306   306PRN / # OF OBS
         306   306   306   306   306   306   306            PRN / # OF OBS
   R18   264   264   264   264   258   258   258   258   258PRN / # OF OBS
         258   258   258   257   257   257   257            PRN / # OF OBS
   R24   306   306   306   306   306   306   306   306   306PRN / # OF OBS
         306   306   306   306   306   306   306            PRN / # OF OBS
G L1C                                                       SYS / PHASE SHIFT
G L1W -0.25000                                              SYS / PHASE SHIFT
G L2W  0.00000                                              SYS / PHASE SHIFT
G L2X  0.25000                                              SYS / PHASE SHIFT
R L1C                                                       SYS / PHASE SHIFT
R L1P -0.25000                                              SYS / PHASE SHIFT
R L2P -0.25000                                              SYS / PHASE SHIFT
R L2C                                                       SYS / PHASE SHIFT
  9 R01  1 R02 -4 R03  5 R14 -7 R15  0 R16 -1 R17  4 R18 -3 GLONASS SLOT / FRQ #
    R24  2                                                  GLONASS SLOT / FRQ #
                                                            GLONASS COD/PHS/BIS
    18    18  1929     7GPS                                 LEAP SECONDS
                                                            END OF HEADER
> 2024 05 03 15 33 11.0000000  0 19
G22  24446865.420   128469145.584 7      5190.631          43.562    24446863.940   128469145.592 5      5190.631          31.062    24446867.620   100105831.456 5      4044.648          31.125
G02  21455944.640   112751746.994 7      2258.752          47.937    21455943.020   112751746.999 6      2258.752          39.625    21455943.580    87858504.070 6      1760.066          39.625
G03  20426678.900   107342928.880 7      4474.441          47.687    20426678.200   107342928.880 7      4474.441          42.312    20426684.040    83643860.910 7      3486.577          42.125    20426684.620    83643873.915 8      3486.577          52.312
G27  23819428.600   125171920.102 7      -119.113          42.312    23819427.220   125171920.105 6      -119.113          39.437    23819440.340    97536527.756 6       -92.815          39.125    23819441.020    97536624.755 7       -92.815          44.250
R02  20183959.060   107705497.065 8      4772.878          50.125    20183957.960   107705497.060 8      4772.878          48.625    20183966.860    83770990.707 8      3712.239          50.250    20183967.360    83770985.709 8      3712.239          50.250
G21  21625937.420   113645060.046 7      1409.706          46.812    21625936.160   113645060.048 6      1409.706          38.500    21625939.100    88554610.062 6      1098.472          38.687
G08  21140104.360   111091993.841 7      1138.887          47.312    21140103.240   111091993.843 8      1138.887          48.312    21140109.900    86565233.638 7       887.444          47.875    21140110.760    86565209.647 8       887.444          50.437
G14  22431158.520   117876544.260 7      4347.240          43.187    22431157.800   117876544.267 5      4347.240          32.625    22431161.360    91851860.993 5      3387.460          32.562    22431162.440    91851863.002 7      3387.460          46.812
R24  21483873.080   114883922.356 7      1623.408          42.125    21483869.000   114883922.342 7      1623.408          42.437    21483881.260    89354200.030 7      1262.651          47.875    21483881.740    89354199.030 8      1262.651          48.062
R18  23114287.100   123385614.551 6      4658.921          41.812    23114288.360   123385614.549 6      4658.921          41.875    23114298.280    95966648.858 7      3623.605          44.187    23114297.820    95966651.864 7      3623.605          44.437
R01  21101323.400   112798668.347 7       881.030          42.125    21101323.340   112798668.356 7       881.030          42.187    21101334.920    87732341.605 7       685.245          43.937    21101333.400    87732337.598 7       685.245          43.937
R15  21383133.800   114264967.199 7       980.195          46.437    21383133.620   114264967.200 7       980.195          45.000    21383144.000    88872799.542 8       762.374          48.187    21383143.600    88872799.545 8       762.374          48.625
R17  20779307.220   111194273.957 7      3617.520          47.125    20779307.140   111194273.977 7      3617.520          46.812    20779315.640    86484469.688 8      2813.626          49.937    20779315.060    86484466.690 8      2813.626          50.187
R16  22986764.440   122791181.174 7      4208.461          46.125    22986764.840   122791181.183 7      4208.461          45.812    22986773.860    95504287.491 7      3273.247          47.187    22986773.940    95504282.493 7      3273.247          47.500
R14  22771205.500   121383308.304 7     -1086.406          43.937    22771205.060   121383308.296 7     -1086.406          42.812    22771223.120    94409290.013 7      -844.982          47.437    22771223.460    94409291.018 7      -844.982          47.437
G04  24578050.780   129158535.074 6      5559.090          39.687    24578049.480   129158535.084 3      5559.090          23.500    24578069.160   100643093.351 3      4331.758          23.312    24578069.620   100643095.372 6      4331.758          40.937
G17  24610841.860   129330852.435 6      5454.970          40.250    24610841.000   129330852.445 4      5454.970          27.000    24610844.980   100777287.597 4      4250.626          27.000    24610846.200   100777301.616 6      4250.626          41.500
R03  22711224.480   121575005.476 7      6990.269          44.062    22711224.580   121575005.493 7      6990.269          43.187    22711243.300    94558434.596 7      5436.876          42.625    22711243.620    94558435.599 7      5436.876          42.812
G32  24967260.980   131203833.750 7      1569.710          43.812    24967260.160   131203833.752 5      1569.710          34.687    24967269.580   102236782.811 5      1223.151          35.000    24967269.580   102236791.830 6      1223.151          38.375
> 2024 05 03 15 33 12.0000000  0 19
G22  24445877.460   128463955.338 7      5190.134          43.750    24445876.540   128463955.340 5      5190.134          31.062    24445879.880   100101787.107 5      4044.260          31.125
G02  21455514.840   112749488.430 8      2258.518          48.125    21455513.240   112749488.435 6      2258.518          40.375    21455513.820    87856744.149 6      1759.884          39.687
G03  20425827.500   107338454.777 7      4473.794          47.375    20425826.780   107338454.779 7      4473.794          42.375    20425832.480    83640374.600 7      3486.073          42.125    20425833.160    83640387.603 8      3486.073          52.125
G27  23819451.300   125172039.247 7      -119.354          42.562    23819449.840   125172039.255 6      -119.354          39.875    23819463.140    97536620.590 6       -93.003          39.750    23819463.640    97536717.589 7       -93.003          44.437
R02  20183064.760   107700724.684 8      4771.934          49.875    20183063.500   107700724.677 8      4771.934          48.500    20183072.600    83767278.860 8      3711.504          50.375    20183073.100    83767273.864 8      3711.504          50.062
G21  21625669.160   113643650.451 7      1409.551          47.562    21625667.940   113643650.456 6      1409.551          38.562    21625670.920    88553511.678 6      1098.351          38.937
G08  21139887.740   111090855.162 7      1138.477          47.562    21139886.560   111090855.166 8      1138.477          48.125    21139893.140    86564346.356 8       887.125          48.187    21139893.920    86564322.362 8       887.125          50.500
G14  22430331.460   117872197.465 7      4346.542          43.875    22430330.560   117872197.475 5      4346.542          32.625    22430334.420    91848473.880 5      3386.916          32.562    22430335.160    91848475.887 7      3386.916          46.812
R24  21483569.620   114882299.069 7      1623.180          43.062    21483565.180   114882299.075 7      1623.180          42.562    21483577.540    89352937.489 7      1262.473          47.625    21483577.940    89352936.489 7      1262.473          47.875
R18  23113413.940   123380955.709 6      4658.860          40.875    23113415.620   123380955.707 6      4658.860          41.875    23113425.520    95963025.318 7      3623.558          44.375    23113425.180    95963028.323 7      3623.558          44.625
R01  21101158.860   112797787.725 7       880.320          42.937    21101158.880   112797787.731 7       880.320          42.125    21101170.080    87731656.675 7       684.693          44.062    21101168.660    87731652.665 7       684.693          44.437
R15  21382950.460   114263987.477 7       979.294          46.187    21382950.320   114263987.470 7       979.294          45.312    21382960.420    88872037.526 8       761.673          48.187    21382960.080    88872037.531 8       761.673          48.312
R17  20778631.100   111190656.563 7      3617.319          47.875    20778631.260   111190656.586 7      3617.319          46.875    20778639.620    86481656.162 8      2813.471          49.937    20778639.280    86481653.163 8      2813.471          50.437
R16  22985976.960   122786973.283 7      4207.494          47.062    22985977.100   122786973.295 7      4207.494          46.250    22985986.300    95501014.685 7      3272.495          47.687    22985986.200    95501009.689 8      3272.495          48.000
R14  22771409.700   121384394.926 7     -1086.711          43.937    22771409.200   121384394.905 7     -1086.711          43.187    22771427.260    94410135.132 7      -845.220          47.000    22771427.340    94410136.133 7      -845.220          47.750
G04  24576993.680   129152976.037 6      5559.113          40.250    24576991.640   129152976.048 3      5559.113          23.500    24577011.280   100638761.638 3      4331.776          23.312    24577011.620   100638763.670 6      4331.776          40.937
G17  24609803.760   129325397.493 6      5455.065          39.750    24609802.960   129325397.505 4      5455.065          27.000    24609806.980   100773036.997 4      4250.700          27.000    24609807.460   100773050.998 6      4250.700          41.500
R03  22709918.920   121568015.233 7      6990.132          43.812    22709918.680   121568015.254 7      6990.132          43.187    22709937.720    94552997.757 7      5436.769          42.500    22709937.920    94552998.761 7      5436.769          43.062
G32  24966962.360   131202264.273 7      1569.156          44.937    24966961.440   131202264.275 5      1569.156          35.062    24966970.880   102235559.848 5      1222.719          35.625    24966970.880   102235568.857 6      1222.719          38.375
> 2024 05 03 15 33 13.0000000  0 19
G22  24444889.980   128458765.594 7      5189.703          44.125    24444889.080   128458765.599 5      5189.703          31.062    24444892.160   100097743.152 5      4043.925          31.125
G02  21455084.920   112747230.081 7      2258.408          47.937    21455083.500   112747230.086 6      2258.408          39.625    21455084.040    87854984.397 6      1759.798          39.500
G03  20424976.200   107333981.347 8      4473.209          48.000    20424975.560   107333981.349 6      4473.209          41.875    20424981.320    83636888.816 6      3485.618          41.937    20424981.920    83636901.816 8      3485.618          52.625
G27  23819473.840   125172158.749 6      -119.537          41.250    23819472.540   125172158.754 6      -119.537          39.562    23819485.960    97536713.694 6       -93.146          39.562    23819486.200    97536810.697 7       -93.146          44.125
R02  20182170.520   107695953.177 8      4771.217          49.937    20182169.280   107695953.167 8      4771.217          48.750    20182178.500    83763567.687 8      3710.946          50.625    20182179.160    83763562.689 8      3710.946          50.562
G21  21625401.020   113642241.063 7      1409.390          46.250    21625399.720   113642241.068 6      1409.390          38.812    21625402.640    88552413.455 6      1098.226          38.812
G08  21139671.140   111089717.026 8      1137.989          48.375    21139670.000   111089717.033 8      1137.989          48.187    21139676.620    86563459.497 8       886.745          48.187    21139677.440    86563435.503 8       886.745          50.062
G14  22429504.260   117867851.399 7      4345.827          43.500    22429503.400   117867851.404 5      4345.827          32.750    22429507.320    91845087.331 5      3386.359          32.687    22429507.940    91845089.335 7      3386.359          46.687
R24  21483265.860   114880676.072 7      1623.113          43.062    21483262.460   114880676.074 7      1623.113          42.250    21483274.080    89351675.150 7      1262.421          47.625    21483274.400    89351674.148 7      1262.421          47.250
R18  23112541.220   123376296.974 6      4658.714          40.875    23112542.740   123376296.967 6      4658.714          41.875    23112552.900    95959401.858 7      3623.444          44.375    23112552.320    95959404.861 7      3623.444          44.562
R01  21100994.100   112796908.108 7       879.294          42.937    21100994.120   112796908.117 7       879.294          42.125    21101005.460    87730972.533 7       683.895          43.937    21101004.120    87730968.519 7       683.895          44.375
R15  21382767.660   114263008.544 7       978.659          45.437    21382766.960   114263008.529 7       978.659          45.000    21382777.300    88871276.123 8       761.180          48.375    21382776.960    88871276.126 8       761.180          48.562
R17  20777954.960   111187039.375 7      3617.233          47.937    20777955.180   111187039.398 7      3617.233          47.875    20777963.900    86478842.794 8      2813.404          49.625    20777963.220    86478839.793 8      2813.404          49.875
R16  22985189.400   122782766.311 7      4206.636          47.187    22985189.520   122782766.320 7      4206.636          45.687    22985198.840    95497742.595 7      3271.828          47.750    22985199.020    95497737.602 7      3271.828          47.875
R14  22771613.460   121385481.633 7     -1086.728          44.125    22771612.540   121385481.623 7     -1086.728          43.437    22771631.180    94410980.339 7      -845.233          47.750    22771631.300    94410981.341 7      -845.233          47.687
G04  24575935.420   129147416.919 6      5559.202          39.500    24575933.900   129147416.932 3      5559.202          23.500    24575953.500   100634429.868 3      4331.845          23.312    24575954.380   100634431.904 6      4331.845          41.062
G17  24608765.720   129319942.629 6      5455.087          39.437    24608764.940   129319942.639 4      5455.087          27.000    24608768.880   100768786.452 4      4250.717          27.000    24608769.400   100768800.453 6      4250.717          41.687
R03  22708612.920   121561025.146 7      6990.174          44.500    22708612.820   121561025.169 7      6990.174          43.250    22708631.520    94547561.046 7      5436.802          42.875    22708632.360    94547562.057 7      5436.802          43.062
G32  24966663.820   131200695.485 7      1568.658          43.875    24966663.040   131200695.487 5      1568.658          35.375    24966672.400   102234337.421 5      1222.331          35.625    24966672.520   102234346.420 6      1222.331          38.375
> 2024 05 03 15 33 14.0000000  0 19
G22  24443902.400   128453576.388 7      5189.121          43.437    24443901.520   128453576.396 5      5189.121          31.062    24443904.720   100093699.613 5      4043.471          31.125
G02  21454655.240   112744971.992 7      2258.063          47.625    21454653.760   112744971.997 6      2258.063          40.312    21454654.260    87853224.845 6      1759.530          40.125
G03  20424125.120   107329508.675 7      4472.363          47.750    20424124.400   107329508.675 6      4472.363          41.875    20424130.140    83633403.618 6      3484.958          41.750    20424130.820    83633416.621 8      3484.958          52.187
G27  23819496.940   125172278.648 6      -120.128          41.500    23819495.280   125172278.653 6      -120.128          39.750    23819508.800    97536807.110 6       -93.606          39.687    23819509.140    97536904.106 7       -93.606          44.125
R02  20181276.540   107691182.547 8      4770.242          50.000    20181275.520   107691182.537 8      4770.242          48.750    20181284.520    83759857.201 8      3710.188          50.187    20181284.940    83759852.203 8      3710.188          50.250
G21  21625133.020   113640831.865 7      1409.192          46.750    21625131.580   113640831.867 6      1409.192          38.812    21625134.500    88551315.376 6      1098.072          38.812
G08  21139454.640   111088579.455 8      1137.304          48.125    21139453.700   111088579.455 8      1137.304          48.125    21139460.220    86562573.072 8       886.211          48.000    21139461.080    86562549.074 8       886.211          50.062
G14  22428677.160   117863506.073 7      4345.080          42.750    22428676.440   117863506.075 5      4345.080          32.750    22428680.460    91841701.364 5      3385.777          32.687    22428681.020    91841703.359 7      3385.777          46.812
R24  21482962.340   114879053.418 7      1622.564          42.937    21482959.320   114879053.419 7      1622.564          42.250    21482970.460    89350413.088 7      1261.994          47.187    21482971.180    89350412.086 7      1261.994          47.937
R18  23111668.480   123371638.362 7      4658.696          42.250    23111669.900   123371638.366 6      4658.696          41.875    23111679.840    95955778.501 7      3623.430          44.625    23111680.080    95955781.508 7      3623.430          44.562
R01  21100829.360   112796029.462 7       878.226          42.562    21100830.080   112796029.479 7       878.226          42.437    21100841.300    87730289.145 7       683.065          43.687    21100839.460    87730285.129 7       683.065          44.250
R15  21382584.700   114262030.477 7       977.745          45.750    21382583.800   114262030.470 7       977.745          45.000    21382594.220    88870515.410 8       760.469          48.062    21382594.080    88870515.413 8       760.469          48.312
R17  20777279.360   111183422.412 7      3617.027          47.375    20777279.380   111183422.430 7      3617.027          47.187    20777287.860    86476029.598 8      2813.243          50.125    20777287.000    86476026.595 8      2813.243          50.250
R16  22984401.960   122778560.266 7      4205.770          47.625    22984402.240   122778560.275 7      4205.770          46.000    22984411.380    95494471.231 7      3271.154          47.375    22984411.280    95494466.233 7      3271.154          47.812
R14  22771817.180   121386568.572 7     -1087.004          44.250    22771816.720   121386568.580 7     -1087.004          43.187    22771834.880    94411825.725 7      -845.448          47.437    22771835.280    94411826.734 7      -845.448          47.000
G04  24574877.120   129141857.785 6      5559.170          39.437    24574876.060   129141857.796 3      5559.170          23.500    24574895.400   100630098.084 3      4331.821          23.312    24574895.860   100630100.103 6      4331.821          41.062
G17  24607727.980   129314487.908 6      5454.781          39.687    24607726.900   129314487.913 4      5454.781          27.000    24607730.840   100764536.018 4      4250.478          27.000    24607731.420   100764550.018 6      4250.478          41.687
R03  22707307.100   121554035.346 7      6989.599          44.062    22707307.280   121554035.369 7      6989.599          43.250    22707325.720    94542124.557 7      5436.355          42.312    22707326.100    94542125.564 7      5436.355          42.562
G32  24966365.400   131199127.395 7      1567.774          43.625    24966364.460   131199127.398 5      1567.774          35.375    24966374.020   102233115.534 5      1221.642          35.375    24966375.060   102233124.530 6      1221.642          38.437
> 2024 05 03 15 33 15.0000000  0 19
G22  24442914.900   128448387.246 7      5188.917          43.875    24442914.020   128448387.253 5      5188.917          30.625    24442917.360   100089656.123 5      4043.312          30.625
G02  21454225.480   112742713.673 7      2258.264          47.625    21454223.920   112742713.680 6      2258.264          39.875    21454224.440    87851465.117 6      1759.686          39.687
G03  20423274.000   107325036.351 7      4472.183          47.750    20423273.320   107325036.351 6      4472.183          41.875    20423279.060    83629918.690 6      3484.818          41.687    20423279.760    83629931.694 8      3484.818          52.062
G27  23819519.740   125172398.495 6      -119.852          41.750    23819518.080   125172398.502 6      -119.852          39.937    23819531.520    97536900.488 6       -93.391          39.625    23819531.680    97536997.493 7       -93.391          44.125
R02  20180382.640   107686412.383 8      4769.903          50.812    20180381.580   107686412.374 8      4769.903          48.812    20180390.540    83756147.079 8      3709.925          49.562    20180390.860    83756142.079 8      3709.925          50.062
G21  21624864.660   113639422.383 7      1409.533          47.625    21624863.440   113639422.388 6      1409.533          38.937    21624866.300    88550217.078 6      1098.337          38.687
G08  21139238.300   111087442.000 7      1137.308          47.875    21139237.240   111087442.005 8      1137.308          48.000    21139243.800    86561686.745 7       886.214          47.937    21139244.540    86561662.752 8       886.214          50.062
G14  22427850.420   117859161.049 7      4344.760          43.625    22427849.560   117859161.046 5      4344.760          32.375    22427853.700    91838315.628 5      3385.527          32.687    22427853.860    91838317.624 7      3385.527          46.812
R24  21482658.740   114877430.550 7      1622.844          43.437    21482655.580   114877430.557 7      1622.844          43.500    21482667.120    89349150.859 7      1262.212          47.187    21482667.800    89349149.858 7      1262.212          47.125
R18  23110796.020   123366979.460 7      4658.993          42.375    23110797.380   123366979.455 7      4658.993          42.187    23110807.500    95952154.906 7      3623.661          43.812    23110807.160    95952157.911 7      3623.661          44.437
R01  21100665.120   112795151.307 7       877.781          43.000    21100665.540   112795151.316 7       877.781          42.187    21100676.780    87729606.132 7       682.719          44.000    21100675.160    87729602.120 7       682.719          43.750
R15  21382401.620   114261052.858 7       977.350          45.937    21382400.840   114261052.856 7       977.350          44.562    21382411.160    88869755.036 7       760.161          47.625    21382410.860    88869755.041 7       760.161          47.812
R17  20776603.520   111179805.149 8      3617.217          48.500    20776603.260   111179805.170 7      3617.217          47.312    20776611.980    86473216.171 8      2813.391          49.437    20776611.260    86473213.173 8      2813.391          49.625
R16  22983614.760   122774354.680 7      4205.216          47.000    22983614.900   122774354.700 7      4205.216          46.187    22983624.100    95491200.226 7      3270.724          46.687    22983624.060    95491195.226 7      3270.724          47.375
R14  22772021.240   121387655.380 7     -1086.673          44.625    22772020.760   121387655.386 7     -1086.673          43.687    22772038.740    94412670.994 7      -845.190          46.687    22772039.120    94412671.996 7      -845.190          46.625
G04  24573819.020   129136298.278 6      5559.865          39.625    24573818.240   129136298.286 3      5559.865          23.500    24573837.420   100625766.007 3      4332.362          23.312    24573837.780   100625768.034 6      4332.362          40.875
G17  24606690.340   129309032.753 6      5455.333          40.125    24606688.900   129309032.752 4      5455.333          27.000    24606692.820   100760285.249 4      4250.909          27.000    24606693.220   100760299.256 6      4250.909          41.812
R03  22706001.340   121547045.411 7      6990.058          43.375    22706001.080   121547045.426 7      6990.058          43.250    22706019.960    94536687.956 7      5436.712          42.312    22706020.540    94536688.959 7      5436.712          42.500
G32  24966067.100   131197559.450 7      1567.789          44.187    24966065.960   131197559.458 5      1567.789          35.187    24966075.560   102231893.758 5      1221.654          35.500    24966076.780   102231902.763 6      1221.654          38.437
> 2024 05 03 15 33 16.0000000  0 19
G22  24441927.460   128443198.363 7      5188.946          43.812    24441926.660   128443198.373 5      5188.946          30.625    24441929.940   100085612.834 5      4043.334          30.625
G02  21453795.840   112740455.397 7      2258.428          47.687    21453794.360   112740455.402 6      2258.428          40.000    21453794.720    87849705.422 6      1759.814          39.812
G03  20422422.980   107320564.511 7      4471.595          47.625    20422422.360   107320564.513 7      4471.595          42.187    20422428.060    83626434.143 6      3484.359          41.937    20422428.660    83626447.148 8      3484.359          52.500
G27  23819542.620   125172518.601 6      -120.208          41.437    23819540.920   125172518.608 6      -120.208          39.500    23819554.300    97536994.065 6       -93.669          39.250    23819554.440    97537091.068 7       -93.669          44.062
R02  20179488.540   107681642.943 8      4769.111          50.562    20179487.840   107681642.936 8      4769.111          49.125    20179496.740    83752437.523 8      3709.309          50.312    20179496.980    83752432.524 8      3709.309          50.437
G21  21624596.760   113638012.956 7      1409.546          47.375    21624595.280   113638012.964 6      1409.546          38.625    21624598.120    88549118.826 6      1098.348          38.687
G08  21139021.880   111086304.958 7      1136.910          47.750    21139020.780   111086304.957 8      1136.910          48.812    21139027.380    86560800.732 8       885.904          48.500    21139028.200    86560776.737 8       885.904          50.375
G14  22427023.620   117854816.507 7      4344.358          43.375    22427022.740   117854816.503 5      4344.358          32.375    22427027.000    91834930.272 5      3385.214          31.937    22427027.180    91834932.270 7      3385.214          46.937
R24  21482355.520   114875807.872 7      1622.784          43.375    21482352.420   114875807.873 7      1622.784          42.875    21482363.740    89347888.770 7      1262.166          47.250    21482364.020    89347887.768 7      1262.166          47.687
R18  23109923.180   123362320.373 7      4659.200          42.375    23109924.600   123362320.371 7      4659.200          42.437    23109934.640    95948531.178 7      3623.823          44.125    23109934.260    95948534.183 7      3623.823          44.062
R01  21100501.120   112794274.029 7       877.000          42.750    21100501.400   112794274.022 7       877.000          42.187    21100512.660    87728923.788 7       682.111          43.687    21100511.160    87728919.782 7       682.111          44.062
R15  21382218.780   114260075.774 7       976.827          45.062    21382217.920   114260075.772 7       976.827          44.875    21382228.380    88868995.084 8       759.754          48.000    21382228.080    88868995.086 8       759.754          48.250
R17  20775927.600   111176187.929 7      3617.284          46.812    20775927.360   111176187.947 7      3617.284          47.625    20775936.000    86470402.774 8      2813.443          50.312    20775935.420    86470399.775 8      2813.443          50.437
R16  22982827.240   122770149.815 7      4204.584          46.687    22982827.820   122770149.827 7      4204.584          45.937    22982836.620    95487929.769 7      3270.232          47.312    22982837.080    95487924.772 7      3270.232          47.750
R14  22772225.220   121388742.087 7     -1086.660          44.187    22772224.820   121388742.091 7     -1086.660          43.687    22772242.540    94413516.186 7      -845.180          47.312    22772243.100    94413517.190 7      -845.180          47.125
G04  24572761.100   129130738.504 6      5559.952          39.000    24572760.220   129130738.516 3      5559.952          23.500    24572779.420   100621433.727 3      4332.431          23.312    24572779.880   100621435.748 6      4332.431          40.875
G17  24605652.100   129303577.482 6      5455.672          40.187    24605650.880   129303577.484 4      5455.672          27.000    24605654.800   100756034.389 4      4251.173          26.750    24605655.180   100756048.398 6      4251.173          41.750
R03  22704695.680   121540055.490 7      6989.895          43.375    22704695.500   121540055.500 7      6989.895          43.125    22704713.760    94531251.367 7      5436.585          42.187    22704714.240    94531252.370 7      5436.585          42.250
G32  24965768.820   131195992.089 7      1567.374          44.375    24965767.720   131195992.094 5      1567.374          35.312    24965777.140   102230672.440 5      1221.331          35.500    24965778.040   102230681.446 6      1221.331          38.437
> 2024 05 03 15 33 17.0000000  0 19
G22  24440940.180   128438009.688 7      5188.337          44.250    24440939.080   128438009.704 5      5188.337          30.625    24440942.460   100081569.711 5      4042.860          30.625
G02  21453365.940   112738197.051 7      2258.267          47.562    21453364.640   112738197.058 6      2258.267          39.437    21453365.020    87847945.672 6      1759.689          39.750
G03  20421572.180   107316093.227 8      4471.019          48.562    20421571.600   107316093.224 7      4471.019          42.250    20421577.220    83622950.030 7      3483.911          42.250    20421577.800    83622963.035 8      3483.911          52.125
G27  23819565.300   125172638.873 7      -120.263          42.125    23819563.980   125172638.883 6      -120.263          39.375    23819577.160    97537087.774 6       -93.712          39.125    23819577.500    97537184.776 7       -93.712          44.375
R02  20178595.020   107676874.240 8      4768.377          50.312    20178594.200   107676874.227 8      4768.377          48.375    20178602.920    83748728.529 8      3708.738          50.500    20178603.260    83748723.533 8      3708.738          50.562
G21  21624328.560   113636603.390 7      1409.474          47.750    21624327.000   113636603.395 6      1409.474          38.937    21624329.960    88548020.463 6      1098.291          38.937
G08  21138805.720   111085168.233 7      1136.577          47.437    21138804.500   111085168.233 8      1136.577          48.125    21138811.060    86559914.969 8       885.644          48.187    21138811.940    86559890.975 8       885.644          50.375
G14  22426197.060   117850472.421 7      4343.646          43.875    22426196.240   117850472.426 5      4343.646          32.062    22426200.240    91831545.272 5      3384.659          31.937    22426200.520    91831547.271 7      3384.659          46.937
R24  21482052.520   114874185.097 7      1622.757          43.500    21482049.200   114874185.104 7      1622.757          42.937    21482060.280    89346626.608 7      1262.145          47.187    21482060.740    89346625.608 7      1262.145          47.625
R18  23109050.280   123357661.080 7      4659.058          42.062    23109051.980   123357661.084 7      4659.058          42.437    23109061.840    95944907.286 7      3623.712          44.375    23109061.280    95944910.287 7      3623.712          44.500
R01  21100337.520   112793397.358 7       876.281          42.750    21100337.100   112793397.351 7       876.281          42.062    21100348.300    87728241.934 7       681.552          43.812    21100347.180    87728237.931 7       681.552          43.937
R15  21382036.220   114259099.355 7       976.034          45.687    21382035.560   114259099.353 7       976.034          45.187    21382045.460    88868235.632 8       759.137          48.375    21382045.460    88868235.637 8       759.137          48.187
R17  20775251.680   111172570.586 7      3617.151          47.500    20775251.420   111172570.601 7      3617.151          47.000    20775259.940    86467589.289 8      2813.340          50.437    20775259.360    86467586.287 8      2813.340          50.250
R16  22982040.060   122765945.546 7      4203.746          46.750    22982040.620   122765945.555 7      4203.746          46.125    22982049.520    95484659.782 7      3269.580          47.625    22982049.920    95484654.785 8      3269.580          48.375
R14  22772428.820   121389828.917 7     -1086.796          44.625    22772428.520   121389828.923 7     -1086.796          43.625    22772446.640    94414361.477 7      -845.285          47.000    22772446.880    94414362.481 7      -845.285          47.125
G04  24571702.720   129125178.658 6      5559.954          39.875    24571702.220   129125178.665 3      5559.954          23.500    24571721.380   100617101.385 3      4332.432          23.312    24571721.960   100617103.413 6      4332.432          41.000
G17  24604613.260   129298122.017 6      5455.407          40.562    24604612.620   129298122.014 4      5455.407          27.000    24604616.760   100751783.381 4      4250.966          26.750    24604617.100   100751797.384 6      4250.966          41.750
R03  22703390.020   121533065.705 7      6989.855          43.375    22703389.880   121533065.726 7      6989.855          43.187    22703408.220    94525814.884 7      5436.554          42.437    22703408.320    94525815.892 7      5436.554          42.812
G32  24965470.700   131194425.058 7      1566.754          44.187    24965469.340   131194425.060 5      1566.754          35.187    24965479.040   102229451.383 5      1220.847          35.625    24965480.160   102229460.384 6      1220.847          38.687
> 2024 05 03 15 33 18.0000000  0 19
G22  24439952.840   128432821.528 7      5188.039          43.562    24439951.760   128432821.546 5      5188.039          30.625    24439955.060   100077526.987 5      4042.628          30.625
G02  21452936.280   112735938.923 7      2258.205          47.500    21452934.720   112735938.930 6      2258.205          40.062    21452935.400    87846186.092 6      1759.640          39.750
G03  20420721.480   107311622.605 8      4470.361          48.562    20420720.820   107311622.602 7      4470.361          42.062    20420726.500    83619466.429 6      3483.398          41.812    20420727.040    83619479.434 8      3483.398          52.062
G27  23819588.280   125172759.429 6      -120.549          41.875    23819586.880   125172759.431 6      -120.549          39.562    23819600.220    97537181.697 6       -93.934          39.312    23819600.580    97537278.695 7       -93.934          43.937
R02  20177701.360   107672106.353 8      4767.642          50.187    20177700.780   107672106.343 8      4767.642          49.187    20177709.460    83745020.174 8      3708.166          50.062    20177709.680    83745015.176 8      3708.166          50.250
G21  21624060.200   113635193.979 8      1409.520          48.312    21624058.800   113635193.990 6      1409.520          38.625    21624061.640    88546922.218 6      1098.327          38.562
G08  21138589.500   111084031.976 8      1136.162          48.000    21138588.240   111084031.978 8      1136.162          48.875    21138594.780    86559029.574 8       885.321          48.500    21138595.700    86559005.578 8       885.321          50.187
G14  22425370.600   117846129.045 7      4343.205          43.437    22425369.580   117846129.052 5      4343.205          32.062    22425373.740    91828160.823 5      3384.316          31.937    22425374.460    91828162.830 7      3384.316          47.437
R24  21481749.080   114872562.548 7      1622.561          43.500    21481745.860   114872562.552 7      1622.561          42.937    21481756.940    89345364.623 7      1261.992          47.875    21481757.160    89345363.621 7      1261.992          47.875
R18  23108177.760   123353001.892 7      4659.310          42.625    23108178.900   123353001.892 7      4659.310          42.312    23108189.100    95941283.469 7      3623.908          44.625    23108188.980    95941286.471 7      3623.908          44.687
R01  21100173.560   112792521.632 7       875.391          42.500    21100173.000   112792521.634 7       875.391          42.375    21100184.840    87727560.821 7       680.859          43.750    21100183.460    87727556.816 7       680.859          44.000
R15  21381853.360   114258123.732 7       975.326          46.062    21381853.000   114258123.728 7       975.326          45.187    21381863.220    88867476.810 8       758.587          48.687    21381862.880    88867476.817 8       758.587          48.062
R17  20774575.680   111168953.487 8      3617.121          48.625    20774575.480   111168953.507 8      3617.121          48.000    20774584.020    86464775.992 8      2813.316          50.437    20774583.680    86464772.991 8      2813.316          50.812
R16  22981253.040   122761742.207 7      4203.131          46.500    22981253.720   122761742.216 7      4203.131          46.250    22981262.520    95481390.518 7      3269.102          47.312    22981262.820    95481385.518 7      3269.102          47.625
R14  22772633.040   121390915.846 7     -1086.975          44.500    22772632.120   121390915.846 7     -1086.975          43.437    22772650.720    94415206.839 7      -845.425          47.562    22772650.680    94415207.833 7      -845.425          47.562
G04  24570644.720   129119618.623 6      5560.137          40.437    24570644.280   129119618.633 3      5560.137          23.500    24570663.400   100612768.897 3      4332.574          23.000    24570664.060   100612770.918 6      4332.574          41.000
G17  24603575.300   129292666.617 6      5455.490          40.250    24603574.360   129292666.617 4      5455.490          27.000    24603578.640   100747532.423 4      4251.031          26.750    24603579.240   100747546.430 6      4251.031          41.937
R03  22702084.200   121526076.038 7      6989.668          44.125    22702084.000   121526076.064 7      6989.668          43.187    22702102.640    94520378.502 7      5436.408          42.562    22702102.720    94520379.501 7      5436.408          42.812
G32  24965172.700   131192858.635 7      1566.268          44.312    24965171.320   131192858.634 5      1566.268          35.937    24965181.060   102228230.795 6      1220.469          36.125    24965182.300   102228239.800 6      1220.469          38.687
> 2024 05 03 15 33 19.0000000  0 19
G22  24438965.640   128427633.755 7      5187.720          42.812    24438964.240   128427633.773 5      5187.720          30.625    24438967.700   100073484.566 5      4042.379          30.812
G02  21452506.680   112733680.934 7      2257.914          47.625    21452505.120   112733680.941 6      2257.914          40.062    21452505.740    87844426.620 6      1759.413          40.125
G03  20419870.800   107307152.609 8      4469.673          48.000    20419870.280   107307152.606 6      4469.673          41.562    20419875.740    83615983.317 6      3482.862          41.562    20419876.420    83615996.324 8      3482.862          52.250
G27  23819611.460   125172880.260 7      -120.920          42.000    23819609.920   125172880.263 6      -120.920          39.562    23819623.220    97537275.839 6       -94.224          39.500    23819623.520    97537372.846 7       -94.224          43.937
R02  20176807.960   107667339.292 8      4766.648          50.125    20176807.380   107667339.283 8      4766.648          49.062    20176816.160    83741312.465 8      3707.393          50.062    20176816.440    83741307.465 8      3707.393          50.312
G21  21623792.160   113633784.684 7      1409.280          47.312    21623790.660   113633784.686 6      1409.280          38.937    21623793.500    88545824.062 6      1098.140          39.000
G08  21138373.420   111082896.187 7      1135.576          47.312    21138372.260   111082896.189 8      1135.576          48.375    21138378.700    86558144.543 8       884.864          48.375    21138379.640    86558120.548 8       884.864          50.187
G14  22424544.120   117841786.336 7      4342.413          43.937    22424543.300   117841786.346 5      4342.413          32.062    22424547.280    91824776.896 5      3383.699          32.437    22424548.000    91824778.899 7      3383.699          47.375
R24  21481445.580   114870940.164 7      1622.266          43.750    21481442.300   114870940.168 7      1622.266          43.375    21481453.440    89344102.771 7      1261.763          47.562    21481453.480    89344101.767 7      1261.763          47.500
R18  23107304.920   123348342.783 7      4659.088          42.312    23107305.900   123348342.776 7      4659.088          42.187    23107316.220    95937659.718 7      3623.735          44.250    23107316.200    95937662.718 7      3623.735          44.375
R01  21100010.200   112791646.771 7       874.499          42.312    21100009.520   112791646.767 7       874.499          42.375    21100021.380    87726880.371 7       680.166          43.687    21100020.120    87726876.364 7       680.166          44.250
R15  21381670.940   114257148.844 7       974.608          46.187    21381670.280   114257148.848 7       974.608          44.937    21381680.400    88866718.568 8       758.028          48.000    21381680.500    88866718.573 8       758.028          48.500
R17  20773899.860   111165336.484 7      3616.993          46.812    20773899.520   111165336.504 7      3616.993          47.500    20773908.060    86461962.769 8      2813.217          50.062    20773907.540    86461959.768 8      2813.217          50.687
R16  22980466.480   122757539.735 7      4202.168          46.187    22980467.060   122757539.733 7      4202.168          45.312    22980475.780    95478121.916 7      3268.353          47.687    22980476.300    95478116.919 8      3268.353          48.000
R14  22772837.240   121392002.809 7     -1087.002          44.750    22772836.360   121392002.809 7     -1087.002          43.625    22772854.400    94416052.223 7      -845.446          47.250    22772854.760    94416053.226 7      -845.446          47.500
G04  24569586.360   129114058.480 6      5560.142          39.750    24569586.220   129114058.487 3      5560.142          23.500    24569605.500   100608436.326 3      4332.579          23.000    24569606.020   100608438.349 6      4332.579          40.937
G17  24602536.920   129287211.186 6      5455.504          39.562    24602536.200   129287211.189 4      5455.504          27.000    24602540.580   100743281.436 4      4251.042          26.750    24602541.000   100743295.455 6      4251.042          41.937
R03  22700777.940   121519086.513 7      6989.500          43.625    22700778.320   121519086.528 7      6989.500          43.062    22700796.680    94514942.215 7      5436.278          42.500    22700797.200    94514943.223 7      5436.278          42.812
G32  24964874.980   131191292.794 7      1565.586          44.375    24964873.600   131191292.799 5      1565.586          35.687    24964883.020   102227010.666 6      1219.937          36.125    24964883.900   102227019.677 6      1219.937          38.687
> 2024 05 03 15 33 20.0000000  0 19
G22  24437978.160   128422446.444 6      5187.167          41.937    24437976.880   128422446.459 5      5187.167          30.625    24437980.540   100069442.509 5      4041.949          30.812
G02  21452077.100   112731423.087 7      2257.800          47.250    21452075.460   112731423.094 6      2257.800          40.062    21452076.160    87842667.259 6      1759.325          40.000
G03  20419020.500   107302683.278 8      4469.013          48.500    20419019.720   107302683.277 6      4469.013          41.687    20419025.320    83612500.725 6      3482.347          41.562    20419025.940    83612513.732 8      3482.347          51.875
G27  23819634.360   125173001.431 6      -121.330          41.687    23819632.880   125173001.436 6      -121.330          40.125    23819646.380    97537370.247 6       -94.543          39.812    23819646.640    97537467.256 7       -94.543          43.937
R02  20175914.920   107662573.038 8      4765.908          50.000    20175914.260   107662573.034 8      4765.908          48.875    20175923.000    83737605.389 8      3706.817          50.187    20175923.340    83737600.386 8      3706.817          50.000
G21  21623523.900   113632375.478 7      1409.175          47.812    21623522.340   113632375.485 6      1409.175          38.687    21623525.340    88544725.979 6      1098.058          38.875
G08  21138157.200   111081760.879 8      1135.179          48.312    21138156.080   111081760.878 8      1135.179          48.500    21138162.720    86557259.885 8       884.555          48.312    21138163.480    86557235.890 8       884.555          50.250
G14  22423718.020   117837444.245 7      4341.850          44.125    22423717.020   117837444.250 5      4341.850          32.687    22423720.920    91821393.449 5      3383.260          32.437    22423721.780    91821395.455 7      3383.260          46.750
R24  21481142.220   114869318.009 7      1622.049          43.500    21481139.260   114869318.019 7      1622.049          43.250    21481150.000    89342841.095 7      1261.594          47.312    21481150.240    89342840.098 7      1261.594          47.812
R18  23106432.300   123343683.613 7      4659.227          42.312    23106433.200   123343683.625 7      4659.227          42.187    23106443.660    95934035.940 7      3623.843          44.437    23106443.360    95934038.942 7      3623.843          44.812
R01  21099846.560   112790772.807 7       873.578          42.312    21099845.720   112790772.808 7       873.578          42.187    21099858.060    87726200.617 7       679.450          43.937    21099856.300    87726196.614 7       679.450          44.812
R15  21381488.420   114256174.707 7       973.879          46.062    21381488.260   114256174.721 7       973.879          44.812    21381498.500    88865960.912 7       757.461          47.937    21381498.320    88865960.919 7       757.461          47.562
R17  20773223.840   111161719.571 7      3616.919          47.937    20773223.580   111161719.597 7      3616.919          47.375    20773232.200    86459149.619 8      2813.159          49.875    20773231.660    86459146.617 8      2813.159          50.250
R16  22979679.940   122753338.089 7      4201.274          45.937    22979680.440   122753338.084 7      4201.274          46.000    22979689.260    95474853.973 7      3267.658          47.437    22979689.920    95474848.978 7      3267.658          47.312
R14  22773040.940   121393089.916 7     -1087.031          44.875    22773040.240   121393089.908 7     -1087.031          43.625    22773058.460    94416897.726 7      -845.468          47.250    22773058.700    94416898.724 7      -845.468          47.125
G04  24568528.240   129108498.279 6      5560.251          39.687    24568528.120   129108498.287 3      5560.251          23.500    24568547.400   100604103.710 3      4332.663          23.000    24568547.480   100604105.738 6      4332.663          40.937
G17  24601498.680   129281755.771 6      5455.492          39.562    24601498.080   129281755.776 4      5455.492          27.187    24601502.540   100739030.469 4      4251.033          26.750    24601502.840   100739044.478 6      4251.033          41.812
R03  22699472.180   121512097.152 7      6989.438          43.625    22699472.760   121512097.169 7      6989.438          43.062    22699491.160    94509506.065 7      5436.230          43.000    22699491.700    94509507.071 7      5436.230          43.125
G32  24964577.100   131189727.535 7      1565.179          45.250    24964575.800   131189727.537 6      1565.179          36.250    24964585.220   102225790.989 6      1219.620          36.250    24964585.520   102225799.994 6      1219.620          39.125
> 2024 05 03 15 33 21.0000000  0 19
G22  24436991.360   128417259.329 7      5187.035          42.187    24436989.780   128417259.342 5      5187.035          30.625    24436993.620   100065400.600 5      4041.845          30.812
G02  21451647.360   112729165.201 7      2257.942          47.375    21451645.840   112729165.208 6      2257.942          40.250    21451646.520    87840907.869 6      1759.435          40.000
G03  20418170.180   107298214.390 7      4468.652          47.750    20418169.280   107298214.392 7      4468.652          42.250    20418174.960    83609018.481 7      3482.067          42.187    20418175.520    83609031.489 8      3482.067          52.000
G27  23819657.480   125173122.725 6      -121.324          41.125    23819656.080   125173122.730 6      -121.324          39.625    23819669.380    97537464.752 6       -94.538          39.750    23819669.860    97537561.761 7       -94.538          43.937
R02  20175021.960   107657807.392 8      4765.377          49.875    20175021.280   107657807.388 8      4765.377          49.312    20175029.980    83733898.779 8      3706.404          50.062    20175030.180    83733893.779 8      3706.404          50.562
G21  21623255.620   113630966.206 7      1409.349          47.125    21623254.160   113630966.214 6      1409.349          38.937    21623257.160    88543627.847 6      1098.194          38.750
G08  21137941.240   111080625.870 8      1134.968          48.187    21137940.040   111080625.880 8      1134.968          48.062    21137946.700    86556375.471 8       884.391          48.312    21137947.520    86556351.473 8       884.391          50.687
G14  22422891.780   117833102.605 7      4341.494          44.562    22422890.840   117833102.608 5      4341.494          32.687    22422894.680    91818010.349 5      3382.982          32.562    22422895.720    91818012.355 7      3382.982          46.625
R24  21480838.380   114867695.893 7      1622.238          44.000    21480835.720   114867695.897 7      1622.238          43.062    21480846.700    89341579.447 7      1261.741          47.562    21480846.840    89341578.447 8      1261.741          48.062
R18  23105559.560   123339024.294 6      4659.410          41.812    23105560.740   123339024.300 7      4659.410          42.250    23105570.980    95930412.023 7      3623.986          44.375    23105570.600    95930415.029 7      3623.986          44.312
R01  21099682.980   112789899.525 7       872.968          42.687    21099682.200   112789899.531 7       872.968          42.187    21099694.300    87725521.410 7       678.975          44.062    21099693.240    87725517.403 7       678.975          45.000
R15  21381306.160   114255201.091 7       973.385          45.687    21381306.360   114255201.094 7       973.385          45.312    21381316.100    88865203.645 7       757.077          47.875    21381315.900    88865203.649 7       757.077          47.750
R17  20772548.340   111158102.576 8      3617.001          48.562    20772547.880   111158102.602 7      3617.001          47.500    20772556.280    86456336.403 8      2813.223          49.437    20772555.700    86456333.400 8      2813.223          50.625
R16  22978893.660   122749137.057 7      4200.763          46.875    22978894.060   122749137.058 7      4200.763          46.562    22978902.840    95471586.508 7      3267.260          46.812    22978903.300    95471581.511 7      3267.260          47.625
R14  22773244.840   121394176.935 7     -1086.968          44.500    22773244.160   121394176.927 7     -1086.968          43.687    22773262.460    94417743.165 7      -845.420          47.250    22773262.740    94417744.165 7      -845.420          47.250
G04  24567470.260   129102937.734 6      5560.850          39.875    24567469.980   129102937.739 3      5560.850          22.625    24567489.340   100599770.824 3      4333.130          23.000    24567489.420   100599772.854 6      4333.130          40.812
G17  24600460.840   129276300.164 6      5455.712          39.312    24600459.780   129276300.169 4      5455.712          27.187    24600464.480   100734779.347 4      4251.204          26.750    24600464.940   100734793.353 7      4251.204          42.125
R03  22698166.920   121505107.747 7      6989.394          43.625    22698166.980   121505107.767 7      6989.394          42.812    22698185.540    94504069.891 7      5436.195          43.000    22698186.000    94504070.895 7      5436.195          42.750
G32  24964279.080   131188162.719 7      1564.762          44.500    24964278.000   131188162.719 5      1564.762          35.937    24964287.560   102224571.650 6      1219.295          36.250    24964287.140   102224580.663 6      1219.295          39.125
> 2024 05 03 15 33 22.0000000  0 19
G22  24436004.520   128412072.581 7      5186.389          43.500    24436002.760   128412072.591 5      5186.389          30.500    24436006.660   100061358.978 5      4041.342          30.375
G02  21451217.640   112726907.390 7      2257.639          47.437    21451216.300   112726907.398 6      2257.639          39.875    21451216.820    87839148.536 6      1759.199          39.937
G03  20417319.760   107293746.131 8      4467.729          48.312    20417319.040   107293746.133 6      4467.729          41.875    20417324.620    83605536.723 6      3481.347          41.687    20417325.240    83605549.726 8      3481.347          52.312
G27  23819680.620   125173244.269 7      -121.803          42.375    23819679.140   125173244.276 6      -121.803          39.625    23819692.540    97537559.449 6       -94.911          39.312    23819692.920    97537656.452 7       -94.911          44.062
R02  20174128.980   107653042.506 8      4764.327          50.000    20174128.380   107653042.502 8      4764.327          49.062    20174136.960    83730192.759 8      3705.587          50.250    20174137.240    83730187.759 8      3705.587          50.437
G21  21622987.520   113629556.982 7      1409.066          47.250    21622985.900   113629556.984 6      1409.066          39.375    21622988.840    88542529.746 6      1097.974          39.250
G08  21137725.520   111079491.313 8      1134.209          48.562    21137724.260   111079491.318 8      1134.209          48.312    21137730.820    86555491.394 8       883.799          48.500    21137731.340    86555467.395 8       883.799          50.312
