     3.05           OBSERVATION DATA    MIXED               RINEX VERSION / TYPE
TPS2RIN 1.0.29.3920 TPS-USER            20240511 181425 UTC PGM / RUN BY / DATE
Win64 build Feb 23, 2024 (c) Topcon Positioning Systems     COMMENT
SRC: 20240503_FA04.tps                                      COMMENT
OPT: -S -v 3.05                                             COMMENT
Observer            Agency                                  OBSERVER / AGENCY
O0M3X53SBGM         TPS HIPER_SR        4.8 HSR Jul,08,2022 REC # / TYPE / VERS
FW: 4.8 HSR Jul,08,2022 p3                                  COMMENT
SN: HiPer SR 1212-12575                                     COMMENT
000                 TPSHIPER_SR     NONE                    ANT # / TYPE
        1.8000        0.0000        0.0000                  ANTENNA: DELTA H/E/N
DELTA H stands for **SLANT** height here!                   COMMENT
FA04                                                        MARKER NAME
  5390996.0486 -1598469.7673  3005044.4387                  APPROX POSITION XYZ
  2024     5     3    15    47   15.0000000     GPS         TIME OF FIRST OBS
  2024     5     3    15    52   19.0000000     GPS         TIME OF LAST OBS
     1.000                                                  INTERVAL
   305 EPOCHS                                               COMMENT
G   16 C1C L1C D1C S1C C1W L1W D1W S1W C2W L2W D2W S2W C2X  SYS / # / OBS TYPES
       L2X D2X S2X                                          SYS / # / OBS TYPES
R   16 C1C L1C D1C S1C C1P L1P D1P S1P C2P L2P D2P S2P C2C  SYS / # / OBS TYPES
       L2C D2C S2C                                          SYS / # / OBS TYPES
    19                                                      # OF SATELLITES
   G02   305   305   305   305   305   305   305   305   305PRN / # OF OBS
         305   305   305     0     0     0     0            PRN / # OF OBS
   G03   305   305   305   305   305   305   305   305   305PRN / # OF OBS
         305   305   305   305   305   305   305            PRN / # OF OBS
   G04   305   305   305   305   305   305   305   305   305PRN / # OF OBS
         305   305   305   305   305   305   305            PRN / # OF OBS
   G08   305   305   305   305   305   305   305   305   305PRN / # OF OBS
         305   305   305   305   305   305   305            PRN / # OF OBS
   G14   305   305   305   305   305   305   305   305   305PRN / # OF OBS
         305   305   305   305   305   305   305            PRN / # OF OBS
   G17   305   305   305   305   305   305   305   305   305PRN / # OF OBS
         305   305   305   305   305   305   305            PRN / # OF OBS
   G21   305   305   305   305   305   305   305   305   305PRN / # OF OBS
         305   305   305     0     0     0     0            PRN / # OF OBS
   G22   305   305   305   305   305   305   305   305   305PRN / # OF OBS
         305   305   305     0     0     0     0            PRN / # OF OBS
   G27   305   305   305   305   305   305   305   305   305PRN / # OF OBS
         305   305   305   305   305   305   305            PRN / # OF OBS
   G32   305   305   305   305   305   305   305   305   305PRN / # OF OBS
         305   305   305   305   305   305   305            PRN / # OF OBS
   R01   305   305   305   305   305   305   305   305   305PRN / # OF OBS
         305   305   305   305   305   305   305            PRN / # OF OBS
   R02   305   305   305   305   305   305   305   305   305PRN / # OF OBS
         305   305   305   305   305   305   305            PRN / # OF OBS
   R03   305   305   305   305   305   305   305   305   305PRN / # OF OBS
         305   305   305   305   305   305   305            PRN / # OF OBS
   R14   305   305   305   305   305   305   305   305   305PRN / # OF OBS
         305   305   305   305   305   305   305            PRN / # OF OBS
   R15   305   305   305   305   305   305   305   305   305PRN / # OF OBS
         305   305   305   305   305   305   305            PRN / # OF OBS
   R16   305   305   305   305   305   305   305   305   305PRN / # OF OBS
         305   305   305   305   305   305   305            PRN / # OF OBS
   R17   305   305   305   305   305   305   305   305   305PRN / # OF OBS
         305   305   305   305   305   305   305            PRN / # OF OBS
   R18   305   305   305   305   305   305   305   305   305PRN / # OF OBS
         305   305   305   305   305   305   305            PRN / # OF OBS
   R24   305   305   305   305   305   305   305   305   305PRN / # OF OBS
         305   305   305   305   305   305   305            PRN / # OF OBS
G L1C                                                       SYS / PHASE SHIFT
G L1W -0.25000                                              SYS / PHASE SHIFT
G L2W  0.00000                                              SYS / PHASE SHIFT
G L2X  0.00000  01 G03                                      SYS / PHASE SHIFT
G L2X  0.25000  06 G04 G08 G14 G17 G27 G32                  SYS / PHASE SHIFT
R L1C                                                       SYS / PHASE SHIFT
R L1P -0.25000                                              SYS / PHASE SHIFT
R L2P -0.25000                                              SYS / PHASE SHIFT
R L2C                                                       SYS / PHASE SHIFT
  9 R01  1 R02 -4 R03  5 R14 -7 R15  0 R16 -1 R17  4 R18 -3 GLONASS SLOT / FRQ #
    R24  2                                                  GLONASS SLOT / FRQ #
                                                            GLONASS COD/PHS/BIS
    18    18  1929     7GPS                                 LEAP SECONDS
                                                            END OF HEADER
> 2024 05 03 15 47 15.0000000  0 19
G03  20347519.040   106926922.529 8      3973.031          48.687    20347518.280   106926922.531 7      3973.031          42.500    20347523.400    83319689.028 7      3095.868          42.500    20347523.940    83319689.028 8      3095.868          52.937
G02  21697373.580   114020468.381 7      2201.680          47.812    21697372.180   114020468.386 6      2201.680          39.812    21697373.100    88847118.490 6      1715.595          39.375
R16  22972790.380   122716521.655 7      3552.538          43.125    22972788.740   122716521.659 7      3552.538          43.875    22972799.420    95446226.052 7      2763.085          44.812    22972799.400    95446227.056 7      2763.085          45.750
R03  22217399.180   118931490.649 7      6859.984          43.937    22217399.020   118931490.674 7      6859.984          42.812    22217414.680    92502340.081 7      5335.543          46.250    22217414.560    92502340.083 7      5335.543          46.625
R02  20080769.440   107154869.249 8      4099.958          50.562    20080769.140   107154869.250 8      4099.958          49.000    20080777.060    83342727.274 8      3188.856          49.437    20080777.600    83342722.278 8      3188.856          49.812
G21  22000936.000   115615689.557 7      1387.578          47.437    22000934.680   115615689.565 6      1387.578          39.125    22000937.400    90090165.344 6      1081.229          39.125
G08  21584123.840   113425323.909 7       797.972          47.000    21584122.580   113425323.914 7       797.972          47.125    21584129.460    88383411.168 7       621.796          47.250    21584130.460    88383387.170 8       621.796          49.375
G14  22372141.440   117566411.308 7      3847.240          45.437    22372141.240   117566411.315 5      3847.240          34.187    22372144.060    91610191.911 5      2997.849          34.375    22372144.840    91610200.916 7      2997.849          47.937
R24  21835978.380   116766785.260 7      1506.448          42.687    21835978.160   116766785.283 7      1506.448          43.000    21835989.460    90818647.144 8      1171.681          48.562    21835988.980    90818646.142 8      1171.681          48.812
R18  22973050.720   122631703.472 6      4712.342          40.750    22973049.400   122631703.457 6      4712.342          40.437    22973057.060    95380259.514 6      3665.155          41.562    22973058.200    95380256.515 6      3665.155          41.687
R01  21613936.540   115538874.226 7       231.450          43.750    21613936.420   115538874.238 7       231.450          42.312    21613946.700    89863612.626 7       180.017          42.375    21613945.660    89863608.619 7       180.017          43.187
R14  23543372.900   125499406.813 6     -1076.201          41.750    23543371.680   125499406.821 6     -1076.201          41.250    23543395.120    97610729.053 7      -837.045          46.375    23543395.560    97610732.054 7      -837.045          46.250
R17  20811852.720   111368432.630 7      3568.083          45.500    20811853.060   111368432.640 7      3568.083          45.750    20811861.880    86619925.646 8      2775.176          50.375    20811861.380    86619925.642 8      2775.176          49.812
G22  24237642.600   127369669.859 6      4870.992          38.875    24237639.920   127369669.861 4      4870.992          27.625    24237645.680    99249105.800 4      3795.578          26.437
G04  24275374.180   127567960.448 6      5664.825          37.687    24275372.800   127567960.461 3      5664.825          23.500    24275390.300    99403667.177 3      4414.149          23.062    24275390.780    99403682.228 7      4414.149          44.437
G27  24453390.960   128503431.435 6      -306.040          39.812    24453389.880   128503431.435 5      -306.040          35.062    24453405.380   100132595.059 5      -238.472          35.062    24453406.500   100132600.044 6      -238.472          40.750
R15  21870584.720   116869770.583 7       454.957          44.875    21870583.280   116869770.576 7       454.957          43.750    21870595.880    90898750.047 8       353.856          49.250    21870595.200    90898756.049 8       353.856          49.562
G17  24329690.000   127853393.362 7      5505.973          44.937    24329688.880   127853393.364 5      5505.973          31.625    24329693.200    99626026.141 5      4290.369          31.812    24329693.300    99626029.141 7      4290.369          43.062
G32  25348804.860   133208870.685 5      1147.770          35.312    25348803.700   133208870.685 5      1147.770          33.187    25348813.280   103799150.545 5       894.366          32.500    25348813.920   103799160.535 7       894.366          44.687
> 2024 05 03 15 47 16.0000000  0 19
G03  20346763.260   106922949.848 8      3972.555          48.875    20346762.400   106922949.848 7      3972.555          42.562    20346767.380    83316594.235 7      3095.497          42.562    20346767.940    83316594.235 8      3095.497          52.062
G02  21696954.760   114018266.543 8      2201.896          48.125    21696953.180   114018266.547 6      2201.896          39.437    21696954.240    88845402.765 6      1715.763          39.375
R16  22972125.040   122712969.243 7      3552.343          44.375    22972123.340   122712969.239 7      3552.343          43.937    22972134.260    95443463.058 7      2762.933          45.062    22972134.280    95443464.060 7      2762.933          44.875
R03  22216117.560   118924630.962 7      6859.660          43.687    22216117.380   118924630.985 7      6859.660          42.812    22216133.060    92497004.780 7      5335.291          46.562    22216133.060    92497004.780 7      5335.291          46.375
R02  20080001.280   107150769.725 8      4099.010          50.937    20080001.020   107150769.728 8      4099.010          49.187    20080008.840    83339538.762 8      3188.119          50.437    20080009.400    83339533.768 8      3188.119          51.250
G21  22000672.060   115614301.915 7      1387.660          47.875    22000670.680   115614301.923 6      1387.660          38.875    22000673.360    90089084.062 6      1081.294          38.937
G08  21583971.980   113424526.171 7       797.505          46.812    21583970.900   113424526.171 7       797.505          47.750    21583977.520    88382789.544 8       621.432          48.125    21583979.040    88382765.544 8       621.432          49.562
G14  22371409.300   117562564.241 7      3847.142          45.250    22371409.040   117562564.248 5      3847.142          34.187    22371412.200    91607194.191 5      2997.773          34.375    22371412.800    91607203.189 7      2997.773          47.937
R24  21835696.800   116765278.796 7      1506.289          43.875    21835696.880   116765278.821 7      1506.289          42.687    21835707.640    90817475.449 8      1171.558          48.312    21835707.460    90817474.449 8      1171.558          48.187
R18  22972167.760   122626990.981 6      4712.794          40.125    22972166.080   122626990.973 6      4712.794          40.437    22972174.880    95376594.266 7      3665.506          42.062    22972175.560    95376591.271 6      3665.506          41.937
R01  21613893.000   115538642.917 7       230.872          42.937    21613893.180   115538642.940 7       230.872          42.312    21613903.460    89863432.724 7       179.567          42.250    21613902.320    89863428.716 7       179.567          42.812
R14  23543574.360   125500483.392 6     -1076.422          41.750    23543573.300   125500483.398 6     -1076.422          41.250    23543597.060    97611566.363 7      -837.217          46.375    23543597.360    97611569.364 7      -837.217          47.000
R17  20811185.940   111364864.334 7      3568.400          46.562    20811185.860   111364864.349 7      3568.400          45.312    20811194.820    86617150.306 8      2775.422          49.312    20811194.460    86617150.302 8      2775.422          49.812
G22  24236715.660   127364798.900 6      4870.988          39.500    24236713.300   127364798.900 4      4870.988          26.750    24236718.660    99245310.252 4      3795.575          26.437
G04  24274296.320   127562295.827 6      5664.763          37.625    24274294.920   127562295.840 3      5664.763          23.500    24274312.400    99399253.205 3      4414.101          23.062    24274312.940    99399268.270 7      4414.101          44.750
G27  24453449.400   128503737.578 6      -306.321          40.000    24453448.240   128503737.580 5      -306.321          35.062    24453463.840   100132833.599 5      -238.692          35.062    24453464.440   100132838.591 6      -238.692          41.062
R15  21870499.160   116869316.014 7       454.529          44.937    21870498.660   116869316.010 7       454.529          44.125    21870510.540    90898396.487 8       353.522          48.937    21870509.880    90898402.485 8       353.522          49.125
G17  24328642.020   127847887.156 7      5506.513          44.125    24328641.200   127847887.159 5      5506.513          31.625    24328645.280    99621735.583 5      4290.789          31.812    24328645.000    99621738.581 7      4290.789          42.937
G32  25348586.040   133207723.293 5      1147.078          35.312    25348585.240   133207723.295 5      1147.078          33.187    25348595.140   103798256.469 5       893.827          32.500    25348595.820   103798266.461 7       893.827          44.437
> 2024 05 03 15 47 17.0000000  0 19
G03  20346007.240   106918977.751 8      3971.598          48.375    20346006.500   106918977.755 7      3971.598          42.875    20346011.600    83313498.460 7      3094.752          42.187    20346012.360    83313498.460 8      3094.752          52.687
G02  21696535.720   114016064.769 7      2201.636          47.500    21696534.360   114016064.774 6      2201.636          40.312    21696535.300    88843687.097 6      1715.561          39.750
R16  22971460.660   122709417.552 7      3551.179          44.000    22971458.260   122709417.540 7      3551.179          44.312    22971469.100    95440700.632 7      2762.028          44.937    22971469.480    95440701.638 7      2762.028          44.875
R03  22214836.100   118917771.520 7      6859.120          43.937    22214835.860   118917771.540 7      6859.120          42.375    22214851.620    92491669.668 7      5334.871          47.187    22214851.720    92491669.670 7      5334.871          46.875
R02  20079233.020   107146671.100 8      4098.042          51.000    20079232.760   107146671.098 8      4098.042          49.687    20079240.720    83336350.943 8      3187.366          50.750    20079241.140    83336345.947 8      3187.366          50.625
G21  22000407.780   115612914.318 7      1387.500          47.875    22000406.680   115612914.328 6      1387.500          39.062    22000409.260    90088002.815 6      1081.169          39.125
G08  21583820.520   113423728.885 7       796.977          47.250    21583819.040   113423728.882 7       796.977          47.437    21583825.900    88382168.276 7       621.021          47.812    21583827.120    88382144.274 8       621.021          48.937
G14  22370677.680   117558717.710 7      3846.072          45.625    22370677.000   117558717.720 5      3846.072          34.500    22370680.040    91604196.894 5      2996.939          34.375    22370680.780    91604205.901 7      2996.939          47.875
R24  21835415.360   116763772.553 7      1506.100          44.500    21835415.080   116763772.584 7      1506.100          43.812    21835426.000    90816303.931 8      1171.411          48.750    21835425.440    90816302.931 8      1171.411          49.000
R18  22971284.620   122622278.345 6      4712.555          40.125    22971283.120   122622278.335 6      4712.555          41.000    22971292.340    95372928.884 7      3665.321          42.562    22971292.740    95372925.888 6      3665.321          41.937
R01  21613850.160   115538412.400 7       230.038          44.625    21613850.040   115538412.426 7       230.038          42.875    21613860.300    89863253.437 7       178.918          42.375    21613859.440    89863249.427 7       178.918          43.312
R14  23543775.940   125501559.835 6     -1076.674          41.750    23543775.160   125501559.836 6     -1076.674          40.500    23543799.020    97612403.566 7      -837.413          47.062    23543799.420    97612406.571 7      -837.413          46.500
R17  20810519.120   111361296.142 7      3568.073          46.125    20810518.960   111361296.157 7      3568.073          45.562    20810528.160    86614375.045 8      2775.168          50.125    20810527.720    86614375.046 8      2775.168          50.812
G22  24235788.520   127359928.250 6      4870.301          40.687    24235786.900   127359928.249 4      4870.301          26.750    24235791.680    99241514.942 4      3795.040          26.437
G04  24273217.660   127556631.164 6      5664.624          38.687    24273217.060   127556631.177 3      5664.624          23.500    24273234.440    99394839.197 4      4413.993          24.500    24273235.160    99394854.247 7      4413.993          44.812
G27  24453507.900   128504044.059 6      -306.856          39.937    24453506.520   128504044.062 5      -306.856          35.062    24453522.000   100133072.403 5      -239.109          35.125    24453523.060   100133077.395 6      -239.109          41.062
R15  21870414.560   116868861.880 7       453.706          44.750    21870413.380   116868861.870 7       453.706          43.937    21870425.740    90898043.261 8       352.883          48.875    21870424.880    90898049.259 8       352.883          49.625
G17  24327594.080   127842380.838 7      5506.164          45.187    24327593.540   127842380.838 5      5506.164          32.187    24327597.340    99617444.946 5      4290.518          31.812    24327597.520    99617447.943 7      4290.518          43.000
G32  25348367.840   133206576.415 5      1146.549          35.500    25348366.880   133206576.410 5      1146.549          33.062    25348376.980   103797362.791 5       893.415          32.500    25348377.500   103797372.786 7       893.415          44.687
> 2024 05 03 15 47 18.0000000  0 19
G03  20345251.360   106915006.321 8      3971.261          48.750    20345250.740   106915006.323 7      3971.261          42.687    20345255.820    83310403.257 7      3094.489          42.562    20345256.440    83310403.257 8      3094.489          52.562
G02  21696116.840   114013863.080 7      2201.575          47.062    21696115.360   114013863.083 6      2201.575          40.062    21696116.140    88841971.494 6      1715.513          39.625
R16  22970795.820   122705866.745 7      3550.466          44.000    22970793.420   122705866.736 7      3550.466          43.875    22970804.240    95437938.903 7      2761.474          45.000    22970804.840    95437939.910 7      2761.474          44.937
R03  22213554.960   118910912.324 7      6859.261          43.937    22213554.640   118910912.341 7      6859.261          42.375    22213570.500    92486334.744 7      5334.981          46.562    22213570.400    92486334.746 7      5334.981          46.500
R02  20078465.200   107142573.284 8      4097.404          50.812    20078464.860   107142573.285 8      4097.404          49.812    20078472.680    83333163.758 8      3186.870          50.750    20078473.020    83333158.760 8      3186.870          51.125
G21  22000143.660   115611526.750 7      1387.523          47.562    22000142.760   115611526.754 6      1387.523          38.687    22000145.300    90086921.593 6      1081.187          39.312
G08  21583668.880   113422932.001 7       796.701          47.250    21583667.360   113422932.003 7       796.701          47.437    21583674.260    88381547.327 7       620.806          47.312    21583675.260    88381523.327 8       620.806          49.937
G14  22369945.920   117554871.881 7      3845.641          45.250    22369945.140   117554871.891 5      3845.641          34.375    22369948.300    91601200.141 5      2996.603          34.437    22369949.000    91601209.142 8      2996.603          48.000
R24  21835133.260   116762266.476 7      1505.906          43.937    21835133.380   116762266.515 7      1505.906          43.812    21835144.460    90815132.546 8      1171.261          48.437    21835144.080    90815131.548 8      1171.261          49.312
R18  22970402.080   122617565.722 6      4712.882          40.437    22970399.560   122617565.696 6      4712.882          41.000    22970409.480    95369263.517 7      3665.575          42.437    22970409.800    95369260.521 7      3665.575          42.625
R01  21613806.740   115538182.575 7       229.329          44.000    21613806.960   115538182.593 7       229.329          43.500    21613817.380    89863074.690 7       178.367          42.937    21613816.520    89863070.681 7       178.367          42.875
R14  23543977.920   125502636.313 6     -1076.053          41.312    23543977.640   125502636.305 6     -1076.053          40.500    23544000.760    97613240.785 7      -836.930          46.687    23544001.600    97613243.792 7      -836.930          46.500
R17  20809852.440   111357728.078 7      3567.993          45.500    20809851.980   111357728.087 7      3567.993          45.812    20809861.380    86611599.883 8      2775.105          50.000    20809860.860    86611599.883 8      2775.105          50.375
G22  24234861.820   127355058.106 6      4869.884          40.375    24234860.460   127355058.106 4      4869.884          26.750    24234864.900    99237720.029 4      3794.715          26.437
G04  24272139.560   127550966.470 6      5664.837          38.062    24272138.920   127550966.480 3      5664.837          23.500    24272156.480    99390425.163 4      4414.159          24.500    24272156.860    99390440.220 7      4414.159          44.562
G27  24453566.400   128504350.701 6      -306.750          39.812    24453564.860   128504350.709 5      -306.750          35.750    24453580.420   100133311.329 5      -239.026          35.750    24453581.180   100133316.327 6      -239.026          41.125
R15  21870329.660   116868408.448 7       453.281          44.750    21870328.440   116868408.441 7       453.281          43.937    21870340.900    90897690.578 8       352.552          49.750    21870340.220    90897696.576 8       352.552          48.812
G17  24326546.680   127836874.560 7      5506.393          44.937    24326545.880   127836874.562 5      5506.393          32.187    24326549.620    99613154.337 5      4290.696          32.437    24326550.220    99613157.326 7      4290.696          43.000
G32  25348150.100   133205429.993 5      1146.025          35.500    25348148.640   133205429.979 5      1146.025          33.062    25348158.700   103796469.466 5       893.006          32.500    25348158.960   103796479.462 7       893.006          44.562
> 2024 05 03 15 47 19.0000000  0 19
G03  20344495.780   106911035.579 8      3970.262          49.625    20344494.960   106911035.579 7      3970.262          43.500    20344500.240    83307309.284 7      3093.711          43.437    20344500.660    83307309.284 8      3093.711          52.437
G02  21695697.980   114011661.578 7      2201.377          46.812    21695696.400   114011661.583 6      2201.377          40.062    21695697.220    88840256.035 6      1715.359          40.000
R16  22970131.180   122702316.788 7      3549.399          44.500    22970129.040   122702316.778 7      3549.399          43.687    22970139.600    95435177.830 7      2760.644          44.625    22970140.080    95435178.834 7      2760.644          44.562
R03  22212273.640   118904053.440 7      6858.573          44.062    22212273.520   118904053.461 7      6858.573          42.562    22212289.200    92481000.076 7      5334.446          46.937    22212289.040    92481000.074 7      5334.446          47.000
R02  20077697.180   107138476.468 8      4096.262          51.125    20077697.100   107138476.464 8      4096.262          49.500    20077704.880    83329977.346 8      3185.981          50.062    20077705.320    83329972.346 8      3185.981          50.625
G21  21999879.820   115610139.365 8      1387.309          48.375    21999878.580   115610139.373 6      1387.309          39.375    21999881.200    90085840.514 6      1081.020          39.562
G08  21583517.400   113422135.687 7       795.970          47.812    21583515.740   113422135.694 8       795.970          48.250    21583522.740    88380926.823 8       620.237          48.437    21583523.840    88380902.821 8       620.237          49.125
G14  22369214.100   117551026.700 7      3844.692          45.500    22369213.500   117551026.710 5      3844.692          34.375    22369216.500    91598203.895 5      2995.864          34.437    22369217.060    91598212.898 7      2995.864          47.625
R24  21834851.680   116760760.821 7      1505.578          44.562    21834852.000   116760760.849 7      1505.578          44.000    21834862.900    90813961.469 8      1171.005          48.625    21834862.580    90813960.467 8      1171.005          49.000
R18  22969518.960   122612853.105 6      4712.500          40.437    22969516.700   122612853.093 6      4712.500          41.000    22969526.880    95365598.159 7      3665.278          42.812    22969526.860    95365595.160 7      3665.278          42.000
R01  21613763.960   115537953.681 7       228.572          44.500    21613763.700   115537953.692 7       228.572          43.062    21613774.660    89862896.657 7       177.778          42.937    21613773.520    89862892.647 7       177.778          43.437
R14  23544179.700   125503712.788 6     -1076.773          41.312    23544179.800   125503712.786 6     -1076.773          40.812    23544202.560    97614078.029 7      -837.490          46.500    23544203.340    97614081.036 7      -837.490          46.750
R17  20809185.560   111354160.169 7      3567.834          46.125    20809185.220   111354160.184 7      3567.834          45.937    20809194.680    86608824.847 8      2774.982          50.000    20809194.220    86608824.845 8      2774.982          50.562
G22  24233935.060   127350188.423 6      4869.217          39.937    24233933.820   127350188.425 4      4869.217          26.750    24233938.020    99233925.472 4      3794.195          26.875
G04  24271061.520   127545301.778 6      5664.454          38.250    24271060.920   127545301.791 4      5664.454          24.562    24271078.520    99386011.134 4      4413.860          24.500    24271079.220    99386026.181 7      4413.860          44.625
G27  24453624.260   128504657.763 6      -307.404          39.437    24453623.180   128504657.766 5      -307.404          35.437    24453638.740   100133550.578 5      -239.535          35.500    24453639.540   100133555.571 6      -239.535          41.125
R15  21870244.800   116867955.535 7       452.450          45.375    21870243.820   116867955.526 7       452.450          44.562    21870256.120    90897338.306 8       351.906          48.812    21870255.500    90897344.304 8       351.906          49.375
G17  24325498.860   127831368.320 7      5506.105          45.125    24325498.200   127831368.322 5      5506.105          32.937    24325501.660    99608863.757 5      4290.472          32.437    24325502.340    99608866.748 7      4290.472          43.187
G32  25347932.060   133204284.285 5      1145.299          35.625    25347930.660   133204284.276 5      1145.299          33.062    25347940.720   103795576.711 5       892.441          32.750    25347941.440   103795586.706 7       892.441          44.687
> 2024 05 03 15 47 20.0000000  0 19
G03  20343740.160   106907065.526 8      3969.995          48.312    20343739.580   106907065.528 7      3969.995          43.062    20343744.700    83304215.146 7      3093.503          42.687    20343745.420    83304215.146 8      3093.503          52.062
G02  21695279.060   114009460.259 7      2201.500          47.625    21695277.420   114009460.264 6      2201.500          39.875    21695278.360    88838540.722 6      1715.455          39.812
R16  22969466.660   122698767.786 7      3548.889          44.062    22969464.580   122698767.758 7      3548.889          43.937    22969475.060    95432417.485 7      2760.247          45.125    22969475.660    95432418.485 7      2760.247          44.937
R03  22210991.840   118897194.822 7      6858.767          43.875    22210992.220   118897194.840 7      6858.767          42.562    22211007.840    92475665.609 7      5334.596          46.812    22211007.880    92475665.610 7      5334.596          46.937
R02  20076929.960   107134380.576 8      4095.619          50.937    20076929.540   107134380.574 8      4095.619          49.750    20076937.300    83326791.652 8      3185.481          50.250    20076937.760    83326786.654 8      3185.481          50.125
G21  21999615.720   115608752.112 8      1387.424          48.250    21999614.720   115608752.117 6      1387.424          39.250    21999617.220    90084759.534 6      1081.109          39.437
G08  21583365.900   113421339.833 7       795.820          46.937    21583364.280   113421339.840 7       795.820          47.437    21583371.260    88380306.672 7       620.120          47.687    21583372.280    88380282.673 8       620.120          49.500
G14  22368482.540   117547182.279 7      3844.314          45.250    22368481.940   117547182.289 5      3844.314          34.687    22368484.840    91595208.242 5      2995.570          34.562    22368485.540    91595217.245 7      2995.570          47.437
R24  21834570.240   116759255.372 7      1505.527          44.687    21834570.840   116759255.395 7      1505.527          44.000    21834581.280    90812790.558 8      1170.965          48.812    21834580.820    90812789.558 8      1170.965          49.250
R18  22968636.120   122608140.568 6      4712.904          40.687    22968634.640   122608140.550 6      4712.904          40.187    22968644.140    95361932.852 7      3665.592          42.937    22968644.440    95361929.860 7      3665.592          42.812
R01  21613721.260   115537725.638 7       227.801          44.625    21613721.220   115537725.648 7       227.801          43.062    21613731.940    89862719.293 7       177.178          42.875    21613730.800    89862715.287 7       177.178          43.625
R14  23544381.940   125504789.207 6     -1076.091          41.625    23544382.080   125504789.197 6     -1076.091          40.812    23544404.600    97614915.212 7      -836.960          46.250    23544405.020    97614918.217 7      -836.960          46.312
R17  20808519.380   111350592.461 7      3567.829          45.812    20808518.440   111350592.474 7      3567.829          45.625    20808528.020    86606049.967 8      2774.978          49.937    20808527.300    86606049.963 8      2774.978          50.437
G22  24233008.260   127345319.288 6      4869.153          39.812    24233007.180   127345319.296 4      4869.153          26.750    24233011.240    99230131.345 4      3794.145          26.875
G04  24269983.720   127539637.049 6      5664.862          38.250    24269982.980   127539637.057 4      5664.862          24.562    24270000.520    99381597.074 4      4414.178          24.500    24270001.420    99381612.123 7      4414.178          44.500
G27  24453682.720   128504965.044 6      -307.223          39.750    24453681.660   128504965.046 5      -307.223          35.437    24453697.360   100133789.996 5      -239.395          35.500    24453697.860   100133794.992 6      -239.395          41.312
R15  21870159.900   116867503.333 7       452.114          45.062    21870159.120   116867503.337 7       452.114          44.312    21870171.180    90896986.595 8       351.645          48.562    21870171.000    90896992.595 8       351.645          49.437
G17  24324451.120   127825862.165 7      5506.468          44.875    24324450.480   127825862.165 5      5506.468          32.937    24324453.900    99604573.240 5      4290.754          33.000    24324454.560    99604576.229 7      4290.754          43.562
G32  25347713.700   133203139.139 5      1144.902          35.625    25347712.740   133203139.133 5      1144.902          33.062    25347722.740   103794684.389 5       892.131          32.750    25347723.260   103794694.393 7       892.131          45.062
> 2024 05 03 15 47 21.0000000  0 19
G03  20342984.860   106903095.959 8      3969.390          48.187    20342984.120   106903095.961 7      3969.390          42.875    20342989.280    83301122.319 7      3093.031          42.625    20342989.920    83301122.319 8      3093.031          52.437
G02  21694860.040   114007258.893 7      2201.283          46.312    21694858.560   114007258.901 6      2201.283          40.062    21694859.300    88836825.374 6      1715.286          39.687
R16  22968802.760   122695219.413 7      3547.912          44.562    22968800.460   122695219.395 7      3547.912          44.250    22968810.720    95429657.647 7      2759.487          44.125    22968811.300    95429658.647 7      2759.487          44.625
R03  22209711.020   118890336.303 7      6858.521          43.375    22209711.140   118890336.331 7      6858.521          42.500    22209726.680    92470331.226 7      5334.405          46.312    22209726.760    92470331.229 7      5334.405          46.062
R02  20076162.540   107130285.401 8      4094.834          50.375    20076162.140   107130285.393 8      4094.834          49.187    20076169.760    83323606.518 8      3184.871          49.750    20076170.180    83323601.518 8      3184.871          49.750
G21  21999351.920   115607364.751 7      1387.309          47.312    21999350.760   115607364.761 6      1387.309          39.062    21999353.220    90083678.475 6      1081.020          39.750
G08  21583214.480   113420544.255 7       795.471          46.250    21583212.960   113420544.259 7       795.471          47.187    21583219.940    88379686.735 7       619.848          47.250    21583220.920    88379662.736 8       619.848          49.562
G14  22367751.200   117543338.344 7      3843.600          44.937    22367750.260   117543338.354 5      3843.600          34.625    22367753.420    91592212.966 5      2995.013          34.562    22367753.840    91592221.963 7      2995.013          47.562
R24  21834288.360   116757749.926 7      1505.311          44.125    21834289.120   116757749.952 7      1505.311          44.000    21834299.860    90811619.656 8      1170.798          48.250    21834299.640    90811618.654 8      1170.798          48.750
R18  22967753.260   122603427.839 6      4712.828          40.687    22967751.720   122603427.813 6      4712.828          40.187    22967761.820    95358267.394 7      3665.533          42.875    22967761.980    95358264.400 7      3665.533          43.125
R01  21613678.400   115537498.206 7       227.045          44.625    21613678.680   115537498.194 7       227.045          42.625    21613689.440    89862542.380 7       176.591          42.875    21613688.600    89862538.372 7       176.591          43.375
R14  23544583.740   125505865.418 7     -1076.100          42.125    23544583.440   125505865.419 6     -1076.100          40.812    23544606.600    97615752.251 7      -836.966          46.312    23544606.880    97615755.258 7      -836.966          46.312
R17  20807852.180   111347024.662 7      3567.689          46.000    20807851.420   111347024.683 7      3567.689          45.125    20807861.060    86603275.014 8      2774.870          49.562    20807860.700    86603275.011 8      2774.870          49.437
G22  24232081.820   127340450.432 6      4868.639          39.312    24232080.400   127340450.439 4      4868.639          26.750    24232084.500    99226337.436 4      3793.744          26.875
G04  24268906.020   127533972.084 6      5665.130          38.375    24268904.960   127533972.092 4      5665.130          24.562    24268922.540    99377182.832 4      4414.387          24.500    24268923.520    99377197.883 7      4414.387          44.500
G27  24453741.740   128505272.421 6      -307.487          38.937    24453740.240   128505272.429 5      -307.487          35.875    24453755.860   100134029.501 5      -239.600          35.625    24453756.560   100134034.493 6      -239.600          41.625
R15  21870076.100   116867051.563 7       451.573          44.437    21870074.320   116867051.562 7       451.573          43.687    21870086.620    90896635.208 8       351.223          48.500    21870086.060    90896641.206 8       351.223          49.062
G17  24323403.180   127820355.855 7      5506.335          44.625    24323402.660   127820355.854 5      5506.335          32.937    24323406.040    99600282.609 5      4290.651          33.000    24323406.900    99600285.602 7      4290.651          43.500
G32  25347495.620   133201994.316 5      1144.548          35.625    25347494.920   133201994.324 5      1144.548          33.500    25347504.840   103793792.324 5       891.856          33.062    25347505.560   103793802.332 7       891.856          44.562
> 2024 05 03 15 47 22.0000000  0 19
G03  20342229.680   106899126.865 8      3968.751          48.562    20342228.900   106899126.869 7      3968.751          43.187    20342233.920    83298029.983 7      3092.533          42.812    20342234.440    83298029.983 8      3092.533          52.312
G02  21694440.900   114005057.433 7      2201.363          47.750    21694439.660   114005057.438 6      2201.363          39.750    21694440.380    88835109.948 6      1715.348          39.812
R16  22968138.100   122691671.699 7      3547.257          44.312    22968136.040   122691671.673 7      3547.257          44.312    22968146.200    95426898.312 7      2758.978          44.375    22968146.960    95426899.312 7      2758.978          45.000
R03  22208429.960   118883477.864 7      6858.275          43.375    22208429.540   118883477.887 7      6858.275          42.250    22208445.400    92464996.898 7      5334.214          46.812    22208445.400    92464996.898 7      5334.214          46.812
R02  20075395.320   107126190.909 8      4094.035          51.000    20075394.820   107126190.907 8      4094.035          49.625    20075402.440    83320421.917 8      3184.250          50.500    20075403.080    83320416.917 8      3184.250          50.812
G21  21999087.920   115605977.267 7      1387.403          47.937    21999086.720   115605977.277 6      1387.403          39.625    21999089.160    90082597.316 6      1081.093          39.500
G08  21583063.060   113419748.931 7       795.095          47.500    21583061.620   113419748.939 7       795.095          47.750    21583068.480    88379067.003 7       619.554          47.437    21583069.340    88379043.003 8       619.554          49.562
G14  22367019.880   117539494.877 7      3843.023          44.562    22367018.880   117539494.887 5      3843.023          34.625    22367022.080    91589218.055 5      2994.564          34.500    22367022.500    91589227.045 7      2994.564          47.687
R24  21834006.660   116756244.478 7      1505.219          44.375    21834007.520   116756244.500 7      1505.219          43.812    21834018.280    90810448.745 8      1170.726          48.437    21834018.040    90810447.747 8      1170.726          48.937
R18  22966870.320   122598714.917 6      4712.887          40.437    22966868.740   122598714.891 6      4712.887          40.625    22966878.660    95354601.787 7      3665.579          43.250    22966879.100    95354598.794 7      3665.579          43.375
R01  21613636.340   115537271.318 7       226.521          44.000    21613635.920   115537271.322 7       226.521          42.875    21613647.100    89862365.922 7       176.183          42.750    21613646.260    89862361.915 7       176.183          43.687
R14  23544785.760   125506941.401 7     -1075.881          42.125    23544785.920   125506941.398 6     -1075.881          40.500    23544808.340    97616589.099 7      -836.796          46.437    23544808.720    97616592.104 7      -836.796          46.687
R17  20807185.420   111343456.834 7      3567.734          46.062    20807184.780   111343456.852 7      3567.734          46.187    20807194.420    86600500.035 8      2774.904          50.375    20807193.800    86600500.033 8      2774.904          50.000
G22  24231154.860   127335581.875 6      4868.257          39.312    24231153.760   127335581.883 4      4868.257          26.750    24231158.020    99222543.763 4      3793.447          26.875
G04  24267827.780   127528306.907 6      5665.249          37.687    24267826.740   127528306.914 4      5665.249          24.562    24267844.460    99372768.424 4      4414.480          24.500    24267844.540    99372783.481 7      4414.480          44.562
G27  24453800.500   128505579.822 6      -307.420          38.875    24453798.860   128505579.825 5      -307.420          35.875    24453814.420   100134269.014 5      -239.548          35.875    24453815.440   100134274.010 6      -239.548          41.625
R15  21869990.940   116866600.224 7       451.024          44.562    21869990.320   116866600.228 7       451.024          43.937    21870001.980    90896284.156 8       350.796          48.875    21870001.920    90896290.158 8       350.796          49.000
G17  24322355.280   127814849.366 7      5506.414          45.000    24322354.840   127814849.365 5      5506.414          33.312    24322358.320    99595991.834 5      4290.712          33.312    24322358.920    99595994.830 7      4290.712          43.437
G32  25347278.400   133200849.917 5      1144.093          35.312    25347277.160   133200849.919 5      1144.093          33.500    25347286.940   103792900.582 5       891.501          33.062    25347287.940   103792910.575 7       891.501          44.687
> 2024 05 03 15 47 23.0000000  0 19
G03  20341474.320   106895158.459 8      3968.265          48.750    20341473.780   106895158.458 7      3968.265          43.000    20341478.740    83294936.910 7      3092.155          42.750    20341479.340    83294936.910 8      3092.155          52.687
G02  21694022.140   114002856.159 8      2201.338          48.000    21694020.900   114002856.164 6      2201.338          39.750    21694021.560    88833394.668 6      1715.328          39.625
R16  22967474.600   122688124.949 7      3546.599          44.375    22967472.440   122688124.926 7      3546.599          44.375    22967482.200    95424139.724 7      2758.466          44.062    22967483.160    95424140.726 7      2758.466          44.500
R03  22207148.880   118876619.733 7      6857.986          43.750    22207148.320   118876619.753 7      6857.986          42.250    22207164.440    92459662.810 7      5333.989          46.687    22207164.280    92459662.812 7      5333.989          46.937
R02  20074628.380   107122097.321 8      4093.193          50.312    20074627.720   107122097.317 8      4093.193          49.687    20074635.440    83317238.016 8      3183.594          50.062    20074635.700    83317233.018 8      3183.594          50.750
G21  21998823.940   115604589.906 8      1387.449          48.625    21998822.720   115604589.916 6      1387.449          39.875    21998825.220    90081516.256 6      1081.129          39.312
G08  21582911.860   113418954.070 7       794.703          47.750    21582910.560   113418954.078 7       794.703          47.750    21582917.140    88378447.627 8       619.249          48.062    21582917.940    88378423.629 8       619.249          49.500
G14  22366288.200   117535652.174 7      3842.497          45.625    22366287.800   117535652.190 5      3842.497          34.312    22366290.820    91586223.743 5      2994.153          34.437    22366292.020    91586232.739 7      2994.153          47.750
R24  21833725.160   116754739.270 7      1505.176          44.875    21833726.680   116754739.298 7      1505.176          44.250    21833736.560    90809278.034 8      1170.692          48.687    21833736.380    90809277.032 8      1170.692          48.625
R18  22965987.560   122594002.065 6      4713.079          40.437    22965986.160   122594002.042 6      4713.079          40.625    22965996.340    95350936.243 7      3665.728          43.187    22965996.260    95350933.251 7      3665.728          43.500
R01  21613593.520   115537045.286 7       225.851          43.875    21613593.440   115537045.287 7       225.851          42.875    21613604.760    89862190.117 7       175.662          42.750    21613603.680    89862186.110 7       175.662          43.500
R14  23544987.520   125508017.441 6     -1075.894          41.812    23544987.180   125508017.436 6     -1075.894          40.500    23545010.100    97617425.993 7      -836.807          46.937    23545010.540    97617428.996 7      -836.807          46.937
R17  20806518.760   111339889.255 7      3567.678          46.625    20806518.220   111339889.267 7      3567.678          45.687    20806527.560    86597725.240 8      2774.860          50.250    20806527.220    86597725.239 8      2774.860          50.125
G22  24230229.060   127330713.915 6      4867.695          38.312    24230226.900   127330713.933 4      4867.695          26.687    24230231.620    99218750.548 4      3793.009          26.875
G04  24266749.840   127522641.673 6      5665.369          37.687    24266748.560   127522641.681 4      5665.369          24.562    24266766.340    99368353.975 4      4414.573          24.500    24266766.780    99368369.028 7      4414.573          44.750
G27  24453859.160   128505887.500 6      -307.820          39.437    24453857.380   128505887.507 5      -307.820          35.812    24453873.000   100134508.752 5      -239.860          35.562    24453874.160   100134513.748 6      -239.860          41.312
R15  21869907.040   116866149.590 7       450.518          45.562    21869906.100   116866149.589 7       450.518          44.500    21869917.440    90895933.661 8       350.403          48.125    21869917.060    90895939.661 8       350.403          48.500
G17  24321307.740   127809343.000 7      5506.539          45.187    24321306.920   127809342.997 5      5506.539          33.312    24321310.500    99591701.155 5      4290.810          33.312    24321310.920    99591704.151 7      4290.810          43.687
G32  25347060.960   133199706.058 5      1143.646          35.312    25347059.520   133199706.061 5      1143.646          33.375    25347069.340   103792009.261 5       891.153          32.750    25347070.020   103792019.257 7       891.153          44.750
> 2024 05 03 15 47 24.0000000  0 19
G03  20340719.340   106891190.757 8      3967.296          48.875    20340718.680   106891190.760 7      3967.296          43.125    20340723.660    83291845.393 7      3091.399          42.687    20340724.400    83291845.393 8      3091.399          52.875
G02  21693603.500   114000654.982 8      2201.263          48.750    21693602.020   114000654.990 6      2201.263          40.500    21693602.820    88831679.471 6      1715.270          39.875
R16  22966811.200   122684579.022 7      3545.686          44.187    22966808.760   122684578.991 7      3545.686          44.625    22966818.000    95421381.771 7      2757.756          43.750    22966819.120    95421382.775 7      2757.756          44.250
R03  22205867.560   118869761.945 7      6857.447          44.062    22205867.160   118869761.965 7      6857.447          42.437    22205883.120    92454328.991 7      5333.570          46.937    22205883.280    92454328.994 7      5333.570          47.125
R02  20073861.300   107118004.684 8      4092.139          51.187    20073860.700   107118004.682 8      4092.139          49.875    20073868.360    83314054.858 8      3182.775          50.437    20073868.660    83314049.857 8      3182.775          50.875
G21  21998560.000   115603202.642 7      1387.302          47.812    21998558.780   115603202.649 6      1387.302          39.562    21998561.180    90080435.269 6      1081.014          39.687
G08  21582760.780   113418159.709 8       794.084          48.312    21582759.500   113418159.716 8       794.084          48.187    21582766.040    88377828.639 8       618.767          48.062    21582766.880    88377804.646 8       618.767          49.375
G14  22365557.100   117531810.089 7      3841.961          45.437    22365556.700   117531810.099 5      3841.961          34.437    22365559.800    91583229.908 5      2993.735          34.437    22365560.980    91583238.907 8      2993.735          48.312
R24  21833444.260   116753234.313 7      1504.953          45.937    21833445.400   116753234.346 7      1504.953          44.625    21833455.060    90808107.516 8      1170.519          48.187    21833455.200    90808106.516 8      1170.519          49.250
R18  22965104.820   122589289.154 6      4713.021          40.875    22965103.020   122589289.134 6      4713.021          40.937    22965113.500    95347270.654 7      3665.683          43.062    22965113.620    95347267.655 7      3665.683          44.000
R01  21613552.000   115536820.056 7       224.934          43.312    21613551.380   115536820.054 7       224.934          42.750    21613562.640    89862014.936 7       174.949          42.875    21613561.560    89862010.929 7       174.949          43.750
R14  23545189.660   125509093.469 6     -1076.152          41.812    23545188.800   125509093.485 6     -1076.152          40.562    23545212.060    97618262.895 7      -837.007          46.750    23545212.520    97618265.898 7      -837.007          46.375
R17  20805852.320   111336321.750 7      3567.613          45.375    20805851.720   111336321.760 7      3567.613          45.812    20805860.840    86594950.519 8      2774.810          49.875    20805860.520    86594950.519 8      2774.810          50.062
G22  24229302.260   127325846.315 6      4867.573          37.625    24229300.340   127325846.333 4      4867.573          26.687    24229305.600    99214957.611 4      3792.914          26.875
G04  24265671.880   127516976.517 6      5664.910          37.812    24265670.540   127516976.524 4      5664.910          24.562    24265687.980    99363939.586 4      4414.215          24.500    24265688.260    99363954.639 7      4414.215          44.625
G27  24453918.240   128506195.495 6      -308.265          40.625    24453916.040   128506195.502 6      -308.265          36.500    24453931.620   100134748.734 6      -240.206          36.312    24453932.740   100134753.724 6      -240.206          41.312
R15  21869822.620   116865699.523 7       449.827          44.812    21869822.760   116865699.526 7       449.827          44.062    21869832.780    90895583.611 8       349.866          48.312    21869832.740    90895589.611 8       349.866          48.437
G17  24320260.160   127803836.601 7      5506.545          44.625    24320259.120   127803836.603 5      5506.545          33.750    24320262.800    99587410.457 5      4290.814          34.000    24320263.460    99587413.458 7      4290.814          44.062
G32  25346843.060   133198562.739 5      1143.252          34.937    25346842.040   133198562.738 5      1143.252          33.375    25346851.920   103791118.359 5       890.846          32.750    25346852.500   103791128.359 7       890.846          44.562
> 2024 05 03 15 47 25.0000000  0 19
G03  20339964.300   106887223.739 8      3966.878          48.000    20339963.760   106887223.741 7      3966.878          42.562    20339968.960    83288753.631 7      3091.073          42.187    20339969.460    83288753.631 8      3091.073          52.062
G02  21693184.580   113998453.950 7      2201.124          47.625    21693183.160   113998453.955 6      2201.124          40.187    21693183.780    88829964.377 6      1715.162          40.062
R16  22966147.320   122681033.893 7      3544.673          44.125    22966145.180   122681033.881 7      3544.673          44.000    22966154.220    95418624.461 7      2756.968          44.062    22966155.280    95418625.465 7      2756.968          43.375
R03  22204586.880   118862904.496 7      6857.653          44.062    22204586.480   118862904.514 7      6857.653          42.437    22204602.180    92448995.431 7      5333.730          46.750    22204602.220    92448995.429 7      5333.730          47.062
R02  20073094.240   107113912.994 8      4091.501          51.000    20073094.100   107113912.989 8      4091.501          49.687    20073101.560    83310872.432 8      3182.278          50.625    20073102.140    83310867.432 8      3182.278          50.625
G21  21998296.340   115601815.468 7      1387.252          47.937    21998294.780   115601815.475 6      1387.252          39.750    21998297.240    90079354.352 6      1080.976          39.750
G08  21582609.720   113417365.880 7       793.773          47.625    21582608.380   113417365.888 7       793.773          47.312    21582614.980    88377210.068 7       618.524          47.687    21582615.820    88377186.074 8       618.524          49.750
G14  22364826.440   117527968.692 7      3841.224          45.062    22364825.540   117527968.702 5      3841.224          34.437    22364828.860    91580236.612 5      2993.161          34.312    22364829.960    91580245.617 8      2993.161          48.312
R24  21833162.340   116751729.618 7      1504.736          44.562    21833164.020   116751729.652 7      1504.736          44.500    21833173.780    90806937.196 8      1170.350          49.062    21833173.540    90806936.194 8      1170.350          49.187
R18  22964222.080   122584576.236 6      4712.944          40.875    22964220.200   122584576.215 6      4712.944          40.937    22964230.780    95343605.051 7      3665.623          43.687    22964230.920    95343602.052 7      3665.623          43.812
R01  21613510.020   115536595.579 7       224.320          43.312    21613509.020   115536595.580 7       224.320          42.562    21613520.480    89861840.349 7       174.471          42.937    21613519.320    89861836.338 7       174.471          44.125
R14  23545392.120   125510169.581 6     -1075.827          41.687    23545391.360   125510169.579 6     -1075.827          40.562    23545413.860    97619099.834 7      -836.754          46.562    23545414.480    97619102.837 7      -836.754          46.437
R17  20805185.520   111332754.353 7      3567.450          46.750    20805184.920   111332754.370 7      3567.450          46.062    20805194.220    86592175.880 8      2774.684          49.937    20805193.880    86592175.881 8      2774.684          50.000
G22  24228376.400   127320979.220 6      4866.818          37.625    24228373.940   127320979.232 4      4866.818          26.687    24228379.440    99211165.071 4      3792.326          26.875
G04  24264593.780   127511311.368 6      5665.444          38.500    24264592.580   127511311.375 4      5665.444          24.562    24264609.880    99359525.201 4      4414.632          24.750    24264610.540    99359540.255 7      4414.632          44.562
G27  24453976.600   128506503.847 6      -308.178          40.875    24453974.820   128506503.854 6      -308.178          36.250    24453990.400   100134988.990 6      -240.138          36.312    24453990.940   100134993.984 6      -240.138          41.500
R15  21869738.500   116865250.096 7       449.241          44.500    21869738.460   116865250.103 7       449.241          44.250    21869748.620    90895234.055 8       349.410          48.500    21869749.040    90895240.053 8       349.410          48.250
G17  24319212.540   127798330.217 7      5506.397          44.875    24319211.320   127798330.219 5      5506.397          33.750    24319215.060    99583119.770 5      4290.699          34.000    24319215.800    99583122.763 7      4290.699          44.062
G32  25346626.100   133197420.031 5      1142.460          34.937    25346624.540   133197420.033 5      1142.460          33.375    25346634.360   103790227.940 5       890.228          32.937    25346634.900   103790237.943 7       890.228          45.000
> 2024 05 03 15 47 26.0000000  0 19
G03  20339209.560   106883257.320 8      3965.875          48.812    20339208.980   106883257.322 7      3965.875          43.250    20339214.100    83285663.096 7      3090.292          43.125    20339214.940    83285663.096 8      3090.292          52.500
G02  21692765.680   113996253.023 7      2200.660          47.750    21692764.500   113996253.028 6      2200.660          39.812    21692765.180    88828249.365 6      1714.800          39.875
R16  22965483.820   122677489.606 7      3543.634          44.312    22965481.640   122677489.591 7      3543.634          44.500    22965490.520    95415867.787 7      2756.160          43.500    22965491.920    95415868.791 7      2756.160          43.750
R03  22203305.480   118856047.211 7      6857.011          43.062    22203305.140   118856047.234 7      6857.011          42.437    22203321.000    92443662.001 7      5333.231          46.875    22203321.320    92443662.006 7      5333.231          47.437
R02  20072327.580   107109822.112 8      4090.251          51.125    20072327.380   107109822.107 8      4090.251          50.062    20072334.960    83307690.635 8      3181.306          50.312    20072335.340    83307685.637 8      3181.306          50.625
G21  21998032.320   115600428.341 7      1386.934          47.375    21998030.740   115600428.348 6      1386.934          39.625    21998033.140    90078273.474 6      1080.728          39.687
G08  21582458.740   113416572.430 7       793.059          47.187    21582457.480   113416572.433 7       793.059          47.562    21582464.020    88376591.793 7       617.968          47.625    21582465.020    88376567.797 8       617.968          49.562
