     3.05           OBSERVATION DATA    MIXED               RINEX VERSION / TYPE
TPS2RIN 1.0.29.3920 TPS-USER            20240511 181632 UTC PGM / RUN BY / DATE
Win64 build Feb 23, 2024 (c) Topcon Positioning Systems     COMMENT
SRC: 20240503_FA05.tps                                      COMMENT
OPT: -S -v 3.05                                             COMMENT
Observer            Agency                                  OBSERVER / AGENCY
O0M3X53SBGM         TPS HIPER_SR        4.8 HSR Jul,08,2022 REC # / TYPE / VERS
FW: 4.8 HSR Jul,08,2022 p3                                  COMMENT
SN: HiPer SR 1212-12575                                     COMMENT
000                 TPSHIPER_SR     NONE                    ANT # / TYPE
        1.8000        0.0000        0.0000                  ANTENNA: DELTA H/E/N
DELTA H stands for **SLANT** height here!                   COMMENT
FA05                                                        MARKER NAME
  5390992.7181 -1598477.9724  3005045.7102                  APPROX POSITION XYZ
  2024     5     3    15    59   57.0000000     GPS         TIME OF FIRST OBS
  2024     5     3    16     4   59.0000000     GPS         TIME OF LAST OBS
     1.000                                                  INTERVAL
   303 EPOCHS                                               COMMENT
G   16 C1C L1C D1C S1C C1W L1W D1W S1W C2W L2W D2W S2W C2X  SYS / # / OBS TYPES
       L2X D2X S2X                                          SYS / # / OBS TYPES
R   16 C1C L1C D1C S1C C1P L1P D1P S1P C2P L2P D2P S2P C2C  SYS / # / OBS TYPES
       L2C D2C S2C                                          SYS / # / OBS TYPES
    19                                                      # OF SATELLITES
   G02   303   303   303   303   303   303   303   303   303PRN / # OF OBS
         303   303   303     0     0     0     0            PRN / # OF OBS
   G03   303   303   303   303   303   303   303   303   303PRN / # OF OBS
         303   303   303   303   303   303   303            PRN / # OF OBS
   G04   303   303   303   303   303   303   303   303   303PRN / # OF OBS
         303   303   303   303   303   303   303            PRN / # OF OBS
   G08   303   303   303   303   303   303   303   303   303PRN / # OF OBS
         303   303   303   303   303   303   303            PRN / # OF OBS
   G14   303   303   303   303   303   303   303   303   303PRN / # OF OBS
         303   303   303   303   303   303   303            PRN / # OF OBS
   G17   303   303   303   303   303   303   303   303   303PRN / # OF OBS
         303   303   303   303   303   303   303            PRN / # OF OBS
   G21   303   303   303   303   303   303   303   303   303PRN / # OF OBS
         303   303   303     0     0     0     0            PRN / # OF OBS
   G22   303   303   303   303   303   303   303   303   303PRN / # OF OBS
         303   303   303     0     0     0     0            PRN / # OF OBS
   G27   303   303   303   303   303   303   303   303   303PRN / # OF OBS
         303   303   303   303   303   303   303            PRN / # OF OBS
   G32   258   258   258   258   258   258   258   258   258PRN / # OF OBS
         258   258   258   258   258   258   258            PRN / # OF OBS
   R01   303   303   303   303   303   303   303   303   303PRN / # OF OBS
         303   303   303   303   303   303   303            PRN / # OF OBS
   R02   303   303   303   303   303   303   303   303   303PRN / # OF OBS
         303   303   303   303   303   303   303            PRN / # OF OBS
   R03   303   303   303   303   303   303   303   303   303PRN / # OF OBS
         303   303   303   303   303   303   303            PRN / # OF OBS
   R14   120   120   120   120   120   120   120   120   120PRN / # OF OBS
         120   120   120   120   120   120   120            PRN / # OF OBS
   R15   303   303   303   303   303   303   303   303   303PRN / # OF OBS
         303   303   303   303   303   303   303            PRN / # OF OBS
   R16   303   303   303   303   303   303   303   303   303PRN / # OF OBS
         303   303   303   303   303   303   303            PRN / # OF OBS
   R17   303   303   303   303   303   303   303   303   303PRN / # OF OBS
         303   303   303   303   303   303   303            PRN / # OF OBS
   R18   303   303   303   303   303   303   303   303   303PRN / # OF OBS
         303   303   303   303   303   303   303            PRN / # OF OBS
   R24   303   303   303   303   303   303   303   303   303PRN / # OF OBS
         303   303   303   303   303   303   303            PRN / # OF OBS
G L1C                                                       SYS / PHASE SHIFT
G L1W -0.25000                                              SYS / PHASE SHIFT
G L2W  0.00000                                              SYS / PHASE SHIFT
G L2X  0.00000  01 G03                                      SYS / PHASE SHIFT
G L2X  0.25000  06 G04 G08 G14 G17 G27 G32                  SYS / PHASE SHIFT
R L1C                                                       SYS / PHASE SHIFT
R L1P -0.25000                                              SYS / PHASE SHIFT
R L2P -0.25000                                              SYS / PHASE SHIFT
R L2C                                                       SYS / PHASE SHIFT
  9 R01  1 R02 -4 R03  5 R14 -7 R15  0 R16 -1 R17  4 R18 -3 GLONASS SLOT / FRQ #
    R24  2                                                  GLONASS SLOT / FRQ #
                                                            GLONASS COD/PHS/BIS
    18    18  1929     7GPS                                 LEAP SECONDS
                                                            END OF HEADER
> 2024 05 03 15 59 57.0000000  0 19
G03  20105200.080   105653535.721 8      3509.285          48.437    20105199.420   105653535.723 7      3509.285          42.937    20105204.260    82327433.395 7      2734.508          42.937    20105205.080    82327433.395 8      2734.508          52.812
G02  21681591.480   113937534.176 7      2157.130          46.500    21681589.960   113937534.181 6      2157.130          40.250    21681591.200    88782494.047 6      1680.881          39.937
R16  22809097.840   121842104.030 7      2951.488          46.250    22809098.860   121842104.055 7      2951.488          45.500    22809106.000    94766109.756 7      2295.602          44.750    22809106.180    94766119.753 7      2295.602          45.437
R03  21555279.000   115387152.151 7      6645.450          45.625    21555279.160   115387152.182 7      6645.450          43.875    21555293.760    89745586.418 8      5168.684          49.187    21555293.520    89745586.420 8      5168.684          49.625
R02  19842280.740   105882254.828 8      3438.351          51.125    19842280.620   105882254.829 8      3438.351          50.500    19842287.300    82352868.466 8      2674.273          50.312    19842287.700    82352862.467 8      2674.273          51.000
G21  22100961.240   116141312.042 7      1374.035          46.500    22100959.660   116141312.052 6      1374.035          37.687    22100962.280    90499736.623 6      1070.676          37.812
G08  21790546.160   114510071.281 7       497.451          46.687    21790545.120   114510071.281 7       497.451          46.812    21790552.260    89228665.867 7       387.624          47.250    21790553.400    89228641.870 8       387.624          48.937
G14  22148533.200   116391340.549 7      3375.058          45.500    22148532.040   116391340.562 6      3375.058          36.000    22148536.400    90694551.863 6      2629.915          36.125    22148536.960    90694560.864 8      2629.915          49.500
R01  21918789.120   117168488.413 7      -284.418          42.625    21918789.160   117168488.422 6      -284.418          41.937    21918799.780    91131094.539 6      -221.214          41.875    21918799.120    91131091.529 7      -221.214          42.312
R18  22596693.960   120622695.401 6      4766.758          40.562    22596694.980   120622695.384 6      4766.758          41.375    22596704.140    93817698.734 7      3707.479          47.312    22596703.420    93817695.735 7      3707.479          47.875
R24  21930652.000   117273052.792 7      1374.047          42.875    21930650.000   117273052.788 7      1374.047          43.562    21930663.060    91212415.949 7      1068.703          47.000    21930663.120    91212415.945 7      1068.703          47.625
R14  23991413.320   127887707.248 7      -978.408          43.500    23991411.920   127887707.238 7      -978.408          42.187    23991435.980    99468336.869 7      -760.984          44.562    23991436.920    99468336.870 7      -760.984          45.250
R17  20608315.980   110279270.900 7      3502.960          47.500    20608316.480   110279270.917 7      3502.960          47.062    20608325.340    85772794.850 8      2724.524          50.750    20608324.700    85772796.848 8      2724.524          50.687
G22  23854999.880   125358873.089 7      4540.952          44.750    23854999.200   125358873.089 4      4540.952          28.875    23855003.060    97682251.581 4      3538.405          29.250
G04  23750789.520   124811301.512 6      5701.787          39.187    23750788.880   124811301.525 4      5701.787          28.187    23750803.800    97255631.767 4      4442.951          28.687    23750803.980    97255646.801 7      4442.951          47.625
G27  24808890.520   130371593.573 6      -452.438          40.875    24808889.560   130371593.577 6      -452.438          37.437    24808907.820   101588314.183 6      -352.549          37.562    24808908.000   101588321.173 7      -352.549          42.750
R15  22134315.460   118279055.379 7        71.635          42.625    22134313.020   118279055.359 6        71.635          41.812    22134328.360    91994855.244 8        55.716          48.437    22134327.960    91994861.249 8        55.716          48.375
G17  23829812.960   125226528.705 7      5523.927          43.250    23829812.840   125226528.702 5      5523.927          32.187    23829815.380    97579119.640 5      4304.358          31.875    23829815.600    97579122.631 7      4304.358          44.000
G32  25508933.000   134050349.622 6       788.748          36.437    25508932.040   134050349.622 4       788.748          28.375    25508940.840   104454847.704 4       614.609          26.937    25508941.880   104454853.699 6       614.609          36.500
> 2024 05 03 15 59 58.0000000  0 19
G03  20104532.440   105650026.913 8      3508.568          48.500    20104531.680   105650026.918 7      3508.568          43.062    20104536.480    82324699.520 7      2733.949          42.875    20104537.400    82324699.520 8      2733.949          52.750
G02  21681181.060   113935377.221 7      2156.973          46.250    21681179.600   113935377.226 6      2156.973          40.062    21681180.720    88780813.302 6      1680.758          40.062
R16  22808545.160   121839152.984 7      2950.661          47.125    22808546.200   121839153.014 7      2950.661          45.750    22808553.640    94763814.502 7      2294.959          45.062    22808553.880    94763824.495 7      2294.959          45.375
R03  21554037.900   115380507.051 7      6645.165          45.437    21554037.980   115380507.074 7      6645.165          44.125    21554052.180    89740418.015 8      5168.462          49.937    21554052.180    89740418.015 8      5168.462          50.062
R02  19841636.300   105878817.024 8      3437.476          51.250    19841636.320   105878817.022 8      3437.476          50.312    19841643.200    82350194.618 8      2673.593          50.312    19841643.620    82350188.624 8      2673.593          50.500
G21  22100700.000   116139938.102 7      1374.056          46.812    22100698.080   116139938.104 6      1374.056          37.875    22100700.920    90498666.016 6      1070.693          38.312
G08  21790451.380   114509574.037 7       497.175          46.625    21790450.360   114509574.039 7       497.175          46.437    21790457.560    89228278.400 7       387.409          46.687    21790458.780    89228254.400 8       387.409          48.875
G14  22147890.680   116387965.852 7      3374.459          45.875    22147889.880   116387965.857 6      3374.459          36.250    22147894.200    90691922.223 6      2629.449          36.062    22147895.020    90691931.230 8      2629.449          49.812
R01  21918842.900   117168773.209 7      -285.124          42.000    21918842.820   117168773.226 6      -285.124          41.937    21918853.160    91131316.051 6      -221.763          41.875    21918852.060    91131313.041 7      -221.763          42.500
R18  22595800.920   120617928.619 6      4766.872          41.500    22595802.000   120617928.609 6      4766.872          41.375    22595810.920    93813991.245 7      3707.567          47.000    22595810.240    93813988.250 7      3707.567          47.812
R24  21930394.260   117271678.949 7      1373.838          43.500    21930392.460   117271678.959 7      1373.838          43.312    21930406.000    91211347.409 7      1068.541          47.125    21930406.340    91211347.407 8      1068.541          48.250
R14  23991596.860   127888685.673 7      -978.121          43.437    23991595.520   127888685.662 7      -978.121          42.437    23991619.640    99469097.880 7      -760.760          44.687    23991620.480    99469097.884 7      -760.760          45.062
R17  20607661.580   110275768.201 8      3502.594          48.687    20607662.000   110275768.221 7      3502.594          46.562    20607670.700    85770070.533 8      2724.240          50.687    20607670.180    85770072.533 8      2724.240          51.000
G22  23854135.940   125354332.523 7      4540.289          45.187    23854135.340   125354332.520 4      4540.289          28.875    23854138.280    97678713.478 4      3537.887          29.250
G04  23749704.700   124805599.691 6      5702.030          38.937    23749703.940   124805599.698 4      5702.030          28.187    23749719.000    97251188.804 4      4443.140          28.687    23749719.040    97251203.840 7      4443.140          47.500
G27  24808976.960   130372046.084 6      -452.394          40.125    24808975.600   130372046.091 6      -452.394          37.750    24808993.900   101588666.770 6      -352.515          37.437    24808994.280   101588673.762 7      -352.515          42.812
R15  22134302.260   118278984.043 6        71.243          41.750    22134299.900   118278984.015 6        71.243          41.687    22134314.860    91994799.742 8        55.411          48.375    22134314.400    91994805.749 8        55.411          48.000
G17  23828761.680   125221004.740 7      5523.987          42.500    23828761.460   125221004.737 5      5523.987          32.187    23828764.340    97574815.248 5      4304.406          31.875    23828764.300    97574818.235 7      4304.406          43.937
G32  25508782.160   134049561.023 6       788.244          36.437    25508781.900   134049561.022 4       788.244          26.875    25508790.800   104454233.213 4       614.216          26.937    25508792.440   104454239.214 6       614.216          36.500
> 2024 05 03 15 59 59.0000000  0 19
G03  20103864.920   105646518.617 8      3508.017          48.437    20103864.100   105646518.617 7      3508.017          43.375    20103869.000    82321966.138 7      2733.520          43.187    20103869.960    82321966.138 8      2733.520          52.625
G02  21680770.520   113933220.376 7      2156.791          47.250    21680769.140   113933220.380 6      2156.791          40.000    21680770.240    88779132.641 6      1680.616          39.750
R16  22807992.900   121836202.825 7      2949.826          46.437    22807994.200   121836202.847 7      2949.826          45.625    22808001.180    94761519.921 7      2294.309          44.687    22808001.680    94761529.914 7      2294.309          44.750
R03  21552796.720   115373862.021 7      6644.918          45.437    21552797.040   115373862.033 7      6644.918          43.562    21552811.040    89735249.664 8      5168.269          49.562    21552811.100    89735249.669 8      5168.269          49.875
R02  19840992.440   105875380.047 8      3436.451          50.937    19840992.340   105875380.050 8      3436.451          49.500    19840999.100    82347521.420 8      2672.795          50.875    19840999.380    82347515.421 8      2672.795          50.562
G21  22100438.300   116138564.212 7      1373.865          47.187    22100436.600   116138564.215 6      1373.865          38.000    22100439.420    90497595.451 6      1070.544          38.375
G08  21790356.900   114509077.013 7       496.894          46.375    21790355.640   114509077.018 7       496.894          46.937    21790363.180    89227891.104 7       387.190          46.687    21790364.340    89227867.109 8       387.190          49.375
G14  22147248.260   116384591.804 7      3373.718          45.500    22147247.720   116384591.809 6      3373.718          36.000    22147252.080    90689293.097 6      2628.871          36.062    22147252.700    90689302.097 8      2628.871          49.375
R01  21918896.280   117169058.686 7      -285.838          42.000    21918895.580   117169058.696 6      -285.838          41.562    21918906.260    91131538.085 6      -222.319          41.750    21918904.940    91131535.077 7      -222.319          42.250
R18  22594907.780   120613161.866 6      4766.881          41.625    22594909.980   120613161.869 6      4766.881          41.250    22594918.140    93810283.784 7      3707.574          46.750    22594917.380    93810280.792 7      3707.574          47.562
R24  21930137.320   117270305.254 7      1373.628          44.000    21930136.340   117270305.252 7      1373.628          43.187    21930149.240    91210278.967 7      1068.377          47.562    21930148.920    91210278.965 8      1068.377          48.187
R14  23991780.820   127889663.682 7      -977.871          43.187    23991778.960   127889663.677 7      -977.871          42.437    23991803.200    99469858.569 7      -760.566          44.625    23991803.500    99469858.576 7      -760.566          45.125
R17  20607007.580   110272265.687 7      3502.509          47.812    20607007.440   110272265.707 7      3502.509          46.687    20607015.880    85767346.358 8      2724.173          50.312    20607015.980    85767348.358 8      2724.173          49.937
G22  23853271.780   125349792.461 7      4539.875          44.062    23853271.340   125349792.458 4      4539.875          28.875    23853273.600    97675175.770 4      3537.565          29.250
G04  23748619.320   124799897.639 6      5701.890          39.125    23748618.720   124799897.649 4      5701.890          29.062    23748633.880    97246745.662 4      4443.032          28.687    23748633.720    97246760.690 8      4443.032          48.000
G27  24809063.260   130372498.595 6      -452.628          40.187    24809061.820   130372498.605 6      -452.628          37.625    24809080.100   101589019.360 6      -352.697          37.500    24809080.580   101589026.348 7      -352.697          42.812
R15  22134288.680   118278913.044 7        70.780          42.312    22134287.700   118278913.016 6        70.780          41.687    22134301.460    91994744.513 7        55.051          47.687    22134301.120    91994750.515 7        55.051          47.812
G17  23827710.780   125215480.883 6      5523.912          41.312    23827709.940   125215480.883 5      5523.912          32.187    23827713.060    97570510.948 5      4304.347          32.062    23827713.660    97570513.931 7      4304.347          43.875
G32  25508633.000   134048772.941 6       787.859          36.687    25508631.880   134048772.938 4       787.859          26.875    25508640.800   104453619.123 4       613.916          26.937    25508642.320   104453625.128 6       613.916          36.500
> 2024 05 03 16 00  0.0000000  0 19
G03  20103197.560   105643010.939 8      3507.343          48.687    20103196.680   105643010.938 7      3507.343          43.437    20103201.460    82319233.410 7      2732.994          43.312    20103202.220    82319233.410 8      2732.994          52.812
G02  21680360.140   113931063.394 7      2156.969          46.812    21680358.480   113931063.404 6      2156.969          39.625    21680359.640    88777451.880 6      1680.755          39.500
R16  22807440.880   121833253.210 7      2949.414          45.625    22807442.200   121833253.243 7      2949.414          44.812    22807448.760    94759225.777 7      2293.988          44.312    22807449.380    94759235.772 7      2293.988          44.375
R03  21551555.540   115367217.509 7      6644.167          46.500    21551555.760   115367217.535 7      6644.167          44.625    21551569.760    89730081.730 8      5167.686          49.500    21551569.620    89730081.732 8      5167.686          50.312
R02  19840348.340   105871944.004 8      3435.519          51.125    19840348.280   105871944.004 8      3435.519          49.875    19840355.260    82344848.942 8      2672.070          50.437    19840355.600    82344842.941 8      2672.070          51.000
G21  22100176.860   116137190.178 7      1374.027          45.875    22100174.960   116137190.180 6      1374.027          38.125    22100177.940    90496524.771 6      1070.670          37.812
G08  21790262.460   114508580.485 7       496.283          46.312    21790261.060   114508580.488 7       496.283          46.375    21790268.620    89227504.194 7       386.714          46.312    21790269.480    89227480.194 8       386.714          49.000
G14  22146606.640   116381218.229 7      3373.397          45.750    22146605.620   116381218.236 5      3373.397          35.812    22146610.000    90686664.339 5      2628.621          35.687    22146610.240    90686673.336 8      2628.621          48.312
R01  21918949.860   117169344.621 7      -286.367          42.187    21918948.860   117169344.622 6      -286.367          41.562    21918960.040    91131760.472 6      -222.730          41.750    21918958.940    91131757.463 7      -222.730          42.000
R18  22594014.900   120608394.803 6      4767.177          41.625    22594015.840   120608394.820 6      4767.177          41.250    22594025.020    93806576.081 7      3707.804          47.187    22594024.600    93806573.089 7      3707.804          47.687
R24  21929881.440   117268931.662 7      1373.438          44.562    21929879.960   117268931.661 7      1373.438          44.187    21929892.640    91209210.614 7      1068.230          47.812    21929892.740    91209210.610 8      1068.230          48.062
R14  23991963.880   127890641.683 7      -977.934          44.125    23991962.780   127890641.675 7      -977.934          42.625    23991986.620    99470619.249 7      -760.615          44.500    23991987.420    99470619.256 7      -760.615          45.000
R17  20606352.760   110268763.130 8      3502.532          48.437    20606352.660   110268763.139 7      3502.532          46.312    20606361.420    85764622.136 8      2724.191          49.875    20606361.260    85764624.134 8      2724.191          50.437
G22  23852407.900   125345252.634 6      4539.828          40.687    23852407.160   125345252.636 4      4539.828          28.875    23852409.340    97671638.242 4      3537.528          28.625
G04  23747534.480   124794195.760 6      5701.696          39.187    23747533.500   124794195.770 4      5701.696          29.062    23747548.800    97242302.654 4      4442.880          28.687    23747549.140    97242317.684 8      4442.880          48.250
G27  24809149.100   130372951.426 6      -453.033          40.125    24809147.920   130372951.442 6      -453.033          37.875    24809166.360   101589372.197 6      -353.013          37.500    24809166.940   101589379.179 7      -353.013          43.250
R15  22134276.660   118278842.459 7        70.313          42.312    22134274.520   118278842.444 6        70.313          41.687    22134288.080    91994689.607 7        54.688          47.750    22134287.760    91994695.611 7        54.688          47.562
G17  23826659.420   125209956.790 6      5524.247          41.375    23826658.340   125209956.790 5      5524.247          31.875    23826661.800    97566206.460 5      4304.608          32.062    23826662.820    97566209.439 7      4304.608          44.375
G32  25508482.560   134047985.116 6       787.646          36.687    25508482.240   134047985.119 4       787.646          26.875    25508491.100   104453005.236 4       613.750          26.937    25508492.740   104453011.241 6       613.750          36.500
> 2024 05 03 16 00  1.0000000  0 19
G03  20102530.220   105639503.702 8      3507.178          49.312    20102529.220   105639503.704 7      3507.178          42.937    20102534.060    82316500.764 7      2732.866          42.812    20102534.720    82316500.764 8      2732.866          52.750
G02  21679949.760   113928906.328 7      2157.212          47.062    21679947.960   113928906.333 6      2157.212          40.062    21679949.200    88775771.044 6      1680.944          40.062
R16  22806888.560   121830304.250 7      2948.717          45.625    22806890.000   121830304.278 7      2948.717          45.687    22806896.780    94756932.133 7      2293.446          44.375    22806897.040    94756942.126 7      2293.446          45.000
R03  21550314.140   115360573.178 7      6644.344          46.312    21550314.580   115360573.195 7      6644.344          44.750    21550328.480    89724913.919 8      5167.823          49.625    21550328.340    89724913.919 8      5167.823          49.937
R02  19839704.180   105868508.708 8      3435.004          51.687    19839704.460   105868508.708 8      3435.004          49.812    19839711.440    82342177.047 8      2671.669          50.312    19839711.920    82342171.049 8      2671.669          50.375
G21  22099915.300   116135816.018 7      1374.222          47.562    22099913.480   116135816.020 6      1374.222          37.750    22099916.240    90495453.999 6      1070.822          37.812
G08  21790167.940   114508084.184 7       496.283          47.187    21790166.740   114508084.186 7       496.283          46.687    21790174.140    89227117.463 7       386.714          46.375    21790174.880    89227093.464 8       386.714          49.562
G14  22145964.660   116377845.132 7      3372.968          45.437    22145963.840   116377845.145 6      3372.968          36.437    22145968.300    90684035.952 5      2628.287          35.812    22145968.300    90684044.955 8      2628.287          48.750
R01  21919002.960   117169630.997 7      -286.624          42.562    21919002.280   117169630.998 6      -286.624          41.750    21919013.220    91131983.207 6      -222.930          41.500    21919012.680    91131980.199 6      -222.930          41.625
R18  22593121.940   120603627.532 6      4767.333          40.062    22593121.820   120603627.543 6      4767.333          40.687    22593131.460    93802868.204 7      3707.926          46.687    22593131.340    93802865.209 7      3707.926          47.125
R24  21929624.780   117267558.119 7      1373.582          44.875    21929622.900   117267558.118 7      1373.582          44.062    21929635.760    91208142.294 7      1068.341          47.812    21929635.860    91208142.294 8      1068.341          48.062
R14  23992147.280   127891619.316 7      -977.313          44.125    23992146.240   127891619.316 7      -977.313          43.062    23992170.140    99471379.647 7      -760.132          44.937    23992170.540    99471379.650 7      -760.132          45.125
R17  20605698.080   110265260.447 8      3502.726          48.000    20605698.420   110265260.454 7      3502.726          46.500    20605706.820    85761897.825 8      2724.342          50.125    20605706.680    85761899.825 8      2724.342          50.187
G22  23851543.880   125340713.121 6      4539.598          40.687    23851542.640   125340713.134 4      4539.598          28.687    23851545.140    97668100.963 4      3537.349          28.625
G04  23746449.260   124788493.736 6      5702.264          39.187    23746448.520   124788493.744 4      5702.264          29.062    23746463.740    97237859.533 4      4443.322          28.937    23746464.140    97237874.555 7      4443.322          47.562
G27  24809235.380   130373404.303 6      -452.851          40.625    24809234.160   130373404.310 6      -452.851          37.687    24809252.460   101589725.059 6      -352.871          38.000    24809253.540   101589732.045 7      -352.871          43.250
R15  22134263.660   118278772.131 7        70.356          43.562    22134261.540   118278772.127 7        70.356          43.000    22134274.900    91994634.907 7        54.721          47.687    22134274.760    91994640.909 7        54.721          47.437
G17  23825608.340   125204432.542 6      5524.239          41.375    23825606.540   125204432.544 5      5524.239          31.875    23825610.780    97561901.857 5      4304.602          32.062    23825611.900    97561904.842 7      4304.602          44.500
G32  25508333.260   134047197.610 6       787.347          37.500    25508332.280   134047197.615 4       787.347          26.875    25508341.020   104452391.599 4       613.517          26.937    25508343.040   104452397.604 6       613.517          36.375
> 2024 05 03 16 00  2.0000000  0 19
G03  20101862.920   105635997.095 8      3506.277          48.875    20101861.940   105635997.095 7      3506.277          43.875    20101866.820    82313768.282 7      2732.164          43.562    20101867.540    82313768.282 8      2732.164          52.812
G02  21679539.300   113926749.330 7      2157.034          47.312    21679537.560   113926749.340 6      2157.034          39.500    21679538.800    88774090.270 6      1680.806          39.187
R16  22806336.740   121827356.089 7      2947.788          46.187    22806338.060   121827356.125 7      2947.788          45.875    22806345.020    94754639.120 7      2292.724          44.500    22806345.320    94754649.111 7      2292.724          45.000
R03  21549073.040   115353929.124 7      6643.884          46.875    21549073.160   115353929.147 7      6643.884          44.812    21549087.420    89719746.336 8      5167.465          49.750    21549087.320    89719746.338 8      5167.465          50.000
R02  19839060.720   105865074.255 8      3434.047          51.625    19839061.000   105865074.258 8      3434.047          49.750    19839067.740    82339505.808 8      2670.925          50.250    19839068.280    82339499.809 8      2670.925          51.187
G21  22099654.060   116134441.863 7      1374.167          47.750    22099652.020   116134441.871 6      1374.167          37.625    22099655.040    90494383.231 6      1070.779          37.687
G08  21790073.620   114507588.222 7       495.830          47.000    21790072.280   114507588.227 7       495.830          46.875    21790079.920    89226730.997 7       386.361          47.000    21790080.660    89226706.996 8       386.361          49.062
G14  22145322.960   116374472.710 7      3372.150          44.750    22145322.060   116374472.726 5      3372.150          35.875    22145326.540    90681408.091 5      2627.649          35.812    22145326.500    90681417.085 8      2627.649          48.687
R01  21919056.580   117169918.067 7      -287.433          42.562    21919056.200   117169918.058 6      -287.433          41.750    21919066.740    91132206.472 6      -223.559          41.625    21919066.180    91132203.460 6      -223.559          41.625
R18  22592229.020   120598860.197 6      4767.367          40.062    22592226.980   120598860.216 6      4767.367          40.687    22592237.940    93799160.289 7      3707.952          46.312    22592238.620    93799157.297 7      3707.952          46.812
R24  21929368.220   117266184.763 7      1373.332          45.687    21929366.180   117266184.762 7      1373.332          44.187    21929378.780    91207074.128 7      1068.147          47.562    21929379.500    91207074.127 7      1068.147          47.937
R14  23992331.060   127892596.706 7      -977.234          43.562    23992329.240   127892596.699 7      -977.234          43.062    23992353.640    99472139.843 7      -760.071          44.875    23992354.000    99472139.849 7      -760.071          45.000
R17  20605043.920   110261757.842 7      3502.704          47.812    20605043.920   110261757.854 7      3502.704          46.750    20605052.240    85759173.581 8      2724.326          50.687    20605052.040    85759175.579 8      2724.326          50.500
G22  23850679.620   125336174.166 5      4538.389          34.750    23850678.360   125336174.189 4      4538.389          28.687    23850681.600    97664564.121 4      3536.407          28.625
G04  23745364.580   124782791.615 6      5702.253          38.562    23745363.280   124782791.623 4      5702.253          29.062    23745378.640    97233416.336 4      4443.314          28.937    23745379.000    97233431.365 8      4443.314          48.375
G27  24809321.880   130373857.268 6      -453.077          39.750    24809320.360   130373857.281 6      -453.077          38.375    24809338.740   101590078.003 6      -353.047          38.437    24809339.440   101590084.991 7      -353.047          42.750
R15  22134250.380   118278702.294 7        69.690          44.375    22134249.020   118278702.285 7        69.690          43.000    22134261.520    91994580.575 7        54.203          47.250    22134261.640    91994586.579 7        54.203          47.125
G17  23824557.240   125198908.314 6      5524.182          40.812    23824555.040   125198908.322 5      5524.182          31.875    23824559.780    97557597.270 5      4304.558          31.250    23824561.100    97557600.259 7      4304.558          45.687
G32  25508183.220   134046410.550 6       786.929          37.500    25508182.440   134046410.555 4       786.929          26.875    25508191.280   104451778.305 4       613.192          26.937    25508192.700   104451784.308 6       613.192          36.375
> 2024 05 03 16 00  3.0000000  0 19
G03  20101195.580   105632491.072 8      3505.877          48.000    20101194.720   105632491.075 7      3505.877          43.187    20101199.580    82311035.637 7      2731.852          43.000    20101200.480    82311035.637 8      2731.852          52.875
G02  21679128.920   113924592.411 7      2157.010          47.500    21679127.080   113924592.416 6      2157.010          39.687    21679128.280    88772409.550 6      1680.787          39.562
R16  22805785.040   121824408.686 7      2947.088          45.125    22805785.540   121824408.719 7      2947.088          45.687    22805793.140    94752346.692 7      2292.180          44.437    22805793.780    94752356.691 7      2292.180          45.312
R03  21547831.860   115347285.462 7      6643.714          45.750    21547831.900   115347285.490 7      6643.714          44.937    21547846.100    89714579.055 8      5167.333          49.187    21547846.140    89714579.058 8      5167.333          49.937
R02  19838417.320   105861640.679 8      3433.335          51.562    19838417.400   105861640.680 8      3433.335          50.250    19838424.240    82336835.251 8      2670.372          50.250    19838424.840    82336829.255 8      2670.372          50.312
G21  22099392.640   116133067.745 8      1374.293          48.125    22099390.600   116133067.752 6      1374.293          37.812    22099393.620    90493312.487 6      1070.877          38.125
G08  21789979.520   114507092.677 7       495.598          47.937    21789978.020   114507092.685 7       495.598          46.812    21789985.560    89226344.852 7       386.180          46.500    21789986.480    89226320.853 8       386.180          48.687
G14  22144681.340   116371100.885 7      3371.636          45.187    22144680.520   116371100.903 6      3371.636          36.375    22144684.840    90678780.695 6      2627.249          36.062    22144685.300    90678789.695 8      2627.249          49.562
R01  21919111.140   117170205.753 7      -287.930          43.125    21919109.760   117170205.746 6      -287.930          41.750    21919120.800    91132430.231 6      -223.945          41.625    21919119.720    91132427.230 6      -223.945          41.687
R18  22591335.740   120594092.798 6      4767.577          40.062    22591333.140   120594092.807 6      4767.577          39.812    22591344.160    93795452.312 7      3708.116          46.125    22591345.020    93795449.326 7      3708.116          45.812
R24  21929111.240   117264811.621 7      1373.323          44.937    21929109.600   117264811.614 7      1373.323          44.000    21929122.240    91206006.123 7      1068.140          47.625    21929122.740    91206006.121 8      1068.140          48.125
R14  23992514.040   127893573.929 7      -976.820          43.750    23992512.400   127893573.924 7      -976.820          42.875    23992536.660    99472899.920 7      -759.749          44.750    23992537.140    99472899.923 7      -759.749          45.062
R17  20604389.200   110258255.370 7      3502.558          47.750    20604389.400   110258255.385 7      3502.558          47.000    20604397.840    85756449.439 8      2724.212          49.687    20604397.440    85756451.435 8      2724.212          49.812
G22  23849815.940   125331635.555 5      4538.340          34.750    23849814.380   125331635.580 4      4538.340          28.687    23849817.960    97661027.547 4      3536.369          28.625
G04  23744279.820   124777089.542 6      5702.321          38.687    23744278.100   124777089.555 4      5702.321          29.312    23744293.520    97228973.181 4      4443.367          28.937    23744294.000    97228988.215 8      4443.367          48.187
G27  24809408.180   130374310.455 6      -453.077          40.062    24809406.640   130374310.465 6      -453.077          37.875    24809424.900   101590431.115 6      -353.047          37.187    24809425.880   101590438.099 7      -353.047          43.062
R15  22134237.540   118278632.917 7        69.228          44.750    22134236.260   118278632.910 7        69.228          43.500    22134248.460    91994526.615 7        53.844          47.125    22134248.580    91994532.615 7        53.844          47.625
G17  23823505.960   125193384.108 6      5524.162          40.250    23823503.620   125193384.110 5      5524.162          31.687    23823508.840    97553292.694 5      4304.542          31.250    23823510.080    97553295.687 7      4304.542          45.750
G32  25508033.500   134045623.982 6       786.464          37.562    25508032.760   134045623.992 4       786.464          26.875    25508041.760   104451165.395 4       612.829          26.500    25508042.420   104451171.398 6       612.829          36.375
> 2024 05 03 16 00  4.0000000  0 19
G03  20100528.480   105628985.525 8      3505.104          48.937    20100527.560   105628985.527 7      3505.104          43.375    20100532.600    82308303.974 7      2731.250          43.062    20100533.340    82308303.974 8      2731.250          53.000
G02  21678718.400   113922435.395 7      2156.812          47.250    21678716.640   113922435.403 6      2156.812          39.750    21678717.860    88770728.759 6      1680.633          39.562
R16  22805233.060   121821461.994 7      2946.114          45.375    22805233.680   121821462.024 7      2946.114          45.250    22805241.660    94750054.824 7      2291.422          44.500    22805242.140    94750064.813 7      2291.422          45.062
R03  21546590.800   115340641.973 7      6643.269          46.375    21546591.300   115340641.996 7      6643.269          45.250    21546605.140    89709411.910 8      5166.987          49.375    21546605.220    89709411.912 8      5166.987          49.875
R02  19837774.080   105858207.758 8      3432.420          50.937    19837774.040   105858207.759 8      3432.420          50.562    19837781.080    82334165.206 8      2669.660          50.625    19837781.420    82334159.209 8      2669.660          51.000
G21  22099131.080   116131693.498 7      1374.086          47.062    22099129.120   116131693.505 6      1374.086          37.750    22099132.020    90492241.645 6      1070.716          38.062
G08  21789885.200   114506597.327 7       495.121          47.062    21789883.720   114506597.332 7       495.121          47.250    21789891.320    89225958.859 7       385.808          46.812    21789892.260    89225934.860 8       385.808          48.812
G14  22144039.900   116367729.604 7      3370.689          45.437    22144039.020   116367729.622 6      3370.689          36.437    22144043.060    90676153.722 6      2626.511          36.062    22144043.960    90676162.723 8      2626.511          49.437
R01  21919164.340   117170493.901 7      -288.568          42.625    21919163.520   117170493.902 6      -288.568          41.750    21919174.400    91132654.356 6      -224.442          41.437    21919173.500    91132651.349 6      -224.442          41.625
R18  22590441.980   120589325.198 6      4767.547          39.187    22590440.040   120589325.189 6      4767.547          39.812    22590450.660    93791744.175 7      3708.092          46.375    22590451.640    93791741.185 7      3708.092          45.750
R24  21928854.720   117263438.503 7      1372.896          44.750    21928853.000   117263438.502 7      1372.896          44.687    21928865.460    91204938.140 7      1067.808          47.625    21928865.940    91204938.138 8      1067.808          48.312
R14  23992696.700   127894550.861 7      -976.860          43.750    23992695.840   127894550.865 7      -976.860          42.812    23992720.020    99473659.771 7      -759.780          44.750    23992720.720    99473659.772 7      -759.780          45.187
R17  20603734.760   110254752.931 7      3502.162          47.687    20603735.100   110254752.946 7      3502.162          47.062    20603743.180    85753725.319 8      2723.904          49.937    20603742.780    85753727.317 8      2723.904          50.750
G22  23848952.900   125327097.366 5      4537.720          34.750    23848950.880   125327097.395 4      4537.720          28.687    23848954.640    97657491.298 4      3535.885          28.375
G04  23743194.300   124771387.240 6      5702.368          39.125    23743192.900   124771387.253 4      5702.368          29.312    23743208.380    97224529.845 4      4443.403          28.937    23743208.420    97224544.875 8      4443.403          48.000
G27  24809494.420   130374763.607 6      -453.295          40.500    24809492.900   130374763.612 6      -453.295          37.687    24809511.160   101590784.198 6      -353.217          37.750    24809511.980   101590791.180 7      -353.217          42.875
R15  22134224.520   118278563.863 7        68.640          44.562    22134222.840   118278563.856 7        68.640          43.500    22134235.600    91994472.896 7        53.387          47.437    22134235.520    91994478.900 7        53.387          47.062
G17  23822454.420   125187859.742 6      5524.258          41.562    23822452.400   125187859.739 5      5524.258          31.687    23822457.900    97548987.995 5      4304.617          31.937    23822458.840    97548990.990 7      4304.617          46.312
G32  25507883.820   134044837.684 6       786.025          36.750    25507883.320   134044837.691 4       786.025          26.562    25507892.140   104450552.697 4       612.487          26.500    25507893.460   104450558.711 6       612.487          36.375
> 2024 05 03 16 00  5.0000000  0 19
G03  20099861.700   105625480.805 8      3504.226          49.125    20099860.740   105625480.805 7      3504.226          43.375    20099865.660    82305573.621 7      2730.565          43.062    20099866.480    82305573.621 8      2730.565          52.500
G02  21678307.980   113920278.687 7      2156.634          47.375    21678306.220   113920278.694 6      2156.634          40.000    21678307.520    88769048.209 6      1680.494          39.750
R16  22804681.580   121818516.335 7      2945.214          45.437    22804682.120   121818516.360 7      2945.214          44.875    22804689.980    94747763.754 7      2290.722          44.625    22804690.300    94747773.741 7      2290.722          44.687
R03  21545349.660   115333999.036 7      6642.521          46.687    21545350.660   115333999.061 7      6642.521          45.125    21545364.040    89704245.194 8      5166.405          49.187    21545363.980    89704245.196 8      5166.405          49.312
R02  19837131.120   105854775.970 8      3431.227          51.437    19837130.840   105854775.968 8      3431.227          50.000    19837137.840    82331496.040 8      2668.732          50.312    19837138.120    82331490.041 8      2668.732          50.812
G21  22098869.680   116130319.516 7      1373.890          45.875    22098867.660   116130319.521 6      1373.890          37.562    22098870.520    90491171.006 6      1070.564          37.875
G08  21789790.920   114506102.594 7       494.376          46.937    21789789.480   114506102.599 7       494.376          46.687    21789797.240    89225573.351 7       385.228          46.437    21789798.220    89225549.351 8       385.228          48.937
G14  22143398.560   116364359.134 7      3370.115          45.250    22143397.620   116364359.144 5      3370.115          35.812    22143401.560    90673527.376 5      2626.064          35.937    22143402.320    90673536.375 8      2626.064          49.187
R01  21919218.680   117170782.970 7      -289.385          42.625    21919217.740   117170782.985 6      -289.385          41.750    21919228.280    91132879.195 6      -225.077          41.187    21919227.720    91132876.191 6      -225.077          41.687
R18  22589549.180   120584557.797 6      4767.388          39.187    22589547.980   120584557.763 6      4767.388          39.812    22589557.540    93788036.184 7      3707.968          45.812    22589558.240    93788033.191 7      3707.968          45.687
R24  21928597.780   117262065.815 7      1372.505          45.125    21928596.360   117262065.817 7      1372.505          44.312    21928608.940    91203870.494 7      1067.504          47.812    21928609.000    91203870.494 8      1067.504          48.312
R14  23992879.860   127895527.794 7      -977.065          43.875    23992879.560   127895527.792 7      -977.065          42.812    23992903.380    99474419.619 7      -759.940          44.437    23992904.160    99474419.623 7      -759.940          45.375
R17  20603080.640   110251250.885 8      3501.947          48.625    20603080.440   110251250.897 7      3501.947          47.000    20603088.680    85751001.508 8      2723.736          49.875    20603088.600    85751003.506 8      2723.736          50.062
G22  23848089.400   125322559.877 5      4537.235          34.437    23848087.440   125322559.895 4      4537.235          28.687    23848091.600    97653955.588 4      3535.508          28.375
G04  23742108.940   124765685.124 6      5701.954          38.812    23742107.820   124765685.140 4      5701.954          29.312    23742123.340    97220086.656 4      4443.081          29.062    23742123.480    97220101.689 8      4443.081          48.250
G27  24809580.820   130375217.143 6      -453.811          40.500    24809579.160   130375217.145 6      -453.811          37.687    24809597.420   101591137.584 6      -353.619          37.875    24809598.000   101591144.574 7      -353.619          42.875
R15  22134211.880   118278495.421 7        68.030          45.062    22134210.340   118278495.411 7        68.030          43.937    22134222.500    91994419.659 7        52.912          46.812    22134222.700    91994425.661 7        52.912          47.000
G17  23821403.020   125182335.661 7      5524.074          42.687    23821401.680   125182335.664 5      5524.074          32.375    23821407.140    97544683.523 5      4304.473          31.937    23821407.740    97544686.526 7      4304.473          46.250
G32  25507735.060   134044052.122 6       785.404          36.750    25507733.880   134044052.132 4       785.404          26.562    25507742.660   104449940.573 4       612.003          26.500    25507744.220   104449946.580 6       612.003          36.375
> 2024 05 03 16 00  6.0000000  0 19
G03  20099194.800   105621976.679 8      3503.766          48.812    20099193.880   105621976.679 7      3503.766          43.687    20099198.880    82302842.777 7      2730.207          43.187    20099199.440    82302842.777 8      2730.207          52.437
G02  21677897.620   113918121.936 7      2156.576          46.937    21677895.880   113918121.944 6      2156.576          39.875    21677897.040    88767367.626 6      1680.448          40.125
R16  22804130.620   121815571.381 7      2944.577          45.187    22804130.760   121815571.390 7      2944.577          45.125    22804139.160    94745473.218 7      2290.226          44.500    22804139.060    94745483.205 7      2290.226          44.625
R03  21544109.200   115327356.508 7      6642.371          47.062    21544109.720   115327356.528 7      6642.371          45.375    21544123.020    89699078.785 8      5166.288          49.250    21544123.160    89699078.792 8      5166.288          49.250
R02  19836488.200   105851345.101 8      3430.245          51.000    19836488.020   105851345.101 8      3430.245          49.750    19836495.000    82328827.587 8      2667.968          50.062    19836495.420    82328821.589 8      2667.968          50.062
G21  22098608.060   116128945.443 7      1373.890          47.062    22098606.080   116128945.450 6      1373.890          37.500    22098609.100    90490100.300 6      1070.563          37.375
G08  21789697.080   114505608.256 7       493.939          46.625    21789695.500   114505608.258 7       493.939          46.687    21789703.060    89225188.148 7       384.887          46.687    21789704.180    89225164.144 8       384.887          49.187
G14  22142757.220   116360989.277 7      3369.481          45.812    22142756.220   116360989.285 5      3369.481          35.812    22142760.260    90670901.513 5      2625.569          35.562    22142760.920    90670910.520 8      2625.569          48.437
R01  21919272.580   117171072.562 7      -290.122          42.250    21919271.640   117171072.571 6      -290.122          41.750    21919282.740    91133104.426 6      -225.650          41.187    21919281.960    91133101.421 6      -225.650          41.687
R18  22588655.940   120579790.229 6      4767.573          39.562    22588655.800   120579790.198 6      4767.573          39.937    22588664.420    93784328.069 7      3708.112          45.500    22588665.240    93784325.071 7      3708.112          45.750
R24  21928340.900   117260693.232 7      1372.245          44.687    21928339.760   117260693.233 7      1372.245          43.687    21928352.060    91202802.927 7      1067.301          47.250    21928352.260    91202802.925 7      1067.301          47.625
R14  23993063.260   127896504.593 7      -976.632          43.875    23993062.440   127896504.593 7      -976.632          42.750    23993086.260    99475179.362 7      -759.603          44.125    23993087.000    99475179.363 7      -759.603          45.000
R17  20602425.800   110247748.807 8      3501.867          48.000    20602426.180   110247748.819 7      3501.867          47.562    20602434.340    85748277.667 8      2723.675          49.500    20602434.060    85748279.669 8      2723.675          49.562
G22  23847226.020   125318022.745 6      4536.850          41.125    23847224.200   125318022.758 4      4536.850          28.000    23847228.660    97650420.159 4      3535.208          28.375
G04  23741023.820   124759983.103 6      5702.013          38.625    23741022.700   124759983.116 4      5702.013          29.312    23741038.300    97215643.535 4      4443.127          29.062    23741038.500    97215658.562 8      4443.127          48.000
G27  24809666.880   130375670.884 6      -453.953          40.125    24809665.560   130375670.889 6      -453.953          37.750    24809683.860   101591491.128 6      -353.729          37.437    24809684.400   101591498.120 7      -353.729          42.812
R15  22134199.440   118278427.430 7        67.790          45.062    22134197.640   118278427.423 7        67.790          44.062    22134209.860    91994366.771 7        52.726          46.500    22134210.120    91994372.771 7        52.726          46.437
G17  23820351.680   125176811.487 7      5524.118          42.562    23820350.780   125176811.486 5      5524.118          32.375    23820356.260    97540378.975 5      4304.508          31.937    23820356.420    97540381.977 7      4304.508          46.375
G32  25507585.780   134043266.896 6       784.773          37.250    25507584.260   134043266.903 4       784.773          26.562    25507593.200   104449328.707 4       611.511          26.500    25507594.800   104449334.712 6       611.511          36.250
> 2024 05 03 16 00  7.0000000  0 19
G03  20098527.960   105618473.060 8      3503.339          48.312    20098527.200   105618473.063 7      3503.339          43.625    20098532.120    82300112.179 7      2729.875          43.062    20098532.880    82300112.179 8      2729.875          52.937
G02  21677487.020   113915965.222 7      2156.718          47.312    21677485.280   113915965.230 6      2156.718          39.062    21677486.600    88765687.069 6      1680.559          39.000
R16  22803579.340   121812627.103 7      2943.854          44.687    22803579.060   121812627.115 7      2943.854          44.687    22803588.380    94743183.226 7      2289.664          45.187    22803588.060    94743193.213 7      2289.664          45.187
R03  21542868.200   115320714.149 7      6642.215          46.812    21542868.640   115320714.174 7      6642.215          45.687    21542882.320    89693912.527 8      5166.167          49.500    21542882.300    89693912.531 8      5166.167          49.500
R02  19835845.100   105847915.106 8      3429.591          51.500    19835845.260   105847915.107 8      3429.591          50.312    19835852.240    82326159.816 8      2667.460          50.437    19835852.620    82326153.820 8      2667.460          50.812
G21  22098346.700   116127571.377 7      1374.099          47.312    22098344.760   116127571.382 6      1374.099          37.875    22098347.760    90489029.601 6      1070.727          38.062
G08  21789603.060   114505114.196 7       493.912          46.937    21789601.420   114505114.203 7       493.912          47.000    21789609.060    89224803.164 7       384.867          46.625    21789609.860    89224779.167 8       384.867          49.125
G14  22142116.260   116357619.930 7      3369.023          45.687    22142115.060   116357619.942 6      3369.023          36.187    22142119.160    90668276.050 5      2625.213          35.812    22142119.640    90668285.047 8      2625.213          49.000
R01  21919326.900   117171362.730 7      -290.373          42.562    21919326.100   117171362.739 6      -290.373          41.750    21919336.940    91133330.117 6      -225.846          40.937    21919336.300    91133327.111 6      -225.846          41.187
R18  22587762.980   120575022.537 6      4767.785          39.562    22587763.380   120575022.506 6      4767.785          39.937    22587771.920    93780619.862 7      3708.278          45.625    22587772.020    93780616.867 7      3708.278          46.000
R24  21928084.040   117259320.812 7      1372.430          44.625    21928083.140   117259320.813 7      1372.430          44.625    21928095.360    91201735.487 7      1067.445          47.750    21928095.320    91201735.485 8      1067.445          48.625
R14  23993246.720   127897481.034 7      -976.243          43.687    23993245.620   127897481.030 7      -976.243          42.625    23993269.840    99475938.825 7      -759.300          44.812    23993269.980    99475938.829 7      -759.300          44.875
R17  20601771.400   110244246.761 7      3502.004          47.687    20601771.800   110244246.784 7      3502.004          47.000    20601779.680    85745553.864 8      2723.781          50.062    20601779.700    85745555.868 8      2723.781          50.500
G22  23846362.760   125313486.020 7      4536.384          42.312    23846361.320   125313486.031 4      4536.384          28.000    23846365.620    97646885.047 4      3534.844          28.375
G04  23739938.940   124754280.901 6      5702.287          38.625    23739937.560   124754280.917 4      5702.287          29.312    23739953.180    97211200.279 4      4443.341          29.062    23739953.480    97211215.314 8      4443.341          48.000
G27  24809753.100   130376124.745 6      -453.979          41.000    24809752.020   130376124.748 6      -453.979          37.875    24809770.360   101591844.766 6      -353.750          37.437    24809770.520   101591851.756 7      -353.750          42.687
R15  22134186.700   118278359.715 7        67.451          44.812    22134184.980   118278359.714 7        67.451          44.250    22134197.100    91994314.112 7        52.462          46.750    22134197.440    91994320.112 7        52.462          46.625
G17  23819299.940   125171287.228 7      5524.355          42.312    23819299.880   125171287.230 5      5524.355          32.375    23819305.200    97536074.360 5      4304.692          32.812    23819305.220    97536077.368 7      4304.692          46.312
G32  25507436.400   134042482.122 6       784.551          37.250    25507434.980   134042482.127 4       784.551          26.562    25507443.940   104448717.197 4       611.338          26.500    25507445.740   104448723.200 6       611.338          36.250
> 2024 05 03 16 00  8.0000000  0 19
G03  20097861.160   105614970.211 8      3502.672          48.750    20097860.480   105614970.208 7      3502.672          43.562    20097865.480    82297381.744 7      2729.355          43.312    20097866.360    82297381.744 8      2729.355          52.562
G02  21677076.760   113913808.671 7      2156.572          46.875    21677075.000   113913808.676 6      2156.572          40.125    21677076.220    88764006.638 6      1680.445          40.000
R16  22803028.180   121809683.728 7      2943.085          44.812    22803027.420   121809683.745 7      2943.085          44.125    22803037.760    94740893.938 7      2289.066          44.812    22803037.120    94740903.927 7      2289.066          46.125
R03  21541627.520   115314072.269 7      6641.826          46.000    21541627.960   115314072.294 7      6641.826          45.125    21541641.460    89688746.628 8      5165.865          49.125    21541641.560    89688746.630 8      5165.865          49.500
R02  19835202.560   105844486.125 8      3428.638          51.625    19835202.620   105844486.129 8      3428.638          49.750    19835209.520    82323492.837 8      2666.718          50.875    19835210.120    82323486.839 8      2666.718          50.875
G21  22098085.180   116126197.417 7      1373.994          46.437    22098083.300   116126197.421 6      1373.994          38.125    22098086.280    90487958.981 6      1070.645          38.250
G08  21789508.940   114504620.651 7       493.509          46.000    21789507.480   114504620.658 7       493.509          46.625    21789515.120    89224418.582 7       384.553          46.562    21789516.180    89224394.582 8       384.553          48.937
