     3.05           OBSERVATION DATA    MIXED               RINEX VERSION / TYPE
TPS2RIN 1.0.29.3920 TPS-USER            20240511 181958 UTC PGM / RUN BY / DATE
Win64 build Feb 23, 2024 (c) Topcon Positioning Systems     COMMENT
SRC: 20240503_FA06.tps                                      COMMENT
OPT: -S -v 3.05                                             COMMENT
Observer            Agency                                  OBSERVER / AGENCY
O0M3X53SBGM         TPS HIPER_SR        4.8 HSR Jul,08,2022 REC # / TYPE / VERS
FW: 4.8 HSR Jul,08,2022 p3                                  COMMENT
SN: HiPer SR 1212-12575                                     COMMENT
000                 TPSHIPER_SR     NONE                    ANT # / TYPE
        1.8000        0.0000        0.0000                  ANTENNA: DELTA H/E/N
DELTA H stands for **SLANT** height here!                   COMMENT
FA06                                                        MARKER NAME
  5390986.7896 -1598487.7798  3005048.1667                  APPROX POSITION XYZ
  2024     5     3    16    21   38.0000000     GPS         TIME OF FIRST OBS
  2024     5     3    16    26   38.0000000     GPS         TIME OF LAST OBS
     1.000                                                  INTERVAL
   301 EPOCHS                                               COMMENT
G   16 C1C L1C D1C S1C C1W L1W D1W S1W C2W L2W D2W S2W C2X  SYS / # / OBS TYPES
       L2X D2X S2X                                          SYS / # / OBS TYPES
R   16 C1C L1C D1C S1C C1P L1P D1P S1P C2P L2P D2P S2P C2C  SYS / # / OBS TYPES
       L2C D2C S2C                                          SYS / # / OBS TYPES
    16                                                      # OF SATELLITES
   G02   301   301   301   301   301   301   301   301   301PRN / # OF OBS
         301   301   301     0     0     0     0            PRN / # OF OBS
   G03   301   301   301   301   301   301   301   301   301PRN / # OF OBS
         301   301   301   301   301   301   301            PRN / # OF OBS
   G04   301   301   301   301   301   301   301   301   301PRN / # OF OBS
         301   301   301   301   301   301   301            PRN / # OF OBS
   G08   301   301   301   301   301   301   301   301   301PRN / # OF OBS
         301   301   301   301   301   301   301            PRN / # OF OBS
   G14   301   301   301   301   301   301   301   301   301PRN / # OF OBS
         301   301   301   301   301   301   301            PRN / # OF OBS
   G17   301   301   301   301   301   301   301   301   301PRN / # OF OBS
         301   301   301   301   301   301   301            PRN / # OF OBS
   G21   301   301   301   301   301   301   301   301   301PRN / # OF OBS
         301   301   301     0     0     0     0            PRN / # OF OBS
   G22   301   301   301   301   301   301   301   301   301PRN / # OF OBS
         301   301   301     0     0     0     0            PRN / # OF OBS
   R01   301   301   301   301   301   301   301   301   301PRN / # OF OBS
         301   301   301   301   301   301   301            PRN / # OF OBS
   R02   301   301   301   301   301   301   301   301   301PRN / # OF OBS
         301   301   301   301   301   301   301            PRN / # OF OBS
   R03   301   301   301   301   301   301   301   301   301PRN / # OF OBS
         301   301   301   301   301   301   301            PRN / # OF OBS
   R15   274   274   274   274   269   269   269   269   269PRN / # OF OBS
         269   269   269   268   268   268   268            PRN / # OF OBS
   R16   301   301   301   301   301   301   301   301   301PRN / # OF OBS
         301   301   301   301   301   301   301            PRN / # OF OBS
   R17   301   301   301   301   301   301   301   301   301PRN / # OF OBS
         301   301   301   301   301   301   301            PRN / # OF OBS
   R18   301   301   301   301   301   301   301   301   301PRN / # OF OBS
         301   301   301   301   301   301   301            PRN / # OF OBS
   R24   301   301   301   301   301   301   301   301   301PRN / # OF OBS
         301   301   301   301   301   301   301            PRN / # OF OBS
G L1C                                                       SYS / PHASE SHIFT
G L1W -0.25000                                              SYS / PHASE SHIFT
G L2W  0.00000                                              SYS / PHASE SHIFT
G L2X  0.00000  01 G03                                      SYS / PHASE SHIFT
G L2X  0.25000  04 G04 G08 G14 G17                          SYS / PHASE SHIFT
R L1C                                                       SYS / PHASE SHIFT
R L1P -0.25000                                              SYS / PHASE SHIFT
R L2P -0.25000                                              SYS / PHASE SHIFT
R L2C                                                       SYS / PHASE SHIFT
  8 R01  1 R02 -4 R03  5 R15  0 R16 -1 R17  4 R18 -3 R24  2 GLONASS SLOT / FRQ #
                                                            GLONASS COD/PHS/BIS
    18    18  1929     7GPS                                 LEAP SECONDS
                                                            END OF HEADER
> 2024 05 03 16 21 38.0000000  0 16
G03  19935056.380   104759428.539 8      2714.173          49.125    19935055.860   104759428.544 8      2714.173          50.562    19935060.080    81630723.386 8      2114.940          51.312    19935060.840    81630723.386 8      2114.940          51.500
G02  21758202.120   114340120.568 7      2065.348          46.687    21758200.700   114340120.570 6      2065.348          38.750    21758201.640    89096197.919 6      1609.362          38.625
R16  22813443.380   121865312.162 8      1950.186          48.625    22813443.960   121865312.179 7      1950.186          47.375    22813454.060    94784165.582 8      1516.812          48.437    22813453.860    94784184.584 8      1516.812          48.375
R15  22777056.500   121713651.331 7      -380.479          44.750    22777056.220   121713651.319 7      -380.479          43.375    22777071.420    94666256.325 7      -295.928          46.187    22777071.180    94666256.330 7      -295.928          46.187
R02  19748823.940   105383559.186 8      2242.699          50.062    19748823.380   105383559.187 8      2242.699          49.625    19748830.960    81964996.587 8      1744.321          50.062    19748831.420    81964990.590 8      1744.321          51.437
G21  22364876.580   117528189.078 7      1335.301          46.375    22364875.500   117528189.086 6      1335.301          36.187    22364878.120    91580419.366 6      1040.494          36.375
G08  22328900.240   117339163.355 7         5.816          44.500    22328899.540   117339163.360 7         5.816          44.937    22328908.060    91433145.330 7         4.532          44.812    22328908.860    91433148.331 8         4.532          48.000
G14  22015390.280   115691665.284 7      2545.611          45.000    22015389.240   115691665.291 5      2545.611          35.812    22015393.800    90149352.954 5      1983.593          35.500    22015394.380    90149357.956 8      1983.593          48.750
R01  22678944.220   121231939.144 6      -994.902          41.875    22678943.700   121231939.145 6      -994.902          41.687    22678956.960    94291553.599 6      -773.812          40.937    22678955.920    94291550.592 6      -773.812          41.625
G22  23409345.060   123016939.099 7      3889.131          45.062    23409343.880   123016939.101 5      3889.131          31.062    23409348.100    95857349.591 5      3030.492          31.062
R24  22230967.160   118878971.545 7      1073.013          46.625    22230969.540   118878971.557 7      1073.013          45.562    22230979.820    92461464.418 7       834.566          46.500    22230979.820    92461470.415 7       834.566          46.625
R18  22025421.000   117573197.277 7      4836.275          43.062    22025420.980   117573197.265 7      4836.275          43.500    22025429.220    91445854.647 7      3761.547          46.187    22025429.300    91445856.662 7      3761.547          46.000
R17  20377848.560   109045990.840 7      3308.350          46.812    20377848.800   109045990.858 7      3308.350          46.437    20377857.520    84813577.851 8      2573.161          50.125    20377857.160    84813579.849 8      2573.161          50.062
G17  23067205.660   121218988.163 7      5461.489          43.500    23067203.960   121218988.163 5      5461.489          34.000    23067207.620    94456360.975 5      4255.706          33.875    23067209.420    94456370.017 7      4255.706          46.000
G04  22946084.080   120582487.684 7      5611.390          43.125    22946083.200   120582487.691 5      5611.390          31.812    22946094.160    93960417.630 5      4372.512          31.687    22946094.400    93960424.635 7      4372.512          46.687
R03  20606526.320   110308344.076 7      6051.055          46.687    20606525.560   110308344.110 7      6051.055          45.375    20606537.280    85795430.095 8      4706.376          50.625    20606537.120    85795429.098 8      4706.376          50.562
> 2024 05 03 16 21 39.0000000  0 16
G03  19934539.920   104756714.571 8      2713.887          49.187    19934539.460   104756714.573 8      2713.887          50.500    19934543.660    81628608.568 8      2114.717          50.937    19934544.380    81628608.568 8      2114.717          51.875
G02  21757809.280   114338055.278 7      2065.518          46.500    21757807.640   114338055.283 6      2065.518          38.812    21757808.520    89094588.600 6      1609.494          38.562
R16  22813078.260   121863362.200 8      1949.724          48.687    22813079.220   121863362.220 7      1949.724          47.500    22813089.220    94782648.940 8      1516.452          48.062    22813089.040    94782667.941 8      1516.452          48.562
R15  22777127.780   121714031.738 7      -380.396          45.187    22777127.420   121714031.723 7      -380.396          44.187    22777142.380    94666552.174 7      -295.864          46.437    22777142.560    94666552.179 7      -295.864          46.375
R02  19748403.780   105381316.905 8      2242.081          50.562    19748403.360   105381316.906 8      2242.081          49.125    19748410.860    81963252.588 8      1743.841          50.500    19748411.380    81963246.592 8      1743.841          50.562
G21  22364622.400   117526853.774 7      1335.540          45.937    22364621.380   117526853.778 6      1335.540          36.250    22364624.100    91579378.865 6      1040.681          36.375
G08  22328899.340   117339157.601 7         5.704          45.187    22328898.480   117339157.603 7         5.704          44.812    22328907.080    91433140.837 7         4.444          44.937    22328908.080    91433143.839 7         4.444          47.437
G14  22014905.760   115689119.850 7      2545.284          45.062    22014905.020   115689119.860 5      2545.284          35.875    22014909.500    90147369.499 5      1983.338          35.937    22014909.720    90147374.495 8      1983.338          49.062
R01  22679130.440   121232934.191 7      -995.154          42.000    22679129.960   121232934.197 6      -995.154          41.375    22679142.580    94292327.527 6      -774.009          40.937    22679141.640    94292324.523 6      -774.009          41.937
G22  23408605.180   123013050.170 7      3888.914          45.625    23408603.780   123013050.175 5      3888.914          31.062    23408608.200    95854319.257 5      3030.323          30.875
R24  22230766.320   118877898.577 7      1073.117          47.125    22230768.660   118877898.592 7      1073.117          46.187    22230779.280    92460629.878 7       834.647          46.375    22230779.180    92460635.880 7       834.647          47.062
R18  22024515.260   117568360.830 6      4836.759          39.562    22024512.200   117568360.837 7      4836.759          42.937    22024522.800    91442092.987 7      3761.924          45.750    22024522.880    91442094.999 7      3761.924          45.812
R17  20377230.400   109042682.612 7      3308.422          47.062    20377230.840   109042682.627 7      3308.422          46.500    20377239.380    84811004.778 8      2573.217          49.937    20377239.000    84811006.776 8      2573.217          50.187
G17  23066166.220   121213526.697 7      5461.726          42.750    23066164.700   121213526.699 5      5461.726          33.562    23066168.520    94452105.287 5      4255.890          33.687    23066169.120    94452114.333 7      4255.890          44.687
G04  22945016.140   120576876.257 7      5611.425          43.312    22945015.540   120576876.265 5      5611.425          32.000    22945026.380    93956045.096 5      4372.539          31.687    22945026.740    93956052.103 7      4372.539          47.187
R03  20605395.860   110302293.165 7      6050.721          46.437    20605395.260   110302293.196 7      6050.721          45.437    20605406.860    85790723.831 8      4706.116          50.625    20605406.980    85790722.834 8      4706.116          50.625
> 2024 05 03 16 21 40.0000000  0 16
G03  19934023.500   104754001.257 8      2712.891          48.500    19934023.060   104754001.262 8      2712.891          51.000    19934027.300    81626493.915 8      2113.941          51.375    19934028.080    81626493.915 8      2113.941          51.750
G02  21757416.300   114335990.078 7      2064.970          46.312    21757414.680   114335990.080 6      2064.970          38.250    21757415.660    89092979.349 6      1609.067          38.250
R16  22812713.580   121861413.050 8      1948.649          48.562    22812714.420   121861413.062 7      1948.649          47.375    22812724.320    94781132.930 8      1515.616          48.125    22812724.420    94781151.933 8      1515.616          48.125
R15  22777199.020   121714412.495 7      -380.931          45.000    22777198.460   121714412.481 7      -380.931          43.812    22777213.800    94666848.302 7      -296.280          45.875    22777213.640    94666848.307 7      -296.280          46.000
R02  19747983.800   105379075.585 8      2240.777          50.375    19747983.300   105379075.586 8      2240.777          49.062    19747990.880    81961509.337 8      1742.826          50.875    19747991.260    81961503.343 8      1742.826          51.375
G21  22364368.560   117525518.493 7      1335.132          46.250    22364367.340   117525518.500 6      1335.132          36.375    22364370.120    91578338.383 6      1040.363          36.437
G08  22328898.260   117339152.252 7         5.090          45.750    22328897.500   117339152.256 7         5.090          44.875    22328906.000    91433136.663 7         3.967          44.437    22328906.900    91433139.665 7         3.967          47.812
G14  22014421.620   115686575.122 7      2544.270          43.812    22014420.780   115686575.135 5      2544.270          35.875    22014425.180    90145386.593 5      1982.548          35.437    22014425.480    90145391.593 8      1982.548          48.812
R01  22679316.760   121233929.635 7      -995.763          42.062    22679316.240   121233929.639 6      -995.763          41.375    22679328.880    94293101.761 6      -774.482          40.937    22679327.720    94293098.754 6      -774.482          41.937
G22  23407865.220   123009161.838 7      3887.970          45.125    23407863.820   123009161.845 5      3887.970          31.062    23407868.140    95851289.386 5      3029.587          30.875
R24  22230565.920   118876825.881 7      1072.429          46.187    22230567.960   118876825.893 7      1072.429          45.750    22230578.820    92459795.549 7       834.111          46.500    22230578.960    92459801.555 7       834.111          47.625
R18  22023608.740   117563524.423 6      4836.304          39.562    22023604.880   117563524.435 7      4836.304          42.312    22023616.840    91438331.347 7      3761.570          45.500    22023616.520    91438333.349 7      3761.570          45.562
R17  20376612.300   109039374.595 8      3307.730          48.187    20376612.720   109039374.610 7      3307.730          47.000    20376621.340    84808431.874 8      2572.679          49.875    20376620.940    84808433.874 8      2572.679          50.812
G17  23065126.980   121208065.372 7      5461.184          43.250    23065125.560   121208065.380 5      5461.184          33.562    23065129.080    94447849.715 5      4255.468          33.687    23065128.560    94447858.718 7      4255.468          42.375
G04  22943948.420   120571265.033 7      5611.077          42.312    22943947.740   120571265.040 5      5611.077          32.000    22943958.560    93951672.722 5      4372.268          32.062    22943958.680    93951679.734 7      4372.268          47.562
R03  20604265.320   110296242.915 7      6049.863          46.812    20604264.840   110296242.949 7      6049.863          45.437    20604276.620    85786018.089 8      4705.449          50.187    20604276.600    85786017.095 8      4705.449          50.875
> 2024 05 03 16 21 41.0000000  0 16
G03  19933507.200   104751288.429 8      2712.614          48.687    19933506.800   104751288.431 8      2712.614          51.125    19933511.080    81624379.752 8      2113.725          51.250    19933511.900    81624379.752 8      2113.725          51.312
G02  21757023.180   114333924.917 7      2065.131          46.500    21757021.600   114333924.922 6      2065.131          38.812    21757022.580    89091370.137 6      1609.193          38.375
R16  22812348.580   121859464.543 8      1948.180          48.812    22812349.540   121859464.558 7      1948.180          47.187    22812359.240    94779617.423 8      1515.251          48.187    22812359.540    94779636.428 8      1515.251          48.250
R15  22777270.340   121714793.317 7      -380.952          44.312    22777269.700   121714793.310 7      -380.952          43.812    22777285.020    94667144.486 7      -296.296          46.312    22777285.260    94667144.491 7      -296.296          46.187
R02  19747564.200   105376835.121 8      2240.101          50.562    19747563.460   105376835.116 8      2240.101          48.687    19747570.980    81959766.756 8      1742.301          50.250    19747571.160    81959760.759 8      1742.301          50.437
G21  22364114.240   117524183.238 7      1335.247          47.062    22364113.260   117524183.246 6      1335.247          36.250    22364116.160    91577297.925 6      1040.452          36.812
G08  22328897.420   117339147.133 7         4.977          44.750    22328896.620   117339147.135 7         4.977          44.875    22328905.100    91433132.674 7         3.878          44.625    22328905.940    91433135.676 7         3.878          47.437
G14  22013937.300   115684030.894 7      2543.968          44.437    22013936.560   115684030.907 5      2543.968          35.875    22013940.940    90143404.079 5      1982.312          35.750    22013941.380    90143409.071 8      1982.312          49.312
R01  22679503.200   121234925.582 7      -995.872          42.062    22679502.880   121234925.581 6      -995.872          41.562    22679515.180    94293876.383 6      -774.567          40.437    22679514.100    94293873.377 6      -774.567          41.062
G22  23407125.260   123005273.950 7      3887.701          45.312    23407124.120   123005273.955 5      3887.701          31.062    23407128.120    95848259.861 5      3029.378          30.875
R24  22230364.920   118875753.400 7      1072.432          46.875    22230367.180   118875753.414 7      1072.432          46.187    22230378.160    92458961.399 7       834.114          46.437    22230378.420    92458967.401 7       834.114          47.437
R18  22022702.380   117558687.944 6      4836.565          39.562    22022699.440   117558687.948 7      4836.565          42.312    22022711.000    91434569.641 7      3761.773          46.125    22022710.580    91434571.641 7      3761.773          46.250
R17  20375994.140   109036066.758 7      3307.837          47.562    20375994.440   109036066.770 7      3307.837          46.375    20376002.980    84805859.114 8      2572.762          49.687    20376002.660    84805861.110 8      2572.762          50.437
G17  23064087.740   121202604.103 7      5461.253          44.875    23064086.240   121202604.108 5      5461.253          33.937    23064089.740    94443594.179 5      4255.522          33.750    23064089.100    94443603.143 7      4255.522          42.375
G04  22942880.560   120565653.790 7      5611.288          42.687    22942879.860   120565653.797 5      5611.288          32.000    22942890.800    93947300.329 5      4372.433          32.062    22942891.060    93947307.344 7      4372.433          47.375
R03  20603135.040   110290193.078 7      6049.646          46.937    20603134.620   110290193.101 7      6049.646          45.750    20603146.460    85781312.664 8      4705.280          50.187    20603146.620    85781311.665 8      4705.280          49.937
> 2024 05 03 16 21 42.0000000  0 16
G03  19932991.080   104748576.289 8      2711.762          49.250    19932990.700   104748576.294 8      2711.762          50.812    19932995.000    81622266.327 8      2113.062          51.375    19932995.840    81622266.327 8      2113.062          51.625
G02  21756630.380   114331859.880 7      2064.971          46.625    21756628.520   114331859.885 6      2064.971          38.312    21756629.660    89089761.011 6      1609.069          38.375
R16  22811984.040   121857516.889 8      1947.231          48.625    22811984.720   121857516.903 7      1947.231          47.500    22811994.780    94778102.579 7      1514.513          47.875    22811994.880    94778121.581 8      1514.513          48.312
R15  22777341.580   121715174.512 7      -381.328          44.562    22777341.160   121715174.505 7      -381.328          43.937    22777356.520    94667440.955 7      -296.588          45.875    22777356.480    94667440.955 7      -296.588          46.437
R02  19747144.400   105374595.630 8      2238.986          50.312    19747143.800   105374595.626 8      2238.986          48.750    19747151.200    81958024.928 8      1741.434          50.562    19747151.600    81958018.932 8      1741.434          51.187
G21  22363860.220   117522848.036 7      1335.168          46.437    22363859.060   117522848.041 6      1335.168          36.250    22363862.060    91576257.505 6      1040.391          36.250
G08  22328896.340   117339142.438 7         4.488          45.062    22328895.780   117339142.443 7         4.488          44.500    22328904.300    91433129.010 7         3.497          44.375    22328904.940    91433132.007 7         3.497          47.750
G14  22013453.480   115681487.397 7      2543.199          44.750    22013452.460   115681487.409 5      2543.199          35.750    22013456.860    90141422.127 5      1981.713          35.750    22013457.300    90141427.121 8      1981.713          48.750
R01  22679689.900   121235922.024 6      -996.740          41.750    22679689.320   121235922.036 6      -996.740          41.562    22679701.520    94294651.405 6      -775.242          40.437    22679700.480    94294648.396 6      -775.242          41.375
G22  23406385.540   123001386.669 7      3886.972          43.687    23406384.380   123001386.674 5      3886.972          31.062    23406388.420    95845230.809 5      3028.809          31.187
R24  22230164.580   118874681.239 7      1072.001          45.750    22230166.940   118874681.253 7      1072.001          45.812    22230177.840    92458127.494 7       833.779          46.562    22230177.980    92458133.496 7       833.779          47.250
R18  22021796.400   117553851.495 6      4836.454          39.187    22021795.540   117553851.485 7      4836.454          42.125    22021805.420    91430807.948 7      3761.687          46.125    22021804.840    91430809.950 7      3761.687          46.312
R17  20375376.120   109032759.159 7      3307.447          47.687    20375376.500   109032759.171 7      3307.447          46.375    20375384.980    84803286.530 8      2572.459          50.000    20375384.720    84803288.530 8      2572.459          50.625
G17  23063048.160   121197142.976 7      5461.057          46.250    23063047.040   121197142.973 5      5461.057          33.937    23063050.440    94439338.751 5      4255.369          33.750    23063050.600    94439347.713 7      4255.369          42.437
G04  22941813.020   120560042.786 7      5610.964          42.250    22941812.000   120560042.796 5      5610.964          32.125    22941823.040    93942928.129 5      4372.180          32.062    22941823.440    93942935.137 7      4372.180          47.375
R03  20602005.100   110284143.912 7      6048.823          46.750    20602004.820   110284143.938 7      6048.823          45.812    20602016.400    85776607.764 8      4704.640          50.437    20602016.480    85776606.767 8      4704.640          50.500
> 2024 05 03 16 21 43.0000000  0 16
G03  19932474.960   104745864.617 8      2711.412          48.812    19932474.680   104745864.620 8      2711.412          50.437    19932478.960    81620152.902 8      2112.789          49.875    19932479.740    81620152.902 8      2112.789          50.812
G02  21756237.320   114329794.814 7      2065.025          47.062    21756235.680   114329794.819 6      2065.025          38.937    21756236.740    89088151.871 6      1609.111          38.750
R16  22811619.640   121855569.873 7      1946.610          47.875    22811620.280   121855569.885 7      1946.610          47.500    22811630.200    94776588.227 7      1514.030          47.562    22811630.180    94776607.229 8      1514.030          48.250
R15  22777412.940   121715555.838 7      -381.432          44.687    22777412.440   121715555.834 7      -381.432          43.937    22777427.840    94667737.525 7      -296.669          46.312    22777427.940    94667737.528 7      -296.669          45.625
R02  19746724.920   105372356.943 8      2238.259          50.375    19746724.380   105372356.936 8      2238.259          49.500    19746731.720    81956283.723 8      1740.868          49.875    19746732.060    81956277.726 8      1740.868          50.437
G21  22363606.040   117521512.789 7      1335.229          46.562    22363604.940   117521512.792 6      1335.229          36.250    22363607.900    91575217.049 6      1040.438          36.187
G08  22328895.700   117339137.982 7         4.342          46.000    22328894.800   117339137.986 7         4.342          44.687    22328903.340    91433125.531 7         3.383          44.250    22328904.180    91433128.533 7         3.383          47.375
G14  22012969.600   115678944.435 7      2542.658          44.875    22012968.660   115678944.443 6      2542.658          36.000    22012973.080    90139440.594 6      1981.292          36.187    22012973.560    90139445.584 8      1981.292          49.375
R01  22679876.440   121236918.791 6      -996.947          41.750    22679875.060   121236918.801 6      -996.947          41.375    22679887.820    94295426.658 6      -775.403          40.250    22679887.000    94295423.653 6      -775.403          41.375
G22  23405645.860   122997499.800 7      3886.693          42.062    23405644.700   122997499.810 5      3886.693          31.062    23405648.780    95842202.084 5      3028.592          31.187
R24  22229964.300   118873609.249 7      1071.894          47.250    22229966.220   118873609.258 7      1071.894          45.937    22229977.340    92457293.711 7       833.695          46.250    22229977.460    92457299.715 7       833.695          46.937
R18  22020890.500   117549014.922 6      4836.564          41.687    22020892.200   117549014.907 7      4836.564          42.812    22020900.040    91427046.161 7      3761.772          45.687    22020899.080    91427048.165 7      3761.772          46.812
R17  20374757.940   109029451.632 8      3307.468          48.312    20374758.180   109029451.649 7      3307.468          46.562    20374766.880    84800714.015 8      2572.475          49.375    20374766.460    84800716.011 8      2572.475          49.750
G17  23062009.060   121191681.859 7      5461.004          44.750    23062007.700   121191681.848 5      5461.004          33.875    23062011.360    94435083.327 5      4255.328          33.625    23062012.040    94435092.317 7      4255.328          45.875
G04  22940745.340   120554431.798 7      5611.081          42.562    22940744.200   120554431.806 5      5611.081          32.125    22940755.260    93938555.940 5      4372.271          32.000    22940755.420    93938562.943 7      4372.271          47.250
R03  20600875.080   110278095.166 7      6048.522          47.312    20600874.880   110278095.189 7      6048.522          45.875    20600886.440    85771903.186 8      4704.406          50.437    20600886.400    85771902.187 8      4704.406          50.250
> 2024 05 03 16 21 44.0000000  0 16
G03  19931959.140   104743153.332 8      2711.158          48.812    19931958.800   104743153.337 8      2711.158          50.000    19931962.940    81618040.706 8      2112.590          50.437    19931963.880    81618040.706 8      2112.590          50.937
G02  21755844.180   114327729.583 7      2065.418          47.437    21755842.640   114327729.588 6      2065.418          38.875    21755843.720    89086542.598 6      1609.417          38.750
R16  22811254.980   121853623.321 7      1946.446          47.750    22811255.660   121853623.330 7      1946.446          47.187    22811265.820    94775074.238 7      1513.902          47.500    22811265.940    94775093.243 8      1513.902          48.187
R15  22777483.920   121715937.210 7      -381.263          44.500    22777483.880   121715937.208 7      -381.263          43.687    22777499.200    94668034.131 7      -296.538          45.812    22777499.120    94668034.134 7      -296.538          46.062
R02  19746305.440   105370118.939 8      2237.766          50.562    19746304.860   105370118.929 8      2237.766          49.500    19746312.480    81954543.053 8      1740.485          50.375    19746312.620    81954537.059 8      1740.485          50.812
G21  22363351.920   117520177.325 7      1335.636          46.687    22363350.860   117520177.324 6      1335.636          36.062    22363353.800    91574176.421 6      1040.756          36.062
G08  22328894.840   117339133.707 7         4.274          46.125    22328894.000   117339133.706 7         4.274          44.625    22328902.560    91433122.188 7         3.330          44.500    22328903.360    91433125.189 7         3.330          47.562
G14  22012485.660   115676401.862 7      2542.430          44.875    22012484.740   115676401.875 5      2542.430          35.812    22012489.400    90137459.369 5      1981.114          35.562    22012489.520    90137464.369 8      1981.114          49.125
R01  22680062.640   121237915.773 6      -996.960          41.687    22680062.000   121237915.769 6      -996.960          41.375    22680074.080    94296202.074 6      -775.413          40.250    22680073.720    94296199.066 6      -775.413          41.187
G22  23404906.480   122993613.231 7      3886.570          42.937    23404905.240   122993613.241 5      3886.570          30.937    23404909.260    95839173.589 5      3028.496          31.187
R24  22229763.620   118872537.246 7      1072.097          45.875    22229765.800   118872537.258 7      1072.097          45.187    22229776.780    92456459.927 7       833.853          46.125    22229777.080    92456465.931 7       833.853          46.875
R18  22019984.520   117544178.016 7      4837.196          45.187    22019987.400   117544177.990 7      4837.196          43.375    22019994.420    91423284.108 7      3762.264          46.250    22019993.200    91423286.119 7      3762.264          46.375
R17  20374140.320   109026143.995 7      3307.797          47.437    20374140.080   109026144.010 7      3307.797          46.562    20374148.800    84798141.405 8      2572.731          49.250    20374148.460    84798143.403 8      2572.731          50.000
G17  23060969.740   121186220.516 7      5461.545          44.375    23060968.360   121186220.513 5      5461.545          33.875    23060971.900    94430827.741 5      4255.749          33.625    23060973.880    94430836.774 7      4255.749          46.000
G04  22939677.300   120548820.800 6      5610.985          41.812    22939676.480   120548820.807 5      5610.985          32.187    22939687.680    93934183.740 5      4372.196          32.000    22939687.680    93934190.759 7      4372.196          46.875
R03  20599745.180   110272046.787 7      6048.313          46.562    20599744.760   110272046.808 7      6048.313          45.875    20599756.580    85767198.897 8      4704.243          49.937    20599756.560    85767197.896 8      4704.243          50.312
> 2024 05 03 16 21 45.0000000  0 16
G03  19931443.340   104740442.538 8      2710.495          48.625    19931442.900   104740442.542 8      2710.495          50.250    19931447.160    81615928.591 8      2112.074          50.000    19931448.040    81615928.591 8      2112.074          50.875
G02  21755451.200   114325664.396 7      2065.058          47.062    21755449.640   114325664.398 6      2065.058          38.500    21755450.700    89084933.355 6      1609.136          38.562
R16  22810890.860   121851677.424 8      1945.565          48.312    22810891.260   121851677.431 7      1945.565          46.750    22810901.580    94773560.765 7      1513.217          47.187    22810901.900    94773579.767 7      1513.217          47.500
R15  22777554.980   121716318.670 7      -381.455          44.625    22777554.840   121716318.665 7      -381.455          43.625    22777570.840    94668330.803 7      -296.687          46.062    22777570.520    94668330.806 7      -296.687          46.437
R02  19745886.240   105367881.789 8      2236.611          50.187    19745885.660   105367881.787 8      2236.611          48.750    19745893.080    81952803.053 8      1739.587          49.687    19745893.600    81952797.057 8      1739.587          49.937
G21  22363098.040   117518841.857 7      1335.359          46.500    22363096.740   117518841.862 6      1335.359          36.000    22363099.640    91573135.799 6      1040.540          36.250
G08  22328894.180   117339129.639 7         3.850          45.812    22328893.080   117339129.639 7         3.850          44.437    22328901.820    91433119.012 7         3.000          44.312    22328902.580    91433122.014 7         3.000          47.000
G14  22012001.760   115673859.813 7      2541.866          44.687    22012000.960   115673859.825 5      2541.866          35.750    22012005.700    90135478.551 5      1980.674          35.375    22012005.840    90135483.549 8      1980.674          49.062
R01  22680249.100   121238913.179 6      -997.717          41.750    22680248.500   121238913.178 6      -997.717          41.062    22680260.960    94296977.830 6      -776.002          40.187    22680259.980    94296974.827 6      -776.002          41.187
G22  23404166.920   122989727.159 7      3885.807          43.000    23404165.840   122989727.169 5      3885.807          30.937    23404169.760    95836145.484 5      3027.902          30.937
R24  22229563.280   118871465.478 7      1071.535          46.687    22229565.220   118871465.487 7      1071.535          45.250    22229576.460    92455626.323 7       833.416          46.062    22229576.840    92455632.330 7       833.416          46.375
R18  22019078.340   117539341.073 7      4836.889          44.750    22019080.720   117539341.052 7      4836.889          43.375    22019088.000    91419522.045 7      3762.025          46.250    22019087.400    91419524.060 7      3762.025          46.500
R17  20373521.800   109022836.532 7      3307.235          47.812    20373522.080   109022836.541 7      3307.235          46.500    20373530.800    84795568.929 8      2572.294          48.750    20373530.460    84795570.925 8      2572.294          49.000
G17  23059930.360   121180759.288 7      5461.119          43.187    23059929.240   121180759.293 5      5461.119          33.687    23059932.560    94426572.247 5      4255.417          33.875    23059934.560    94426581.301 7      4255.417          46.125
G04  22938609.700   120543209.759 7      5610.873          42.500    22938608.620   120543209.775 5      5610.873          32.187    22938619.900    93929811.513 5      4372.109          32.000    22938619.880    93929818.530 7      4372.109          47.062
R03  20598615.380   110265998.810 7      6047.663          47.187    20598615.220   110265998.833 7      6047.663          45.500    20598626.820    85762494.919 8      4703.738          49.187    20598626.860    85762493.918 8      4703.738          49.625
> 2024 05 03 16 21 46.0000000  0 16
G03  19930927.780   104737732.511 8      2709.919          48.437    19930927.200   104737732.518 8      2709.919          50.250    19930931.480    81613817.459 8      2111.625          51.125    19930932.260    81613817.459 8      2111.625          50.937
G02  21755058.420   114323599.424 7      2065.155          47.625    21755056.760   114323599.427 6      2065.155          38.687    21755057.880    89083324.288 6      1609.212          38.562
R16  22810526.780   121849732.374 7      1944.946          47.625    22810526.720   121849732.378 7      1944.946          46.500    22810537.300    94772047.950 7      1512.735          47.500    22810537.620    94772066.955 8      1512.735          48.062
R15  22777626.900   121716700.568 7      -381.848          44.562    22777626.720   121716700.566 7      -381.848          43.375    22777642.160    94668627.818 7      -296.993          46.562    22777642.300    94668627.823 7      -296.993          46.937
R02  19745467.360   105365645.743 8      2235.742          50.812    19745466.580   105365645.741 8      2235.742          49.187    19745474.060    81951063.907 8      1738.911          50.937    19745474.320    81951057.910 8      1738.911          50.437
G21  22362843.800   117517506.589 7      1335.430          46.125    22362842.680   117517506.592 5      1335.430          35.937    22362845.540    91572095.327 6      1040.594          36.062
G08  22328893.620   117339126.142 7         3.454          46.187    22328892.400   117339126.147 7         3.454          44.812    22328901.200    91433116.291 7         2.692          44.500    22328902.060    91433119.293 7         2.692          47.500
G14  22011518.240   115671318.564 7      2541.151          45.187    22011517.320   115671318.577 6      2541.151          36.312    22011522.100    90133498.355 6      1980.118          36.000    22011522.280    90133503.357 8      1980.118          49.000
R01  22680436.000   121239911.174 6      -997.977          41.750    22680435.040   121239911.180 6      -997.977          41.062    22680447.560    94297754.050 6      -776.204          40.062    22680446.600    94297751.045 6      -776.204          40.687
G22  23403427.680   122985841.714 7      3885.347          42.500    23403426.400   122985841.724 5      3885.347          30.937    23403430.380    95833117.865 5      3027.543          30.937
R24  22229362.880   118870394.178 7      1071.319          47.437    22229365.040   118870394.190 7      1071.319          45.687    22229376.100    92454793.092 7       833.248          46.500    22229376.340    92454799.094 7       833.248          46.750
R18  22018172.200   117534504.180 7      4837.111          44.062    22018172.800   117534504.160 7      4837.111          42.812    22018181.640    91415760.030 7      3762.198          46.250    22018181.000    91415762.049 7      3762.198          46.625
R17  20372904.020   109019529.414 7      3307.215          47.500    20372903.740   109019529.424 7      3307.215          46.375    20372912.780    84792996.731 8      2572.278          50.000    20372912.540    84792998.729 8      2572.278          50.125
G17  23058891.000   121175298.253 7      5461.237          43.125    23058890.060   121175298.260 5      5461.237          33.687    23058893.240    94422316.901 5      4255.509          33.875    23058894.300    94422325.947 7      4255.509          44.812
G04  22937542.240   120537599.071 7      5610.688          42.750    22937541.060   120537599.086 5      5610.688          32.187    22937552.300    93925439.560 5      4371.965          32.125    22937552.200    93925446.583 7      4371.965          47.625
R03  20597485.640   110259951.598 7      6046.985          46.562    20597485.280   110259951.621 7      6046.985          45.562    20597497.260    85757791.542 8      4703.211          50.562    20597497.160    85757790.543 8      4703.211          50.562
> 2024 05 03 16 21 47.0000000  0 16
G03  19930412.140   104735022.980 8      2709.043          48.625    19930411.600   104735022.982 8      2709.043          50.687    19930415.880    81611705.999 8      2110.942          51.750    19930416.840    81611705.999 8      2110.942          52.062
G02  21754665.340   114321534.382 7      2064.825          47.750    21754663.960   114321534.390 6      2064.825          39.000    21754665.080    89081715.168 6      1608.955          38.687
R16  22810162.800   121847787.991 7      1943.824          47.312    22810162.660   121847787.987 7      1943.824          46.937    22810173.400    94770535.650 7      1511.863          47.750    22810173.660    94770554.657 8      1511.863          48.750
R15  22777697.900   121717082.677 7      -382.448          44.812    22777697.580   121717082.672 7      -382.448          43.437    22777714.020    94668924.995 7      -297.459          46.812    22777713.680    94668925.002 7      -297.459          46.687
R02  19745048.380   105363410.428 8      2234.727          50.437    19745047.760   105363410.424 8      2234.727          49.687    19745055.200    81949325.324 8      1738.121          50.687    19745055.420    81949319.328 8      1738.121          51.125
G21  22362589.620   117516171.177 7      1335.268          46.625    22362588.760   117516171.185 6      1335.268          36.187    22362591.400    91571054.750 6      1040.469          36.375
G08  22328892.820   117339122.863 7         3.054          45.500    22328891.840   117339122.865 7         3.054          45.187    22328900.460    91433113.724 7         2.380          44.562    22328901.080    91433116.725 7         2.380          47.625
G14  22011034.840   115668777.883 7      2540.096          44.437    22011033.760   115668777.901 5      2540.096          35.750    22011038.660    90131518.610 5      1979.295          35.875    22011038.900    90131523.608 8      1979.295          49.187
R01  22680622.780   121240909.478 6      -998.841          41.937    22680622.180   121240909.493 6      -998.841          40.937    22680634.140    94298530.511 6      -776.877          40.062    22680633.320    94298527.508 6      -776.877          40.812
G22  23402688.660   122981956.753 7      3884.416          43.687    23402687.100   122981956.761 5      3884.416          30.687    23402691.100    95830090.623 5      3026.818          30.937
R24  22229162.280   118869322.937 7      1071.011          45.812    22229164.700   118869322.946 7      1071.011          46.187    22229175.760    92453959.898 7       833.009          47.000    22229175.920    92453965.900 7       833.009          47.000
R18  22017266.500   117529667.095 7      4836.902          44.062    22017264.160   117529667.096 7      4836.902          43.062    22017274.680    91411997.878 7      3762.035          46.437    22017274.620    91411999.897 7      3762.035          46.437
R17  20372285.740   109016222.390 7      3306.722          47.750    20372285.880   109016222.397 7      3306.722          46.625    20372294.660    84790424.597 8      2571.895          50.062    20372294.540    84790426.595 8      2571.895          50.312
G17  23057851.860   121169837.233 7      5460.752          45.000    23057850.760   121169837.236 5      5460.752          33.750    23057854.040    94418061.559 5      4255.132          33.625    23057853.600    94418070.564 7      4255.132          42.500
G04  22936474.380   120531988.427 7      5610.491          42.437    22936473.280   120531988.443 5      5610.491          32.000    22936484.620    93921067.644 5      4371.811          32.125    22936484.720    93921074.655 7      4371.811          47.312
R03  20596356.280   110253904.836 7      6046.295          47.187    20596355.660   110253904.856 7      6046.295          46.062    20596367.720    85753088.507 8      4702.674          50.562    20596367.500    85753087.510 8      4702.674          51.062
> 2024 05 03 16 21 48.0000000  0 16
G03  19929896.800   104732313.904 8      2708.857          49.312    19929896.040   104732313.906 8      2708.857          51.000    19929900.360    81609595.768 8      2110.797          51.375    19929901.200    81609595.768 8      2110.797          51.375
G02  21754272.240   114319469.292 7      2065.192          47.562    21754270.900   114319469.297 6      2065.192          38.500    21754271.940    89080106.006 6      1609.241          38.750
R16  22809798.760   121845844.191 7      1943.582          47.687    22809798.480   121845844.190 7      1943.582          46.875    22809809.680    94769023.804 8      1511.675          48.125    22809809.640    94769042.808 8      1511.675          48.500
R15  22777769.740   121717464.847 7      -382.161          44.250    22777769.200   121717464.838 7      -382.161          43.437    22777785.460    94669222.218 7      -297.236          46.625    22777785.180    94669222.219 7      -297.236          46.500
R02  19744629.660   105361175.914 8      2234.225          50.875    19744629.060   105361175.910 8      2234.225          48.937    19744636.440    81947587.371 8      1737.730          50.562    19744636.880    81947581.375 8      1737.730          50.937
G21  22362335.580   117514835.683 7      1335.684          46.812    22362334.520   117514835.686 6      1335.684          36.312    22362337.480    91570014.101 6      1040.792          36.437
G08  22328892.360   117339119.804 7         3.050          45.750    22328891.180   117339119.809 7         3.050          44.812    22328899.940    91433111.336 7         2.377          44.625    22328900.680    91433114.338 7         2.377          47.812
G14  22010551.300   115666237.665 7      2540.060          43.812    22010550.520   115666237.680 5      2540.060          35.875    22010555.320    90129539.217 5      1979.268          35.687    22010555.500    90129544.215 8      1979.268          49.187
R01  22680809.920   121241908.039 6      -998.536          41.937    22680808.880   121241908.051 6      -998.536          40.937    22680821.080    94299307.172 6      -776.639          40.125    22680819.920    94299304.169 6      -776.639          40.812
G22  23401949.140   122978072.150 7      3884.438          44.000    23401947.920   122978072.154 5      3884.438          30.687    23401951.900    95827063.661 5      3026.835          30.625
R24  22228962.140   118868251.800 7      1071.182          46.125    22228964.260   118868251.812 7      1071.182          45.687    22228975.500    92453126.786 7       833.142          46.437    22228975.480    92453132.790 7       833.142          46.562
R18  22016360.380   117524829.863 6      4837.395          40.062    22016356.100   117524829.880 7      4837.395          43.062    22016367.880    91408235.603 7      3762.419          46.312    22016368.460    91408237.616 7      3762.419          45.500
R17  20371668.020   109012915.377 7      3307.113          47.500    20371667.940   109012915.391 7      3307.113          47.000    20371676.740    84787852.481 8      2572.199          50.000    20371676.560    84787854.480 8      2572.199          50.562
G17  23056812.560   121164376.158 7      5461.193          45.000    23056811.520   121164376.158 5      5461.193          33.750    23056814.840    94413806.176 5      4255.475          33.625    23056813.880    94413815.126 7      4255.475          42.500
G04  22935406.640   120526377.823 7      5610.552          42.375    22935405.640   120526377.841 5      5610.552          32.000    22935416.920    93916695.757 5      4371.858          32.125    22935417.000    93916702.762 7      4371.858          47.437
R03  20595226.480   110247858.483 7      6046.198          47.000    20595226.500   110247858.495 7      6046.198          45.937    20595238.300    85748385.788 8      4702.598          50.937    20595238.000    85748384.791 8      4702.598          50.937
> 2024 05 03 16 21 49.0000000  0 16
G03  19929381.240   104729605.296 8      2708.383          48.687    19929380.640   104729605.301 8      2708.383          51.062    19929384.880    81607484.636 8      2110.428          51.500    19929385.840    81607484.636 8      2110.428          51.437
G02  21753879.300   114317404.142 7      2065.239          47.500    21753877.940   114317404.144 6      2065.239          39.250    21753878.860    89078496.792 6      1609.277          39.125
R16  22809435.340   121843900.994 7      1942.988          47.125    22809434.880   121843900.995 7      1942.988          46.125    22809445.860    94767512.426 8      1511.213          48.250    22809445.860    94767531.433 8      1511.213          48.625
R15  22777841.300   121717847.135 7      -382.228          43.437    22777840.200   121717847.128 7      -382.228          43.187    22777857.020    94669519.535 7      -297.289          46.562    22777856.920    94669519.538 7      -297.289          46.687
R02  19744210.920   105358942.235 8      2233.372          50.562    19744210.480   105358942.236 8      2233.372          49.000    19744217.820    81945850.069 8      1737.067          50.875    19744218.240    81945844.073 8      1737.067          51.500
G21  22362081.360   117513500.111 7      1335.707          46.375    22362080.200   117513500.108 6      1335.707          36.187    22362083.200    91568973.389 6      1040.811          36.062
G08  22328891.880   117339117.019 7         2.809          45.125    22328890.660   117339117.027 7         2.809          44.812    22328899.400    91433109.158 7         2.189          44.562    22328900.200    91433112.164 7         2.189          47.437
G14  22010068.240   115663697.946 7      2539.568          43.812    22010067.200   115663697.961 5      2539.568          35.750    22010071.980    90127560.213 5      1978.884          35.437    22010072.140    90127565.215 8      1978.884          49.062
R01  22680996.640   121242906.964 6      -998.968          41.500    22680995.680   121242906.965 6      -998.968          40.937    22681008.000    94300084.101 6      -776.975          40.125    22681007.220    94300081.091 6      -776.975          40.875
G22  23401210.020   122974187.919 7      3884.208          44.375    23401208.600   122974187.919 5      3884.208          30.687    23401212.760    95824036.984 5      3026.656          30.625
R24  22228762.020   118867180.831 7      1070.925          45.750    22228763.900   118867180.833 7      1070.925          45.625    22228775.120    92452293.798 7       832.942          46.937    22228775.120    92452299.804 7       832.942          47.125
R18  22015453.660   117519992.464 6      4837.551          40.062    22015450.800   117519992.470 7      4837.551          42.375    22015460.900    91404473.179 7      3762.540          45.937    22015461.840    91404475.181 7      3762.540          45.375
R17  20371050.040   109009608.411 8      3306.999          48.250    20371050.080   109009608.426 7      3306.999          46.687    20371058.700    84785280.393 8      2572.110          49.937    20371058.620    84785282.391 8      2572.110          50.250
G17  23055773.360   121158915.013 7      5461.258          44.625    23055772.300   121158915.012 5      5461.258          33.875    23055775.500    94409550.736 5      4255.526          33.687    23055776.140    94409559.687 6      4255.526          41.312
G04  22934338.800   120520767.234 7      5610.727          42.187    22934337.960   120520767.250 5      5610.727          32.000    22934349.360    93912323.878 5      4371.995          31.687    22934349.480    93912330.885 7      4371.995          47.125
R03  20594097.440   110241812.604 7      6045.742          46.750    20594097.320   110241812.619 7      6045.742          45.625    20594108.780    85743683.448 8      4702.244          50.437    20594108.620    85743682.449 8      4702.244          51.062
> 2024 05 03 16 21 50.0000000  0 16
G03  19928865.880   104726897.071 8      2707.922          49.500    19928865.240   104726897.071 8      2707.922          50.625    19928869.540    81605374.323 8      2110.069          51.250    19928870.420    81605374.323 8      2110.069          51.562
G02  21753486.120   114315338.911 7      2065.134          46.750    21753484.840   114315338.913 6      2065.134          39.000    21753485.920    89076887.524 6      1609.195          38.750
R16  22809071.600   121841958.372 7      1942.254          47.250    22809071.120   121841958.373 7      1942.254          46.312    22809082.180    94766001.500 7      1510.642          47.812    22809082.200    94766020.504 8      1510.642          48.375
R15  22777912.580   121718229.418 7      -382.440          43.625    22777911.900   121718229.416 7      -382.440          42.500    22777928.680    94669816.851 7      -297.453          46.750    22777928.380    94669816.854 7      -297.453          46.750
R02  19743792.440   105356709.279 8      2232.520          50.750    19743792.400   105356709.280 8      2232.520          49.812    19743799.380    81944113.325 8      1736.405          50.500    19743799.820    81944107.331 8      1736.405          51.250
G21  22361827.320   117512164.399 7      1335.633          46.937    22361825.920   117512164.404 6      1335.633          36.250    22361829.200    91567932.575 6      1040.753          36.437
G08  22328891.400   117339114.347 7         2.537          45.750    22328890.220   117339114.355 7         2.537          44.125    22328898.820    91433107.071 7         1.977          44.312    22328899.760    91433110.073 7         1.977          47.625
G14  22009585.160   115661158.668 7      2538.945          44.062    22009583.880   115661158.683 5      2538.945          35.125    22009588.720    90125581.557 5      1978.399          35.312    22009589.080    90125586.557 8      1978.399          49.250
R01  22681183.680   121243906.177 6      -999.537          41.500    22681182.700   121243906.176 6      -999.537          40.937    22681194.580    94300861.263 6      -777.418          40.125    22681193.900    94300858.257 6      -777.418          40.812
G22  23400470.840   122970304.069 7      3883.553          44.250    23400469.500   122970304.074 5      3883.553          31.000    23400473.700    95821010.609 5      3026.145          30.625
R24  22228561.780   118866109.914 7      1070.691          46.562    22228563.580   118866109.920 7      1070.691          45.625    22228574.940    92451460.864 7       832.760          46.937    22228575.100    92451466.868 7       832.760          46.500
R18  22014547.560   117515154.874 6      4837.567          39.687    22014547.000   117515154.867 7      4837.567          42.500    22014554.640    91400710.597 7      3762.552          45.812    22014555.640    91400712.589 7      3762.552          45.125
R17  20370431.760   109006301.451 7      3306.855          47.000    20370431.920   109006301.466 7      3306.855          46.375    20370440.780    84782708.311 8      2571.998          50.250    20370440.600    84782710.311 8      2571.998          50.375
G17  23054734.200   121153453.814 7      5461.139          44.312    23054733.300   121153453.819 5      5461.139          34.250    23054736.260    94405295.265 5      4255.433          33.687    23054738.300    94405304.241 7      4255.433          45.875
G04  22933271.560   120515156.549 7      5610.556          42.812    22933270.200   120515156.561 5      5610.556          31.750    22933281.440    93907951.921 5      4371.861          31.687    22933282.020    93907958.936 7      4371.861          47.562
R03  20592967.620   110235767.030 7      6045.300          47.437    20592968.260   110235767.058 7      6045.300          45.250    20592979.400    85738981.352 8      4701.900          50.125    20592979.420    85738980.355 8      4701.900          50.750
> 2024 05 03 16 21 51.0000000  0 16
G03  19928350.720   104724189.362 8      2707.570          48.437    19928350.080   104724189.361 8      2707.570          50.687    19928354.300    81603264.829 8      2109.795          51.250    19928355.280    81603264.829 8      2109.795          51.812
G02  21753093.300   114313273.671 7      2065.373          46.375    21753091.980   114313273.673 6      2065.373          39.125    21753092.940    89075278.243 6      1609.382          38.750
R16  22808707.980   121840016.388 7      1941.784          46.375    22808707.620   121840016.384 7      1941.784          46.375    22808718.580    94764491.061 8      1510.276          48.187    22808719.160    94764510.068 8      1510.276          48.312
R15  22777984.000   121718611.789 7      -382.301          43.937    22777983.240   121718611.785 7      -382.301          42.562    22778000.160    94670114.232 7      -297.345          47.062    22777999.800    94670114.233 7      -297.345          47.125
R02  19743374.100   105354477.110 8      2231.935          50.500    19743373.960   105354477.111 8      2231.935          49.000    19743380.960    81942377.198 8      1735.950          50.750    19743381.220    81942371.202 8      1735.950          50.875
G21  22361573.060   117510828.635 7      1335.909          46.687    22361571.880   117510828.637 6      1335.909          36.062    22361575.060    91566891.720 6      1040.968          36.375
G08  22328890.840   117339111.932 7         2.425          45.437    22328889.720   117339111.935 7         2.425          44.500    22328898.380    91433105.180 7         1.890          44.125    22328899.580    91433108.181 7         1.890          47.750
G14  22009102.140   115658619.921 7      2538.578          43.875    22009100.840   115658619.931 5      2538.578          35.937    22009105.660    90123603.306 5      1978.113          35.562    22009105.840    90123608.306 8      1978.113          48.812
R01  22681370.660   121244905.735 6      -999.639          41.750    22681369.560   121244905.736 6      -999.639          40.812    22681381.960    94301638.699 6      -777.497          40.125    22681380.740    94301635.693 6      -777.497          40.812
G22  23399731.940   122966420.661 7      3883.203          43.875    23399730.420   122966420.666 5      3883.203          31.000    23399734.680    95817984.579 5      3025.872          31.312
R24  22228361.380   118865039.196 7      1070.725          46.250    22228363.160   118865039.200 7      1070.725          45.750    22228374.740    92450628.082 7       832.786          46.812    22228374.720    92450634.082 7       832.786          46.875
