     3.05           OBSERVATION DATA    MIXED               RINEX VERSION / TYPE
TPS2RIN 1.0.29.3920 TPS-USER            20240511 182143 UTC PGM / RUN BY / DATE
Win64 build Feb 23, 2024 (c) Topcon Positioning Systems     COMMENT
SRC: 20240503_FA07.tps                                      COMMENT
OPT: -S -v 3.05                                             COMMENT
Observer            Agency                                  OBSERVER / AGENCY
O0M3X53SBGM         TPS HIPER_SR        4.8 HSR Jul,08,2022 REC # / TYPE / VERS
FW: 4.8 HSR Jul,08,2022 p3                                  COMMENT
SN: HiPer SR 1212-12575                                     COMMENT
000                 TPSHIPER_SR     NONE                    ANT # / TYPE
        1.8000        0.0000        0.0000                  ANTENNA: DELTA H/E/N
DELTA H stands for **SLANT** height here!                   COMMENT
FA07                                                        MARKER NAME
  5390973.6591 -1598516.2856  3005064.5083                  APPROX POSITION XYZ
  2024     5     3    16    36   17.0000000     GPS         TIME OF FIRST OBS
  2024     5     3    16    41   35.0000000     GPS         TIME OF LAST OBS
     1.000                                                  INTERVAL
   319 EPOCHS                                               COMMENT
G   16 C1C L1C D1C S1C C1W L1W D1W S1W C2W L2W D2W S2W C2X  SYS / # / OBS TYPES
       L2X D2X S2X                                          SYS / # / OBS TYPES
R   16 C1C L1C D1C S1C C1P L1P D1P S1P C2P L2P D2P S2P C2C  SYS / # / OBS TYPES
       L2C D2C S2C                                          SYS / # / OBS TYPES
    18                                                      # OF SATELLITES
   G02   319   319   319   319   319   319   319   319   319PRN / # OF OBS
         319   319   319     0     0     0     0            PRN / # OF OBS
   G03   319   319   319   319   319   319   319   319   319PRN / # OF OBS
         319   319   319   319   319   319   319            PRN / # OF OBS
   G04   319   319   319   319   319   319   319   319   319PRN / # OF OBS
         319   319   319   319   319   319   319            PRN / # OF OBS
   G08   319   319   319   319   319   319   319   319   319PRN / # OF OBS
         319   319   319   319   319   319   319            PRN / # OF OBS
   G09   319   319   319   319   319   319   319   319   319PRN / # OF OBS
         319   319   319   319   319   319   319            PRN / # OF OBS
   G14   319   319   319   319   319   319   319   319   319PRN / # OF OBS
         319   319   319   319   319   319   319            PRN / # OF OBS
   G17   319   319   319   319   319   319   319   319   319PRN / # OF OBS
         319   319   319   319   319   319   319            PRN / # OF OBS
   G21   319   319   319   319   319   319   319   319   319PRN / # OF OBS
         319   319   319     0     0     0     0            PRN / # OF OBS
   G22   319   319   319   319   319   319   319   319   319PRN / # OF OBS
         319   319   319     0     0     0     0            PRN / # OF OBS
   R01   305   305   305   305   300   300   300   300   300PRN / # OF OBS
         300   300   300   299   299   299   299            PRN / # OF OBS
   R02   319   319   319   319   319   319   319   319   319PRN / # OF OBS
         319   319   319   319   319   319   319            PRN / # OF OBS
   R03   319   319   319   319   319   319   319   319   319PRN / # OF OBS
         319   319   319   319   319   319   319            PRN / # OF OBS
   R04   134   134   134   134   130   130   130   130   130PRN / # OF OBS
         130   130   130   129   129   129   129            PRN / # OF OBS
   R15   298   298   298   298   292   292   292   292   292PRN / # OF OBS
         292   292   292   291   291   291   291            PRN / # OF OBS
   R16   319   319   319   319   319   319   319   319   319PRN / # OF OBS
         319   319   319   319   319   319   319            PRN / # OF OBS
   R17   319   319   319   319   319   319   319   319   319PRN / # OF OBS
         319   319   319   319   319   319   319            PRN / # OF OBS
   R18   319   319   319   319   319   319   319   319   319PRN / # OF OBS
         319   319   319   319   319   319   319            PRN / # OF OBS
   R24   319   319   319   319   319   319   319   319   319PRN / # OF OBS
         319   319   319   319   319   319   319            PRN / # OF OBS
G L1C                                                       SYS / PHASE SHIFT
G L1W -0.25000                                              SYS / PHASE SHIFT
G L2W  0.00000                                              SYS / PHASE SHIFT
G L2X  0.00000  01 G03                                      SYS / PHASE SHIFT
G L2X  0.25000  05 G04 G08 G09 G14 G17                      SYS / PHASE SHIFT
R L1C                                                       SYS / PHASE SHIFT
R L1P -0.25000                                              SYS / PHASE SHIFT
R L2P -0.25000                                              SYS / PHASE SHIFT
R L2C                                                       SYS / PHASE SHIFT
  9 R01  1 R02 -4 R03  5 R04  6 R15  0 R16 -1 R17  4 R18 -3 GLONASS SLOT / FRQ #
    R24  2                                                  GLONASS SLOT / FRQ #
                                                            GLONASS COD/PHS/BIS
    18    18  1929     7GPS                                 LEAP SECONDS
                                                            END OF HEADER
> 2024 05 03 16 36 17.0000000  0 16
G03  20119253.040   105727390.925 8      2252.387          48.875    20119252.400   105727390.930 8      2252.387          51.062    20119256.400    82384977.917 8      1755.107          51.812    20119257.340    82384977.917 8      1755.107          51.250
G02  22014146.460   115685114.065 7      2035.217          45.250    22014144.920   115685114.072 6      2035.217          37.937    22014146.020    90144245.324 6      1585.883          37.687
G09  24938910.560   131054858.261 6      6094.816          41.250    24938909.480   131054858.268 4      6094.816          29.125    24938931.800   102120714.692 5      4749.207          31.500    24938932.740   102120757.686 7      4749.207          42.437
G04  22615695.120   118846282.485 7      5487.661          44.250    22615694.840   118846282.498 5      5487.661          34.500    22615703.460    92607522.113 5      4276.099          34.625    22615703.680    92607525.119 8      4276.099          48.187
R02  20040632.080   106940703.202 8      1494.192          50.687    20040631.380   106940703.200 8      1494.192          49.437    20040638.340    83176089.457 8      1162.149          50.125    20040638.880    83176092.457 8      1162.149          50.437
G21  22739891.200   119498896.653 7      1341.912          45.687    22739889.440   119498896.653 5      1341.912          35.500    22739892.860    93116033.570 5      1045.645          35.562
G08  22948491.120   120595109.512 7      -244.701          44.875    22948490.080   120595109.511 7      -244.701          43.437    22948500.280    93970239.204 7      -190.676          43.312    22948501.000    93970242.203 7      -190.676          46.375
G14  22230445.700   116821784.188 7      2050.966          44.937    22230445.000   116821784.201 5      2050.966          35.562    22230449.760    91029962.847 5      1598.156          35.312    22230450.260    91029967.845 8      1598.156          49.562
R18  21822194.840   116488358.583 7      4903.141          43.437    21822194.820   116488358.584 7      4903.141          43.937    21822203.560    90602095.393 7      3813.554          47.812    21822203.080    90602097.403 8      3813.554          48.375
R17  20445034.440   109405502.450 8      3158.577          48.062    20445034.420   109405502.457 7      3158.577          46.125    20445043.040    85093209.683 8      2456.671          50.312    20445042.680    85093207.681 8      2456.671          50.562
R24  22669653.520   121224797.796 6       874.101          40.937    22669651.220   121224797.791 6       874.101          41.000    22669667.520    94285989.632 7       679.857          47.250    22669667.680    94285995.632 8       679.857          48.375
G22  23393713.620   122934791.533 7      3457.441          44.500    23393712.240   122934791.538 5      3457.441          32.375    23393715.740    95793349.447 5      2694.110          33.000
R16  23138894.640   123603818.805 7      1387.461          44.937    23138893.560   123603818.809 7      1387.461          44.687    23138904.160    96136335.624 8      1079.136          48.000    23138904.300    96136338.625 8      1079.136          48.187
R03  20251695.880   108408915.461 7      5549.241          47.750    20251696.860   108408915.498 7      5549.241          47.375    20251706.280    84318089.844 8      4316.077          50.312    20251706.640    84318087.845 8      4316.077          50.687
G17  22757444.520   119591177.105 7      5395.309          45.500    22757443.320   119591177.112 6      5395.309          36.625    22757446.180    93187939.832 6      4204.137          36.312    22757446.060    93187943.833 7      4204.137          46.375
R15  23448981.760   125304255.921 6      -484.713          39.125    23448981.120   125304255.915 6      -484.713          36.375    23449004.140    97458945.981 8      -376.999          49.312    23449003.900    97458944.980 8      -376.999          49.375
> 2024 05 03 16 36 18.0000000  0 16
G03  20118824.640   105725138.958 8      2251.629          49.375    20118823.900   105725138.958 8      2251.629          49.750    20118827.920    82383223.690 8      1754.516          51.000    20118829.160    82383223.690 8      1754.516          52.187
G02  22013759.280   115683079.031 7      2034.976          46.062    22013757.620   115683079.036 6      2034.976          38.375    22013758.780    90142659.581 6      1585.695          38.125
G09  24937750.700   131048763.492 6      6094.882          41.437    24937749.640   131048763.499 5      6094.882          32.562    24937771.960   102115965.517 5      4749.259          31.500    24937772.860   102116008.509 7      4749.259          42.375
G04  22614650.960   118840795.072 7      5487.223          44.437    22614650.540   118840795.082 5      5487.223          34.500    22614659.220    92603246.217 5      4275.759          34.375    22614659.160    92603249.223 7      4275.759          47.750
R02  20040351.920   106939209.487 8      1493.240          51.062    20040351.420   106939209.491 8      1493.240          49.625    20040358.300    83174927.681 8      1161.409          49.812    20040359.000    83174930.681 8      1161.409          50.437
G21  22739635.760   119497554.964 7      1341.667          46.000    22739634.180   119497554.963 5      1341.667          35.375    22739637.560    93114988.100 5      1045.455          35.750
G08  22948537.840   120595354.562 7      -245.255          44.062    22948536.660   120595354.561 7      -245.255          43.750    22948546.800    93970430.144 7      -191.108          43.625    22948547.820    93970433.143 7      -191.108          46.125
G14  22230055.620   116819733.673 7      2050.255          44.375    22230054.700   116819733.689 5      2050.255          35.562    22230059.680    91028365.040 5      1597.602          35.250    22230060.160    91028370.035 8      1597.602          49.875
R18  21821276.220   116483455.471 7      4903.100          44.062    21821276.560   116483455.480 7      4903.100          44.250    21821284.780    90598281.872 7      3813.523          47.750    21821284.760    90598283.878 7      3813.523          47.562
R17  20444443.980   109402344.077 8      3158.216          48.250    20444444.080   109402344.092 7      3158.216          46.062    20444452.780    85090753.177 8      2456.390          50.125    20444452.540    85090751.173 8      2456.390          49.812
R24  22669490.480   121223924.092 6       873.479          40.937    22669488.160   121223924.090 6       873.479          40.437    22669504.380    94285310.078 7       679.373          47.625    22669504.280    94285316.078 7       679.373          47.687
G22  23393055.640   122931334.463 7      3456.848          44.062    23393054.360   122931334.468 5      3456.848          32.375    23393057.880    95790655.626 5      2693.648          32.312
R16  23138634.860   123602431.796 7      1386.637          45.125    23138634.160   123602431.800 7      1386.637          44.687    23138644.540    96135256.833 7      1078.496          47.437    23138644.420    96135259.840 8      1078.496          48.500
R03  20250659.220   108403366.616 7      5548.424          46.625    20250660.260   108403366.649 7      5548.424          47.125    20250669.840    84313774.079 8      4315.441          50.812    20250669.720    84313772.076 8      4315.441          50.375
G17  22756417.860   119585782.109 7      5394.969          44.187    22756416.660   119585782.111 6      5394.969          36.937    22756419.740    93183735.938 6      4203.872          36.625    22756419.640    93183739.916 7      4203.872          46.625
R15  23449072.420   125304740.755 6      -485.139          37.062    23449072.260   125304740.737 6      -485.139          36.375    23449094.920    97459323.026 8      -377.331          49.000    23449094.600    97459322.027 8      -377.331          49.437
> 2024 05 03 16 36 19.0000000  0 16
G03  20118396.160   105722887.375 8      2251.294          50.062    20118395.440   105722887.378 8      2251.294          50.375    20118399.480    82381469.136 8      1754.255          51.375    20118400.520    82381469.136 8      1754.255          51.312
G02  22013372.140   115681043.930 7      2035.008          46.187    22013370.380   115681043.934 6      2035.008          38.000    22013371.600    90141073.784 6      1585.721          37.812
G09  24936590.680   131042668.502 6      6095.079          41.500    24936589.900   131042668.507 5      6095.079          32.562    24936612.160   102111216.166 5      4749.413          32.812    24936613.240   102111259.158 7      4749.413          42.437
G04  22613606.580   118835307.772 7      5487.090          44.250    22613606.360   118835307.779 5      5487.090          34.375    22613615.080    92598970.405 5      4275.654          34.375    22613615.320    92598973.411 7      4275.654          47.812
R02  20040072.300   106937716.533 8      1492.494          50.687    20040071.760   106937716.531 8      1492.494          49.937    20040078.640    83173766.490 8      1160.828          50.125    20040079.100    83173769.492 8      1160.828          50.312
G21  22739380.540   119496213.162 7      1341.779          45.500    22739378.680   119496213.164 5      1341.779          35.875    22739382.160    93113942.536 5      1045.542          35.687
G08  22948584.540   120595599.759 7      -245.312          44.937    22948583.340   120595599.761 7      -245.312          42.937    22948593.620    93970621.194 7      -191.152          43.000    22948594.440    93970624.200 7      -191.152          46.312
G14  22229665.780   116817683.613 7      2049.781          45.125    22229664.620   116817683.620 5      2049.781          35.625    22229669.420    91026767.584 5      1597.232          35.250    22229669.940    91026772.582 8      1597.232          49.437
R18  21820357.740   116478552.202 7      4903.297          43.500    21820358.100   116478552.211 7      4903.297          43.875    21820366.460    90594468.220 7      3813.676          47.562    21820366.140    90594470.220 7      3813.676          47.625
R17  20443853.660   109399185.841 8      3158.137          48.187    20443853.860   109399185.853 7      3158.137          47.062    20443862.700    85088296.764 8      2456.328          50.687    20443862.200    85088294.762 8      2456.328          50.562
R24  22669326.860   121223050.490 6       873.360          41.812    22669324.820   121223050.491 6       873.360          40.437    22669340.840    94284630.602 7       679.280          47.562    22669340.660    94284636.602 7       679.280          47.937
G22  23392397.820   122927877.814 7      3456.499          45.312    23392396.560   122927877.819 5      3456.499          32.375    23392400.200    95787962.133 5      2693.376          32.312
R16  23138375.340   123601045.260 7      1386.240          45.375    23138374.340   123601045.269 7      1386.240          44.750    23138384.800    96134178.416 7      1078.186          47.875    23138384.880    96134181.419 8      1078.186          48.250
R03  20249623.140   108397818.329 8      5547.917          48.062    20249623.660   108397818.358 7      5547.917          46.687    20249633.380    84309458.745 8      4315.047          50.875    20249633.580    84309456.745 8      4315.047          50.812
G17  22755391.040   119580387.100 7      5395.015          44.937    22755389.960   119580387.103 6      5395.015          36.937    22755392.900    93179532.037 6      4203.908          37.000    22755393.280    93179536.023 7      4203.908          46.625
R15  23449163.740   125305225.479 6      -484.719          37.062    23449162.600   125305225.454 6      -484.719          36.375    23449185.500    97459699.981 8      -377.004          49.375    23449185.380    97459698.982 8      -377.004          49.250
> 2024 05 03 16 36 20.0000000  0 16
G03  20117967.760   105720636.231 8      2250.936          49.812    20117967.020   105720636.231 8      2250.936          50.437    20117971.080    82379714.910 8      1753.976          50.625    20117972.100    82379714.910 8      1753.976          51.312
G02  22012984.820   115679008.809 7      2035.151          47.500    22012983.020   115679008.814 6      2035.151          38.562    22012984.220    90139487.976 6      1585.832          38.062
G09  24935431.100   131036573.268 6      6095.444          41.250    24935430.000   131036573.270 5      6095.444          32.625    24935452.260   102106466.625 5      4749.697          32.812    24935453.040   102106509.611 7      4749.697          42.437
G04  22612562.620   118829820.558 7      5487.179          44.875    22612562.160   118829820.568 5      5487.179          34.750    22612570.960    92594694.664 5      4275.724          34.625    22612571.120    92594697.670 7      4275.724          47.687
R02  20039792.480   106936224.342 8      1491.849          51.312    20039792.180   106936224.345 8      1491.849          49.687    20039798.960    83172605.899 8      1160.327          50.187    20039799.540    83172608.901 8      1160.327          50.312
G21  22739124.820   119494871.328 7      1341.863          45.562    22739123.440   119494871.330 6      1341.863          36.375    22739126.740    93112896.951 6      1045.608          36.562
G08  22948631.300   120595845.164 7      -245.403          45.187    22948629.980   120595845.161 7      -245.403          43.437    22948640.220    93970812.411 7      -191.223          43.312    22948641.080    93970815.412 7      -191.223          46.187
G14  22229275.620   116815634.002 7      2049.443          45.125    22229274.700   116815634.009 5      2049.443          35.312    22229279.280    91025170.484 5      1596.969          35.000    22229280.080    91025175.478 8      1596.969          49.437
R18  21819439.140   116473648.784 7      4903.509          44.312    21819439.140   116473648.790 7      4903.509          43.875    21819447.460    90590654.446 7      3813.840          47.875    21819447.560    90590656.446 7      3813.840          47.500
R17  20443263.700   109396027.770 7      3158.053          47.875    20443263.820   109396027.782 7      3158.053          46.937    20443272.560    85085840.489 8      2456.263          50.250    20443272.180    85085838.487 8      2456.263          50.562
R24  22669163.580   121222177.043 6       873.403          41.812    22669161.160   121222177.044 6       873.403          41.375    22669177.660    94283951.241 7       679.314          47.312    22669177.460    94283957.239 8       679.314          48.062
G22  23391740.100   122924421.582 7      3456.063          44.562    23391738.780   122924421.595 5      3456.063          32.250    23391742.480    95785268.966 5      2693.036          32.312
R16  23138115.740   123599659.247 7      1385.746          45.687    23138115.100   123599659.259 7      1385.746          45.187    23138125.240    96133100.402 7      1077.802          47.625    23138125.520    96133103.407 7      1077.802          47.937
R03  20248586.900   108392270.608 8      5547.519          48.125    20248587.200   108392270.639 7      5547.519          47.187    20248596.980    84305143.853 8      4314.737          50.437    20248597.020    84305141.852 8      4314.737          50.125
G17  22754364.420   119574992.131 7      5395.001          45.125    22754363.300   119574992.134 6      5395.001          36.812    22754366.200    93175328.165 6      4203.897          36.750    22754367.220    93175332.166 7      4203.897          47.250
R15  23449254.100   125305710.166 6      -484.848          37.062    23449253.360   125305710.162 6      -484.848          36.375    23449276.200    97460076.937 8      -377.104          48.875    23449275.920    97460075.938 8      -377.104          48.875
> 2024 05 03 16 36 21.0000000  0 16
G03  20117539.580   105718385.607 8      2250.454          49.187    20117538.740   105718385.609 8      2250.454          49.750    20117542.760    82377961.584 8      1753.600          50.125    20117543.720    82377961.584 8      1753.600          51.062
G02  22012597.460   115676973.729 7      2035.199          47.937    22012595.860   115676973.733 6      2035.199          38.125    22012597.140    90137902.198 6      1585.869          38.250
G09  24934271.240   131030477.897 6      6095.434          41.187    24934269.960   131030477.904 5      6095.434          32.625    24934292.420   102101716.979 5      4749.689          32.937    24934293.460   102101759.967 7      4749.689          42.375
G04  22611518.380   118824333.563 7      5486.966          44.625    22611518.000   118824333.576 5      5486.966          34.750    22611526.760    92590419.090 5      4275.558          34.625    22611526.880    92590422.096 8      4275.558          48.125
R02  20039513.180   106934732.996 8      1491.021          50.437    20039512.740   106934733.000 8      1491.021          48.937    20039519.460    83171445.966 8      1159.683          49.937    20039519.920    83171448.966 8      1159.683          49.875
G21  22738869.680   119493529.488 7      1342.006          45.875    22738868.180   119493529.491 5      1342.006          35.875    22738871.480    93111851.360 6      1045.719          36.000
G08  22948677.880   120596090.829 7      -245.793          45.062    22948676.660   120596090.837 7      -245.793          42.937    22948686.840    93971003.838 7      -191.527          43.312    22948687.720    93971006.842 7      -191.527          45.875
G14  22228885.640   116813584.974 7      2048.768          45.437    22228884.800   116813584.984 5      2048.768          35.250    22228889.480    91023573.835 5      1596.443          34.875    22228890.120    91023578.833 8      1596.443          49.812
R18  21818520.560   116468745.326 7      4903.588          43.125    21818520.440   116468745.324 7      4903.588          44.125    21818529.020    90586840.645 7      3813.902          47.125    21818529.080    90586842.651 7      3813.902          47.562
R17  20442673.820   109392869.870 7      3158.017          47.500    20442673.800   109392869.883 7      3158.017          46.687    20442682.400    85083384.345 8      2456.236          49.625    20442681.960    85083382.343 8      2456.236          49.437
R24  22668999.980   121221303.839 6       873.169          41.312    22668998.200   121221303.840 6       873.169          41.375    22669014.380    94283272.081 7       679.132          46.687    22669014.360    94283278.081 7       679.132          47.625
G22  23391082.640   122920965.895 7      3455.460          45.812    23391081.100   122920965.910 5      3455.460          32.250    23391085.020    95782576.222 5      2692.566          32.437
R16  23137856.240   123598273.843 7      1385.142          44.937    23137855.860   123598273.847 7      1385.142          44.937    23137865.820    96132022.860 7      1077.333          47.250    23137866.160    96132025.862 7      1077.333          47.312
R03  20247550.800   108386723.550 8      5546.818          48.875    20247551.060   108386723.576 7      5546.818          46.375    20247560.720    84300829.474 8      4314.192          48.937    20247560.840    84300827.474 8      4314.192          49.375
G17  22753337.780   119569597.299 7      5394.907          45.687    22753336.560   119569597.298 6      5394.907          36.500    22753339.660    93171124.399 6      4203.823          36.562    22753340.580    93171128.414 7      4203.823          47.375
R15  23449344.880   125306194.898 6      -484.823          37.062    23449345.540   125306194.902 6      -484.823          36.375    23449367.020    97460453.920 8      -377.085          48.250    23449366.860    97460452.923 8      -377.085          48.625
> 2024 05 03 16 36 22.0000000  0 16
G03  20117111.320   105716135.601 8      2249.926          49.937    20117110.600   105716135.606 8      2249.926          50.937    20117114.620    82376207.931 8      1753.189          51.312    20117115.720    82376207.931 8      1753.189          51.375
G02  22012210.260   115674938.842 7      2034.952          47.625    22012208.760   115674938.850 6      2034.952          38.187    22012209.880    90136316.569 6      1585.677          37.937
G09  24933111.340   131024382.539 6      6095.609          41.187    24933110.200   131024382.547 5      6095.609          32.750    24933132.500   102096967.340 5      4749.825          32.937    24933133.040   102097010.331 7      4749.825          42.187
G04  22610474.640   118818846.935 7      5486.634          44.125    22610473.840   118818846.946 5      5486.634          34.312    22610482.620    92586143.802 5      4275.299          34.500    22610482.840    92586146.806 7      4275.299          47.750
R02  20039233.600   106933242.614 8      1490.068          51.250    20039233.480   106933242.615 8      1490.068          49.812    20039240.160    83170286.780 8      1158.942          50.437    20039240.560    83170289.784 8      1158.942          50.437
G21  22738614.240   119492187.807 7      1341.816          46.500    22738612.980   119492187.809 5      1341.816          35.687    22738616.160    93110805.894 5      1045.571          35.937
G08  22948724.540   120596336.928 7      -246.062          45.000    22948723.480   120596336.935 7      -246.062          43.437    22948733.740    93971195.593 7      -191.737          42.812    22948734.500    93971198.599 7      -191.737          46.187
G14  22228495.660   116811536.585 7      2048.287          45.125    22228495.220   116811536.593 5      2048.287          35.250    22228499.660    91021977.682 5      1596.068          35.000    22228500.300    91021982.684 8      1596.068          49.750
R18  21817602.140   116463841.945 7      4903.506          43.875    21817602.140   116463841.935 7      4903.506          44.125    21817610.440    90583026.898 7      3813.838          47.562    21817610.440    90583028.911 8      3813.838          48.187
R17  20442083.520   109389712.356 7      3157.502          47.437    20442083.740   109389712.366 7      3157.502          46.750    20442092.400    85080928.496 8      2455.835          50.000    20442092.060    85080926.495 8      2455.835          50.687
R24  22668836.600   121220431.084 6       872.787          41.312    22668835.020   121220431.096 6       872.787          41.687    22668851.000    94282593.270 7       678.834          47.437    22668851.060    94282599.268 7       678.834          47.625
G22  23390425.160   122917510.793 7      3455.028          44.687    23390423.560   122917510.803 5      3455.028          32.437    23390427.420    95779883.931 5      2692.230          32.437
R16  23137597.080   123596889.118 7      1384.507          45.312    23137595.920   123596889.127 7      1384.507          45.062    23137606.680    96130945.853 7      1076.839          47.812    23137606.780    96130948.851 8      1076.839          48.125
R03  20246514.480   108381177.260 8      5546.120          48.250    20246514.720   108381177.283 7      5546.120          46.937    20246524.720    84296515.695 8      4313.649          50.750    20246524.660    84296513.695 8      4313.649          50.687
G17  22752311.220   119564202.671 7      5394.747          45.500    22752309.960   119564202.668 6      5394.747          37.125    22752313.320    93166920.795 6      4203.699          36.437    22752313.740    93166924.814 7      4203.699          46.750
R15  23449436.400   125306679.838 6      -484.804          37.500    23449435.980   125306679.829 6      -484.804          36.187    23449457.720    97460831.050 8      -377.070          48.312    23449457.460    97460830.053 8      -377.070          48.937
> 2024 05 03 16 36 23.0000000  0 16
G03  20116683.160   105713886.091 8      2249.453          49.812    20116682.540   105713886.096 8      2249.453          50.875    20116686.600    82374454.688 8      1752.821          51.437    20116687.520    82374454.688 8      1752.821          52.062
G02  22011822.940   115672903.966 7      2035.014          46.937    22011821.440   115672903.974 6      2035.014          38.500    22011822.660    90134730.953 6      1585.725          38.125
G09  24931951.820   131018286.979 6      6095.721          41.500    24931950.220   131018286.987 5      6095.721          32.750    24931972.560   102092217.542 5      4749.913          32.937    24931973.320   102092260.532 7      4749.913          42.687
G04  22609430.540   118813360.395 7      5486.646          43.812    22609429.700   118813360.405 5      5486.646          34.875    22609438.560    92581868.581 5      4275.308          34.500    22609438.680    92581871.595 8      4275.308          48.250
R02  20038954.820   106931753.013 8      1489.363          51.375    20038954.160   106931753.014 8      1489.363          49.937    20038960.880    83169128.197 8      1158.393          50.062    20038961.340    83169131.203 8      1158.393          50.812
G21  22738358.960   119490846.091 7      1341.895          45.937    22738357.460   119490846.091 5      1341.895          35.687    22738360.760    93109760.395 5      1045.632          35.937
G08  22948771.640   120596583.221 7      -246.244          44.625    22948770.320   120596583.223 7      -246.244          43.000    22948780.640    93971387.499 7      -191.878          43.000    22948781.460    93971390.507 7      -191.878          46.000
G14  22228106.120   116809488.756 7      2047.624          45.562    22228105.440   116809488.766 5      2047.624          35.687    22228110.040    91020381.970 5      1595.551          35.437    22228110.700    91020386.966 8      1595.551          49.812
R18  21816683.620   116458938.505 7      4903.623          44.375    21816683.760   116458938.495 7      4903.623          43.937    21816691.720    90579213.112 7      3813.929          47.812    21816692.180    90579215.120 7      3813.929          47.687
R17  20441493.720   109386555.005 8      3157.386          48.062    20441493.580   109386555.023 7      3157.386          47.125    20441502.220    85078472.785 8      2455.745          50.062    20441502.140    85078470.786 8      2455.745          50.437
R24  22668673.260   121219558.538 6       872.537          41.937    22668672.260   121219558.545 6       872.537          41.687    22668687.960    94281914.608 7       678.640          47.187    22668688.000    94281920.606 7       678.640          47.812
G22  23389767.840   122914056.209 7      3454.423          45.187    23389766.280   122914056.214 5      3454.423          32.437    23389770.180    95777192.045 5      2691.759          32.500
R16  23137338.120   123595504.999 7      1383.899          45.500    23137336.940   123595505.005 7      1383.899          45.250    23137347.540    96129869.310 8      1076.366          48.187    23137347.940    96129872.310 8      1076.366          48.000
R03  20245478.620   108375631.535 8      5545.542          48.937    20245478.480   108375631.564 7      5545.542          47.375    20245488.580    84292202.364 8      4313.199          50.562    20245488.840    84292200.358 8      4313.199          50.437
G17  22751284.600   119558808.175 7      5394.509          45.187    22751283.640   119558808.175 6      5394.509          37.375    22751286.740    93162717.294 6      4203.514          37.062    22751286.500    93162721.299 7      4203.514          46.062
R15  23449527.260   125307164.814 6      -485.084          37.500    23449527.200   125307164.804 6      -485.084          36.187    23449548.480    97461208.220 8      -377.288          48.875    23449548.340    97461207.223 8      -377.288          48.562
> 2024 05 03 16 36 24.0000000  0 16
G03  20116255.220   105711637.240 8      2248.473          49.437    20116254.600   105711637.243 8      2248.473          51.312    20116258.640    82372702.345 8      1752.057          51.500    20116259.420    82372702.345 8      1752.057          51.500
G02  22011435.620   115670869.290 7      2034.484          46.062    22011434.340   115670869.295 6      2034.484          38.687    22011435.500    90133145.487 6      1585.312          38.250
G09  24930791.500   131012191.435 6      6095.462          41.625    24930790.140   131012191.440 5      6095.462          32.687    24930812.700   102087467.755 5      4749.710          32.875    24930813.060   102087510.751 7      4749.710          42.687
G04  22608386.360   118807874.261 7      5485.989          43.812    22608385.740   118807874.271 5      5485.989          34.875    22608394.440    92577593.684 5      4274.796          34.812    22608394.680    92577596.684 8      4274.796          48.000
R02  20038675.840   106930264.405 8      1488.021          51.187    20038675.360   106930264.406 8      1488.021          50.125    20038682.020    83167970.395 8      1157.349          50.125    20038682.340    83167973.399 8      1157.349          50.625
G21  22738103.780   119489504.531 7      1341.382          45.750    22738102.200   119489504.533 6      1341.382          36.125    22738105.400    93108715.023 5      1045.233          35.875
G08  22948818.520   120596829.976 7      -247.009          45.062    22948817.280   120596829.978 7      -247.009          43.250    22948827.560    93971579.768 7      -192.474          43.125    22948828.340    93971582.774 7      -192.474          45.875
G14  22227716.540   116807441.578 7      2046.794          45.750    22227715.840   116807441.585 5      2046.794          35.250    22227720.520    91018786.763 5      1594.905          35.125    22227721.140    91018791.757 8      1594.905          49.062
R18  21815765.020   116454035.137 7      4903.251          45.000    21815765.340   116454035.130 7      4903.251          44.062    21815773.160    90575399.381 7      3813.639          47.812    21815773.420    90575401.383 7      3813.639          47.187
R17  20440903.440   109383398.015 7      3156.819          45.937    20440903.680   109383398.030 7      3156.819          46.875    20440912.320    85076017.347 8      2455.304          50.375    20440911.900    85076015.345 8      2455.304          50.062
R24  22668510.080   121218686.393 6       871.877          41.937    22668509.360   121218686.411 6       871.877          41.312    22668524.900    94281236.269 7       678.127          47.375    22668524.780    94281242.269 8       678.127          48.312
G22  23389110.600   122910602.221 7      3453.721          46.062    23389108.960   122910602.223 5      3453.721          32.375    23389112.820    95774500.622 5      2691.211          32.500
R16  23137079.360   123594121.612 7      1382.919          44.500    23137077.840   123594121.610 7      1382.919          45.000    23137088.540    96128793.332 7      1075.604          47.875    23137088.780    96128796.332 8      1075.604          48.187
R03  20244442.700   108370086.635 8      5544.393          48.250    20244442.860   108370086.663 7      5544.393          47.062    20244452.860    84287889.666 8      4312.305          50.500    20244452.840    84287887.666 8      4312.305          51.000
G17  22750258.200   119553413.902 7      5394.009          44.875    22750257.240   119553413.904 6      5394.009          37.375    22750260.180    93158513.968 6      4203.124          37.125    22750260.080    93158517.953 7      4203.124          45.687
R15  23449617.880   125307649.973 6      -485.429          37.500    23449618.280   125307649.964 6      -485.429          36.187    23449639.160    97461585.531 8      -377.556          48.562    23449638.960    97461584.532 8      -377.556          49.312
> 2024 05 03 16 36 25.0000000  0 16
G03  20115827.480   105709389.031 8      2247.896          49.000    20115826.740   105709389.033 8      2247.896          50.375    20115830.840    82370950.821 8      1751.608          51.500    20115831.700    82370950.821 8      1751.608          51.625
G02  22011048.380   115668834.806 7      2034.402          45.812    22011047.200   115668834.811 6      2034.402          38.437    22011048.480    90131560.174 6      1585.248          38.312
G09  24929631.360   131006095.885 6      6095.505          41.437    24929630.160   131006095.888 5      6095.505          32.687    24929652.720   102082717.972 5      4749.744          32.875    24929653.100   102082760.972 7      4749.744          42.437
G04  22607342.600   118802388.453 7      5485.647          44.375    22607341.700   118802388.466 5      5485.647          34.750    22607350.740    92573319.035 5      4274.530          34.625    22607350.740    92573322.045 8      4274.530          48.000
R02  20038397.080   106928776.745 8      1487.217          51.562    20038396.560   106928776.743 8      1487.217          49.812    20038403.220    83166813.324 8      1156.724          50.312    20038403.680    83166816.330 8      1156.724          50.375
G21  22737848.440   119488163.122 7      1341.354          44.812    22737846.880   119488163.122 5      1341.354          35.750    22737850.380    93107669.770 5      1045.211          35.812
G08  22948865.560   120597077.120 7      -247.338          44.812    22948864.400   120597077.125 7      -247.338          42.625    22948874.720    93971772.344 7      -192.731          43.062    22948875.540    93971775.348 7      -192.731          46.312
G14  22227327.100   116805395.096 7      2046.065          45.312    22227326.340   116805395.106 5      2046.065          35.437    22227331.080    91017192.102 5      1594.337          35.125    22227331.300    91017197.106 8      1594.337          49.562
R18  21814846.300   116449131.860 7      4903.181          44.562    21814846.760   116449131.856 7      4903.181          43.500    21814854.500    90571585.732 7      3813.586          47.687    21814854.660    90571587.726 7      3813.586          47.250
R17  20440313.940   109380241.371 7      3156.592          47.250    20440313.700   109380241.383 7      3156.592          46.812    20440322.460    85073562.181 8      2455.127          50.437    20440321.940    85073560.179 8      2455.127          50.625
R24  22668347.300   121217814.676 6       871.416          41.812    22668346.460   121217814.678 6       871.416          41.312    22668362.000    94280558.248 7       677.768          47.125    22668361.640    94280564.248 8       677.768          48.062
G22  23388453.280   122907148.909 7      3452.984          45.187    23388451.920   122907148.911 5      3452.984          32.375    23388455.500    95771809.731 5      2690.637          32.437
R16  23136819.720   123592738.975 7      1382.270          45.437    23136818.860   123592738.976 7      1382.270          44.812    23136829.920    96127717.949 7      1075.099          47.375    23136830.100    96127720.952 8      1075.099          48.687
R03  20243407.040   108364542.505 8      5543.731          48.250    20243407.040   108364542.536 7      5543.731          46.562    20243417.120    84283577.574 8      4311.791          50.437    20243417.180    84283575.575 8      4311.791          50.812
G17  22749232.000   119548019.873 7      5394.015          44.937    22749230.740   119548019.873 6      5394.015          37.000    22749233.720    93154310.831 6      4203.129          36.687    22749233.960    93154314.810 7      4203.129          47.000
R15  23449709.060   125308135.325 6      -485.521          39.750    23449709.120   125308135.329 6      -485.521          38.125    23449730.060    97461963.008 8      -377.628          48.500    23449729.860    97461962.011 8      -377.628          48.500
> 2024 05 03 16 36 26.0000000  0 16
G03  20115399.700   105707141.219 8      2247.625          49.312    20115399.000   105707141.223 8      2247.625          50.750    20115403.080    82369199.133 8      1751.396          51.812    20115404.000    82369199.133 8      1751.396          51.625
G02  22010661.460   115666800.250 7      2034.674          46.250    22010660.020   115666800.253 6      2034.674          38.812    22010661.160    90129974.803 6      1585.460          38.625
G09  24928471.060   131000000.039 6      6096.074          41.312    24928470.340   131000000.044 5      6096.074          32.750    24928492.680   102077967.954 5      4750.188          32.875    24928492.780   102078010.950 7      4750.188          42.250
G04  22606298.680   118796902.711 7      5485.811          44.375    22606297.800   118796902.721 5      5485.811          34.125    22606306.780    92569044.437 5      4274.658          34.625    22606307.320    92569047.439 7      4274.658          47.750
R02  20038118.340   106927289.799 8      1486.676          51.375    20038118.040   106927289.800 8      1486.676          49.750    20038124.660    83165656.808 8      1156.304          50.312    20038124.920    83165659.814 8      1156.304          50.375
G21  22737593.280   119486821.599 7      1341.598          46.062    22737591.620   119486821.598 5      1341.598          35.750    22737595.200    93106624.427 5      1045.401          35.562
G08  22948912.460   120597324.412 7      -247.247          44.750    22948911.480   120597324.414 7      -247.247          42.812    22948921.740    93971965.026 7      -192.660          43.187    22948922.600    93971968.032 7      -192.660          46.000
G14  22226937.660   116803349.056 7      2045.814          45.500    22226936.960   116803349.069 5      2045.814          35.187    22226941.840    91015597.785 5      1594.141          35.187    22226942.100    91015602.779 8      1594.141          49.562
R18  21813927.840   116444228.410 7      4903.565          43.437    21813928.080   116444228.403 7      4903.565          43.937    21813936.100    90567771.929 8      3813.884          48.062    21813935.900    90567773.920 7      3813.884          47.625
R17  20439723.840   109377084.790 7      3156.611          47.625    20439723.820   109377084.803 7      3156.611          46.812    20439732.680    85071107.060 8      2455.142          50.312    20439732.420    85071105.059 8      2455.142          50.687
R24  22668184.260   121216943.021 6       871.583          41.875    22668182.940   121216943.030 7       871.583          42.062    22668198.880    94279880.290 7       677.898          47.687    22668198.860    94279886.294 7       677.898          47.875
G22  23387796.340   122903695.980 7      3452.764          44.250    23387794.860   122903695.987 5      3452.764          32.312    23387798.540    95769119.143 5      2690.465          32.437
R16  23136561.320   123591356.894 7      1381.936          45.687    23136560.580   123591356.889 7      1381.936          44.812    23136571.320    96126642.987 8      1074.839          48.000    23136571.400    96126645.990 7      1074.839          47.875
R03  20242371.300   108358998.892 7      5543.425          47.312    20242371.180   108358998.918 7      5543.425          46.937    20242381.440    84279265.872 8      4311.553          50.562    20242381.560    84279263.874 8      4311.553          50.312
G17  22748205.440   119542625.895 7      5394.038          44.437    22748204.280   119542625.895 6      5394.038          37.375    22748207.180    93150107.733 6      4203.147          36.875    22748208.360    93150111.724 8      4203.147          48.437
R15  23449800.620   125308620.640 6      -485.238          39.750    23449799.740   125308620.627 6      -485.238          38.125    23449820.820    97462340.431 7      -377.407          47.750    23449820.680    97462339.434 8      -377.407          48.687
> 2024 05 03 16 36 27.0000000  0 16
G03  20114972.200   105704893.937 8      2246.933          49.312    20114971.380   105704893.939 8      2246.933          51.062    20114975.480    82367448.592 8      1750.857          51.750    20114976.320    82367448.592 8      1750.857          51.562
G02  22010274.380   115664765.774 7      2034.317          46.687    22010272.840   115664765.779 6      2034.317          38.500    22010273.900    90128389.496 6      1585.182          38.125
G09  24927311.120   130993904.090 6      6095.971          41.562    24927310.360   130993904.100 5      6095.971          32.750    24927332.660   102073217.862 5      4750.107          32.875    24927332.940   102073260.864 7      4750.107          42.250
G04  22605254.700   118791417.182 7      5485.321          44.312    22605253.860   118791417.197 5      5485.321          34.125    22605262.860    92564770.009 5      4274.276          34.000    22605263.240    92564773.015 8      4274.276          48.250
R02  20037839.660   106925803.744 8      1485.505          51.062    20037839.540   106925803.745 8      1485.505          49.875    20037846.160    83164500.992 8      1155.393          50.125    20037846.580    83164503.994 8      1155.393          50.312
G21  22737337.820   119485480.093 7      1341.428          46.437    22737336.200   119485480.093 5      1341.428          35.437    22737339.900    93105579.092 5      1045.269          35.812
G08  22948959.620   120597571.977 7      -247.789          44.937    22948958.580   120597571.987 7      -247.789          43.187    22948968.820    93972157.930 7      -193.083          43.062    22948969.600    93972160.934 7      -193.083          46.062
G14  22226548.500   116801303.589 7      2045.161          46.250    22226547.960   116801303.601 5      2045.161          35.187    22226552.440    91014003.912 5      1593.632          34.875    22226552.840    91014008.908 8      1593.632          49.750
R18  21813009.440   116439324.909 7      4903.503          44.000    21813008.860   116439324.912 7      4903.503          43.937    21813017.780    90563958.105 8      3813.835          48.000    21813017.540    90563960.101 8      3813.835          48.187
R17  20439134.140   109373928.437 7      3156.062          47.375    20439133.820   109373928.455 7      3156.062          46.437    20439142.740    85068652.119 8      2454.715          50.375    20439142.300    85068650.120 8      2454.715          50.687
R24  22668021.400   121216071.640 6       871.169          41.875    22668020.200   121216071.652 7       871.169          42.062    22668035.960    94279202.543 7       677.576          47.500    22668035.780    94279208.545 7       677.576          47.937
G22  23387139.300   122900243.605 7      3452.087          44.062    23387138.000   122900243.613 5      3452.087          32.312    23387141.660    95766428.977 5      2689.938          32.437
R16  23136303.080   123589975.459 7      1381.041          45.437    23136302.020   123589975.462 7      1381.041          44.375    23136312.860    96125568.542 7      1074.143          47.625    23136312.920    96125571.542 8      1074.143          48.375
R03  20241335.660   108353455.943 8      5542.508          48.125    20241335.740   108353455.976 7      5542.508          46.625    20241346.140    84274954.702 8      4310.840          50.437    20241346.060    84274952.702 8      4310.840          51.250
G17  22747179.000   119537232.050 7      5393.638          44.500    22747177.840   119537232.055 6      5393.638          37.000    22747180.900    93145904.741 6      4202.834          37.187    22747182.020    93145908.752 8      4202.834          48.187
R15  23449891.800   125309105.992 6      -485.380          41.125    23449891.040   125309105.974 6      -485.380          38.125    23449911.760    97462717.896 7      -377.518          47.812    23449911.580    97462716.897 8      -377.518          48.375
> 2024 05 03 16 36 28.0000000  0 16
G03  20114544.600   105702647.286 8      2246.280          49.687    20114543.900   105702647.288 8      2246.280          50.625    20114547.940    82365697.642 8      1750.348          51.437    20114548.900    82365697.642 8      1750.348          51.437
G02  22009887.320   115662731.450 7      2034.158          47.000    22009885.800   115662731.457 6      2034.158          38.687    22009886.820    90126804.311 6      1585.058          38.500
G09  24926151.220   130987808.149 6      6095.851          41.687    24926150.260   130987808.154 5      6095.851          32.750    24926172.540   102068467.766 5      4750.014          32.875    24926172.840   102068510.758 7      4750.014          42.625
G04  22604210.820   118785931.981 7      5484.976          44.875    22604210.060   118785931.991 5      5484.976          34.062    22604218.960    92560495.833 5      4274.007          34.000    22604219.340    92560498.837 8      4274.007          48.187
R02  20037561.540   106924318.653 8      1484.533          51.187    20037561.180   106924318.651 8      1484.533          49.750    20037567.840    83163345.917 8      1154.637          50.187    20037568.160    83163348.923 8      1154.637          50.250
G21  22737082.300   119484138.727 7      1341.166          46.562    22737081.080   119484138.727 5      1341.166          35.500    22737084.600    93104533.871 5      1045.065          35.812
G08  22949006.780   120597819.972 7      -248.370          45.500    22949005.900   120597819.975 7      -248.370          43.250    22949016.020    93972351.161 7      -193.535          43.125    22949016.820    93972354.163 7      -193.535          46.062
G14  22226159.360   116799258.802 7      2044.420          45.125    22226158.840   116799258.812 5      2044.420          35.500    22226163.260    91012410.568 5      1593.054          35.187    22226163.980    91012415.568 8      1593.054          49.937
R18  21812090.660   116434421.520 7      4903.358          42.812    21812090.700   116434421.520 7      4903.358          44.437    21812099.100    90560144.358 7      3813.723          47.750    21812099.060    90560146.356 8      3813.723          48.187
R17  20438544.100   109370772.416 8      3155.831          48.250    20438543.860   109370772.431 7      3155.831          46.687    20438552.980    85066197.436 8      2454.535          50.875    20438552.600    85066195.434 8      2454.535          50.625
R24  22667858.240   121215200.645 7       870.758          42.250    22667857.460   121215200.649 6       870.758          41.812    22667873.180    94278525.088 7       677.256          47.000    22667872.900    94278531.088 8       677.256          48.250
G22  23386482.460   122896791.843 7      3451.361          45.125    23386481.200   122896791.853 5      3451.361          32.312    23386484.860    95763739.297 5      2689.373          32.500
R16  23136044.760   123588594.708 7      1380.284          45.187    23136043.820   123588594.714 7      1380.284          45.000    23136054.560    96124494.624 7      1073.554          47.937    23136054.600    96124497.627 8      1073.554          48.125
R03  20240300.180   108347913.759 8      5541.667          48.000    20240300.400   108347913.787 7      5541.667          46.812    20240310.820    84270644.117 8      4310.185          50.500    20240310.640    84270642.116 8      4310.185          50.750
G17  22746152.640   119531838.426 7      5393.493          44.562    22746151.480   119531838.429 6      5393.493          36.875    22746154.500    93141701.915 6      4202.722          36.750    22746155.380    93141705.937 7      4202.722          47.312
R15  23449982.820   125309591.493 6      -485.653          41.125    23449981.980   125309591.489 6      -485.653          40.125    23450002.540    97463095.490 8      -377.730          48.187    23450002.480    97463094.489 8      -377.730          48.437
> 2024 05 03 16 36 29.0000000  0 16
G03  20114117.020   105700401.010 8      2245.979          49.625    20114116.440   105700401.012 8      2245.979          50.812    20114120.460    82363946.773 8      1750.113          51.062    20114121.500    82363946.773 8      1750.113          51.250
G02  22009500.260   115660697.081 7      2034.211          47.687    22009498.640   115660697.089 6      2034.211          38.187    22009499.800    90125219.086 6      1585.099          37.875
G09  24924991.260   130981711.956 6      6096.257          41.125    24924990.180   130981711.958 5      6096.257          32.875    24925012.420   102063717.475 5      4750.330          33.187    24925012.700   102063760.471 7      4750.330          42.500
G04  22603167.020   118780446.899 7      5484.956          43.812    22603166.120   118780446.909 5      5484.956          34.062    22603175.320    92556221.751 5      4273.992          33.937    22603175.620    92556224.767 7      4273.992          47.937
R02  20037283.480   106922834.271 8      1483.908          50.937    20037283.000   106922834.269 8      1483.908          49.875    20037289.620    83162191.402 8      1154.151          50.625    20037290.000    83162194.403 8      1154.151          50.437
G21  22736827.040   119482797.248 7      1341.374          45.750    22736825.860   119482797.247 5      1341.374          35.937    22736829.500    93103488.561 5      1045.226          35.812
G08  22949054.260   120598068.133 7      -248.317          44.437    22949053.100   120598068.136 7      -248.317          42.937    22949063.360    93972544.527 7      -193.494          42.937    22949064.220    93972547.533 7      -193.494          46.062
G14  22225770.460   116797214.419 7      2044.006          44.812    22225769.900   116797214.430 5      2044.006          35.312    22225774.400    91010817.540 5      1592.732          35.062    22225775.100    91010822.543 8      1592.732          49.562
R18  21811172.480   116429517.922 7      4903.553          43.375    21811172.180   116429517.926 7      4903.553          44.500    21811180.700    90556330.455 8      3813.875          48.437    21811180.340    90556332.459 8      3813.875          48.437
R17  20437954.560   109367616.529 7      3155.735          47.375    20437954.440   109367616.541 7      3155.735          47.375    20437963.260    85063742.857 8      2454.460          50.562    20437962.980    85063740.855 8      2454.460          50.875
R24  22667695.540   121214329.826 7       870.610          42.062    22667694.440   121214329.844 6       870.610          41.812    22667710.480    94277847.791 7       677.141          47.250    22667709.960    94277853.789 8       677.141          48.125
G22  23385825.720   122893340.441 7      3450.911          44.562    23385824.420   122893340.451 5      3450.911          32.500    23385827.980    95761049.895 5      2689.021          32.500
R16  23135786.020   123587214.354 7      1380.007          45.437    23135784.980   123587214.361 7      1380.007          45.000    23135796.000    96123421.016 8      1073.339          48.187    23135796.220    96123424.017 8      1073.339          48.812
R03  20239265.280   108342372.105 8      5541.220          48.000    20239265.280   108342372.131 7      5541.220          47.500    20239275.680    84266333.946 8      4309.838          50.750    20239275.620    84266331.945 8      4309.838          50.937
G17  22745126.080   119526444.784 7      5393.535          44.937    22745125.080   119526444.784 6      5393.535          37.500    22745128.080    93137499.079 6      4202.754          37.062    22745128.420    93137503.093 7      4202.754          47.250
R15  23450073.320   125310076.944 7      -485.536          42.312    23450073.440   125310076.937 6      -485.536          40.125    23450093.200    97463473.031 7      -377.639          47.750    23450093.340    97463472.034 7      -377.639          47.812
> 2024 05 03 16 36 30.0000000  0 16
G03  20113689.880   105698155.313 8      2245.406          49.812    20113689.100   105698155.315 8      2245.406          50.812    20113693.120    82362197.706 8      1749.667          51.375    20113694.140    82362197.706 8      1749.667          51.437
G02  22009113.040   115658662.786 7      2034.225          47.500    22009111.480   115658662.794 6      2034.225          38.625    22009112.720    90123633.923 6      1585.111          38.625
G09  24923831.400   130975615.652 7      6096.441          42.125    24923830.120   130975615.657 5      6096.441          32.875    24923852.400   102058967.103 5      4750.474          33.187    24923852.900   102059010.103 7      4750.474          42.500
G04  22602123.180   118774962.053 7      5484.741          44.500    22602122.380   118774962.058 5      5484.741          34.312    22602131.660    92551947.851 5      4273.824          33.937    22602131.980    92551950.863 8      4273.824          48.187
R02  20037004.980   106921350.740 8      1483.076          51.000    20037004.900   106921350.738 8      1483.076          49.375    20037011.760    83161037.543 8      1153.504          49.875    20037012.180    83161040.544 8      1153.504          50.437
G21  22736571.780   119481455.792 7      1341.535          46.062    22736570.420   119481455.794 5      1341.535          35.562    22736574.140    93102443.273 5      1045.352          35.812
G08  22949101.660   120598316.573 7      -248.492          44.500    22949100.440   120598316.581 7      -248.492          43.562    22949110.580    93972738.110 7      -193.630          43.312    22949111.540    93972741.116 7      -193.630          46.437
G14  22225381.500   116795170.657 7      2043.425          45.000    22225380.840   116795170.667 5      2043.425          35.187    22225385.460    91009224.994 5      1592.279          34.875    22225386.060    91009229.999 8      1592.279          49.562
R18  21810253.480   116424614.349 7      4903.656          43.437    21810253.500   116424614.337 7      4903.656          44.187    21810262.180    90552516.557 7      3813.954          47.812    21810262.160    90552518.563 8      3813.954          48.125
R17  20437364.260   109364460.879 7      3155.616          47.875    20437364.620   109364460.892 7      3155.616          46.562    20437373.540    85061288.463 8      2454.368          50.062    20437372.920    85061286.461 8      2454.368          50.187
