     3.05           OBSERVATION DATA    MIXED               RINEX VERSION / TYPE
TPS2RIN 1.0.29.3920 TPS-USER            20240511 193124 UTC PGM / RUN BY / DATE
Win64 build Feb 23, 2024 (c) Topcon Positioning Systems     COMMENT
SRC: 20240509_FA08.tps                                      COMMENT
OPT: -S -v 3.05                                             COMMENT
Observer            Agency                                  OBSERVER / AGENCY
O0M3X53SBGM         TPS HIPER_SR        4.8 HSR Jul,08,2022 REC # / TYPE / VERS
FW: 4.8 HSR Jul,08,2022 p3                                  COMMENT
SN: HiPer SR 1212-12575                                     COMMENT
000                 TPSHIPER_SR     NONE                    ANT # / TYPE
        1.8000        0.0000        0.0000                  ANTENNA: DELTA H/E/N
FA08                                                        MARKER NAME
  5390932.1772 -1598585.2669  3005105.9984                  APPROX POSITION XYZ
  2024     5     9    11    32   46.0000000     GPS         TIME OF FIRST OBS
  2024     5     9    11    47   46.0000000     GPS         TIME OF LAST OBS
     1.000                                                  INTERVAL
   901 EPOCHS                                               COMMENT
G   16 C1C L1C D1C S1C C1W L1W D1W S1W C2W L2W D2W S2W C2X  SYS / # / OBS TYPES
       L2X D2X S2X                                          SYS / # / OBS TYPES
R   16 C1C L1C D1C S1C C1P L1P D1P S1P C2P L2P D2P S2P C2C  SYS / # / OBS TYPES
       L2C D2C S2C                                          SYS / # / OBS TYPES
    16                                                      # OF SATELLITES
   G02   902   902   902   902   902   902   902   902   902PRN / # OF OBS
         902   902   902     0     0     0     0            PRN / # OF OBS
   G07   200   200   200   200   189   189   189   189   189PRN / # OF OBS
         189   189   189   185   185   185   185            PRN / # OF OBS
   G08   902   902   902   902   902   902   902   902   902PRN / # OF OBS
         902   902   902   902   902   902   902            PRN / # OF OBS
   G10   902   902   902   902   902   902   902   902   902PRN / # OF OBS
         902   902   902   902   902   902   902            PRN / # OF OBS
   G16   902   902   902   902   902   902   902   902   902PRN / # OF OBS
         902   902   902     0     0     0     0            PRN / # OF OBS
   G18   851   851   851   851   848   848   848   848   848PRN / # OF OBS
         848   848   848   844   844   844   844            PRN / # OF OBS
   G21   902   902   902   902   902   902   902   902   902PRN / # OF OBS
         902   902   902     0     0     0     0            PRN / # OF OBS
   G23   902   902   902   902   902   902   902   902   902PRN / # OF OBS
         902   902   902   902   902   902   902            PRN / # OF OBS
   G26   902   902   902   902   902   902   902   902   902PRN / # OF OBS
         902   902   902   902   902   902   902            PRN / # OF OBS
   G27   902   902   902   902   902   902   902   902   902PRN / # OF OBS
         902   902   902   902   902   902   902            PRN / # OF OBS
   G31   902   902   902   902   902   902   902   902   902PRN / # OF OBS
         902   902   902   902   902   902   902            PRN / # OF OBS
   R10   902   902   902   902   902   902   902   902     0PRN / # OF OBS
           0     0     0     0     0     0     0            PRN / # OF OBS
   R11   902   902   902   902   902   902   902   902   902PRN / # OF OBS
         902   902   902   902   902   902   902            PRN / # OF OBS
   R12   902   902   902   902   902   902   902   902   902PRN / # OF OBS
         902   902   902   902   902   902   902            PRN / # OF OBS
   R21   902   902   902   902   902   902   902   902   902PRN / # OF OBS
         902   902   902   902   902   902   902            PRN / # OF OBS
   R22   902   902   902   902   902   902   902   902   902PRN / # OF OBS
         902   902   902   902   902   902   902            PRN / # OF OBS
G L1C                                                       SYS / PHASE SHIFT
G L1W -0.25000                                              SYS / PHASE SHIFT
G L2W  0.00000                                              SYS / PHASE SHIFT
G L2X  0.25000                                              SYS / PHASE SHIFT
R L1C                                                       SYS / PHASE SHIFT
R L1P -0.25000                                              SYS / PHASE SHIFT
R L2P -0.25000                                              SYS / PHASE SHIFT
R L2C                                                       SYS / PHASE SHIFT
  5 R10 -7 R11  0 R12 -1 R21  4 R22 -3                      GLONASS SLOT / FRQ #
                                                            GLONASS COD/PHS/BIS
    18    18  1929     7GPS                                 LEAP SECONDS
                                                            END OF HEADER
> 2024 05 09 11 32 46.0000000  0 15
G02  24095694.800   126623732.984 7      5506.165          44.187    24095693.240   126623732.986 5      5506.165          32.312    24095703.380    98667877.668 5      4290.518          32.562
G27  20830741.900   109466282.805 7      2365.406          47.187    20830740.600   109466282.810 8      2365.406          48.687    20830746.680    85298423.565 8      1843.173          49.000    20830747.320    85298425.569 8      1843.173          50.250
R11  19189568.060   102543231.580 8      3062.613          48.375    19189568.100   102543231.578 8      3062.613          48.312    19189575.260    79755874.774 8      2382.032          52.437    19189575.400    79755875.776 8      2382.032          53.187
G16  20425225.300   107335275.859 7      2525.768          45.937    20425223.620   107335275.866 6      2525.768          41.125    20425227.140    83637886.496 6      1968.131          40.875
R21  19979358.880   106913584.294 8       758.892          48.500    19979359.400   106913584.314 7       758.892          47.062    19979369.260    83155049.695 8       590.250          50.562    19979368.620    83155048.699 8       590.250          50.187
G26  21374511.120   112323810.065 7       469.036          45.875    21374509.380   112323810.073 7       469.036          46.875    21374518.180    87525074.280 7       365.482          47.062    21374518.580    87525076.285 8       365.482          48.125
R22  20652078.800   110242193.364 8      3990.070          48.500    20652079.220   110242193.362 8      3990.070          48.062    20652087.200    85743964.317 8      3103.388          50.312    20652087.520    85743966.313 8      3103.388          50.812
R10  21104514.780   112498925.063 7      -844.952          43.312    21104514.420   112498925.083 7      -844.952          42.937
G08  22052516.700   115886752.832 7      3823.330          44.687    22052515.960   115886752.829 5      3823.330          35.750    22052523.880    90301396.050 5      2979.219          35.562    22052524.860    90301399.064 8      2979.219          48.687
G10  22631771.420   118930759.984 7      3955.965          46.062    22631770.440   118930759.986 7      3955.965          45.375    22631780.160    92673357.081 7      3082.570          45.437    22631780.180    92673352.083 7      3082.570          47.125
G23  23081432.240   121293740.578 7      2194.504          43.125    23081431.100   121293740.583 5      2194.504          32.875    23081439.320    94514634.043 5      1710.004          32.750    23081439.500    94514635.063 7      1710.004          46.875
G21  22264852.340   117002588.169 6      5272.106          41.125    22264849.880   117002588.173 4      5272.106          29.625    22264857.800    91170868.819 4      4108.134          29.500
G31  23968334.440   125954435.755 7      -973.982          44.500    23968333.640   125954435.762 6      -973.982          40.250    23968344.900    98146352.286 6      -758.947          40.625    23968345.340    98146354.290 7      -758.947          43.687
R12  22597210.280   120710235.349 7      6373.212          44.937    22597208.180   120710235.369 7      6373.212          45.187    22597218.080    93885779.518 7      4956.943          43.312    22597218.200    93885780.509 7      4956.943          43.062
G18  24860005.940   130640204.852 7      -968.949          42.875    24860005.360   130640204.855 5      -968.949          30.312    24860015.140   101797590.444 5      -755.025          30.875    24860015.660   101797607.442 7      -755.025          45.875
> 2024 05 09 11 32 47.0000000  0 15
G02  24094646.820   126618226.474 7      5506.789          43.937    24094645.420   126618226.476 5      5506.789          32.312    24094655.520    98663586.898 5      4291.004          32.125
G27  20830291.580   109463916.872 7      2366.301          47.875    20830290.420   109463916.880 8      2366.301          49.312    20830296.500    85296579.989 8      1843.871          49.562    20830297.000    85296581.994 8      1843.871          49.937
R11  19188995.000   102540168.658 8      3062.901          48.625    19188994.980   102540168.654 8      3062.901          48.312    19189002.140    79753492.508 8      2382.256          52.500    19189002.280    79753493.514 8      2382.256          53.250
G16  20424744.360   107332749.692 7      2526.399          46.250    20424742.940   107332749.697 6      2526.399          40.812    20424746.340    83635918.060 6      1968.623          40.312
R21  19979217.160   106912825.004 7       759.582          47.312    19979217.700   106912825.016 7       759.582          47.250    19979227.280    83154459.134 8       590.786          50.375    19979226.520    83154458.138 8       590.786          50.250
G26  21374421.720   112323340.570 7       469.730          47.312    21374420.060   112323340.577 7       469.730          47.000    21374428.900    87524708.444 7       366.023          46.937    21374429.400    87524710.444 8       366.023          48.312
R22  20651331.360   110238202.942 8      3990.576          48.437    20651331.660   110238202.940 7      3990.576          47.937    20651339.580    85740860.664 8      3103.781          50.000    20651339.800    85740862.660 8      3103.781          50.562
R10  21104672.940   112499769.411 7      -844.152          43.250    21104672.920   112499769.425 7      -844.152          42.937
G08  22051789.320   115882929.018 7      3824.093          45.125    22051788.180   115882929.015 6      3824.093          36.000    22051796.120    90298416.462 5      2979.813          35.875    22051797.040    90298419.478 8      2979.813          48.625
G10  22631018.640   118926803.512 7      3956.691          45.812    22631017.720   118926803.512 7      3956.691          45.187    22631027.380    92670274.124 7      3083.136          45.500    22631027.480    92670269.125 7      3083.136          47.312
G23  23081014.540   121291545.636 7      2195.039          43.437    23081013.400   121291545.638 5      2195.039          32.687    23081021.600    94512923.705 5      1710.420          32.937    23081021.820    94512924.719 7      1710.420          47.625
G21  22263849.020   116997315.671 6      5272.692          40.750    22263846.660   116997315.681 4      5272.692          29.625    22263854.440    91166760.396 4      4108.591          29.500
G31  23968519.760   125955409.063 7      -972.908          45.125    23968519.000   125955409.071 6      -972.908          40.500    23968530.120    98147110.704 6      -758.110          40.562    23968530.620    98147112.704 7      -758.110          43.875
R12  22596016.820   120703861.582 7      6374.095          44.437    22596014.460   120703861.599 7      6374.095          44.937    22596025.240    93880822.154 7      4957.630          43.500    22596025.680    93880823.148 7      4957.630          43.812
G18  24860190.200   130641173.182 7      -968.002          43.312    24860189.740   130641173.184 5      -968.002          31.187    24860199.420   101798344.987 5      -754.287          30.875    24860199.700   101798361.989 7      -754.287          45.812
> 2024 05 09 11 32 48.0000000  0 15
G02  24093599.000   126612719.344 7      5507.681          43.687    24093597.320   126612719.349 5      5507.681          32.250    24093607.720    98659295.646 5      4291.699          32.125
G27  20829841.220   109461550.243 7      2367.235          46.875    20829840.060   109461550.248 8      2367.235          48.687    20829846.160    85294735.871 8      1844.599          49.250    20829846.620    85294737.873 8      1844.599          49.750
R11  19188421.840   102537105.691 8      3063.169          48.812    19188421.500   102537105.695 8      3063.169          48.125    19188428.940    79751110.208 8      2382.465          52.750    19188428.960    79751111.211 8      2382.465          52.812
G16  20424263.860   107330223.105 7      2527.017          46.062    20424262.220   107330223.110 6      2527.017          40.312    20424265.700    83633949.300 6      1969.104          39.937
R21  19979074.960   106912065.202 7       760.306          47.250    19979075.340   106912065.217 7       760.306          47.125    19979085.260    83153868.186 8       591.349          50.937    19979084.860    83153867.189 8       591.349          50.312
G26  21374332.320   112322870.609 7       470.413          46.687    21374330.660   112322870.614 7       470.413          47.000    21374339.500    87524342.245 7       366.556          46.687    21374339.720    87524344.248 8       366.556          48.437
R22  20650583.600   110234212.176 7      3991.172          47.562    20650584.120   110234212.177 7      3991.172          47.937    20650592.120    85737756.745 8      3104.245          50.250    20650592.220    85737758.743 8      3104.245          50.812
R10  21104831.660   112500613.447 7      -843.701          43.250    21104831.280   112500613.458 7      -843.701          42.187
G08  22051061.540   115879104.430 7      3825.189          45.625    22051060.500   115879104.427 6      3825.189          36.000    22051068.380    90295436.273 5      2980.667          35.875    22051069.440    90295439.289 8      2980.667          49.500
G10  22630265.640   118922846.607 7      3957.337          47.000    22630264.540   118922846.609 7      3957.337          45.125    22630274.400    92667190.836 7      3083.639          45.437    22630274.220    92667185.836 7      3083.639          46.875
G23  23080596.900   121289350.398 7      2195.619          44.250    23080595.820   121289350.403 5      2195.619          32.687    23080603.840    94511213.140 5      1710.872          32.937    23080603.740    94511214.156 7      1710.872          47.000
G21  22262845.800   116992042.718 6      5273.496          41.750    22262843.160   116992042.728 4      5273.496          29.375    22262851.100    91162651.612 4      4109.218          29.437
G31  23968705.080   125956381.516 7      -971.871          45.687    23968704.320   125956381.531 6      -971.871          40.250    23968715.240    98147868.457 6      -757.302          40.500    23968715.560    98147870.457 7      -757.302          43.750
R12  22594823.560   120697487.164 7      6374.967          43.875    22594820.060   120697487.173 7      6374.967          44.062    22594832.600    93875864.283 7      4958.308          43.437    22594832.460    93875865.279 7      4958.308          44.187
G18  24860374.260   130642140.658 7      -966.784          43.500    24860373.780   130642140.657 5      -966.784          31.187    24860383.460   101799098.870 5      -753.338          30.875    24860384.120   101799115.878 7      -753.338          45.750
> 2024 05 09 11 32 49.0000000  0 15
G02  24092551.100   126607211.536 7      5507.801          44.250    24092549.200   126607211.544 5      5507.801          32.250    24092559.640    98655003.864 5      4291.793          32.125
G27  20829390.800   109459182.847 7      2367.432          47.750    20829389.560   109459182.847 8      2367.432          49.125    20829395.700    85292891.151 8      1844.752          49.187    20829396.040    85292893.155 8      1844.752          50.000
R11  19187848.640   102534042.548 8      3062.874          49.375    19187848.500   102534042.547 8      3062.874          48.000    19187855.700    79748727.770 8      2382.235          52.687    19187856.000    79748728.770 8      2382.235          53.250
G16  20423782.940   107327695.983 7      2527.052          46.687    20423781.320   107327695.985 6      2527.052          41.562    20423784.680    83631980.117 6      1969.132          40.812
R21  19978933.180   106911304.839 7       760.299          47.250    19978933.400   106911304.849 8       760.299          48.062    19978943.200    83153276.799 8       591.344          50.562    19978942.620    83153275.800 8       591.344          50.000
G26  21374242.720   112322400.097 7       470.468          47.375    21374241.080   112322400.094 7       470.468          47.187    21374249.940    87523975.608 7       366.598          47.187    21374250.320    87523977.613 8       366.598          48.812
R22  20649836.100   110230220.980 7      3991.018          47.750    20649836.440   110230220.983 7      3991.018          47.750    20649844.380    85734652.492 8      3104.125          50.437    20649844.580    85734654.492 8      3104.125          50.500
R10  21104989.740   112501457.014 7      -843.745          43.187    21104989.300   112501457.023 7      -843.745          42.375
G08  22050333.780   115875279.045 7      3825.401          45.437    22050332.580   115875279.039 6      3825.401          36.000    22050340.380    90292455.460 5      2980.832          35.750    22050341.300    90292458.480 8      2980.832          48.687
G10  22629512.420   118918889.153 7      3957.347          46.500    22629511.580   118918889.155 7      3957.347          45.687    22629521.340    92664107.116 7      3083.647          45.437    22629521.400    92664102.118 7      3083.647          47.000
G23  23080179.180   121287154.794 7      2195.483          44.187    23080178.060   121287154.799 5      2195.483          33.187    23080186.080    94509502.288 5      1710.766          33.062    23080186.080    94509503.302 7      1710.766          47.437
G21  22261842.040   116986769.274 7      5273.387          42.750    22261839.600   116986769.282 4      5273.387          29.375    22261847.600    91158542.447 4      4109.133          29.437
G31  23968889.960   125957353.006 7      -971.397          45.375    23968889.300   125957353.016 6      -971.397          40.375    23968900.080    98148625.456 6      -756.933          40.875    23968900.500    98148627.461 7      -756.933          43.812
R12  22593629.740   120691111.973 7      6375.179          43.500    22593626.340   120691111.982 7      6375.179          44.062    22593639.220    93870905.825 7      4958.472          43.562    22593639.440    93870906.825 7      4958.472          45.000
G18  24860558.320   130643107.258 7      -966.499          43.875    24860557.820   130643107.261 5      -966.499          31.187    24860567.320   101799852.070 5      -753.116          31.062    24860567.640   101799869.076 7      -753.116          45.562
> 2024 05 09 11 32 50.0000000  0 15
G02  24091502.700   126601703.468 7      5508.469          43.500    24091501.200   126601703.476 5      5508.469          32.250    24091511.320    98650711.877 5      4292.313          32.062
G27  20828940.200   109456815.086 7      2368.118          47.875    20828939.060   109456815.088 8      2368.118          49.062    20828945.080    85291046.148 8      1845.287          49.187    20828945.480    85291048.153 8      1845.287          49.937
R11  19187275.600   102530979.680 8      3063.038          49.687    19187275.220   102530979.681 8      3063.038          48.812    19187282.500    79746345.545 8      2382.363          52.875    19187282.580    79746346.546 8      2382.363          53.750
G16  20423301.840   107325168.768 7      2527.504          46.687    20423300.400   107325168.773 6      2527.504          41.062    20423303.900    83630010.869 6      1969.484          40.500
R21  19978790.780   106910544.329 7       760.844          47.687    19978791.400   106910544.339 7       760.844          47.625    19978801.100    83152685.293 8       591.768          50.625    19978800.660    83152684.296 8       591.768          50.250
G26  21374153.200   112321929.440 7       471.019          47.187    21374151.660   112321929.445 7       471.019          47.187    21374160.360    87523608.873 7       367.028          47.250    21374160.800    87523610.877 8       367.028          48.187
R22  20649088.160   110226229.760 8      3991.357          48.062    20649088.720   110226229.769 8      3991.357          48.062    20649096.760    85731548.222 8      3104.389          50.000    20649097.000    85731550.214 8      3104.389          50.375
R10  21105148.340   112502300.560 7      -843.328          43.125    21105147.460   112502300.574 7      -843.328          42.375
G08  22049605.420   115871453.227 7      3826.262          45.312    22049604.600   115871453.221 5      3826.262          35.875    22049612.420    90289474.309 5      2981.503          35.750    22049613.520    90289477.333 8      2981.503          49.000
G10  22628759.360   118914931.575 7      3957.914          46.375    22628758.660   118914931.580 7      3957.914          45.750    22628768.300    92661023.299 7      3084.089          45.937    22628767.920    92661018.299 7      3084.089          46.687
G23  23079761.320   121284959.245 7      2195.725          44.000    23079760.280   121284959.250 5      2195.725          33.250    23079768.280    94507791.477 5      1710.955          33.062    23079768.020    94507792.497 7      1710.955          47.500
G21  22260838.540   116981495.702 6      5273.872          41.437    22260836.080   116981495.709 4      5273.872          29.375    22260844.040    91154433.184 4      4109.511          29.437
G31  23969074.900   125958323.963 7      -970.412          45.375    23969074.140   125958323.971 6      -970.412          40.312    23969084.760    98149382.036 6      -756.165          40.187    23969085.140    98149384.034 7      -756.165          43.875
R12  22592436.500   120684736.404 7      6376.051          43.500    22592432.140   120684736.410 7      6376.051          44.000    22592445.580    93865947.063 7      4959.151          43.750    22592445.900    93865948.067 7      4959.151          44.875
G18  24860742.060   130644073.342 7      -965.654          44.187    24860741.680   130644073.349 5      -965.654          31.125    24860751.160   101800604.866 5      -752.458          31.062    24860751.700   101800621.882 7      -752.458          45.875
> 2024 05 09 11 32 51.0000000  0 15
G02  24090454.600   126596194.596 7      5509.086          43.500    24090452.860   126596194.604 5      5509.086          31.687    24090463.020    98646419.266 5      4292.794          32.062
G27  20828489.480   109454446.415 7      2368.941          47.375    20828488.220   109454446.420 8      2368.941          49.187    20828494.300    85289200.443 8      1845.928          49.312    20828494.600    85289202.448 8      1845.928          50.125
R11  19186702.240   102527916.572 8      3063.062          49.000    19186702.180   102527916.570 8      3063.062          48.062    19186709.400    79743963.136 8      2382.382          52.687    19186709.460    79743964.138 8      2382.382          53.375
G16  20422820.880   107322640.925 7      2527.952          46.812    20422819.460   107322640.932 6      2527.952          41.062    20422822.720    83628041.129 6      1969.833          40.687
R21  19978648.440   106909783.099 7       761.363          46.437    19978648.960   106909783.112 7       761.363          47.250    19978658.840    83152093.236 8       592.171          50.562    19978658.340    83152092.237 8       592.171          49.812
G26  21374063.720   112321458.137 7       471.548          47.812    21374061.880   112321458.139 7       471.548          46.937    21374070.680    87523241.628 7       367.440          47.000    21374071.040    87523243.630 8       367.440          48.437
R22  20648340.540   110222237.998 8      3991.799          48.000    20648341.100   110222238.004 7      3991.799          47.937    20648348.900    85728443.527 8      3104.733          50.187    20648349.000    85728445.526 8      3104.733          50.312
R10  21105306.340   112503143.562 7      -842.917          43.125    21105305.820   112503143.573 7      -842.917          42.312
G08  22048877.320   115867626.492 7      3827.077          45.500    22048876.500   115867626.486 5      3827.077          35.750    22048884.180    90286492.446 5      2982.138          35.437    22048885.200    90286495.470 8      2982.138          48.687
G10  22628006.120   118910973.367 7      3958.384          45.562    22628005.260   118910973.377 7      3958.384          45.625    22628014.980    92657938.993 7      3084.455          45.500    22628014.880    92657933.994 7      3084.455          47.000
G23  23079343.060   121282763.200 7      2196.082          44.125    23079342.460   121282763.200 5      2196.082          33.250    23079350.380    94506080.282 5      1711.233          33.062    23079350.280    94506081.299 7      1711.233          47.437
G21  22259834.960   116976221.501 6      5274.410          41.562    22259832.620   116976221.503 4      5274.410          29.375    22259840.340    91150323.426 4      4109.930          29.437
G31  23969259.240   125959293.856 7      -969.514          45.187    23969258.680   125959293.864 6      -969.514          40.500    23969269.340    98150137.795 6      -755.465          40.562    23969270.080    98150139.797 7      -755.465          44.062
R12  22591242.700   120678359.971 7      6376.708          43.750    22591238.740   120678359.967 7      6376.708          44.250    22591251.680    93860987.626 7      4959.662          44.187    22591251.980    93860988.622 7      4959.662          45.187
G18  24860926.080   130645038.387 7      -964.626          43.250    24860925.380   130645038.392 5      -964.626          31.125    24860934.860   101801356.853 5      -751.657          31.062    24860935.400   101801373.869 7      -751.657          45.812
> 2024 05 09 11 32 52.0000000  0 15
G02  24089406.160   126590685.062 7      5509.737          44.500    24089404.380   126590685.069 5      5509.737          31.687    24089414.640    98642126.137 5      4293.301          32.062
G27  20828038.660   109452076.991 7      2369.736          47.875    20828037.360   109452077.001 8      2369.736          48.875    20828043.440    85287354.148 8      1846.548          49.312    20828043.860    85287356.149 8      1846.548          49.812
R11  19186129.220   102524853.324 8      3063.201          48.750    19186128.940   102524853.325 8      3063.201          48.125    19186136.080    79741580.620 8      2382.489          52.562    19186136.140    79741581.623 8      2382.489          52.875
G16  20422339.520   107320112.575 7      2528.525          46.750    20422338.260   107320112.580 6      2528.525          41.250    20422341.620    83626070.993 6      1970.279          41.250
R21  19978506.120   106909021.241 7       762.032          47.375    19978506.620   106909021.258 7       762.032          47.750    19978516.400    83151500.689 8       592.692          50.687    19978516.180    83151499.693 8       592.692          49.687
G26  21373973.740   112320986.306 7       471.958          46.937    21373972.140   112320986.313 7       471.958          47.062    21373980.960    87522873.975 7       367.760          47.250    21373981.240    87522875.978 8       367.760          48.312
R22  20647592.680   110218245.828 7      3992.237          47.812    20647593.020   110218245.831 8      3992.237          48.312    20647601.040    85725338.509 8      3105.073          50.000    20647601.020    85725340.511 8      3105.073          50.625
R10  21105464.460   112503986.158 7      -842.564          43.250    21105464.080   112503986.177 7      -842.564          42.312
G08  22048148.920   115863798.952 7      3827.903          46.125    22048148.020   115863798.944 5      3827.903          35.937    22048155.740    90283509.958 5      2982.782          35.937    22048157.020    90283512.982 8      2982.782          49.062
G10  22627252.960   118907014.646 7      3958.881          46.937    22627251.940   118907014.648 7      3958.881          45.312    22627261.680    92654854.282 7      3084.842          45.312    22627261.220    92654849.286 7      3084.842          46.562
G23  23078925.220   121280566.798 7      2196.465          43.687    23078924.600   121280566.803 5      2196.465          33.125    23078932.400    94504368.805 5      1711.532          33.187    23078932.260    94504369.825 7      1711.532          47.125
G21  22258831.180   116970946.799 6      5274.876          41.687    22258828.800   116970946.798 4      5274.876          29.875    22258836.640    91146213.280 4      4110.293          29.687
G31  23969443.680   125960262.814 7      -968.513          44.937    23969443.240   125960262.821 6      -968.513          40.437    23969453.800    98150892.820 6      -754.686          40.250    23969454.380    98150894.823 7      -754.686          43.812
R12  22590048.920   120671982.778 7      6377.507          43.750    22590045.780   120671982.771 7      6377.507          44.500    22590058.040    93856027.587 7      4960.283          44.000    22590058.320    93856028.587 7      4960.283          45.062
G18  24861109.560   130646002.560 7      -963.749          43.000    24861108.860   130646002.565 5      -963.749          31.125    24861118.320   101802108.161 5      -750.974          31.062    24861118.740   101802125.181 7      -750.974          45.812
> 2024 05 09 11 32 53.0000000  0 15
G02  24088357.640   126585175.160 7      5510.052          43.562    24088355.900   126585175.160 5      5510.052          32.000    24088366.180    98637832.721 5      4293.547          31.937
G27  20827587.640   109449707.130 7      2370.096          47.625    20827586.400   109449707.138 8      2370.096          49.062    20827592.540    85285507.508 8      1846.828          49.187    20827592.960    85285509.510 8      1846.828          49.812
R11  19185555.800   102521790.250 8      3062.994          48.875    19185555.500   102521790.251 8      3062.994          48.500    19185562.920    79739198.234 8      2382.329          53.000    19185562.980    79739199.234 8      2382.329          52.937
G16  20421858.740   107317584.033 7      2528.654          46.187    20421857.080   107317584.043 6      2528.654          41.250    20421860.520    83624100.709 6      1970.380          41.000
R21  19978363.580   106908259.123 7       762.211          47.750    19978364.120   106908259.137 7       762.211          47.062    19978374.080    83150907.933 8       592.831          50.812    19978373.460    83150906.938 8       592.831          49.687
G26  21373883.940   112320514.246 7       472.179          46.812    21373882.360   112320514.251 7       472.179          47.062    21373891.100    87522506.134 7       367.932          47.125    21373891.320    87522508.139 8       367.932          48.562
R22  20646844.760   110214253.543 7      3992.365          47.937    20646845.100   110214253.549 8      3992.365          48.062    20646853.260    85722233.407 8      3105.173          49.875    20646853.160    85722235.409 8      3105.173          50.250
R10  21105622.220   112504828.624 7      -842.469          43.625    21105622.140   112504828.644 7      -842.469          42.375
G08  22047420.580   115859970.927 7      3828.252          46.437    22047419.440   115859970.919 6      3828.252          36.062    22047427.300    90280527.087 5      2983.054          35.812    22047428.520    90280530.113 8      2983.054          48.000
G10  22626499.660   118903055.713 7      3959.018          46.062    22626498.560   118903055.717 7      3959.018          45.500    22626508.340    92651769.407 7      3084.949          45.375    22626507.700    92651764.411 7      3084.949          46.437
G23  23078507.140   121278370.358 7      2196.403          43.437    23078506.540   121278370.363 5      2196.403          33.125    23078514.480    94502657.300 5      1711.483          33.187    23078514.320    94502658.316 7      1711.483          47.562
G21  22257827.300   116965671.894 7      5275.076          42.125    22257825.080   116965671.893 4      5275.076          29.875    22257832.860    91142102.975 4      4110.449          29.687
G31  23969627.720   125961231.172 7      -968.110          44.937    23969627.520   125961231.183 6      -968.110          39.937    23969637.920    98151647.381 6      -754.372          40.687    23969638.320    98151649.380 7      -754.372          43.562
R12  22588854.920   120665605.170 7      6377.856          44.125    22588852.160   120665605.158 7      6377.856          44.437    22588864.380    93851067.227 7      4960.555          44.062    22588864.540    93851068.225 7      4960.555          44.500
G18  24861292.600   130646966.165 6      -963.347          41.750    24861292.040   130646966.165 5      -963.347          30.562    24861301.760   101802859.026 5      -750.660          30.562    24861302.040   101802876.032 7      -750.660          45.937
> 2024 05 09 11 32 54.0000000  0 15
G02  24087309.240   126579664.874 7      5510.836          43.500    24087307.200   126579664.879 5      5510.836          32.000    24087317.620    98633539.008 5      4294.158          31.937
G27  20827136.580   109447336.775 7      2370.959          47.750    20827135.300   109447336.783 8      2370.959          49.375    20827141.440    85283660.486 8      1847.501          49.375    20827141.880    85283662.485 8      1847.501          49.500
R11  19184982.780   102518727.358 8      3063.194          48.750    19184982.700   102518727.357 8      3063.194          48.062    19184989.780    79736815.989 8      2382.485          52.312    19184989.860    79736816.993 8      2382.485          53.062
G16  20421377.380   107315055.284 7      2529.229          47.437    20421375.940   107315055.294 6      2529.229          41.000    20421379.280    83622130.263 6      1970.828          40.375
R21  19978221.420   106907496.747 8       762.824          48.062    19978221.680   106907496.765 7       762.824          47.375    19978231.600    83150314.983 8       593.308          50.812    19978230.940    83150313.986 8       593.308          50.437
G26  21373794.300   112320041.929 7       472.793          47.062    21373792.440   112320041.942 7       472.793          47.000    21373801.320    87522138.107 7       368.410          47.125    21373801.500    87522140.110 8       368.410          48.437
R22  20646097.000   110210261.143 7      3992.847          47.500    20646097.120   110210261.147 8      3992.847          48.250    20646105.320    85719128.214 8      3105.548          50.312    20646105.560    85719130.216 8      3105.548          50.750
R10  21105780.520   112505670.960 7      -841.939          43.437    21105780.040   112505670.974 7      -841.939          42.562
G08  22046691.840   115856142.381 7      3829.098          45.687    22046690.820   115856142.370 5      3829.098          35.875    22046698.820    90277543.813 5      2983.713          35.625    22046700.000    90277546.837 8      2983.713          48.500
G10  22625746.160   118899096.545 7      3959.541          47.250    22625745.160   118899096.547 7      3959.541          45.625    22625754.880    92648684.354 7      3085.357          45.812    22625754.200    92648679.356 7      3085.357          46.625
G23  23078089.380   121276173.835 7      2196.908          43.500    23078088.640   121276173.837 5      2196.908          33.062    23078096.480    94500945.730 5      1711.876          32.812    23078096.620    94500946.750 7      1711.876          47.375
G21  22256823.560   116960396.774 7      5275.669          42.750    22256821.460   116960396.773 4      5275.669          29.875    22256829.120    91137992.500 4      4110.911          29.687
G31  23969812.160   125962198.874 7      -967.105          45.187    23969811.600   125962198.876 6      -967.105          40.750    23969822.100    98152401.427 6      -753.588          40.625    23969822.200    98152403.427 7      -753.588          43.562
R12  22587660.780   120659227.109 7      6378.671          45.187    22587658.800   120659227.110 7      6378.671          45.000    22587670.900    93846106.525 7      4961.189          44.437    22587670.860    93846107.519 7      4961.189          45.250
G18  24861476.200   130647929.124 6      -962.304          41.625    24861475.080   130647929.126 5      -962.304          30.562    24861485.260   101803609.390 5      -749.847          30.562    24861485.360   101803626.394 7      -749.847          45.937
> 2024 05 09 11 32 55.0000000  0 15
G02  24086260.400   126574154.076 7      5511.141          43.875    24086258.440   126574154.081 5      5511.141          32.000    24086268.780    98629244.898 5      4294.396          31.937
G27  20826685.480   109444965.822 8      2371.276          48.500    20826684.160   109444965.832 8      2371.276          49.312    20826690.240    85281812.998 8      1847.748          49.437    20826690.940    85281815.001 8      1847.748          50.062
R11  19184409.820   102515664.469 8      3062.923          49.125    19184409.340   102515664.470 8      3062.923          48.125    19184416.560    79734433.752 8      2382.274          52.750    19184416.480    79734434.754 8      2382.274          52.500
G16  20420896.080   107312526.198 7      2529.272          46.375    20420894.660   107312526.203 6      2529.272          40.562    20420898.060    83620159.551 6      1970.861          40.187
R21  19978079.120   106906733.992 7       763.022          47.437    19978079.300   106906734.007 7       763.022          47.437    19978089.100    83149721.733 8       593.461          50.750    19978088.540    83149720.737 8       593.461          50.250
G26  21373704.380   112319569.244 7       472.940          46.625    21373702.540   112319569.248 7       472.940          47.312    21373711.440    87521769.781 7       368.525          47.187    21373711.580    87521771.788 8       368.525          48.312
R22  20645349.020   110206268.482 7      3992.802          47.500    20645349.300   110206268.483 8      3992.802          48.562    20645357.300    85716022.823 8      3105.513          50.562    20645357.580    85716024.821 8      3105.513          51.000
R10  21105938.520   112506513.018 7      -841.921          43.437    21105938.260   112506513.035 7      -841.921          42.562
G08  22045963.300   115852313.153 7      3829.638          46.062    22045962.140   115852313.144 5      3829.638          35.875    22045970.160    90274560.009 5      2984.133          35.875    22045970.960    90274563.033 8      2984.133          48.187
G10  22624992.760   118895136.994 7      3959.817          47.312    22624991.720   118895136.994 7      3959.817          45.062    22625001.320    92645598.997 7      3085.572          45.312    22625000.760    92645594.000 7      3085.572          46.750
G23  23077671.380   121273977.107 7      2196.906          43.312    23077670.720   121273977.109 5      2196.906          33.062    23077678.600    94499234.002 5      1711.875          32.812    23077678.620    94499235.024 7      1711.875          47.500
G21  22255819.700   116955121.278 7      5275.788          42.000    22255817.680   116955121.283 4      5275.788          29.875    22255825.200    91133881.740 4      4111.004          29.687
G31  23969995.760   125963165.769 7      -966.411          44.437    23969995.640   125963165.771 6      -966.411          40.250    23970005.940    98153154.843 6      -753.048          40.375    23970006.560    98153156.841 7      -753.048          43.437
R12  22586466.840   120652848.462 7      6378.993          45.687    22586464.800   120652848.458 7      6378.993          45.187    22586477.700    93841145.360 7      4961.439          44.500    22586476.640    93841146.360 7      4961.439          46.000
G18  24861659.040   130648891.371 6      -961.876          41.875    24861657.960   130648891.370 5      -961.876          30.562    24861668.360   101804359.195 5      -749.513          30.562    24861668.240   101804376.197 7      -749.513          46.125
> 2024 05 09 11 32 56.0000000  0 15
G02  24085211.520   126568642.916 7      5511.281          43.562    24085209.760   126568642.920 5      5511.281          31.625    24085220.080    98624950.500 5      4294.504          31.750
G27  20826234.060   109442594.392 7      2371.583          47.687    20826232.960   109442594.397 8      2371.583          49.000    20826239.060    85279965.133 8      1847.987          48.687    20826239.380    85279967.132 8      1847.987          50.125
R11  19183836.220   102512601.756 8      3062.539          48.500    19183836.260   102512601.759 8      3062.539          48.500    19183843.360    79732051.648 8      2381.975          52.625    19183843.340    79732052.650 8      2381.975          53.812
G16  20420414.640   107309996.894 7      2529.203          47.125    20420413.320   107309996.904 6      2529.203          40.812    20420416.740    83618188.673 6      1970.808          40.437
R21  19977936.440   106905970.970 7       763.061          47.750    19977936.600   106905970.988 7       763.061          47.625    19977946.580    83149128.277 8       593.492          51.062    19977946.120    83149127.281 8       593.492          50.125
G26  21373614.240   112319096.319 7       472.966          47.125    21373612.460   112319096.322 7       472.966          47.500    21373621.380    87521401.273 7       368.545          47.437    21373621.620    87521403.273 8       368.545          48.312
R22  20644601.240   110202275.679 8      3992.761          48.687    20644601.140   110202275.683 7      3992.761          47.562    20644609.380    85712917.318 8      3105.481          50.250    20644609.680    85712919.318 8      3105.481          50.250
R10  21106096.240   112507354.922 7      -841.954          43.812    21106096.420   112507354.938 7      -841.954          42.500
G08  22045234.500   115848483.451 7      3829.859          45.312    22045233.420   115848483.437 6      3829.859          36.000    22045241.500    90271575.832 5      2984.306          35.875    22045242.120    90271578.852 8      2984.306          48.375
G10  22624238.920   118891177.246 7      3959.770          47.000    22624238.260   118891177.246 7      3959.770          45.500    22624247.980    92642513.488 7      3085.535          45.625    22624247.380    92642508.492 7      3085.535          46.375
G23  23077253.420   121271780.315 7      2196.751          43.562    23077252.600   121271780.325 5      2196.751          33.187    23077260.400    94497522.226 5      1711.754          33.187    23077260.600    94497523.246 7      1711.754          47.750
G21  22254815.760   116949845.600 6      5275.699          41.500    22254813.820   116949845.603 4      5275.699          29.875    22254821.140    91129770.833 4      4110.934          29.937
G31  23970179.800   125964132.033 7      -966.017          44.812    23970179.600   125964132.030 6      -966.017          40.125    23970189.640    98153907.770 6      -752.740          40.437    23970190.160    98153909.771 7      -752.740          43.375
R12  22585273.000   120646469.327 7      6379.248          45.562    22585270.640   120646469.328 7      6379.248          45.062    22585283.880    93836183.831 7      4961.637          45.312    22585282.760    93836184.829 7      4961.637          45.875
G18  24861841.640   130649853.003 6      -961.454          40.812    24861840.640   130649853.005 5      -961.454          30.562    24861851.420   101805108.518 5      -749.185          30.562    24861851.660   101805125.512 7      -749.185          45.937
> 2024 05 09 11 32 57.0000000  0 15
G02  24084162.580   126563131.292 7      5512.135          43.062    24084161.020   126563131.295 5      5512.135          31.625    24084171.220    98620655.747 5      4295.170          31.750
G27  20825782.600   109440222.416 8      2372.554          48.312    20825781.580   109440222.421 8      2372.554          49.500    20825787.580    85278116.848 8      1848.744          49.500    20825788.080    85278118.849 8      1848.744          50.250
R11  19183263.260   102509539.131 8      3062.818          49.000    19183263.020   102509539.129 7      3062.818          47.812    19183270.260    79729669.612 8      2382.192          52.687    19183270.280    79729670.617 8      2382.192          53.437
G16  20419933.260   107307467.307 7      2529.935          47.937    20419931.980   107307467.312 6      2529.935          40.875    20419935.360    83616217.572 6      1971.378          40.500
R21  19977793.420   106905207.549 8       763.779          48.875    19977794.080   106905207.566 7       763.779          47.437    19977803.760    83148534.514 8       594.051          50.812    19977803.280    83148533.517 8       594.051          49.937
G26  21373524.400   112318623.080 7       473.596          47.062    21373522.480   112318623.087 7       473.596          47.062    21373531.340    87521032.519 7       369.036          47.062    21373531.680    87521034.525 8       369.036          49.000
R22  20643853.060   110198282.711 7      3993.265          47.687    20643853.060   110198282.717 7      3993.265          47.687    20643861.380    85709811.691 8      3105.873          50.062    20643861.520    85709813.691 8      3105.873          50.312
R10  21106254.280   112508196.636 7      -841.350          43.437    21106254.200   112508196.645 7      -841.350          42.375
G08  22044505.600   115844653.121 7      3830.953          46.187    22044504.460   115844653.116 5      3830.953          35.750    22044512.380    90268591.171 5      2985.158          35.812    22044513.360    90268594.196 8      2985.158          48.250
G10  22623485.440   118887217.183 7      3960.429          46.687    22623484.720   118887217.185 7      3960.429          45.500    22623494.360    92639427.736 7      3086.049          45.312    22623493.900    92639422.743 7      3086.049          46.375
G23  23076835.480   121269583.395 7      2197.272          44.375    23076834.620   121269583.405 5      2197.272          33.187    23076842.500    94495810.349 5      1712.160          33.187    23076842.620    94495811.367 7      1712.160          47.312
G21  22253811.960   116944569.613 6      5276.494          41.937    22253809.860   116944569.615 4      5276.494          29.875    22253817.320    91125659.684 4      4111.553          29.937
G31  23970363.780   125965097.581 7      -964.940          44.625    23970363.340   125965097.580 6      -964.940          39.875    23970373.300    98154660.144 6      -751.901          40.125    23970374.100    98154662.145 7      -751.901          43.250
R12  22584078.500   120640089.690 7      6380.136          44.500    22584076.480   120640089.699 7      6380.136          44.687    22584090.320    93831221.914 7      4962.328          45.562    22584088.920    93831222.916 7      4962.328          46.687
G18  24862024.300   130650813.947 6      -960.379          40.750    24862023.100   130650813.949 5      -960.379          30.562    24862034.200   101805857.304 4      -748.347          29.625    24862034.460   101805874.297 7      -748.347          45.562
> 2024 05 09 11 32 58.0000000  0 15
G02  24083113.500   126557619.152 7      5512.268          43.125    24083112.200   126557619.154 5      5512.268          31.625    24083122.220    98616360.587 5      4295.274          31.750
G27  20825331.060   109437849.823 7      2372.741          47.312    20825330.060   109437849.823 8      2372.741          49.187    20825336.140    85276268.078 8      1848.889          49.687    20825336.720    85276270.077 8      1848.889          50.187
R11  19182690.200   102506476.500 8      3062.427          48.750    19182689.880   102506476.504 8      3062.427          48.312    19182697.260    79727287.575 8      2381.888          52.500    19182697.300    79727288.579 8      2381.888          53.562
G16  20419451.820   107304937.344 7      2529.963          47.187    20419450.580   107304937.351 6      2529.963          41.125    20419453.960    83614246.178 6      1971.400          40.687
R21  19977650.780   106904443.649 8       763.887          48.312    19977651.200   106904443.666 7       763.887          47.500    19977661.060    83147940.375 8       594.134          50.562    19977660.640    83147939.381 8       594.134          50.187
G26  21373434.160   112318149.409 7       473.758          47.125    21373432.340   112318149.417 7       473.758          47.000    21373441.200    87520663.431 7       369.162          47.187    21373441.620    87520665.435 8       369.162          48.437
R22  20643104.840   110194289.452 7      3993.243          47.625    20643105.140   110194289.450 7      3993.243          47.437    20643113.220    85706705.824 8      3105.856          50.062    20643113.540    85706707.822 8      3105.856          50.250
R10  21106411.720   112509038.044 7      -841.452          43.562    21106411.840   112509038.050 7      -841.452          42.375
G08  22043776.720   115840822.156 7      3831.120          45.187    22043775.560   115840822.150 5      3831.120          35.875    22043783.400    90265606.012 5      2985.288          35.562    22043784.240    90265609.022 7      2985.288          47.812
G10  22622731.880   118883256.736 7      3960.463          47.187    22622731.080   118883256.741 7      3960.463          45.375    22622740.780    92636341.686 7      3086.075          45.437    22622740.020    92636336.686 7      3086.075          46.562
G23  23076417.620   121267386.249 7      2197.052          44.875    23076416.560   121267386.259 5      2197.052          33.312    23076424.600    94494098.295 5      1711.988          33.062    23076424.480    94494099.311 7      1711.988          47.562
G21  22252807.840   116939293.266 6      5276.339          41.750    22252805.860   116939293.265 4      5276.339          29.875    22252813.340    91121548.257 4      4111.433          29.937
G31  23970547.320   125966062.321 7      -964.514          45.125    23970546.860   125966062.323 6      -964.514          39.812    23970556.680    98155411.888 6      -751.570          39.750    23970557.640    98155413.881 7      -751.570          42.750
R12  22582884.400   120633709.473 7      6380.338          45.500    22582882.480   120633709.476 7      6380.338          44.812    22582895.800    93826259.535 7      4962.485          45.562    22582894.620    93826260.541 7      4962.485          46.750
G18  24862207.020   130651774.128 6      -959.936          40.562    24862205.680   130651774.133 4      -959.936          29.250    24862216.840   101806605.489 4      -748.002          29.625    24862217.280   101806622.487 7      -748.002          45.375
> 2024 05 09 11 32 59.0000000  0 15
G02  24082064.820   126552106.443 7      5512.932          43.125    24082063.100   126552106.448 5      5512.932          31.375    24082073.320    98612064.986 5      4295.791          31.625
G27  20824879.640   109435476.573 7      2373.441          47.875    20824878.480   109435476.578 8      2373.441          49.312    20824884.500    85274418.801 8      1849.435          49.312    20824884.840    85274420.805 8      1849.435          49.875
R11  19182116.880   102503413.849 8      3062.509          48.562    19182116.680   102503413.850 8      3062.509          48.312    19182124.160    79724905.523 8      2381.951          52.375    19182124.240    79724906.525 8      2381.951          53.625
G16  20418970.480   107302407.007 7      2530.389          47.312    20418969.040   107302407.012 6      2530.389          40.937    20418972.360    83612274.494 6      1971.731          40.812
R21  19977507.820   106903679.270 7       764.485          47.125    19977508.520   106903679.284 7       764.485          47.187    19977518.300    83147345.860 8       594.600          50.562    19977517.860    83147344.864 8       594.600          50.250
G26  21373343.860   112317675.342 7       474.256          46.812    21373342.120   112317675.347 7       474.256          46.937    21373351.000    87520294.030 7       369.550          47.250    21373351.260    87520296.030 8       369.550          48.687
R22  20642356.720   110190295.880 7      3993.580          47.875    20642356.780   110190295.887 8      3993.580          48.062    20642365.200    85703599.728 8      3106.118          50.125    20642365.380    85703601.726 8      3106.118          50.500
R10  21106570.220   112509879.149 7      -841.072          43.562    21106569.240   112509879.152 7      -841.072          42.437
G08  22043047.520   115836990.486 7      3831.863          45.562    22043046.340   115836990.483 6      3831.863          36.125    22043054.160    90262620.305 5      2985.867          35.750    22043055.120    90262623.317 8      2985.867          48.562
G10  22621978.160   118879295.884 7      3960.942          46.437    22621977.420   118879295.884 7      3960.942          45.125    22621987.000    92633255.314 7      3086.448          45.312    22621986.640    92633250.315 7      3086.448          46.812
G23  23075999.300   121265188.846 7      2197.395          44.187    23075998.500   121265188.856 5      2197.395          33.000    23076006.280    94492386.039 5      1712.256          33.062    23076006.340    94492387.052 7      1712.256          47.937
G21  22251804.000   116934016.524 6      5276.752          41.375    22251801.520   116934016.527 5      5276.752          30.062    22251809.140    91117436.525 4      4111.755          29.937
G31  23970730.880   125967026.231 7      -963.581          44.937    23970730.140   125967026.233 6      -963.581          39.125    23970740.100    98156162.985 6      -750.842          39.375    23970740.520    98156164.979 7      -750.842          42.750
R12  22581689.920   120627328.612 7      6381.045          45.000    22581687.560   120627328.618 7      6381.045          44.750    22581701.040    93821296.664 7      4963.035          45.062    22581699.780    93821297.675 7      4963.035          46.750
G18  24862389.500   130652733.524 6      -959.074          39.750    24862388.000   130652733.532 4      -959.074          29.250    24862399.440   101807353.072 4      -747.330          29.625    24862399.520   101807370.064 7      -747.330          45.437
> 2024 05 09 11 33  0.0000000  0 15
G02  24081015.720   126546593.160 7      5513.700          44.000    24081013.920   126546593.167 5      5513.700          31.375    24081024.120    98607768.937 5      4296.390          31.625
G27  20824427.800   109433102.653 8      2374.411          48.000    20824426.780   109433102.652 8      2374.411          48.937    20824432.740    85272568.999 8      1850.191          49.125    20824432.840    85272571.004 8      1850.191          49.875
R11  19181544.020   102500351.176 8      3062.856          49.562    19181543.680   102500351.174 8      3062.856          48.562    19181550.980    79722523.448 8      2382.221          52.812    19181550.840    79722524.450 8      2382.221          53.500
G16  20418488.880   107299876.250 7      2531.135          47.062    20418487.480   107299876.250 6      2531.135          41.062    20418490.880    83610302.484 6      1972.313          40.500
R21  19977365.220   106902914.438 7       765.172          47.125    19977365.360   106902914.459 7       765.172          47.625    19977375.360    83146751.004 8       595.134          50.562    19977374.740    83146750.005 8       595.134          50.187
G26  21373253.700   112317200.839 7       474.839          46.250    21373251.880   112317200.846 7       474.839          47.062    21373260.800    87519924.293 7       370.005          46.937    21373261.080    87519926.289 8       370.005          49.187
R22  20641608.560   110186301.994 7      3994.221          46.562    20641608.740   110186301.998 7      3994.221          47.812    20641617.060    85700493.376 8      3106.616          49.937    20641617.120    85700495.374 8      3106.616          50.437
R10  21106727.940   112510719.890 7      -840.350          43.125    21106727.200   112510719.901 7      -840.350          42.437
G08  22042318.300   115833158.096 7      3832.888          45.812    22042317.140   115833158.091 6      3832.888          36.000    22042324.940    90259634.036 5      2986.666          35.625    22042325.920    90259637.050 8      2986.666          48.500
G10  22621224.340   118875334.607 7      3961.633          47.062    22621223.520   118875334.607 7      3961.633          45.562    22621233.180    92630168.617 7      3086.986          45.437    22621232.860    92630163.619 7      3086.986          46.875
G23  23075581.120   121262991.184 7      2197.904          43.625    23075580.300   121262991.195 5      2197.904          33.000    23075588.080    94490673.586 5      1712.652          32.812    23075587.980    94490674.601 7      1712.652          47.750
G21  22250799.360   116928739.347 6      5277.490          41.687    22250797.120   116928739.349 5      5277.490          30.062    22250804.920    91113324.453 5      4112.330          30.250
G31  23970913.820   125967989.314 7      -962.567          45.187    23970913.440   125967989.316 6      -962.567          39.125    23970923.240    98156913.433 6      -750.052          39.312    23970924.100    98156915.433 7      -750.052          42.562
R12  22580495.240   120620947.067 7      6382.014          44.687    22580492.880   120620947.085 7      6382.014          45.375    22580505.680    93816333.266 7      4963.788          45.000    22580505.460    93816334.280 7      4963.788          46.187
G18  24862571.920   130653692.116 6      -957.928          39.750    24862570.340   130653692.124 4      -957.928          29.250    24862581.460   101808100.021 4      -746.437          29.625    24862581.680   101808117.021 7      -746.437          45.187
> 2024 05 09 11 33  1.0000000  0 15
G02  24079966.460   126541079.232 7      5514.094          43.687    24079964.580   126541079.237 5      5514.094          31.375    24079974.900    98603472.385 5      4296.697          31.625
G27  20823975.900   109430727.986 7      2374.846          47.687    20823974.820   109430727.988 8      2374.846          49.250    20823980.840    85270718.620 8      1850.530          49.312    20823980.880    85270720.622 8      1850.530          50.437
R11  19180970.640   102497288.390 8      3062.629          48.937    19180970.640   102497288.386 8      3062.629          48.937    19180977.780    79720141.284 8      2382.045          52.312    19180977.820    79720142.286 8      2382.045          53.500
