     3.05           OBSERVATION DATA    MIXED               RINEX VERSION / TYPE
TPS2RIN 1.0.29.3920 TPS-USER            20240511 193229 UTC PGM / RUN BY / DATE
Win64 build Feb 23, 2024 (c) Topcon Positioning Systems     COMMENT
SRC: 20240509_FA09.tps                                      COMMENT
OPT: -S -v 3.05                                             COMMENT
Observer            Agency                                  OBSERVER / AGENCY
O0M3X53SBGM         TPS HIPER_SR        4.8 HSR Jul,08,2022 REC # / TYPE / VERS
FW: 4.8 HSR Jul,08,2022 p3                                  COMMENT
SN: HiPer SR 1212-12575                                     COMMENT
000                 TPSHIPER_SR     NONE                    ANT # / TYPE
        1.8000        0.0000        0.0000                  ANTENNA: DELTA H/E/N
FA09                                                        MARKER NAME
  5391372.2297 -1598661.1581  3004204.1141                  APPROX POSITION XYZ
  2024     5     9    12     2   51.0000000     GPS         TIME OF FIRST OBS
  2024     5     9    12    19    5.0000000     GPS         TIME OF LAST OBS
     1.000                                                  INTERVAL
   975 EPOCHS                                               COMMENT
G   16 C1C L1C D1C S1C C1W L1W D1W S1W C2W L2W D2W S2W C2X  SYS / # / OBS TYPES
       L2X D2X S2X                                          SYS / # / OBS TYPES
R   16 C1C L1C D1C S1C C1P L1P D1P S1P C2P L2P D2P S2P C2C  SYS / # / OBS TYPES
       L2C D2C S2C                                          SYS / # / OBS TYPES
    16                                                      # OF SATELLITES
   G02   975   975   975   975   975   975   975   975   975PRN / # OF OBS
         975   975   975     0     0     0     0            PRN / # OF OBS
   G07   975   975   975   975   975   975   975   975   975PRN / # OF OBS
         975   975   975   975   975   975   975            PRN / # OF OBS
   G08   975   975   975   975   975   975   975   975   975PRN / # OF OBS
         975   975   975   975   975   975   975            PRN / # OF OBS
   G10   975   975   975   975   975   975   975   975   975PRN / # OF OBS
         975   975   975   975   975   975   975            PRN / # OF OBS
   G16   975   975   975   975   975   975   975   975   975PRN / # OF OBS
         975   975   975     0     0     0     0            PRN / # OF OBS
   G21   975   975   975   975   975   975   975   975   975PRN / # OF OBS
         975   975   975     0     0     0     0            PRN / # OF OBS
   G23   975   975   975   975   975   975   975   975   975PRN / # OF OBS
         975   975   975   975   975   975   975            PRN / # OF OBS
   G26   975   975   975   975   975   975   975   975   975PRN / # OF OBS
         975   975   975   975   975   975   975            PRN / # OF OBS
   G27   975   975   975   975   975   975   975   975   975PRN / # OF OBS
         975   975   975   975   975   975   975            PRN / # OF OBS
   G31   757   757   757   757   757   757   757   757   757PRN / # OF OBS
         757   757   757   757   757   757   757            PRN / # OF OBS
   R10   975   975   975   975   975   975   975   975     0PRN / # OF OBS
           0     0     0     0     0     0     0            PRN / # OF OBS
   R11   975   975   975   975   975   975   975   975   975PRN / # OF OBS
         975   975   975   975   975   975   975            PRN / # OF OBS
   R12   975   975   975   975   975   975   975   975   975PRN / # OF OBS
         975   975   975   975   975   975   975            PRN / # OF OBS
   R21   975   975   975   975   975   975   975   975   975PRN / # OF OBS
         975   975   975   975   975   975   975            PRN / # OF OBS
   R22   975   975   975   975   975   975   975   975   975PRN / # OF OBS
         975   975   975   975   975   975   975            PRN / # OF OBS
   R23   975   975   975   975   975   975   975   975     0PRN / # OF OBS
           0     0     0     0     0     0     0            PRN / # OF OBS
G L1C                                                       SYS / PHASE SHIFT
G L1W -0.25000                                              SYS / PHASE SHIFT
G L2W  0.00000                                              SYS / PHASE SHIFT
G L2X  0.25000                                              SYS / PHASE SHIFT
R L1C                                                       SYS / PHASE SHIFT
R L1P -0.25000                                              SYS / PHASE SHIFT
R L2P -0.25000                                              SYS / PHASE SHIFT
R L2C                                                       SYS / PHASE SHIFT
  6 R10 -7 R11  0 R12 -1 R21  4 R22 -3 R23  3               GLONASS SLOT / FRQ #
                                                            GLONASS COD/PHS/BIS
    18    18  1929     7GPS                                 LEAP SECONDS
                                                            END OF HEADER
> 2024 05 09 12 02 51.0000000  0 16
G27  20942292.180   110052487.921 7      2128.583          47.625    20942290.840   110052487.933 8      2128.583          48.625    20942297.440    85755210.613 8      1658.636          48.875    20942297.880    85755211.614 8      1658.636          49.562
G02  23169366.320   121755847.093 7      4992.981          42.937    23169364.600   121755847.108 5      4992.981          33.437    23169373.120    94874705.012 5      3890.634          33.625
G08  21650511.320   113774203.081 7      3659.611          45.812    21650510.180   113774203.081 6      3659.611          37.875    21650518.240    88655252.315 6      2851.645          37.562    21650518.800    88655256.322 8      2851.645          50.125
R22  20333549.740   108541868.139 8      3129.687          49.187    20333549.820   108541868.143 8      3129.687          49.250    20333557.460    84421486.572 8      2434.201          50.125    20333557.600    84421488.570 8      2434.201          50.375
G23  23380824.100   122867060.968 7      1202.445          44.625    23380823.060   122867060.967 5      1202.445          32.687    23380831.500    95740591.055 5       936.970          32.812    23380832.060    95740591.051 7       936.970          46.687
R11  19285926.680   103058143.276 8      1573.540          49.437    19285927.080   103058143.285 8      1573.540          49.187    19285935.140    80156365.591 8      1223.865          52.812    19285934.900    80156366.595 8      1223.865          53.625
G16  20571955.960   108106356.693 7      1737.959          46.500    20571954.600   108106356.695 6      1737.959          40.687    20571958.840    84238729.746 6      1354.254          40.000
R10  22400399.220   119406700.450 6     -1540.844          40.375    22400397.640   119406700.453 6     -1540.844          39.375
G21  21468141.060   112815843.477 7      4476.793          46.312    21468139.500   112815843.484 6      4476.793          36.375    21468145.460    87908469.433 6      3488.410          36.250
R23  23766786.820   127136294.302 7      5176.294          42.312    23766786.340   127136294.317 6      5176.294          41.687
R21  20690489.100   110718984.075 8       317.135          49.312    20690489.440   110718984.092 8       317.135          48.250    20690500.100    86114808.789 8       246.660          50.125    20690499.640    86114807.788 8       246.660          49.500
G26  22204429.840   116685062.729 7      -150.577          46.000    22204428.720   116685062.732 7      -150.577          44.312    22204440.260    90923460.682 7      -117.332          44.250    22204440.600    90923463.688 7      -117.332          46.812
R12  21405544.200   114344574.972 7      5822.412          47.562    21405543.900   114344574.976 7      5822.412          47.687    21405554.960    88934716.279 8      4528.542          48.187    21405555.240    88934715.281 8      4528.542          48.875
G10  22289709.420   117133217.291 7      3129.068          47.437    22289708.160   117133217.296 7      3129.068          46.500    22289717.920    91272668.184 7      2438.235          46.687    22289718.160    91272668.194 7      2438.235          47.687
G07  24646727.100   129519422.609 6      4381.145          39.812    24646726.600   129519422.611 4      4381.145          26.687    24646734.540   100924252.630 4      3413.879          26.500    24646735.120   100924259.639 7      3413.879          42.375
G31  25157166.760   132201803.098 6      -770.698          39.500    25157165.120   132201803.100 5      -770.698          33.687    25157180.720   103014439.905 5      -600.544          33.625    25157181.400   103014442.903 6      -600.544          41.500
> 2024 05 09 12 02 52.0000000  0 16
G27  20941887.220   110050359.568 7      2128.080          47.562    20941885.860   110050359.565 8      2128.080          49.500    20941892.420    85753552.148 8      1658.244          49.375    20941892.960    85753553.145 8      1658.244          49.375
G02  23168415.960   121750854.444 7      4992.264          42.937    23168414.520   121750854.459 5      4992.264          33.437    23168423.040    94870814.640 5      3890.076          33.625
G08  21649815.000   113770543.745 7      3659.192          46.375    21649813.760   113770543.745 6      3659.192          37.937    21649822.040    88652400.884 6      2851.319          37.500    21649822.640    88652404.889 8      2851.319          50.312
R22  20332963.540   108538738.945 8      3128.821          49.437    20332963.680   108538738.952 8      3128.821          49.625    20332971.340    84419052.755 8      2433.528          50.750    20332971.420    84419054.753 8      2433.528          50.625
G23  23380595.560   122865859.005 7      1201.534          44.125    23380594.400   122865859.009 5      1201.534          32.312    23380602.680    95739654.461 5       936.260          32.312    23380603.100    95739654.459 7       936.260          46.750
R11  19285632.480   103056570.364 8      1572.320          49.625    19285632.760   103056570.373 8      1572.320          48.625    19285640.820    80155142.208 8      1222.915          53.000    19285640.700    80155143.209 8      1222.915          53.562
G16  20571625.200   108104619.134 7      1737.200          46.875    20571624.060   108104619.139 6      1737.200          40.500    20571628.100    84237375.804 6      1353.662          39.812
R10  22400687.780   119408241.585 6     -1541.481          40.375    22400686.940   119408241.599 6     -1541.481          39.375
G21  21467289.260   112811367.261 7      4475.849          47.000    21467287.680   112811367.271 6      4475.849          36.562    21467293.780    87904981.477 6      3487.675          36.250
R23  23765819.300   127131118.289 7      5175.668          42.312    23765819.560   127131118.309 6      5175.668          41.000
R21  20690429.840   110718667.238 8       316.591          49.562    20690430.440   110718667.256 8       316.591          48.000    20690440.940    86114562.354 8       246.238          49.375    20690440.440    86114561.356 8       246.238          49.875
G26  22204458.560   116685213.704 7      -151.347          45.375    22204457.500   116685213.709 7      -151.347          44.062    22204469.040    90923578.319 7      -117.933          43.750    22204469.240    90923581.320 7      -117.933          47.062
R12  21404453.940   114338752.999 7      5821.549          47.875    21404454.120   114338753.000 8      5821.549          48.000    21404465.060    88930188.074 8      4527.871          48.375    21404465.240    88930187.073 8      4527.871          48.562
G10  22289114.380   117130088.800 7      3128.111          47.500    22289112.780   117130088.805 7      3128.111          46.937    22289122.640    91270230.399 7      2437.489          47.187    22289122.600    91270230.403 8      2437.489          48.000
G07  24645892.940   129515041.691 6      4380.488          39.437    24645893.020   129515041.696 4      4380.488          26.687    24645901.000   100920838.930 4      3413.367          26.500    24645901.060   100920845.940 7      3413.367          42.500
G31  25157313.240   132202574.014 6      -771.032          39.250    25157311.800   132202574.021 5      -771.032          33.375    25157327.500   103015040.621 5      -600.804          33.500    25157327.960   103015043.623 6      -600.804          41.375
> 2024 05 09 12 02 53.0000000  0 16
G27  20941482.440   110048231.329 7      2128.213          47.500    20941480.880   110048231.341 8      2128.213          49.500    20941487.480    85751893.788 8      1658.348          49.250    20941487.900    85751894.787 8      1658.348          49.562
G02  23167465.940   121745862.124 7      4992.189          43.625    23167464.600   121745862.139 5      4992.189          33.375    23167472.940    94866924.530 5      3890.018          33.187
G08  21649118.820   113766884.548 7      3659.163          46.562    21649117.520   113766884.545 6      3659.163          37.812    21649125.780    88649549.560 6      2851.296          37.125    21649126.420    88649553.569 8      2851.296          50.250
R22  20332377.180   108535610.218 8      3128.466          50.062    20332377.600   108535610.225 8      3128.466          49.812    20332385.160    84416619.302 8      2433.251          50.187    20332385.540    84416621.298 8      2433.251          50.187
G23  23380366.960   122864657.619 7      1201.100          44.625    23380365.780   122864657.624 5      1201.100          32.312    23380374.100    95738718.316 5       935.922          32.312    23380374.780    95738718.314 7       935.922          46.312
R11  19285338.280   103054998.297 8      1571.654          50.062    19285338.460   103054998.308 8      1571.654          49.875    19285346.680    80153919.493 8      1222.398          52.500    19285346.300    80153920.494 8      1222.398          53.000
G16  20571294.740   108102882.072 7      1736.907          47.375    20571293.380   108102882.077 6      1736.907          40.687    20571297.640    84236022.249 6      1353.434          40.125
R10  22400977.000   119409783.058 6     -1541.651          40.750    22400976.240   119409783.062 6     -1541.651          39.937
G21  21466437.460   112806891.542 7      4475.492          46.875    21466436.020   112806891.547 6      4475.492          36.500    21466442.200    87901493.901 6      3487.396          36.625
R23  23764852.060   127125942.603 6      5175.637          41.500    23764851.340   127125942.625 6      5175.637          41.000
R21  20690370.760   110718350.570 8       316.598          49.187    20690371.100   110718350.582 8       316.598          48.812    20690381.820    86114316.055 8       246.243          49.625    20690381.440    86114315.052 8       246.243          49.437
G26  22204487.660   116685365.010 7      -151.479          46.000    22204486.320   116685365.012 7      -151.479          44.500    22204497.960    90923696.211 7      -118.036          44.250    22204498.180    90923699.215 7      -118.036          47.375
R12  21403364.280   114332931.489 8      5821.334          48.125    21403364.460   114332931.484 8      5821.334          48.250    21403375.380    88925660.234 8      4527.704          48.375    21403375.560    88925659.234 8      4527.704          49.125
G10  22288519.080   117126960.853 7      3127.651          46.812    22288517.640   117126960.864 7      3127.651          46.750    22288527.460    91267793.046 7      2437.130          46.812    22288527.400    91267793.052 7      2437.130          47.812
G07  24645059.700   129510661.256 6      4380.252          39.437    24645059.260   129510661.264 4      4380.252          26.687    24645067.300   100917425.604 4      3413.184          26.500    24645067.500   100917432.612 7      3413.184          42.500
G31  25157459.500   132203344.746 6      -770.566          39.312    25157458.540   132203344.756 5      -770.566          33.375    25157474.160   103015641.188 5      -600.441          33.500    25157474.320   103015644.189 6      -600.441          41.375
> 2024 05 09 12 02 54.0000000  0 16
G27  20941077.360   110046103.252 7      2128.125          47.875    20941075.860   110046103.260 8      2128.125          49.437    20941082.480    85750235.542 8      1658.279          49.125    20941082.780    85750236.540 8      1658.279          49.312
G02  23166515.980   121740870.168 7      4991.900          43.687    23166514.620   121740870.178 5      4991.900          33.375    23166523.120    94863034.701 5      3889.792          33.187
G08  21648422.320   113763225.417 7      3659.198          46.125    21648421.260   113763225.417 6      3659.198          37.187    21648429.360    88646698.289 6      2851.323          37.312    21648429.960    88646702.298 8      2851.323          49.687
R22  20331791.200   108532481.910 8      3128.205          50.437    20331791.500   108532481.919 8      3128.205          49.500    20331799.180    84414186.176 8      2433.049          50.187    20331799.200    84414188.174 8      2433.049          50.562
G23  23380138.480   122863456.768 7      1200.650          45.187    23380137.480   122863456.772 5      1200.650          32.812    23380145.620    95737782.583 5       935.571          32.687    23380145.900    95737782.588 7       935.571          46.562
R11  19285044.100   103053427.113 8      1570.864          50.687    19285044.480   103053427.120 8      1570.864          48.937    19285052.720    80152697.454 8      1221.783          52.625    19285052.420    80152698.456 8      1221.783          52.812
G16  20570964.240   108101145.472 7      1736.509          47.437    20570962.960   108101145.476 6      1736.509          41.062    20570967.160    84234669.052 6      1353.124          40.562
R10  22401265.860   119411324.742 6     -1541.622          40.750    22401265.400   119411324.748 6     -1541.622          39.937
G21  21465585.520   112802416.278 7      4475.215          46.437    21465584.320   112802416.285 6      4475.215          36.500    21465590.440    87898006.686 6      3487.181          36.437
R23  23763884.440   127120767.232 6      5175.376          41.500    23763884.120   127120767.252 6      5175.376          41.000
R21  20690311.580   110718034.060 8       316.536          49.750    20690311.940   110718034.072 8       316.536          49.187    20690322.620    86114069.876 8       246.195          49.437    20690322.240    86114068.879 8       246.195          49.312
G26  22204516.280   116685516.623 7      -151.673          45.125    22204515.080   116685516.628 7      -151.673          44.375    22204526.740    90923814.343 7      -118.187          44.312    22204526.900    90923817.346 7      -118.187          47.187
R12  21402274.660   114327110.445 8      5820.891          48.875    21402274.780   114327110.449 8      5820.891          48.187    21402285.520    88921132.761 8      4527.359          48.187    21402285.840    88921131.760 8      4527.359          48.437
G10  22287923.780   117123833.424 7      3127.249          47.500    22287922.460   117123833.434 7      3127.249          47.375    22287932.200    91265356.088 7      2436.817          46.875    22287932.240    91265356.092 7      2436.817          47.750
G07  24644226.260   129506281.237 6      4379.878          38.875    24644225.560   129506281.242 4      4379.878          26.687    24644233.740   100914012.602 4      3412.892          26.687    24644234.560   100914019.612 7      3412.892          42.250
G31  25157606.100   132204115.321 6      -770.385          38.500    25157605.020   132204115.331 5      -770.385          33.562    25157620.880   103016241.633 5      -600.300          33.625    25157621.000   103016244.633 6      -600.300          41.687
> 2024 05 09 12 02 55.0000000  0 16
G27  20940672.540   110043975.470 7      2127.556          47.937    20940671.000   110043975.475 8      2127.556          49.750    20940677.620    85748577.528 8      1657.835          49.625    20940678.000    85748578.527 8      1657.835          49.000
G02  23165566.500   121735878.686 7      4991.133          43.500    23165564.780   121735878.696 5      4991.133          33.812    23165573.060    94859145.239 5      3889.195          33.750
G08  21647726.160   113759566.551 7      3658.671          46.250    21647725.000   113759566.551 6      3658.671          37.937    21647733.180    88643847.227 6      2850.912          37.812    21647733.660    88643851.236 8      2850.912          50.062
R22  20331205.440   108529354.219 8      3127.365          50.750    20331205.540   108529354.222 8      3127.365          49.812    20331213.440    84411753.523 8      2432.395          50.375    20331213.380    84411755.519 8      2432.395          50.562
G23  23379910.120   122862256.612 7      1199.777          45.500    23379908.940   122862256.622 5      1199.777          32.812    23379917.300    95736847.399 5       934.891          32.687    23379917.460    95736847.393 7       934.891          46.187
R11  19284750.400   103051856.906 8      1569.660          50.437    19284750.620   103051856.912 8      1569.660          49.687    19284758.780    80151476.179 8      1220.847          52.312    19284758.520    80151477.181 8      1220.847          53.125
G16  20570633.980   108099409.507 7      1735.572          47.312    20570632.560   108099409.520 6      1735.572          40.625    20570636.760    84233316.353 6      1352.393          40.312
R10  22401555.480   119412866.901 6     -1542.438          41.187    22401554.440   119412866.909 6     -1542.438          39.937
G21  21464734.100   112797941.683 7      4474.206          46.812    21464732.860   112797941.688 6      4474.206          36.125    21464739.100    87894519.990 6      3486.395          36.312
R23  23762916.920   127115592.302 7      5174.678          42.187    23762916.900   127115592.325 6      5174.678          41.687
R21  20690252.640   110717717.873 8       315.989          49.562    20690252.840   110717717.883 8       315.989          48.687    20690263.700    86113823.949 8       245.769          49.562    20690263.200    86113822.950 8       245.769          49.625
G26  22204545.300   116685668.719 7      -152.403          45.062    22204544.080   116685668.719 7      -152.403          44.312    22204555.800    90923932.849 7      -118.755          44.062    22204555.820    90923935.853 7      -118.755          47.250
R12  21401185.120   114321290.016 8      5820.027          48.187    21401184.940   114321290.023 8      5820.027          48.750    21401195.980    88916605.762 8      4526.688          48.125    21401196.060    88916604.762 8      4526.688          48.812
G10  22287328.860   117120706.681 7      3126.400          47.937    22287327.440   117120706.686 7      3126.400          46.812    22287337.200    91262919.660 7      2436.156          46.687    22287337.140    91262919.663 7      2436.156          47.812
G07  24643393.280   129501901.798 6      4379.137          38.875    24643392.180   129501901.805 4      4379.137          26.687    24643400.340   100910600.054 4      3412.314          26.687    24643401.200   100910607.073 7      3412.314          42.625
G31  25157752.700   132204885.891 6      -770.721          39.312    25157751.640   132204885.893 5      -770.721          33.562    25157767.520   103016842.063 5      -600.562          33.625    25157768.080   103016845.054 6      -600.562          41.687
> 2024 05 09 12 02 56.0000000  0 16
G27  20940267.540   110041848.016 8      2127.265          48.375    20940266.140   110041848.018 8      2127.265          49.562    20940272.780    85746919.768 8      1657.609          49.187    20940273.160    85746920.765 8      1657.609          49.500
G02  23164616.680   121730887.737 7      4990.661          44.000    23164614.900   121730887.745 5      4990.661          33.812    23164623.240    94855256.192 5      3888.827          33.750
G08  21647029.920   113755907.985 7      3658.298          46.000    21647028.880   113755907.982 6      3658.298          38.500    21647036.940    88640996.394 6      2850.622          37.875    21647037.340    88641000.407 8      2850.622          50.500
R22  20330619.420   108526227.197 8      3126.593          50.062    20330619.800   108526227.201 8      3126.593          49.375    20330627.560    84409321.393 8      2431.794          50.562    20330627.520    84409323.389 8      2431.794          50.875
G23  23379681.760   122861057.226 7      1198.914          45.687    23379680.700   122861057.234 5      1198.914          32.562    23379689.140    95735912.813 5       934.219          32.562    23379689.040    95735912.807 7       934.219          46.625
R11  19284456.820   103050287.774 8      1568.490          49.937    19284456.960   103050287.778 8      1568.490          49.000    19284465.180    80150255.742 8      1219.936          52.437    19284465.000    80150256.744 8      1219.936          52.937
G16  20570303.620   108097674.219 7      1734.906          47.500    20570302.300   108097674.226 6      1734.906          40.812    20570306.520    84231964.176 6      1351.875          40.312
R10  22401844.820   119414409.547 6     -1542.995          41.187    22401844.380   119414409.553 6     -1542.995          39.750
G21  21463882.780   112793467.762 7      4473.506          46.312    21463881.480   112793467.764 6      4473.506          36.750    21463887.800    87891033.815 6      3485.849          36.937
R23  23761949.460   127110417.875 7      5174.145          42.187    23761949.380   127110417.898 6      5174.145          41.687
R21  20690193.540   110717402.059 8       315.459          50.187    20690193.700   110717402.071 8       315.459          48.875    20690204.620    86113578.315 8       245.357          49.750    20690204.120    86113577.317 8       245.357          49.562
G26  22204574.620   116685821.336 7      -152.964          45.312    22204573.160   116685821.343 7      -152.964          44.562    22204584.680    90924051.769 7      -119.193          43.875    22204585.040    90924054.771 7      -119.193          47.500
R12  21400095.560   114315470.234 8      5819.416          48.000    21400095.660   114315470.238 8      5819.416          48.375    21400106.520    88912079.267 8      4526.213          48.000    21400106.700    88912078.266 8      4526.213          48.750
G10  22286733.880   117117580.686 7      3125.607          47.687    22286732.620   117117580.686 7      3125.607          46.750    22286742.380    91260483.818 7      2435.538          46.562    22286742.280    91260483.827 7      2435.538          47.562
G07  24642559.900   129497523.042 6      4378.291          40.062    24642558.940   129497523.050 4      4378.291          26.687    24642566.920   100907188.037 4      3411.656          26.687    24642567.820   100907195.049 7      3411.656          42.625
G31  25157899.320   132205656.452 6      -770.918          39.250    25157898.220   132205656.462 5      -770.918          33.562    25157914.040   103017442.496 5      -600.716          33.375    25157915.560   103017445.498 6      -600.716          41.687
> 2024 05 09 12 02 57.0000000  0 16
G27  20939862.600   110039720.681 8      2127.256          48.250    20939861.380   110039720.677 8      2127.256          49.937    20939867.960    85745262.098 8      1657.602          49.812    20939868.340    85745263.099 8      1657.602          49.125
G02  23163666.960   121725897.103 7      4990.373          44.000    23163665.120   121725897.108 5      4990.373          33.312    23163673.680    94851367.390 5      3888.602          33.125
G08  21646333.680   113752249.471 7      3658.406          46.250    21646332.740   113752249.468 6      3658.406          37.750    21646340.600    88638145.606 6      2850.706          37.312    21646341.440    88638149.617 8      2850.706          49.937
R22  20330033.660   108523100.584 8      3126.377          50.062    20330034.040   108523100.582 8      3126.377          49.312    20330041.780    84406889.579 8      2431.627          50.125    20330041.820    84406891.575 8      2431.627          50.875
G23  23379453.740   122859858.350 7      1198.573          45.500    23379452.600   122859858.355 5      1198.573          32.562    23379460.880    95734978.616 5       933.953          32.562    23379461.080    95734978.612 7       933.953          47.062
R11  19284163.320   103048719.421 8      1567.940          51.062    19284163.240   103048719.430 8      1567.940          49.375    19284171.680    80149035.911 8      1219.509          53.000    19284171.380    80149036.911 8      1219.509          52.750
G16  20569973.600   108095939.379 7      1734.529          47.312    20569972.320   108095939.381 6      1734.529          41.062    20569976.500    84230612.348 6      1351.581          40.562
R10  22402134.140   119415952.428 6     -1543.071          41.125    22402133.340   119415952.434 6     -1543.071          39.750
G21  21463031.760   112788994.292 7      4473.147          47.562    21463030.260   112788994.294 6      4473.147          36.875    21463036.500    87887547.998 6      3485.569          36.687
R23  23760982.360   127105243.735 7      5173.942          42.375    23760982.500   127105243.744 6      5173.942          41.625
R21  20690134.700   110717086.325 8       315.567          49.812    20690134.820   110717086.337 8       315.567          48.750    20690145.620    86113332.742 8       245.441          49.625    20690145.240    86113331.746 8       245.441          49.500
G26  22204603.480   116685974.242 7      -153.086          45.125    22204602.140   116685974.254 7      -153.086          44.125    22204613.820    90924170.910 7      -119.288          43.687    22204614.000    90924173.916 7      -119.288          47.375
R12  21399005.900   114309650.839 8      5819.211          48.625    21399006.180   114309650.848 8      5819.211          48.187    21399017.060    88907553.077 8      4526.053          48.125    21399017.320    88907552.074 8      4526.053          48.750
G10  22286139.020   117114455.185 7      3125.128          47.875    22286137.760   117114455.188 7      3125.128          46.937    22286147.600    91258048.365 7      2435.165          47.187    22286147.540    91258048.372 7      2435.165          47.750
G07  24641726.700   129493144.652 6      4378.067          39.312    24641725.760   129493144.654 4      4378.067          26.562    24641733.820   100903776.306 4      3411.481          26.687    24641734.240   100903783.316 7      3411.481          42.625
G31  25158046.580   132206426.775 6      -770.270          39.250    25158044.960   132206426.782 5      -770.270          33.625    25158060.620   103018042.742 5      -600.210          33.375    25158061.640   103018045.735 6      -600.210          41.500
> 2024 05 09 12 02 58.0000000  0 16
G27  20939457.880   110037593.618 7      2126.888          47.812    20939456.600   110037593.620 8      2126.888          49.125    20939463.240    85743604.648 8      1657.315          49.062    20939463.680    85743605.648 8      1657.315          49.625
G02  23162717.420   121720906.940 7      4989.851          44.000    23162715.560   121720906.945 5      4989.851          33.312    23162724.080    94847478.955 5      3888.196          33.125
G08  21645637.560   113748591.205 7      3658.110          46.187    21645636.720   113748591.204 6      3658.110          37.750    21645644.380    88635295.013 6      2850.475          37.562    21645645.240    88635299.024 8      2850.475          50.125
R22  20329447.820   108519974.561 8      3125.652          50.500    20329448.320   108519974.562 8      3125.652          49.687    20329456.240    84404458.231 8      2431.063          50.250    20329456.060    84404460.225 8      2431.063          50.625
G23  23379225.540   122858660.173 7      1197.677          44.750    23379224.720   122858660.181 5      1197.677          32.500    23379232.900    95734044.972 5       933.255          32.562    23379232.960    95734044.970 7       933.255          46.687
R11  19283870.100   103047152.106 8      1566.795          50.312    19283870.060   103047152.116 8      1566.795          49.437    19283878.340    80147816.887 8      1218.618          52.687    19283878.040    80147817.887 8      1218.618          53.312
G16  20569643.620   108094205.136 7      1733.911          47.562    20569642.080   108094205.141 6      1733.911          40.312    20569646.360    84229260.990 6      1351.100          39.687
R10  22402423.960   119417495.767 6     -1543.610          41.125    22402422.880   119417495.770 6     -1543.610          39.750
G21  21462180.640   112784521.455 7      4472.433          46.625    21462179.140   112784521.463 6      4472.433          36.687    21462185.260    87884062.673 6      3485.013          36.937
R23  23760015.860   127100070.008 7      5173.420          42.375    23760015.040   127100070.037 6      5173.420          41.625
R21  20690075.600   110716770.909 8       315.159          49.375    20690075.800   110716770.926 8       315.159          49.000    20690086.600    86113087.417 8       245.124          49.687    20690086.320    86113086.416 8       245.124          49.562
G26  22204632.880   116686127.636 7      -153.696          45.187    22204631.460   116686127.641 7      -153.696          44.375    22204642.920    90924290.426 7      -119.763          44.375    22204643.320    90924293.430 7      -119.763          47.500
R12  21397916.840   114303832.076 8      5818.413          48.687    21397916.900   114303832.088 8      5818.413          48.687    21397927.900    88903027.377 8      4525.432          48.187    21397928.100    88903026.372 8      4525.432          49.000
G10  22285544.360   117111330.352 7      3124.485          47.937    22285543.200   117111330.354 7      3124.485          46.937    22285552.900    91255613.430 7      2434.664          46.625    22285553.320    91255613.437 7      2434.664          47.687
G07  24640893.400   129488766.850 6      4377.469          39.437    24640892.660   129488766.850 4      4377.469          26.562    24640901.000   100900365.032 4      3411.014          26.687    24640901.340   100900372.044 7      3411.014          42.812
G31  25158192.560   132207197.087 6      -770.229          39.000    25158191.800   132207197.089 5      -770.229          33.625    25158207.120   103018642.976 5      -600.178          33.750    25158208.700   103018645.972 6      -600.178          41.500
> 2024 05 09 12 02 59.0000000  0 16
G27  20939053.080   110035466.763 8      2126.801          48.000    20939051.920   110035466.763 7      2126.801          47.375    20939058.480    85741947.357 7      1657.247          46.812    20939058.980    85741948.356 8      1657.247          49.250
G02  23161767.740   121715917.179 7      4989.558          42.875    23161765.920   121715917.186 5      4989.558          33.375    23161774.420    94843590.842 5      3887.967          33.250
G08  21644941.540   113744933.117 7      3658.003          46.000    21644940.500   113744933.114 6      3658.003          37.437    21644948.560    88632444.552 6      2850.392          37.375    21644949.060    88632448.564 8      2850.392          50.312
R22  20328862.400   108516849.058 8      3125.261          50.000    20328862.700   108516849.062 8      3125.261          49.562    20328870.640    84402027.285 7      2430.758          47.437    20328870.680    84402029.281 7      2430.758          47.062
G23  23378997.700   122857462.593 7      1197.264          44.562    23378996.820   122857462.595 5      1197.264          32.500    23379005.040    95733111.790 5       932.933          32.625    23379005.080    95733111.792 7       932.933          46.500
R11  19283577.120   103045585.693 8      1565.973          50.250    19283576.820   103045585.702 8      1565.973          49.937    19283585.200    80146598.558 8      1217.979          48.375    19283585.040    80146599.559 8      1217.979          48.437
G16  20569313.900   108092471.436 7      1733.520          47.687    20569312.140   108092471.444 6      1733.520          40.125    20569316.400    84227910.056 6      1350.795          39.687
R10  22402713.880   119419039.477 6     -1544.030          41.125    22402711.760   119419039.480 6     -1544.030          40.062
G21  21461329.580   112780049.155 7      4472.102          46.750    21461328.120   112780049.159 6      4472.102          36.750    21461334.200    87880577.768 6      3484.755          36.500
R23  23759047.960   127094896.649 7      5173.138          42.437    23759048.000   127094896.682 6      5173.138          41.687
R21  20690016.680   110716455.742 8       315.144          48.875    20690017.140   110716455.751 8       315.144          49.250    20690027.880    86112842.283 8       245.112          48.000    20690027.300    86112841.282 7       245.112          47.875
G26  22204662.120   116686281.391 7      -153.949          45.750    22204660.680   116686281.401 7      -153.949          43.687    22204672.240    90924410.229 7      -119.960          43.125    22204672.420    90924413.233 7      -119.960          45.937
R12  21396827.460   114298013.853 8      5817.995          48.750    21396827.800   114298013.857 8      5817.995          48.812    21396838.780    88898502.086 7      4525.107          46.187    21396838.680    88898501.086 7      4525.107          47.875
G10  22284950.000   117108206.123 7      3123.967          46.937    22284948.680   117108206.128 7      3123.967          46.375    22284958.420    91253178.970 7      2434.260          46.375    22284958.540    91253178.979 7      2434.260          46.812
G07  24640060.400   129484389.579 6      4376.941          39.437    24640059.740   129484389.578 4      4376.941          26.562    24640068.220   100896954.173 4      3410.604          26.687    24640067.900   100896961.182 7      3410.604          42.812
G31  25158339.000   132207967.315 6      -770.134          39.125    25158338.180   132207967.319 5      -770.134          34.000    25158353.720   103019243.148 5      -600.104          33.750    25158355.080   103019246.141 6      -600.104          41.562
> 2024 05 09 12 03  0.0000000  0 16
G27  20938648.240   110033340.035 7      2126.619          47.875    20938647.160   110033340.040 8      2126.619          49.562    20938653.820    85740290.170 8      1657.106          49.500    20938654.460    85740291.167 8      1657.106          49.437
G02  23160818.380   121710927.754 7      4989.172          43.437    23160816.620   121710927.764 5      4989.172          33.375    23160825.020    94839702.985 5      3887.667          33.250
G08  21644245.360   113741275.108 7      3657.900          46.437    21644244.520   113741275.105 6      3657.900          37.437    21644252.440    88629594.154 6      2850.311          37.625    21644252.920    88629598.165 8      2850.311          49.750
R22  20328277.040   108513723.993 8      3124.852          49.812    20328277.340   108513723.994 8      3124.852          49.500    20328285.200    84399596.683 8      2430.441          50.187    20328285.360    84399598.674 8      2430.441          50.562
G23  23378769.760   122856265.564 7      1196.763          44.437    23378769.020   122856265.564 5      1196.763          32.437    23378777.200    95732179.034 5       932.542          32.625    23378777.220    95732179.034 7       932.542          47.062
R11  19283284.020   103044020.104 8      1565.146          49.937    19283283.720   103044020.113 8      1565.146          49.687    19283292.220    80145380.875 8      1217.336          52.562    19283292.060    80145381.875 8      1217.336          53.562
G16  20568983.940   108090738.223 7      1732.973          47.687    20568982.360   108090738.228 6      1732.973          40.875    20568986.660    84226559.494 6      1350.369          40.500
R10  22403003.840   119420583.431 6     -1544.186          40.750    22403001.520   119420583.427 6     -1544.186          40.062
G21  21460478.500   112775577.348 7      4471.591          46.625    21460477.280   112775577.355 6      4471.591          36.312    21460483.180    87877093.243 6      3484.357          36.375
R23  23758081.220   127089723.578 7      5172.862          42.437    23758080.940   127089723.620 6      5172.862          41.687
R21  20689957.980   110716140.751 8       314.943          49.812    20689958.140   110716140.769 8       314.943          48.500    20689969.020    86112597.286 7       244.956          47.812    20689968.600    86112596.287 7       244.956          47.625
G26  22204691.260   116686435.473 7      -154.252          45.500    22204690.100   116686435.481 7      -154.252          43.937    22204701.620    90924530.283 7      -120.196          43.750    22204702.020    90924533.285 7      -120.196          47.437
R12  21395738.540   114292196.093 8      5817.520          48.937    21395738.580   114292196.097 8      5817.520          48.375    21395749.580    88893977.165 8      4524.737          48.375    21395749.360    88893976.163 7      4524.737          47.375
G10  22284355.720   117105082.428 7      3123.376          47.437    22284354.220   117105082.430 7      3123.376          45.312    22284363.940    91250744.916 7      2433.799          45.375    22284364.100    91250744.924 7      2433.799          47.812
G07  24639227.460   129480012.707 6      4376.554          39.562    24639226.860   129480012.704 4      4376.554          26.562    24639235.300   100893543.624 4      3410.301          26.437    24639235.200   100893550.632 7      3410.301          42.500
G31  25158485.440   132208737.322 6      -769.838          39.250    25158484.800   132208737.324 5      -769.838          34.000    25158500.280   103019843.147 5      -599.874          33.875    25158500.980   103019846.139 6      -599.874          41.562
> 2024 05 09 12 03  1.0000000  0 16
G27  20938243.640   110031213.461 8      2126.514          48.437    20938242.460   110031213.463 8      2126.514          49.500    20938249.100    85738633.096 8      1657.024          49.500    20938249.740    85738634.097 8      1657.024          49.062
G02  23159868.900   121705938.652 7      4988.937          43.875    23159867.280   121705938.665 5      4988.937          33.500    23159875.620    94835815.379 5      3887.483          33.312
G08  21643549.320   113737617.196 7      3657.826          46.687    21643548.300   113737617.195 6      3657.826          37.937    21643556.340    88626743.837 6      2850.254          37.937    21643556.940    88626747.850 8      2850.254          49.687
R22  20327691.700   108510599.414 8      3124.332          50.250    20327692.180   108510599.409 8      3124.332          49.562    20327699.960    84397166.456 8      2430.036          50.500    20327699.960    84397168.450 8      2430.036          50.750
G23  23378542.120   122855069.098 7      1196.164          45.500    23378541.380   122855069.100 5      1196.164          32.437    23378549.420    95731246.729 5       932.076          32.312    23378549.800    95731246.733 7       932.076          46.812
R11  19282991.400   103042455.379 8      1564.270          50.500    19282991.100   103042455.388 8      1564.270          49.250    19282999.300    80144163.860 8      1216.654          52.875    19282999.320    80144164.858 8      1216.654          52.812
G16  20568653.980   108089005.480 7      1732.481          47.375    20568652.660   108089005.485 6      1732.481          40.625    20568656.980    84225209.303 6      1349.985          40.062
R10  22403293.320   119422127.685 6     -1544.398          40.750    22403291.880   119422127.688 6     -1544.398          39.625
G21  21459627.740   112771106.027 7      4471.111          47.125    21459626.340   112771106.035 6      4471.111          36.812    21459632.320    87873609.101 6      3483.982          36.875
R23  23757114.140   127084550.844 6      5172.578          41.437    23757113.900   127084550.878 6      5172.578          41.687
R21  20689899.060   110715825.924 8       314.766          49.437    20689899.100   110715825.941 8       314.766          49.125    20689910.280    86112352.422 8       244.818          49.625    20689909.540    86112351.424 8       244.818          49.625
G26  22204720.380   116686589.880 7      -154.604          45.562    22204719.280   116686589.887 7      -154.604          44.125    22204730.960    90924650.594 7      -120.471          43.750    22204731.760    90924653.593 7      -120.471          47.000
R12  21394649.300   114286378.749 8      5817.127          49.062    21394649.560   114286378.761 8      5817.127          48.562    21394660.720    88889452.573 8      4524.432          48.437    21394660.620    88889451.572 8      4524.432          48.875
G10  22283761.200   117101959.244 7      3122.961          46.875    22283759.840   117101959.247 7      3122.961          46.875    22283769.700    91248311.270 7      2433.476          46.625    22283769.880    91248311.277 7      2433.476          47.625
G07  24638394.420   129475636.253 6      4376.289          39.750    24638393.960   129475636.250 4      4376.289          26.562    24638402.380   100890133.400 4      3410.095          26.437    24638402.580   100890140.408 7      3410.095          42.875
G31  25158632.120   132209507.206 6      -769.912          39.562    25158631.180   132209507.210 5      -769.912          33.625    25158646.900   103020443.055 5      -599.931          33.875    25158647.740   103020446.046 6      -599.931          41.375
> 2024 05 09 12 03  2.0000000  0 16
G27  20937839.140   110029087.066 8      2126.402          48.000    20937837.880   110029087.069 8      2126.402          48.875    20937844.560    85736976.167 8      1656.937          48.750    20937845.040    85736977.164 8      1656.937          49.625
G02  23158919.520   121700949.955 7      4988.545          43.250    23158918.040   121700949.970 5      4988.545          33.500    23158926.300    94831928.093 5      3887.178          33.312
G08  21642853.340   113733959.449 7      3657.740          45.625    21642852.280   113733959.449 6      3657.740          37.812    21642860.180    88623893.651 6      2850.187          37.250    21642860.800    88623897.656 8      2850.187          49.875
R22  20327106.500   108507475.328 8      3123.830          49.000    20327106.760   108507475.326 8      3123.830          49.062    20327114.640    84394736.614 8      2429.646          51.000    20327114.780    84394738.612 8      2429.646          50.562
G23  23378314.540   122853873.230 7      1195.608          45.187    23378313.900   122853873.233 5      1195.608          32.562    23378321.960    95730314.878 5       931.643          32.312    23378322.400    95730314.878 7       931.643          46.937
R11  19282698.560   103040891.560 8      1563.458          49.750    19282698.460   103040891.563 8      1563.458          48.437    19282706.700    80142947.547 8      1216.023          52.812    19282706.500    80142948.546 8      1216.023          53.062
G16  20568324.520   108087273.263 7      1732.049          46.875    20568322.980   108087273.268 6      1732.049          40.875    20568327.380    84223859.519 6      1349.649          40.125
R10  22403582.460   119423672.290 6     -1544.667          40.500    22403581.100   119423672.288 6     -1544.667          39.625
G21  21458776.920   112766635.256 7      4470.549          46.562    21458775.620   112766635.264 6      4470.549          36.312    21458781.700    87870125.385 6      3483.545          36.500
R23  23756146.740   127079378.461 6      5172.220          41.437    23756147.000   127079378.486 6      5172.220          41.000
R21  20689840.400   110715511.319 8       314.513          49.437    20689840.540   110715511.339 7       314.513          47.937    20689851.300    86112107.729 8       244.621          49.562    20689850.860    86112106.731 8       244.621          49.750
G26  22204750.060   116686744.669 7      -155.021          44.812    22204748.840   116686744.672 7      -155.021          44.000    22204760.460    90924771.203 7      -120.796          43.875    22204760.600    90924774.202 7      -120.796          47.187
R12  21393560.520   114280561.904 8      5816.696          48.000    21393560.740   114280561.916 8      5816.696          48.062    21393571.640    88884928.367 8      4524.097          48.312    21393571.840    88884927.366 8      4524.097          49.312
G10  22283166.960   117098836.689 7      3122.213          46.625    22283165.700   117098836.697 7      3122.213          46.375    22283175.400    91245878.117 7      2432.893          46.312    22283175.520    91245878.129 7      2432.893          47.562
G07  24637561.860   129471260.332 6      4375.680          38.812    24637561.260   129471260.332 4      4375.680          26.500    24637569.500   100886723.594 4      3409.620          26.437    24637570.180   100886730.616 7      3409.620          42.625
G31  25158778.560   132210276.911 6      -769.600          39.250    25158777.620   132210276.918 5      -769.600          33.625    25158793.240   103021042.819 5      -599.688          33.687    25158793.980   103021045.823 6      -599.688          41.375
> 2024 05 09 12 03  3.0000000  0 16
G27  20937434.540   110026960.808 8      2126.209          48.562    20937433.240   110026960.813 8      2126.209          49.687    20937439.900    85735319.340 8      1656.786          49.187    20937440.320    85735320.337 8      1656.786          49.812
G02  23157970.400   121695961.573 7      4988.288          43.500    23157968.840   121695961.586 5      4988.288          33.562    23157976.960    94828041.050 5      3886.978          33.312
G08  21642157.180   113730301.774 7      3657.771          46.500    21642156.200   113730301.773 6      3657.771          37.500    21642164.000    88621043.512 6      2850.211          37.750    21642164.880    88621047.519 8      2850.211          49.937
R22  20326521.340   108504351.656 8      3123.457          50.187    20326521.640   108504351.657 8      3123.457          49.875    20326529.520    84392307.096 8      2429.355          50.750    20326529.660    84392309.094 8      2429.355          51.062
G23  23378086.860   122852677.883 7      1195.151          44.312    23378086.380   122852677.885 5      1195.151          32.562    23378094.220    95729383.438 5       931.287          32.812    23378094.520    95729383.435 7       931.287          46.750
R11  19282406.020   103039328.536 8      1562.658          50.000    19282406.000   103039328.540 8      1562.658          49.062    19282414.300    80141731.867 8      1215.401          52.562    19282414.060    80141732.867 8      1215.401          53.187
G16  20567994.700   108085541.519 7      1731.541          47.187    20567993.600   108085541.524 6      1731.541          40.875    20567997.780    84222510.105 6      1349.253          40.250
R10  22403872.500   119425217.156 6     -1544.899          40.500    22403872.100   119425217.162 6     -1544.899          39.625
G21  21457926.260   112762164.945 7      4470.098          46.750    21457925.000   112762164.952 6      4470.098          36.687    21457931.020    87866642.026 6      3483.194          36.625
R23  23755180.020   127074206.332 6      5172.036          41.750    23755180.080   127074206.362 6      5172.036          41.000
R21  20689781.540   110715196.839 8       314.397          49.187    20689781.600   110715196.862 8       314.397          48.812    20689792.480    86111863.136 8       244.531          49.937    20689792.140    86111862.136 8       244.531          49.437
G26  22204779.400   116686899.737 7      -155.187          45.812    22204778.220   116686899.748 7      -155.187          44.125    22204790.040    90924892.031 7      -120.925          43.625    22204790.180    90924895.033 7      -120.925          47.187
R12  21392471.840   114274745.535 8      5816.128          48.750    21392471.800   114274745.544 8      5816.128          48.875    21392482.820    88880404.528 8      4523.655          48.625    21392482.840    88880403.528 8      4523.655          49.562
G10  22282572.940   117095714.628 7      3121.811          47.500    22282571.480   117095714.628 7      3121.811          46.750    22282581.300    91243445.336 7      2432.580          46.500    22282581.260    91243445.344 7      2432.580          47.437
G07  24636729.380   129466884.782 6      4375.436          39.625    24636728.640   129466884.785 4      4375.436          26.500    24636736.900   100883314.078 4      3409.431          26.437    24636737.160   100883321.103 7      3409.431          43.000
G31  25158925.080   132211046.461 6      -769.387          38.687    25158924.140   132211046.463 5      -769.387          34.000    25158939.760   103021642.452 5      -599.522          33.687    25158940.160   103021645.449 6      -599.522          41.562
> 2024 05 09 12 03  4.0000000  0 16
G27  20937029.900   110024835.044 8      2125.289          48.000    20937028.700   110024835.046 8      2125.289          49.812    20937035.500    85733662.896 8      1656.069          49.812    20937035.980    85733663.897 8      1656.069          50.000
G02  23157021.120   121690973.896 7      4987.016          43.687    23157019.660   121690973.911 5      4987.016          33.625    23157027.860    94824154.552 5      3885.987          33.562
G08  21641461.360   113726644.584 7      3656.690          46.250    21641460.260   113726644.587 6      3656.690          37.937    21641468.040    88618193.760 6      2849.368          37.500    21641468.840    88618197.771 8      2849.368          49.875
R22  20325936.220   108501228.815 8      3122.178          50.062    20325936.600   108501228.818 8      3122.178          49.250    20325944.520    84389878.221 8      2428.361          50.687    20325944.560    84389880.219 8      2428.361          50.437
G23  23377859.640   122851483.469 7      1193.683          45.000    23377859.000   122851483.466 5      1193.683          33.062    23377867.000    95728452.726 5       930.142          32.812    23377867.020    95728452.732 7       930.142          46.750
R11  19282113.820   103037766.747 8      1560.919          50.125    19282113.640   103037766.757 8      1560.919          48.812    19282121.920    80140517.146 8      1214.048          52.937    19282121.960    80140518.146 8      1214.048          53.437
G16  20567665.540   108083810.605 7      1730.210          47.062    20567664.180   108083810.610 6      1730.210          40.500    20567668.460    84221161.341 6      1348.216          40.312
R10  22404162.480   119426762.681 6     -1546.037          41.000    22404161.980   119426762.697 6     -1546.037          40.062
G21  21457075.720   112757695.487 7      4468.759          46.937    21457074.560   112757695.492 6      4468.759          36.250    21457080.600    87863159.334 6      3482.150          36.625
R23  23754213.160   127069034.884 6      5170.937          41.750    23754212.820   127069034.913 6      5170.937          41.375
R21  20689722.900   110714882.895 8       313.404          49.687    20689722.920   110714882.913 8       313.404          49.125    20689733.960    86111618.943 8       243.758          49.625    20689733.500    86111617.944 8       243.758          49.750
G26  22204809.120   116687055.531 7      -156.431          45.562    22204807.980   116687055.533 7      -156.431          44.312    22204819.700    90925013.416 7      -121.894          44.000    22204819.960    90925016.418 7      -121.894          47.375
R12  21391383.240   114268930.042 8      5814.759          49.375    21391383.120   114268930.043 8      5814.759          48.312    21391393.960    88875881.356 8      4522.590          48.312    21391394.100    88875880.358 8      4522.590          49.187
G10  22281978.940   117092593.452 7      3120.434          47.562    22281977.740   117092593.457 7      3120.434          46.437    22281987.320    91241013.253 7      2431.507          46.375    22281987.640    91241013.263 7      2431.507          47.437
G07  24635896.940   129462510.084 6      4374.103          40.125    24635896.300   129462510.086 4      4374.103          26.500    24635904.380   100879905.224 4      3408.392          26.437    24635904.980   100879912.228 7      3408.392          43.000
G31  25159071.060   132211816.176 6      -770.060          38.062    25159070.660   132211816.173 5      -770.060          34.000    25159086.220   103022242.224 5      -600.047          33.500    25159086.680   103022245.213 7      -600.047          42.000
> 2024 05 09 12 03  5.0000000  0 16
G27  20936625.620   110022709.681 8      2125.291          48.187    20936624.280   110022709.686 8      2125.291          49.625    20936631.020    85732006.774 8      1656.071          49.250    20936631.580    85732007.775 8      1656.071          49.500
G02  23156072.340   121685986.817 7      4986.953          43.687    23156070.560   121685986.832 5      4986.953          33.625    23156078.940    94820268.529 5      3885.937          33.562
G08  21640765.360   113722987.737 7      3656.875          47.375    21640764.560   113722987.736 6      3656.875          38.187    21640772.180    88615344.266 6      2849.513          38.187    21640772.880    88615348.276 8      2849.513          50.000
R22  20325351.460   108498106.699 8      3121.960          50.187    20325351.880   108498106.700 8      3121.960          49.750    20325359.720    84387449.904 8      2428.191          50.375    20325359.660    84387451.902 8      2428.191          50.875
G23  23377632.500   122850289.858 7      1193.420          44.000    23377631.740   122850289.858 5      1193.420          33.062    23377639.780    95727522.638 5       929.938          32.687    23377640.020    95727522.636 7       929.938          46.437
R11  19281821.660   103036206.105 8      1560.203          49.687    19281821.600   103036206.111 8      1560.203          49.375    19281829.780    80139303.305 8      1213.491          52.812    19281829.720    80139304.303 8      1213.491          53.250
G16  20567336.160   108082080.434 7      1729.937          47.250    20567334.820   108082080.442 6      1729.937          40.875    20567339.120    84219813.152 6      1348.003          40.375
R10  22404452.740   119428308.784 6     -1546.155          41.000    22404452.580   119428308.801 6     -1546.155          40.062
G21  21456225.300   112753226.768 7      4468.492          47.062    21456224.180   112753226.775 6      4468.492          36.875    21456230.280    87859677.219 6      3481.941          36.750
R23  23753246.520   127063864.020 6      5170.820          41.750    23753246.140   127063864.048 6      5170.820          41.375
R21  20689664.000   110714569.371 8       313.490          49.625    20689664.540   110714569.383 8       313.490          48.562    20689675.460    86111375.086 8       243.825          49.562    20689674.720    86111374.086 8       243.825          49.187
