     3.05           OBSERVATION DATA    MIXED               RINEX VERSION / TYPE
TPS2RIN 1.0.29.3920 TPS-USER            20240511 193439 UTC PGM / RUN BY / DATE
Win64 build Feb 23, 2024 (c) Topcon Positioning Systems     COMMENT
SRC: 20240509_FA10.tps                                      COMMENT
OPT: -S -v 3.05                                             COMMENT
Observer            Agency                                  OBSERVER / AGENCY
O0M3X53SBGM         TPS HIPER_SR        4.8 HSR Jul,08,2022 REC # / TYPE / VERS
FW: 4.8 HSR Jul,08,2022 p3                                  COMMENT
SN: HiPer SR 1212-12575                                     COMMENT
000                 TPSHIPER_SR     NONE                    ANT # / TYPE
        1.8000        0.0000        0.0000                  ANTENNA: DELTA H/E/N
FA10                                                        MARKER NAME
  5391835.4429 -1599182.0047  3002856.1824                  APPROX POSITION XYZ
  2024     5     9    12    33   11.0000000     GPS         TIME OF FIRST OBS
  2024     5     9    12    48   11.0000000     GPS         TIME OF LAST OBS
     1.000                                                  INTERVAL
   901 EPOCHS                                               COMMENT
G   16 C1C L1C D1C S1C C1W L1W D1W S1W C2W L2W D2W S2W C2X  SYS / # / OBS TYPES
       L2X D2X S2X                                          SYS / # / OBS TYPES
R   16 C1C L1C D1C S1C C1P L1P D1P S1P C2P L2P D2P S2P C2C  SYS / # / OBS TYPES
       L2C D2C S2C                                          SYS / # / OBS TYPES
    15                                                      # OF SATELLITES
   G02   901   901   901   901   901   901   901   901   901PRN / # OF OBS
         901   901   901     0     0     0     0            PRN / # OF OBS
   G07   901   901   901   901   901   901   901   901   901PRN / # OF OBS
         901   901   901   901   901   901   901            PRN / # OF OBS
   G08   901   901   901   901   901   901   901   901   901PRN / # OF OBS
         901   901   901   901   901   901   901            PRN / # OF OBS
   G10   901   901   901   901   901   901   901   901   901PRN / # OF OBS
         901   901   901   901   901   901   901            PRN / # OF OBS
   G16   901   901   901   901   901   901   901   901   901PRN / # OF OBS
         901   901   901     0     0     0     0            PRN / # OF OBS
   G21   901   901   901   901   901   901   901   901   901PRN / # OF OBS
         901   901   901     0     0     0     0            PRN / # OF OBS
   G23   595   595   595   595   594   594   594   594   594PRN / # OF OBS
         594   594   594   594   594   594   594            PRN / # OF OBS
   G26   901   901   901   901   901   901   901   901   901PRN / # OF OBS
         901   901   901   901   901   901   901            PRN / # OF OBS
   G27   901   901   901   901   901   901   901   901   901PRN / # OF OBS
         901   901   901   901   901   901   901            PRN / # OF OBS
   R07   901   901   901   901   901   901   901   901   901PRN / # OF OBS
         901   901   901   901   901   901   901            PRN / # OF OBS
   R11   901   901   901   901   901   901   901   901   901PRN / # OF OBS
         901   901   901   901   901   901   901            PRN / # OF OBS
   R12   901   901   901   901   901   901   901   901   901PRN / # OF OBS
         901   901   901   901   901   901   901            PRN / # OF OBS
   R21   780   780   780   780   775   775   775   775   775PRN / # OF OBS
         775   775   775   774   774   774   774            PRN / # OF OBS
   R22   901   901   901   901   901   901   901   901   901PRN / # OF OBS
         901   901   901   901   901   901   901            PRN / # OF OBS
   R23   901   901   901   901   901   901   901   901     0PRN / # OF OBS
           0     0     0     0     0     0     0            PRN / # OF OBS
G L1C                                                       SYS / PHASE SHIFT
G L1W -0.25000                                              SYS / PHASE SHIFT
G L2W  0.00000                                              SYS / PHASE SHIFT
G L2X  0.25000                                              SYS / PHASE SHIFT
R L1C                                                       SYS / PHASE SHIFT
R L1P -0.25000                                              SYS / PHASE SHIFT
R L2P -0.25000                                              SYS / PHASE SHIFT
R L2C                                                       SYS / PHASE SHIFT
  6 R07  5 R11  0 R12 -1 R21  4 R22 -3 R23  3               GLONASS SLOT / FRQ #
                                                            GLONASS COD/PHS/BIS
    18    18  1929     7GPS                                 LEAP SECONDS
                                                            END OF HEADER
> 2024 05 09 12 33 11.0000000  0 15
G02  22456580.360   118010128.468 7      4290.660          45.312    22456578.920   118010128.475 6      4290.660          36.500    22456585.000    91955962.251 6      3343.371          36.437
G26  23253210.660   122196434.700 7      -695.438          43.500    23253210.160   122196434.716 6      -695.438          41.812    23253226.400    95218062.828 6      -541.900          41.750    23253227.180    95218058.819 7      -541.900          46.437
G21  20978005.720   110240167.469 7      3533.943          45.812    20978003.600   110240167.476 6      3533.943          38.125    20978009.500    85901440.568 6      2753.722          38.375
R12  20498025.300   109496770.082 7      4698.947          46.812    20498024.160   109496770.078 7      4698.947          47.375    20498035.420    85164198.970 8      3654.736          48.812    20498035.580    85164199.974 8      3654.736          48.687
G27  21155950.040   111175268.875 7      1822.610          47.500    21155948.920   111175268.885 7      1822.610          47.687    21155956.160    86630100.932 7      1420.216          47.750    21155956.600    86630105.934 8      1420.216          48.187
G16  21026751.320   110496323.137 7       819.374          46.562    21026750.220   110496323.139 6       819.374          38.125    21026754.920    86101048.020 6       638.473          38.500
G07  24181833.580   127076392.632 6      3469.162          41.562    24181831.600   127076392.635 4      3469.162          29.375    24181841.560    99020593.043 4      2703.243          29.125    24181842.760    99020600.041 6      2703.243          41.812
G23  24036541.320   126312869.982 6       230.025          41.687    24036540.160   126312869.989 4       230.025          29.562    24036550.080    98425603.401 4       179.240          29.437    24036551.300    98425663.401 7       179.240          45.250
R11  19910055.000   106393290.517 8        65.916          48.937    19910053.760   106393290.510 8        65.916          49.062    19910063.900    82750374.571 8        51.268          51.500    19910063.900    82750375.574 8        51.268          52.125
R07  24172392.420   129396707.428 6      5699.603          39.062    24172393.640   129396707.467 6      5699.603          37.875    24172418.520   100641997.154 6      4433.024          41.875    24172418.420   100641997.150 6      4433.024          41.625
R23  23005102.420   123061791.707 6      4571.692          39.437    23005098.740   123061791.687 6      4571.692          39.000
R21  21522563.800   115171594.801 6       121.514          40.625    21522564.680   115171594.808 6       121.514          40.562    21522576.260    89577949.585 7        94.511          45.187    21522576.240    89577951.595 7        94.511          44.375
R22  20301230.900   108369354.270 8      2363.431          48.500    20301231.300   108369354.271 8      2363.431          48.750    20301240.920    84287306.389 8      1838.224          51.437    20301240.760    84287309.391 8      1838.224          51.562
G10  22288090.460   117124705.936 7      2050.493          47.437    22288089.340   117124705.941 7      2050.493          47.625    22288098.760    91266040.230 8      1597.787          48.187    22288099.120    91266040.236 8      1597.787          49.250
G08  21321343.540   112044420.258 7      3424.744          43.937    21321342.640   112044420.253 5      3424.744          34.812    21321350.580    87307363.056 5      2668.631          34.687    21321351.340    87307369.076 8      2668.631          48.750
> 2024 05 09 12 33 12.0000000  0 15
G02  22455761.880   118005838.062 7      4290.214          45.750    22455762.480   118005838.070 6      4290.214          36.500    22455768.680    91952619.086 6      3343.024          36.250
G26  23253343.280   122197130.454 7      -695.845          43.937    23253342.580   122197130.459 7      -695.845          42.312    23253358.800    95218604.957 6      -542.217          41.875    23253359.600    95218600.952 7      -542.217          46.562
G21  20977332.240   110236633.914 7      3533.315          47.062    20977331.220   110236633.932 6      3533.315          38.187    20977337.200    85898687.153 6      2753.232          38.312
R12  20497146.700   109492071.647 7      4698.039          47.250    20497144.580   109492071.645 7      4698.039          47.937    20497155.680    85160544.635 8      3654.030          48.500    20497156.960    85160545.637 8      3654.030          49.312
G27  21155604.280   111173446.384 7      1822.472          47.812    21155602.160   111173446.383 7      1822.472          47.437    21155609.420    86628680.803 7      1420.108          47.750    21155608.380    86628685.803 8      1420.108          48.562
G16  21026596.600   110495504.098 7       818.752          47.375    21026594.480   110495504.092 6       818.752          38.625    21026599.220    86100409.807 6       637.988          38.875
G07  24181173.240   127072923.770 7      3468.576          42.937    24181171.880   127072923.773 4      3468.576          29.375    24181181.640    99017890.030 4      2702.787          29.437    24181181.900    99017897.034 6      2702.787          41.812
G23  24036496.020   126312640.331 6       229.618          41.312    24036496.220   126312640.341 4       229.618          29.312    24036506.300    98425424.453 4       178.923          29.125    24036505.960    98425484.440 7       178.923          45.000
R11  19910043.100   106393225.078 8        65.046          49.187    19910041.080   106393225.068 8        65.046          48.437    19910051.460    82750323.674 8        50.591          51.875    19910051.780    82750324.677 8        50.591          51.562
R07  24171326.440   129391007.861 6      5699.557          39.062    24171328.220   129391007.900 6      5699.557          37.875    24171353.600   100637564.174 7      4432.989          42.000    24171352.760   100637564.178 7      4432.989          42.062
R23  23004245.820   123057220.286 6      4571.370          39.500    23004245.280   123057220.279 6      4571.370          39.000
R21  21522541.060   115171473.554 6       121.332          40.625    21522542.060   115171473.561 6       121.332          40.562    21522553.380    89577855.277 7        94.369          44.687    21522552.740    89577857.279 7        94.369          44.375
R22  20300783.660   108366991.233 8      2362.831          48.562    20300789.160   108366991.237 8      2362.831          48.687    20300798.760    84285468.465 8      1837.757          51.562    20300798.960    84285471.465 8      1837.757          51.687
G10  22287699.880   117122655.779 7      2049.799          47.187    22287699.280   117122655.781 7      2049.799          47.250    22287708.880    91264442.705 7      1597.246          47.437    22287708.400    91264442.711 8      1597.246          49.250
G08  21320692.660   112040995.604 7      3424.542          45.250    21320690.960   112040995.609 5      3424.542          34.687    21320698.720    87304694.505 5      2668.475          34.375    21320700.280    87304700.520 8      2668.475          48.937
> 2024 05 09 12 33 13.0000000  0 15
G02  22454947.660   118001548.033 7      4290.015          45.562    22454946.060   118001548.043 6      4290.015          36.250    22454952.220    91949276.204 6      3342.869          36.250
G26  23253475.620   122197826.460 7      -696.048          43.875    23253475.060   122197826.475 7      -696.048          42.437    23253491.220    95219147.289 6      -542.375          41.812    23253491.980    95219143.276 7      -542.375          47.125
G21  20976661.140   110233100.854 7      3532.843          47.062    20976658.940   110233100.864 6      3532.843          38.375    20976665.020    85895934.113 6      2752.865          38.062
R12  20496266.000   109487373.978 7      4697.374          46.750    20496265.120   109487373.976 7      4697.374          47.562    20496276.320    85156890.895 8      3653.513          49.062    20496276.560    85156891.895 8      3653.513          49.437
G27  21155256.500   111171624.066 7      1822.324          47.750    21155255.280   111171624.071 7      1822.324          47.750    21155262.540    86627260.815 8      1419.993          48.000    21155262.980    86627265.819 8      1419.993          48.625
G16  21026439.540   110494685.563 7       818.335          46.375    21026438.700   110494685.568 6       818.335          38.687    21026443.380    86099771.984 6       637.663          38.500
G07  24180513.800   127069455.450 7      3468.256          42.187    24180511.840   127069455.452 4      3468.256          29.312    24180521.580    99015187.446 4      2702.537          29.437    24180522.080    99015194.442 6      2702.537          41.500
G23  24036453.700   126312411.086 6       229.036          40.062    24036452.980   126312411.093 4       229.036          29.312    24036462.860    98425245.812 4       178.469          29.125    24036464.360    98425305.805 7       178.469          45.062
R11  19910030.820   106393160.387 8        64.427          48.625    19910029.060   106393160.377 8        64.427          48.375    19910039.540    82750273.353 8        50.110          51.562    19910039.440    82750274.355 8        50.110          51.875
R07  24170262.740   129385308.182 6      5699.871          39.062    24170263.540   129385308.213 6      5699.871          37.875    24170289.080   100633131.080 7      4433.233          42.187    24170289.140   100633131.074 7      4433.233          42.000
R23  23003392.740   123052649.145 6      4571.015          39.500    23003391.040   123052649.155 6      4571.015          39.000
R21  21522519.020   115171352.229 6       121.529          40.625    21522519.560   115171352.238 6       121.529          40.562    21522530.560    89577760.913 7        94.522          44.500    21522530.820    89577762.923 7        94.522          43.687
R22  20300345.660   108364628.535 8      2362.603          48.062    20300346.060   108364628.536 7      2362.603          47.875    20300355.860    84283630.817 8      1837.580          51.250    20300355.500    84283633.815 8      1837.580          51.750
G10  22287310.280   117120606.270 7      2049.252          47.625    22287309.100   117120606.275 7      2049.252          47.562    22287318.640    91262845.687 7      1596.820          47.500    22287318.840    91262845.691 8      1596.820          49.000
G08  21320040.440   112037571.124 7      3424.576          45.312    21320039.600   112037571.118 5      3424.576          34.687    21320047.160    87302026.070 5      2668.501          34.375    21320047.880    87302032.084 8      2668.501          48.312
> 2024 05 09 12 33 14.0000000  0 15
G02  22454131.200   117997258.239 7      4289.567          46.125    22454129.820   117997258.247 6      4289.567          36.437    22454135.880    91945933.508 6      3342.520          36.250
G26  23253608.240   122198522.489 7      -696.076          43.687    23253607.400   122198522.499 7      -696.076          42.687    23253623.700    95219689.635 7      -542.397          42.062    23253624.300    95219685.626 7      -542.397          45.937
G21  20975988.700   110229568.104 7      3532.484          46.750    20975986.620   110229568.112 6      3532.484          38.187    20975992.660    85893181.323 6      2752.585          37.937
R12  20495387.100   109482676.854 7      4696.803          47.750    20495385.900   109482676.849 7      4696.803          47.312    20495397.120    85153237.574 8      3653.069          49.375    20495397.400    85153238.576 8      3653.069          49.000
G27  21154909.600   111169801.720 8      1822.305          48.125    21154908.500   111169801.727 7      1822.305          46.687    21154915.740    86625840.803 7      1419.978          46.625    21154915.960    86625845.803 7      1419.978          47.500
G16  21026284.100   110493867.312 7       818.035          45.750    21026282.940   110493867.317 6       818.035          38.750    21026287.720    86099134.382 6       637.430          38.062
G07  24179853.740   127065987.455 7      3467.842          42.375    24179852.040   127065987.460 4      3467.842          29.312    24179861.420    99012485.108 4      2702.214          29.437    24179862.020    99012492.113 6      2702.214          41.500
G23  24036410.360   126312182.150 6       228.682          41.312    24036409.500   126312182.160 4       228.682          29.312    24036419.380    98425067.418 4       178.194          29.125    24036420.660    98425127.412 7       178.194          44.937
R11  19910018.760   106393096.241 8        63.786          49.250    19910017.200   106393096.234 8        63.786          48.812    19910027.700    82750223.460 8        49.611          49.187    19910027.660    82750224.460 8        49.611          51.500
R07  24169197.460   129379608.170 6      5700.030          39.062    24169198.860   129379608.204 6      5700.030          37.875    24169224.100   100628697.752 7      4433.357          42.187    24169224.460   100628697.748 6      4433.357          41.625
R23  23002538.320   123048078.173 6      4570.761          40.187    23002537.060   123048078.185 6      4570.761          39.187
R21  21522496.480   115171230.823 6       121.470          41.062    21522497.200   115171230.827 6       121.470          40.875    21522507.920    89577666.478 7        94.476          45.125    21522508.320    89577668.487 7        94.476          44.062
R22  20299902.940   108362265.983 8      2362.409          48.375    20299903.540   108362265.990 8      2362.409          48.937    20299913.420    84281793.279 8      1837.430          48.937    20299912.860    84281796.277 8      1837.430          51.875
G10  22286920.620   117118557.132 7      2048.883          46.937    22286919.020   117118557.134 7      2048.883          47.500    22286928.720    91261248.954 7      1596.532          47.375    22286929.100    91261248.961 7      1596.532          47.750
G08  21319388.580   112034146.564 7      3424.611          44.312    21319388.000   112034146.556 5      3424.611          34.687    21319395.500    87299357.580 5      2668.528          34.500    21319396.120    87299363.590 8      2668.528          49.062
> 2024 05 09 12 33 15.0000000  0 15
G02  22453314.980   117992968.998 7      4289.035          45.812    22453313.480   117992969.003 6      4289.035          36.062    22453319.720    91942591.242 6      3342.105          36.187
G26  23253740.600   122199218.965 7      -696.675          43.437    23253739.880   122199218.975 7      -696.675          42.437    23253756.320    95220232.329 6      -542.864          41.312    23253756.800    95220228.323 7      -542.864          46.812
G21  20975316.700   110226036.042 7      3531.792          46.187    20975314.560   110226036.050 6      3531.792          37.750    20975320.640    85890429.067 6      2752.046          37.750
R12  20494507.620   109477980.651 7      4695.803          47.625    20494506.540   109477980.649 7      4695.803          47.312    20494517.940    85149584.974 7      3652.291          47.562    20494518.180    85149585.974 8      3652.291          49.312
G27  21154562.760   111167979.741 8      1821.868          48.062    21154561.880   111167979.749 7      1821.868          47.750    21154569.000    86624421.075 7      1419.638          47.687    21154569.280    86624426.079 8      1419.638          48.687
G16  21026128.380   110493049.755 7       817.271          46.437    21026127.480   110493049.759 6       817.271          39.000    21026132.160    86098497.322 6       636.834          38.562
G07  24179194.040   127062520.174 7      3467.160          42.500    24179192.220   127062520.179 4      3467.160          29.312    24179201.740    99009783.329 4      2701.683          29.437    24179202.200    99009790.344 6      2701.683          41.187
G23  24036367.040   126311953.890 6       227.845          40.937    24036365.980   126311953.897 4       227.845          29.312    24036375.860    98424889.553 4       177.542          29.125    24036377.020    98424949.544 7       177.542          45.187
R11  19910006.820   106393033.041 8        62.731          49.500    19910004.960   106393033.040 8        62.731          48.562    19910015.760    82750174.304 8        48.791          51.812    19910015.600    82750175.307 8        48.791          49.250
R07  24168132.980   129373908.239 6      5699.898          38.875    24168134.560   129373908.262 6      5699.898          37.875    24168159.440   100624264.458 6      4433.254          41.437    24168159.960   100624264.450 7      4433.254          42.187
R23  23001683.940   123043507.685 6      4570.400          40.187    23001683.100   123043507.697 6      4570.400          39.187
R21  21522473.200   115171109.624 6       121.157          41.062    21522475.140   115171109.649 6       121.157          40.875    21522485.220    89577572.222 7        94.233          44.687    21522485.640    89577574.231 7        94.233          44.625
R22  20299460.600   108359903.979 8      2361.820          48.687    20299461.160   108359903.988 8      2361.820          48.187    20299470.940    84279956.168 8      1836.971          51.375    20299470.300    84279959.167 8      1836.971          49.125
G10  22286530.820   117116508.795 7      2048.030          47.437    22286529.340   117116508.800 7      2048.030          46.250    22286539.000    91259652.850 7      1595.868          46.562    22286539.500    91259652.858 8      1595.868          49.250
G08  21318736.720   112030722.328 7      3424.194          45.812    21318736.260   112030722.319 5      3424.194          34.687    21318743.860    87296689.346 5      2668.203          34.750    21318744.900    87296695.362 8      2668.203          48.812
> 2024 05 09 12 33 16.0000000  0 15
G02  22452498.880   117988680.059 7      4288.703          45.875    22452497.220   117988680.069 6      4288.703          36.625    22452503.480    91939249.220 6      3341.846          36.187
G26  23253873.120   122199915.568 7      -696.790          43.812    23253872.380   122199915.586 6      -696.790          41.812    23253888.900    95220775.124 6      -542.953          41.312    23253889.180    95220771.113 7      -542.953          46.875
G21  20974644.700   110222504.396 7      3531.353          46.687    20974642.340   110222504.403 6      3531.353          37.625    20974648.620    85887677.136 6      2751.704          37.625
R12  20493628.940   109473285.052 7      4695.240          47.062    20493627.800   109473285.053 7      4695.240          47.687    20493638.920    85145932.843 8      3651.854          49.000    20493638.900    85145933.843 8      3651.854          49.375
G27  21154216.240   111166157.826 7      1821.835          47.812    21154215.220   111166157.836 7      1821.835          47.437    21154222.360    86623001.405 7      1419.611          47.625    21154222.740    86623006.409 8      1419.611          48.187
G16  21025972.900   110492232.591 7       816.908          46.500    21025971.800   110492232.596 6       816.908          38.937    21025976.580    86097860.571 6       636.552          38.500
G07  24178534.060   127059053.354 7      3466.488          42.000    24178532.380   127059053.356 4      3466.488          29.312    24178542.020    99007081.913 4      2701.159          29.437    24178542.160    99007088.917 6      2701.159          41.187
G23  24036323.860   126311725.966 6       227.770          41.500    24036322.820   126311725.978 4       227.770          29.125    24036332.580    98424711.942 4       177.483          29.250    24036333.800    98424771.937 7       177.483          45.187
R11  19909994.800   106392970.512 8        62.031          49.000    19909993.500   106392970.508 8        62.031          48.437    19910004.100    82750125.664 8        48.246          51.625    19910004.060    82750126.665 8        48.246          51.875
R07  24167068.320   129368208.124 6      5700.106          38.875    24167069.440   129368208.133 6      5700.106          37.937    24167094.760   100619831.026 7      4433.415          42.125    24167094.980   100619831.024 7      4433.415          42.062
R23  23000829.360   123038937.470 6      4570.092          41.437    23000828.740   123038937.469 6      4570.092          39.187
R21  21522451.240   115170988.398 6       121.312          41.062    21522452.580   115170988.407 6       121.312          41.250    21522463.020    89577477.921 7        94.354          45.437    21522463.140    89577479.927 7        94.354          44.312
R22  20299018.040   108357542.223 8      2361.569          48.312    20299018.760   108357542.229 8      2361.569          48.562    20299028.440    84278119.247 8      1836.776          51.437    20299028.060    84278122.245 8      1836.776          51.500
G10  22286140.900   117114460.982 7      2047.483          47.437    22286139.640   117114460.984 7      2047.483          47.687    22286149.240    91258057.149 7      1595.441          47.687    22286149.500    91258057.155 8      1595.441          49.375
G08  21318085.360   112027298.131 7      3424.105          44.937    21318084.660   112027298.120 5      3424.105          34.687    21318092.140    87294021.139 5      2668.134          34.750    21318093.200    87294027.148 8      2668.134          49.187
> 2024 05 09 12 33 17.0000000  0 15
G02  22451682.820   117984391.676 7      4288.176          46.062    22451681.120   117984391.681 6      4288.176          36.062    22451687.260    91935907.625 6      3341.436          36.375
G26  23254005.480   122200612.577 7      -697.046          44.500    23254004.940   122200612.590 6      -697.046          41.750    23254021.460    95221318.228 6      -543.153          41.812    23254021.940    95221314.219 7      -543.153          46.875
G21  20973972.860   110218973.403 7      3530.806          46.312    20973970.300   110218973.408 6      3530.806          37.875    20973976.640    85884925.714 6      2751.277          37.875
R12  20492750.000   109468590.347 7      4694.363          47.687    20492749.020   109468590.348 7      4694.363          47.750    20492760.180    85142281.409 8      3651.171          48.625    20492759.960    85142282.406 8      3651.171          49.062
G27  21153869.420   111164336.259 7      1821.502          47.437    21153868.460   111164336.267 7      1821.502          47.750    21153875.580    86621582.000 7      1419.352          47.875    21153876.180    86621587.002 8      1419.352          48.437
G16  21025817.720   110491416.082 7       816.259          46.562    21025816.380   110491416.085 6       816.259          38.437    21025821.340    86097224.324 6       636.046          38.375
G07  24177874.480   127055587.164 7      3466.072          42.437    24177872.880   127055587.164 4      3466.072          29.125    24177882.340    99004380.986 4      2700.835          29.187    24177882.300    99004387.996 6      2700.835          41.125
G23  24036280.940   126311498.733 6       226.924          41.875    24036279.780   126311498.745 4       226.924          29.125    24036289.160    98424534.875 4       176.824          29.250    24036290.480    98424594.866 7       176.824          45.187
R11  19909983.140   106392908.856 8        61.366          48.750    19909981.780   106392908.847 8        61.366          48.687    19909992.700    82750077.704 8        47.729          51.625    19909992.520    82750078.706 8        47.729          51.875
R07  24166004.060   129362508.056 6      5700.245          38.875    24166003.840   129362508.063 6      5700.245          37.937    24166029.720   100615397.638 6      4433.524          41.812    24166030.340   100615397.634 7      4433.524          42.062
R23  22999974.640   123034367.696 6      4569.639          41.437    22999975.220   123034367.703 6      4569.639          40.812
R21  21522428.420   115170867.351 6       121.049          41.062    21522429.860   115170867.371 6       121.049          41.250    21522440.280    89577383.777 7        94.149          45.000    21522440.460    89577385.782 7        94.149          45.000
R22  20298575.640   108355180.987 8      2361.057          48.625    20298576.600   108355180.996 8      2361.057          48.437    20298586.140    84276282.735 8      1836.378          51.000    20298585.720    84276285.733 8      1836.378          52.000
G10  22285751.480   117112413.901 7      2046.858          47.812    22285750.000   117112413.903 7      2046.858          47.000    22285759.800    91256462.021 7      1594.954          47.187    22285759.920    91256462.023 8      1594.954          48.875
G08  21317433.920   112023874.194 7      3423.949          44.062    21317432.980   112023874.186 5      3423.949          34.687    21317440.720    87291353.140 5      2668.012          34.375    21317441.620    87291359.154 8      2668.012          48.937
> 2024 05 09 12 33 18.0000000  0 15
G02  22450866.960   117980103.599 7      4287.894          45.562    22450865.220   117980103.607 6      4287.894          36.250    22450871.180    91932566.270 6      3341.216          36.125
G26  23254138.440   122201309.747 7      -697.227          43.062    23254137.560   122201309.762 7      -697.227          42.187    23254154.080    95221861.463 6      -543.294          41.812    23254154.420    95221857.460 7      -543.294          46.250
G21  20973301.260   110215442.855 7      3530.355          45.875    20973298.400   110215442.863 6      3530.355          38.000    20973304.780    85882174.637 6      2750.926          38.062
R12  20491871.140   109463896.319 7      4693.630          47.750    20491870.380   109463896.314 7      4693.630          47.625    20491881.460    85138630.493 8      3650.601          49.000    20491881.440    85138631.497 8      3650.601          48.875
G27  21153522.760   111162514.770 7      1821.410          47.562    21153521.900   111162514.777 7      1821.410          47.750    21153529.120    86620162.658 7      1419.281          47.937    21153529.600    86620167.660 8      1419.281          48.937
G16  21025662.440   110490599.999 7       815.797          46.125    21025661.040   110490599.999 6       815.797          38.625    21025666.220    86096588.413 6       635.686          38.562
G07  24177214.700   127052121.471 6      3465.314          41.375    24177213.440   127052121.468 4      3465.314          29.125    24177222.900    99001680.446 4      2700.245          29.187    24177222.660    99001687.454 6      2700.245          41.125
G23  24036238.000   126311271.839 6       226.758          41.437    24036236.680   126311271.851 4       226.758          29.125    24036245.900    98424358.070 4       176.695          29.250    24036247.460    98424418.066 7       176.695          45.250
R11  19909971.680   106392847.893 8        60.590          48.812    19909970.380   106392847.886 8        60.590          48.625    19909981.260    82750030.286 8        47.125          51.625    19909981.000    82750031.284 8        47.125          52.062
R07  24164939.640   129356807.868 6      5700.263          38.875    24164939.220   129356807.867 6      5700.263          37.937    24164964.840   100610964.159 6      4433.538          41.812    24164965.140   100610964.161 6      4433.538          41.875
R23  22999120.820   123029798.163 7      4569.328          42.062    22999121.020   123029798.186 6      4569.328          40.812
R21  21522405.920   115170746.264 6       120.956          41.250    21522407.840   115170746.276 6       120.956          41.375    21522417.680    89577289.592 7        94.077          45.375    21522417.700    89577291.593 7        94.077          44.687
R22  20298133.600   108352820.021 8      2360.798          48.812    20298134.360   108352820.027 8      2360.798          48.750    20298143.840    84274446.428 8      1836.176          51.250    20298143.420    84274449.426 8      1836.176          51.812
G10  22285361.880   117110367.388 7      2046.179          47.250    22285360.500   117110367.385 8      2046.179          48.062    22285370.200    91254867.333 7      1594.425          47.500    22285370.500    91254867.342 8      1594.425          49.187
G08  21316782.340   112020450.352 7      3423.750          45.250    21316781.340   112020450.346 5      3423.750          34.750    21316789.100    87288685.213 5      2667.857          34.625    21316790.160    87288691.227 8      2667.857          49.000
> 2024 05 09 12 33 19.0000000  0 15
G02  22450051.060   117975816.058 7      4287.225          45.062    22450049.340   117975816.065 6      4287.225          36.437    22450055.480    91929225.331 6      3340.695          36.062
G26  23254271.100   122202007.284 7      -697.639          43.812    23254270.360   122202007.300 6      -697.639          41.875    23254286.940    95222404.984 6      -543.615          41.687    23254287.100    95222400.976 7      -543.615          46.625
G21  20972629.640   110211912.932 7      3529.614          46.562    20972626.920   110211912.942 6      3529.614          38.000    20972633.240    85879424.046 6      2750.348          38.000
R12  20490992.580   109459203.174 8      4692.649          48.000    20490991.880   109459203.175 7      4692.649          47.687    20491003.100    85134980.276 8      3649.838          48.937    20491002.900    85134981.276 8      3649.838          48.937
G27  21153176.060   111160693.587 8      1821.019          48.250    21153175.280   111160693.595 7      1821.019          47.937    21153182.600    86618743.552 7      1418.976          47.812    21153183.120    86618748.554 8      1418.976          48.750
G16  21025507.300   110489784.512 7       815.145          46.937    21025506.020   110489784.514 6       815.145          38.937    21025511.020    86095952.967 6       635.178          38.937
G07  24176555.000   127048656.371 7      3464.740          42.750    24176554.080   127048656.368 4      3464.740          29.125    24176563.600    98998980.366 4      2699.797          29.187    24176563.280    98998987.370 6      2699.797          41.000
G23  24036194.740   126311045.591 7       225.896          42.312    24036193.600   126311045.601 4       225.896          29.125    24036202.980    98424181.769 4       176.023          29.250    24036204.140    98424241.773 7       176.023          45.500
R11  19909960.540   106392787.803 7        59.692          47.937    19909959.120   106392787.791 8        59.692          48.250    19909970.120    82749983.534 8        46.427          51.750    19909969.780    82749984.537 8        46.427          52.000
R07  24163874.760   129351107.619 6      5700.352          39.000    24163873.880   129351107.620 6      5700.352          37.937    24163900.140   100606530.631 6      4433.607          41.687    24163900.520   100606530.632 7      4433.607          42.062
R23  22998266.820   123025229.082 7      4568.774          42.062    22998267.220   123025229.100 6      4568.774          40.812
R21  21522383.560   115170625.246 6       120.921          41.250    21522385.020   115170625.283 6       120.921          41.375    21522394.940    89577195.478 7        94.050          45.062    21522395.120    89577197.482 7        94.050          45.187
R22  20297691.120   108350459.536 7      2360.272          47.437    20297692.240   108350459.537 8      2360.272          48.437    20297701.500    84272610.490 8      1835.767          51.062    20297701.000    84272613.489 8      1835.767          52.000
G10  22284972.620   117108321.579 7      2045.421          47.125    22284971.140   117108321.581 7      2045.421          47.437    22284980.940    91253273.201 7      1593.835          47.750    22284981.400    91253273.207 8      1593.835          49.437
G08  21316130.760   112017026.759 7      3423.364          45.500    21316129.960   112017026.754 5      3423.364          34.625    21316137.520    87286017.477 5      2667.557          34.625    21316138.520    87286023.488 8      2667.557          48.687
> 2024 05 09 12 33 20.0000000  0 15
G02  22449235.520   117971528.971 7      4286.598          46.000    22449233.560   117971528.978 6      4286.598          36.375    22449239.640    91925884.746 6      3340.207          36.437
G26  23254403.980   122202705.153 7      -698.279          43.875    23254403.260   122202705.169 6      -698.279          41.562    23254419.660    95222948.766 6      -544.114          41.500    23254420.400    95222944.761 7      -544.114          46.562
G21  20971957.900   110208383.569 7      3528.926          46.562    20971955.480   110208383.579 6      3528.926          38.250    20971961.700    85876673.897 6      2749.812          38.312
R12  20490114.280   109454510.852 7      4691.645          47.437    20490113.500   109454510.848 7      4691.645          47.750    20490124.620    85131330.690 8      3649.057          48.937    20490124.520    85131331.692 8      3649.057          48.750
G27  21152829.700   111158872.636 7      1820.580          47.687    21152828.760   111158872.643 7      1820.580          47.625    21152835.920    86617324.629 7      1418.634          47.812    21152836.340    86617329.633 8      1418.634          48.187
G16  21025352.260   110488969.595 7       814.438          46.625    21025350.980   110488969.598 6       814.438          38.687    21025355.900    86095317.967 6       634.627          38.625
G07  24175895.620   127045191.876 7      3464.044          43.750    24175894.960   127045191.876 4      3464.044          29.125    24175904.180    98996280.761 4      2699.255          29.187    24175903.940    98996287.770 6      2699.255          41.000
G23  24036151.600   126310819.864 7       225.169          43.187    24036150.660   126310819.879 4       225.169          29.625    24036159.960    98424005.878 4       175.456          29.500    24036161.100    98424065.882 7       175.456          45.187
R11  19909949.420   106392728.520 8        58.607          48.750    19909947.960   106392728.510 8        58.607          48.625    19909958.840    82749937.432 8        45.583          51.812    19909958.760    82749938.434 8        45.583          52.125
R07  24162809.680   129345407.369 6      5699.943          39.000    24162809.240   129345407.379 6      5699.943          38.000    24162835.360   100602097.104 6      4433.289          41.875    24162835.560   100602097.102 7      4433.289          42.375
R23  22997412.680   123020660.362 7      4568.241          42.250    22997413.680   123020660.380 6      4568.241          40.812
R21  21522360.660   115170504.373 6       120.557          41.875    21522363.500   115170504.404 6       120.557          41.500    21522372.700    89577101.464 7        93.767          45.187    21522372.500    89577103.466 7        93.767          45.062
R22  20297249.260   108348099.480 8      2359.583          48.000    20297250.140   108348099.475 8      2359.583          48.312    20297259.320    84270774.885 8      1835.231          51.437    20297258.860    84270777.879 8      1835.231          51.437
G10  22284583.560   117106276.445 7      2044.573          46.750    22284581.900   117106276.453 7      2044.573          47.437    22284591.780    91251679.590 7      1593.174          47.375    22284592.040    91251679.594 8      1593.174          49.187
G08  21315479.340   112013603.340 7      3423.119          44.625    21315478.440   112013603.335 5      3423.119          34.625    21315486.000    87283349.878 5      2667.366          34.187    21315486.940    87283355.887 8      2667.366          48.937
> 2024 05 09 12 33 21.0000000  0 15
G02  22448419.740   117967242.517 7      4286.447          45.312    22448417.720   117967242.522 6      4286.447          36.250    22448423.840    91922544.654 6      3340.089          36.250
G26  23254536.640   122203403.492 7      -698.193          43.562    23254536.020   122203403.500 7      -698.193          42.000    23254552.640    95223492.904 6      -544.046          41.375    23254552.940    95223488.895 7      -544.046          46.687
G21  20971286.660   110204854.981 7      3528.590          46.437    20971283.900   110204854.991 6      3528.590          37.875    20971290.240    85873924.347 6      2749.551          38.500
R12  20489235.760   109449819.511 7      4691.158          47.250    20489235.420   109449819.506 7      4691.158          47.562    20489246.400    85127681.869 8      3648.678          48.312    20489246.240    85127682.871 8      3648.678          48.875
G27  21152483.180   111157052.102 7      1820.722          47.875    21152482.380   111157052.110 7      1820.722          47.625    21152489.440    86615906.028 7      1418.745          47.875    21152489.780    86615911.032 8      1418.745          48.375
G16  21025197.100   110488155.433 7       814.118          46.250    21025195.960   110488155.438 6       814.118          38.562    21025200.860    86094683.550 6       634.378          38.687
G07  24175236.600   127041728.167 7      3463.650          44.250    24175235.860   127041728.166 4      3463.650          29.312    24175244.940    98993581.765 4      2698.948          29.312    24175245.020    98993588.784 6      2698.948          40.875
G23  24036108.820   126310594.864 7       225.050          42.187    24036107.940   126310594.882 4       225.050          29.625    24036117.160    98423830.549 4       175.364          29.500    24036118.400    98423890.549 7       175.364          45.375
R11  19909938.540   106392670.252 8        58.115          48.125    19909937.040   106392670.248 8        58.115          48.062    19909948.000    82749892.104 8        45.201          51.750    19909947.940    82749893.106 8        45.201          51.812
R07  24161744.480   129339707.205 6      5700.308          39.000    24161744.860   129339707.220 6      5700.308          38.000    24161770.920   100597663.645 7      4433.573          42.312    24161770.680   100597663.648 7      4433.573          42.500
R23  22996559.340   123016092.231 7      4568.047          42.625    22996559.900   123016092.259 6      4568.047          41.375
R21  21522337.880   115170383.811 6       120.714          41.875    21522341.000   115170383.828 6       120.714          41.500    21522350.140    89577007.680 7        93.889          45.250    21522350.420    89577009.674 7        93.889          45.250
R22  20296807.280   108345740.008 8      2359.570          49.125    20296808.200   108345740.009 8      2359.570          48.187    20296817.300    84268939.738 8      1835.221          51.437    20296816.680    84268942.733 8      1835.221          51.187
G10  22284194.520   117104232.176 7      2044.194          46.750    22284192.860   117104232.181 7      2044.194          47.250    22284202.780    91250086.649 7      1592.878          47.437    22284202.980    91250086.653 8      1592.878          49.062
G08  21314827.920   112010180.323 7      3423.204          45.000    21314827.140   112010180.315 5      3423.204          34.937    21314834.600    87280682.591 5      2667.431          34.187    21314835.700    87280688.605 8      2667.431          49.125
> 2024 05 09 12 33 22.0000000  0 15
G02  22447604.100   117962956.321 7      4286.180          46.000    22447602.040   117962956.323 6      4286.180          36.250    22447608.360    91919204.761 6      3339.881          36.312
G26  23254669.340   122204101.936 7      -698.520          44.062    23254669.020   122204101.947 6      -698.520          41.812    23254685.600    95224037.140 6      -544.301          41.562    23254686.040    95224033.131 7      -544.301          46.500
G21  20970615.060   110201326.753 7      3528.096          46.437    20970612.460   110201326.763 6      3528.096          38.187    20970618.720    85871175.081 6      2749.166          38.312
R12  20488357.860   109445128.735 7      4690.476          47.375    20488357.280   109445128.728 7      4690.476          47.750    20488368.320    85124033.488 8      3648.148          48.812    20488368.200    85124034.492 8      3648.148          49.000
G27  21152136.960   111155231.616 8      1820.438          48.125    21152135.940   111155231.626 8      1820.438          48.125    21152143.080    86614487.469 8      1418.523          48.062    21152143.320    86614492.471 8      1418.523          48.625
G16  21025042.260   110487341.625 7       813.623          46.125    21025041.020   110487341.630 6       813.623          38.562    21025046.260    86094049.410 6       633.992          38.125
G07  24174577.500   127038264.870 7      3463.068          43.062    24174576.980   127038264.869 4      3463.068          29.312    24174585.860    98990883.088 4      2698.495          29.312    24174586.380    98990890.103 6      2698.495          40.875
G23  24036066.160   126310370.216 6       224.542          41.812    24036065.240   126310370.229 4       224.542          29.625    24036074.480    98423655.491 4       174.968          29.500    24036075.780    98423715.489 7       174.968          45.375
R11  19909927.880   106392612.575 8        57.422          48.562    19909926.340   106392612.571 7        57.422          47.750    19909937.240    82749847.242 8        44.662          51.437    19909936.980    82749848.244 8        44.662          52.000
R07  24160679.240   129334006.784 6      5700.663          39.062    24160680.140   129334006.770 6      5700.663          38.000    24160706.140   100593229.966 7      4433.849          42.125    24160705.840   100593229.964 7      4433.849          42.000
R23  22995705.280   123011524.254 7      4568.029          42.625    22995706.040   123011524.269 6      4568.029          41.375
R21  21522315.080   115170263.144 7       120.679          43.062    21522318.200   115170263.164 6       120.679          41.500    21522327.700    89576913.828 7        93.861          45.562    21522327.600    89576915.828 7        93.861          45.125
R22  20296365.120   108343380.764 8      2359.199          49.000    20296366.200   108343380.767 8      2359.199          48.437    20296375.100    84267104.779 8      1834.932          51.187    20296375.020    84267107.773 8      1834.932          51.812
G10  22283805.840   117102188.372 7      2043.597          47.187    22283804.040   117102188.371 7      2043.597          47.125    22283813.820    91248494.074 7      1592.413          47.187    22283814.160    91248494.082 8      1592.413          49.125
G08  21314176.620   112006757.306 7      3423.056          44.750    21314175.660   112006757.300 5      3423.056          35.062    21314183.280    87278015.307 5      2667.316          34.562    21314184.340    87278021.317 8      2667.316          49.000
> 2024 05 09 12 33 23.0000000  0 15
G02  22446788.440   117958670.417 7      4285.558          45.562    22446786.520   117958670.422 6      4285.558          36.250    22446792.860    91915865.099 6      3339.396          36.375
G26  23254802.500   122204800.504 7      -698.842          43.500    23254802.040   122204800.514 7      -698.842          42.312    23254818.500    95224581.460 6      -544.553          41.937    23254819.120    95224577.451 7      -544.553          46.750
G21  20969943.940   110197798.919 7      3527.425          46.625    20969940.960   110197798.929 6      3527.425          38.437    20969947.400    85868426.121 6      2748.643          38.062
R12  20487479.760   109440438.561 7      4689.648          47.125    20487479.240   109440438.562 7      4689.648          47.625    20487490.420    85120385.583 8      3647.504          49.125    20487490.080    85120386.581 8      3647.504          49.250
G27  21151790.580   111153411.185 7      1820.135          47.937    21151789.460   111153411.195 7      1820.135          47.687    21151796.640    86613068.947 7      1418.287          47.500    21151796.980    86613073.951 8      1418.287          48.812
G16  21024887.580   110486528.177 7       813.105          46.562    21024886.240   110486528.179 6       813.105          39.062    21024891.580    86093415.552 6       633.589          38.437
G07  24173918.760   127034801.922 7      3462.728          43.437    24173918.100   127034801.922 4      3462.728          29.312    24173926.840    98988184.687 4      2698.229          29.312    24173927.220    98988191.698 6      2698.229          40.937
G23  24036023.000   126310145.924 7       223.846          42.187    24036022.640   126310145.936 4       223.846          29.625    24036031.840    98423480.720 4       174.425          29.500    24036033.640    98423540.719 7       174.425          45.437
R11  19909917.320   106392555.569 8        56.458          48.937    19909915.660   106392555.567 8        56.458          48.812    19909926.540    82749802.904 8        43.912          51.875    19909926.360    82749803.906 8        43.912          51.937
R07  24159614.480   129328306.144 6      5700.377          39.062    24159614.760   129328306.151 6      5700.377          38.000    24159641.500   100588796.160 7      4433.626          42.125    24159640.760   100588796.162 7      4433.626          42.187
R23  22994851.820   123006956.526 7      4567.468          42.937    22994851.960   123006956.544 6      4567.468          41.625
R21  21522292.320   115170142.391 7       120.559          43.187    21522295.660   115170142.412 6       120.559          41.750    21522305.120    89576819.901 7        93.768          45.750    21522305.180    89576821.902 7        93.768          45.500
R22  20295923.280   108341021.776 8      2358.615          48.750    20295924.460   108341021.782 8      2358.615          49.125    20295933.340    84265270.010 8      1834.478          51.125    20295932.940    84265273.009 8      1834.478          51.437
G10  22283416.920   117100145.067 7      2042.828          46.562    22283415.120   117100145.067 7      2042.828          47.625    22283425.000    91246901.888 7      1591.814          47.812    22283425.300    91246901.895 8      1591.814          49.125
G08  21313525.240   112003334.305 7      3422.766          44.625    21313524.380   112003334.296 5      3422.766          35.062    21313532.020    87275348.034 5      2667.090          34.750    21313532.980    87275354.049 8      2667.090          49.375
> 2024 05 09 12 33 24.0000000  0 15
G02  22445972.800   117954385.122 7      4285.286          45.437    22445971.080   117954385.124 6      4285.286          36.125    22445977.340    91912525.913 6      3339.184          36.375
G26  23254935.780   122205499.534 7      -699.053          42.750    23254934.980   122205499.547 7      -699.053          42.437    23254951.660    95225126.144 6      -544.717          41.750    23254952.020    95225122.141 7      -544.717          46.750
G21  20969272.620   110194271.823 7      3526.909          45.500    20969269.900   110194271.833 6      3526.909          38.187    20969276.320    85865677.737 6      2748.241          38.500
R12  20486602.000   109435749.396 8      4688.868          48.562    20486601.500   109435749.394 8      4688.868          48.125    20486612.580    85116738.452 8      3646.898          49.312    20486612.440    85116739.452 8      3646.898          49.125
G27  21151444.220   111151591.148 7      1820.085          47.125    21151443.180   111151591.151 8      1820.085          48.187    21151450.380    86611650.737 8      1418.248          48.250    21151450.700    86611655.737 8      1418.248          48.500
G16  21024732.780   110485715.470 7       812.543          46.062    21024731.580   110485715.472 6       812.543          38.812    21024736.840    86092782.270 6       633.150          38.687
G07  24173260.020   127031339.792 7      3461.957          43.062    24173259.360   127031339.789 4      3461.957          29.312    24173268.060    98985486.921 4      2697.629          29.312    24173268.540    98985493.934 6      2697.629          40.937
G23  24035980.700   126309922.311 7       223.487          42.312    24035980.060   126309922.321 4       223.487          29.437    24035989.380    98423306.472 4       174.145          29.625    24035990.880    98423366.476 7       174.145          45.437
R11  19909906.600   106392499.535 8        55.732          49.312    19909905.020   106392499.533 8        55.732          48.437    19909916.100    82749759.317 8        43.347          51.562    19909916.040    82749760.318 8        43.347          52.000
R07  24158549.560   129322605.646 6      5700.522          39.062    24158550.120   129322605.645 6      5700.522          38.000    24158576.320   100584362.430 7      4433.739          42.125    24158576.140   100584362.433 7      4433.739          42.375
R23  22993998.540   123002389.368 7      4567.060          43.437    22993998.420   123002389.386 6      4567.060          41.625
R21  21522269.680   115170021.861 7       120.623          43.187    21522273.140   115170021.889 6       120.623          41.750    21522282.780    89576726.158 7        93.818          45.750    21522282.400    89576728.158 7        93.818          45.062
R22  20295481.260   108338663.340 8      2358.372          50.000    20295482.480   108338663.341 8      2358.372          49.187    20295491.380    84263435.665 8      1834.290          51.312    20295491.080    84263438.661 8      1834.290          51.250
G10  22283028.100   117098102.563 7      2042.351          46.812    22283026.420   117098102.566 7      2042.351          47.562    22283036.220    91245310.329 7      1591.442          47.687    22283036.520    91245310.336 8      1591.442          49.375
G08  21312873.900   111999911.653 7      3422.780          44.875    21312873.020   111999911.645 5      3422.780          35.125    21312880.680    87272681.032 5      2667.101          34.750    21312881.780    87272687.044 8      2667.101          49.000
> 2024 05 09 12 33 25.0000000  0 15
G02  22445157.320   117950100.171 7      4285.007          45.562    22445155.740   117950100.176 6      4285.007          36.250    22445161.940    91909186.994 6      3338.966          36.250
G26  23255068.960   122206198.753 7      -699.104          42.812    23255067.940   122206198.763 6      -699.104          41.375    23255084.660    95225670.978 6      -544.757          41.250    23255085.020    95225666.965 7      -544.757          46.625
G21  20968601.840   110190745.158 7      3526.668          45.875    20968598.920   110190745.163 6      3526.668          38.187    20968605.220    85862929.682 6      2748.053          38.312
R12  20485723.700   109431060.933 7      4688.325          47.562    20485723.460   109431060.932 7      4688.325          47.312    20485734.920    85113091.871 8      3646.475          48.750    20485734.820    85113092.870 8      3646.475          48.875
G27  21151097.960   111149771.230 7      1820.035          47.375    21151096.800   111149771.232 7      1820.035          47.687    21151103.980    86610232.612 8      1418.209          48.000    21151104.660    86610237.614 8      1418.209          48.625
G16  21024578.400   110484903.199 7       812.187          45.687    21024576.960   110484903.199 6       812.187          38.875    21024582.300    86092149.328 6       632.873          38.875
G07  24172601.340   127027878.098 7      3461.579          44.000    24172600.680   127027878.100 4      3461.579          29.250    24172609.180    98982789.495 4      2697.334          29.437    24172609.800    98982796.512 6      2697.334          40.937
G23  24035938.100   126309699.148 7       223.049          43.000    24035937.640   126309699.158 4       223.049          29.437    24035947.080    98423132.571 4       173.804          29.625    24035948.700    98423192.570 7       173.804          45.625
R11  19909896.220   106392444.179 8        55.248          48.562    19909894.800   106392444.175 7        55.248          47.812    19909905.720    82749716.251 8        42.971          51.750    19909905.660    82749717.253 8        42.971          52.062
R07  24157484.680   129316904.989 6      5700.687          39.062    24157485.800   129316904.986 6      5700.687          38.437    24157511.800   100579928.582 7      4433.867          42.312    24157511.120   100579928.589 7      4433.867          42.312
R23  22993144.340   122997822.462 7      4566.990          43.437    22993144.500   122997822.471 7      4566.990          42.125
R21  21522247.400   115169901.304 7       120.695          42.875    21522251.080   115169901.321 6       120.695          41.687    21522260.060    89576632.380 7        93.874          45.687    21522260.360    89576634.383 7        93.874          45.875
R22  20295039.900   108336305.211 8      2358.124          49.125    20295040.880   108336305.209 8      2358.124          48.937    20295049.580    84261601.563 8      1834.097          51.500    20295049.280    84261604.565 8      1834.097          51.187
G10  22282639.540   117096060.630 7      2041.860          47.500    22282637.820   117096060.630 7      2041.860          47.375    22282647.760    91243719.208 7      1591.060          47.000    22282648.040    91243719.221 8      1591.060          48.625
G08  21312222.840   111996489.093 7      3422.669          45.250    21312221.640   111996489.087 5      3422.669          34.687    21312229.360    87270014.104 5      2667.014          34.687    21312230.380    87270020.118 8      2667.014          49.125
> 2024 05 09 12 33 26.0000000  0 15
G02  22444341.860   117945815.481 7      4284.526          45.625    22444340.460   117945815.485 6      4284.526          36.750    22444346.620    91905848.278 6      3338.592          36.187
G26  23255202.080   122206898.070 7      -699.471          42.312    23255201.020   122206898.090 6      -699.471          41.062    23255217.780    95226215.887 6      -545.042          41.125    23255218.240    95226211.885 7      -545.042          46.687
G21  20967930.540   110187218.877 7      3526.067          46.437    20967927.840   110187218.882 6      3526.067          38.875    20967934.220    85860181.933 6      2747.585          38.437
R12  20484846.700   109426373.072 7      4687.515          47.625    20484846.140   109426373.068 8      4687.515          48.000    20484857.220    85109445.758 8      3645.845          48.625    20484856.700    85109446.758 7      3645.845          47.750
