     3.05           OBSERVATION DATA    MIXED               RINEX VERSION / TYPE
TPS2RIN 1.0.29.3920 TPS-USER            20240511 193645 UTC PGM / RUN BY / DATE
Win64 build Feb 23, 2024 (c) Topcon Positioning Systems     COMMENT
SRC: 20240509_FA11.tps                                      COMMENT
OPT: -S -v 3.05                                             COMMENT
Observer            Agency                                  OBSERVER / AGENCY
O0M3X53SBGM         TPS HIPER_SR        4.8 HSR Jul,08,2022 REC # / TYPE / VERS
FW: 4.8 HSR Jul,08,2022 p3                                  COMMENT
SN: HiPer SR 1212-12575                                     COMMENT
000                 TPSHIPER_SR     NONE                    ANT # / TYPE
        1.8000        0.0000        0.0000                  ANTENNA: DELTA H/E/N
FA11                                                        MARKER NAME
  5391357.2437 -1597909.7414  3004519.5306                  APPROX POSITION XYZ
  2024     5     9    13     2   47.0000000     GPS         TIME OF FIRST OBS
  2024     5     9    13    17   47.0000000     GPS         TIME OF LAST OBS
     1.000                                                  INTERVAL
   901 EPOCHS                                               COMMENT
G   16 C1C L1C D1C S1C C1W L1W D1W S1W C2W L2W D2W S2W C2X  SYS / # / OBS TYPES
       L2X D2X S2X                                          SYS / # / OBS TYPES
R   16 C1C L1C D1C S1C C1P L1P D1P S1P C2P L2P D2P S2P C2C  SYS / # / OBS TYPES
       L2C D2C S2C                                          SYS / # / OBS TYPES
    16                                                      # OF SATELLITES
   G02   901   901   901   901   901   901   901   901   901PRN / # OF OBS
         901   901   901     0     0     0     0            PRN / # OF OBS
   G03   783   783   783   783   783   783   783   783   783PRN / # OF OBS
         783   783   783   783   783   783   783            PRN / # OF OBS
   G07   901   901   901   901   901   901   901   901   901PRN / # OF OBS
         901   901   901   901   901   901   901            PRN / # OF OBS
   G08   901   901   901   901   901   901   901   901   901PRN / # OF OBS
         901   901   901   901   901   901   901            PRN / # OF OBS
   G10   901   901   901   901   901   901   901   901   901PRN / # OF OBS
         901   901   901   901   901   901   901            PRN / # OF OBS
   G16   901   901   901   901   901   901   901   901   901PRN / # OF OBS
         901   901   901     0     0     0     0            PRN / # OF OBS
   G21   901   901   901   901   901   901   901   901   901PRN / # OF OBS
         901   901   901     0     0     0     0            PRN / # OF OBS
   G23   674   674   674   674   674   674   674   674   674PRN / # OF OBS
         674   674   674   674   674   674   674            PRN / # OF OBS
   G26   901   901   901   901   901   901   901   901   901PRN / # OF OBS
         901   901   901   901   901   901   901            PRN / # OF OBS
   G27   901   901   901   901   901   901   901   901   901PRN / # OF OBS
         901   901   901   901   901   901   901            PRN / # OF OBS
   R07   901   901   901   901   901   901   901   901   901PRN / # OF OBS
         901   901   901   901   901   901   901            PRN / # OF OBS
   R11   901   901   901   901   901   901   901   901   901PRN / # OF OBS
         901   901   901   901   901   901   901            PRN / # OF OBS
   R12   901   901   901   901   901   901   901   901   901PRN / # OF OBS
         901   901   901   901   901   901   901            PRN / # OF OBS
   R21   901   901   901   901   901   901   901   901   901PRN / # OF OBS
         901   901   901   901   901   901   901            PRN / # OF OBS
   R22   901   901   901   901   901   901   901   901   901PRN / # OF OBS
         901   901   901   901   901   901   901            PRN / # OF OBS
   R23   901   901   901   901   901   901   901   901     0PRN / # OF OBS
           0     0     0     0     0     0     0            PRN / # OF OBS
G L1C                                                       SYS / PHASE SHIFT
G L1W -0.25000                                              SYS / PHASE SHIFT
G L2W  0.00000                                              SYS / PHASE SHIFT
G L2X  0.25000                                              SYS / PHASE SHIFT
R L1C                                                       SYS / PHASE SHIFT
R L1P -0.25000                                              SYS / PHASE SHIFT
R L2P -0.25000                                              SYS / PHASE SHIFT
R L2C                                                       SYS / PHASE SHIFT
  6 R07  5 R11  0 R12 -1 R21  4 R22 -3 R23  3               GLONASS SLOT / FRQ #
                                                            GLONASS COD/PHS/BIS
    18    18  1929     7GPS                                 LEAP SECONDS
                                                            END OF HEADER
> 2024 05 09 13 02 47.0000000  0 15
G10  22377901.180   117596659.429 7       989.075          47.875    22377900.360   117596659.434 7       989.075          46.500    22377910.060    91633800.045 7       770.707          45.875    22377910.100    91633803.043 8       770.707          48.125
R07  22879785.740   122477286.717 7      5645.450          42.562    22879785.840   122477286.746 6      5645.450          40.687    22879810.680    95260224.431 7      4390.905          44.437    22879811.600    95260225.432 7      4390.905          44.375
G26  24154517.320   126932844.310 6     -1029.212          41.062    24154515.760   126932844.312 6     -1029.212          38.062    24154536.760    98908781.507 6      -801.983          37.875    24154536.760    98908785.504 7      -801.983          43.937
G27  21197836.500   111395385.846 7      1478.650          46.875    21197834.960   111395385.851 8      1478.650          49.250    21197843.780    86801622.673 8      1152.195          48.437    21197843.560    86801626.680 8      1152.195          50.062
G23  24690473.800   129749311.085 6      -501.652          37.812    24690472.360   129749311.096 4      -501.652          24.562    24690483.460   101103390.672 4      -390.898          24.812    24690483.780   101103403.665 7      -390.898          43.187
R23  22184425.820   118671725.767 7      4024.711          45.125    22184425.700   118671725.787 7      4024.711          44.062
R21  22084452.260   118178365.908 7       138.588          45.250    22084454.700   118178365.926 7       138.588          44.625    22084467.740    91916566.936 7       107.791          47.562    22084467.440    91916563.939 7       107.791          47.500
G07  23772744.560   124926602.653 6      2524.378          41.875    23772743.320   124926602.655 4      2524.378          29.875    23772752.980    97345442.091 4      1967.048          29.750    23772753.620    97345450.095 6      1967.048          41.937
G16  21498372.280   112974703.979 7       -22.120          46.750    21498370.680   112974703.989 6       -22.120          38.687    21498377.900    88032259.061 6       -17.236          38.750
G02  21729552.860   114189603.889 7      3591.425          47.250    21729551.140   114189603.894 6      3591.425          37.187    21729556.120    88978930.036 6      2798.513          37.625
G08  20811059.600   109362856.384 8      3144.305          48.187    20811058.500   109362856.378 8      3144.305          48.812    20811066.180    85217837.289 8      2450.107          48.812    20811067.040    85217841.288 8      2450.107          50.000
R11  20695049.520   110588061.186 8     -1084.982          49.437    20695048.440   110588061.188 8     -1084.982          48.687    20695062.140    86012979.226 8      -843.875          50.312    20695061.960    86012981.228 8      -843.875          51.125
G21  20535257.700   107913510.308 8      2677.087          48.187    20535256.140   107913510.312 6      2677.087          39.312    20535261.980    84088464.493 6      2086.041          39.812
R22  20209962.440   107882172.532 8      1844.249          49.500    20209962.720   107882172.530 8      1844.249          48.875    20209971.240    83908393.331 8      1434.416          50.062    20209971.520    83908393.332 8      1434.416          50.312
R12  19777495.520   105647835.439 8      3213.268          49.937    19777495.380   105647835.448 8      3213.268          50.125    19777505.720    82170578.402 8      2499.209          50.125    19777506.000    82170587.406 8      2499.209          50.437
> 2024 05 09 13 02 48.0000000  0 15
G10  22377712.700   117595670.807 7       988.472          46.562    22377712.340   117595670.817 7       988.472          46.437    22377721.760    91633029.691 7       770.238          46.250    22377721.980    91633032.694 8       770.238          48.312
R07  22878731.420   122471641.669 6      5645.020          41.500    22878731.280   122471641.686 6      5645.020          40.687    22878756.100    95255833.835 7      4390.571          44.250    22878757.000    95255834.837 7      4390.571          44.000
G26  24154712.860   126933874.008 6     -1029.589          41.062    24154711.640   126933874.013 6     -1029.589          38.000    24154732.680    98909583.867 6      -802.277          37.750    24154732.560    98909587.862 7      -802.277          43.750
G27  21197555.180   111393907.502 7      1478.426          47.937    21197553.660   111393907.510 8      1478.426          48.625    21197562.460    86800470.716 8      1152.020          48.312    21197562.180    86800474.721 8      1152.020          49.562
G23  24690569.100   129749813.312 6      -502.142          37.812    24690568.000   129749813.319 4      -502.142          24.562    24690579.060   101103782.013 4      -391.279          24.812    24690579.260   101103794.998 7      -391.279          43.000
R23  22183673.660   118667701.547 7      4024.253          45.125    22183673.380   118667701.564 7      4024.253          44.187
R21  22084426.740   118178227.609 7       138.518          45.625    22084428.820   118178227.629 7       138.518          44.625    22084441.660    91916459.366 7       107.736          47.437    22084441.640    91916456.361 7       107.736          47.500
G07  23772264.240   124924078.701 7      2523.854          42.562    23772263.000   124924078.706 4      2523.854          29.875    23772272.720    97343475.374 4      1966.640          29.812    23772273.340    97343483.388 6      1966.640          41.875
G16  21498376.280   112974726.544 7       -22.669          47.500    21498374.920   112974726.552 6       -22.669          38.625    21498382.260    88032276.634 6       -17.664          38.687
G02  21728869.420   114186012.895 7      3590.990          47.000    21728867.860   114186012.900 6      3590.990          37.687    21728872.780    88976131.857 6      2798.174          38.125
G08  20810461.400   109359712.396 8      3144.084          48.250    20810460.180   109359712.396 8      3144.084          48.687    20810467.960    85215387.433 8      2449.935          48.562    20810468.980    85215391.432 8      2449.935          49.812
R11  20695252.780   110589146.649 8     -1085.520          49.750    20695251.560   110589146.647 8     -1085.520          48.500    20695265.240    86013823.460 8      -844.293          50.062    20695265.020    86013825.460 8      -844.293          51.000
G21  20534748.400   107910833.692 8      2676.529          48.125    20534746.780   107910833.694 6      2676.529          39.625    20534752.400    84086378.821 6      2085.607          39.750
R22  20209617.060   107880328.675 8      1843.927          49.812    20209617.460   107880328.676 8      1843.927          49.000    20209625.760    83906959.239 8      1434.165          50.500    20209625.780    83906959.235 8      1434.165          50.250
R12  19776894.360   105644622.860 8      3212.249          49.812    19776893.940   105644622.869 8      3212.249          50.250    19776904.320    82168079.727 8      2498.416          50.250    19776904.600    82168088.731 8      2498.416          50.000
> 2024 05 09 13 02 49.0000000  0 15
G10  22377524.920   117594682.505 7       987.912          47.375    22377524.260   117594682.510 7       987.912          46.375    22377533.580    91632259.580 7       769.801          46.062    22377534.080    91632262.579 8       769.801          48.562
R07  22877676.620   122465996.508 6      5645.009          41.500    22877676.780   122465996.525 6      5645.009          40.812    22877701.320    95251443.163 7      4390.563          43.750    22877702.080    95251444.160 7      4390.563          43.750
G26  24154908.680   126934903.540 7     -1029.689          42.062    24154907.580   126934903.543 6     -1029.689          38.312    24154928.580    98910386.092 6      -802.355          38.250    24154928.940    98910390.091 7      -802.355          43.812
G27  21197273.900   111392429.119 8      1478.229          48.250    21197272.340   111392429.124 8      1478.229          48.687    21197281.120    86799318.727 8      1151.867          48.250    21197280.980    86799322.732 8      1151.867          50.375
G23  24690664.660   129750315.570 6      -502.434          37.750    24690663.520   129750315.585 4      -502.434          24.562    24690674.600   101104173.381 4      -391.507          24.812    24690675.140   101104186.384 7      -391.507          43.187
R23  22182921.520   118663677.324 7      4023.966          45.125    22182921.220   118663677.341 7      4023.966          44.500
R21  22084400.800   118178088.959 7       138.477          45.625    22084403.300   118178088.993 7       138.477          44.687    22084416.020    91916351.537 7       107.704          47.125    22084415.900    91916348.535 7       107.704          47.312
G07  23771783.840   124921555.031 7      2523.306          42.562    23771782.820   124921555.030 4      2523.306          29.875    23771792.520    97341508.873 4      1966.212          29.812    23771792.680    97341516.889 6      1966.212          41.875
G16  21498380.460   112974749.272 7       -23.112          47.250    21498379.220   112974749.285 6       -23.112          38.437    21498386.540    88032294.340 6       -18.010          38.187
G02  21728186.220   114182422.037 8      3590.491          48.437    21728184.600   114182422.042 6      3590.491          37.437    21728189.480    88973333.790 6      2797.785          37.375
G08  20809863.000   109356568.335 8      3143.931          48.250    20809861.840   109356568.342 8      3143.931          48.437    20809869.680    85212937.521 8      2449.816          48.375    20809870.620    85212941.524 8      2449.816          49.687
R11  20695455.720   110590232.387 8     -1086.098          50.062    20695454.880   110590232.390 8     -1086.098          48.625    20695468.260    86014667.921 8      -844.743          49.812    20695468.440    86014669.923 8      -844.743          50.000
G21  20534239.040   107908157.260 8      2676.077          48.750    20534237.500   107908157.265 6      2676.077          39.625    20534243.140    84084293.288 6      2085.255          39.562
R22  20209271.780   107878484.776 8      1843.685          49.625    20209272.040   107878484.779 8      1843.685          48.687    20209280.360    83905525.095 8      1433.978          50.000    20209280.400    83905525.091 8      1433.978          50.125
R12  19776293.080   105641410.927 8      3211.359          50.562    19776292.760   105641410.928 8      3211.359          50.000    19776302.960    82165581.553 8      2497.723          49.625    19776303.540    82165590.557 8      2497.723          49.937
> 2024 05 09 13 02 50.0000000  0 15
G10  22377337.000   117593694.903 7       987.367          47.625    22377336.240   117593694.910 7       987.367          46.750    22377345.680    91631490.025 7       769.377          45.750    22377345.980    91631493.025 8       769.377          48.125
R07  22876621.780   122460351.697 6      5644.712          41.500    22876622.340   122460351.712 6      5644.712          40.812    22876646.740    95247052.755 7      4390.331          44.187    22876647.740    95247053.750 7      4390.331          43.687
G26  24155104.600   126935933.338 6     -1029.860          41.687    24155103.600   126935933.346 6     -1029.860          37.937    24155124.460    98911188.532 6      -802.488          37.625    24155124.640    98911192.527 7      -802.488          43.875
G27  21196992.620   111390951.096 8      1477.878          48.062    21196991.140   111390951.103 8      1477.878          49.000    21196999.920    86798167.021 8      1151.594          48.500    21196999.600    86798171.024 8      1151.594          50.125
G23  24690760.180   129750818.356 6      -502.848          37.937    24690759.160   129750818.368 4      -502.848          24.562    24690770.560   101104565.160 3      -391.830          23.687    24690770.920   101104578.151 7      -391.830          43.187
R23  22182169.680   118659653.510 7      4023.776          45.062    22182168.820   118659653.517 7      4023.776          44.500
R21  22084374.900   118177950.355 7       138.637          45.875    22084377.440   118177950.383 7       138.637          45.250    22084390.300    91916243.724 7       107.829          47.750    22084390.060    91916240.721 7       107.829          47.500
G07  23771303.620   124919032.030 7      2522.671          42.625    23771302.680   124919032.033 5      2522.671          30.250    23771312.320    97339542.899 4      1965.718          29.812    23771312.640    97339550.911 6      1965.718          41.875
G16  21498385.000   112974772.589 7       -23.538          47.812    21498383.520   112974772.599 6       -23.538          38.812    21498391.080    88032312.500 6       -18.341          38.750
G02  21727502.980   114178831.679 7      3590.186          47.750    21727501.260   114178831.684 6      3590.186          37.500    21727506.240    88970536.110 6      2797.547          37.437
G08  20809264.840   109353424.615 8      3143.642          48.312    20809263.700   109353424.617 8      3143.642          48.375    20809271.460    85210487.865 8      2449.591          48.250    20809272.480    85210491.866 8      2449.591          49.937
R11  20695659.000   110591318.798 8     -1086.644          49.437    20695658.020   110591318.796 8     -1086.644          48.812    20695671.660    86015512.887 8      -845.168          50.187    20695671.800    86015514.888 8      -845.168          50.875
G21  20533729.680   107905481.410 8      2675.612          48.750    20533728.200   107905481.412 6      2675.612          39.500    20533733.760    84082208.209 6      2084.892          39.687
R22  20208926.220   107876641.263 8      1843.394          49.187    20208926.780   107876641.264 8      1843.394          48.937    20208935.120    83904091.252 8      1433.751          50.812    20208935.040    83904091.248 8      1433.751          50.625
R12  19775691.780   105638200.039 8      3210.480          50.437    19775691.640   105638200.035 8      3210.480          50.187    19775701.840    82163084.192 8      2497.040          50.375    19775702.340    82163093.196 8      2497.040          50.375
> 2024 05 09 13 02 51.0000000  0 15
G10  22377149.260   117592707.897 7       986.799          47.687    22377148.520   117592707.902 7       986.799          46.750    22377157.800    91630720.928 7       768.934          46.250    22377157.980    91630723.931 7       768.934          47.937
R07  22875566.900   122454707.061 7      5644.479          42.125    22875567.480   122454707.081 6      5644.479          40.812    22875592.300    95242662.490 7      4390.150          43.812    22875593.260    95242663.490 7      4390.150          44.312
G26  24155300.620   126936963.280 6     -1029.867          40.750    24155299.500   126936963.280 6     -1029.867          38.312    24155320.300    98911991.074 6      -802.494          38.000    24155321.020    98911995.063 7      -802.494          43.750
G27  21196711.280   111389473.282 7      1477.723          47.625    21196709.840   111389473.290 8      1477.723          49.062    21196718.640    86797015.474 8      1151.472          48.625    21196718.380    86797019.477 8      1151.472          49.812
G23  24690855.960   129751321.470 6      -503.130          37.562    24690854.800   129751321.480 4      -503.130          24.562    24690866.360   101104957.193 3      -392.050          23.687    24690866.800   101104970.182 7      -392.050          43.687
R23  22181417.560   118655630.007 7      4023.393          45.187    22181416.740   118655630.014 7      4023.393          44.437
R21  22084349.020   118177811.735 7       138.620          45.875    22084351.560   118177811.768 7       138.620          44.687    22084364.360    91916135.906 7       107.815          47.000    22084364.260    91916132.910 7       107.815          47.625
G07  23770823.460   124916509.548 7      2522.210          42.437    23770822.640   124916509.550 5      2522.210          30.250    23770832.420    97337577.324 5      1965.358          30.375    23770833.040    97337585.330 7      1965.358          42.000
G16  21498389.620   112974796.344 7       -23.955          47.000    21498388.240   112974796.354 6       -23.955          38.687    21498395.680    88032331.005 6       -18.666          38.937
G02  21726819.720   114175241.717 7      3589.812          47.687    21726818.080   114175241.722 6      3589.812          37.312    21726822.960    88967738.738 6      2797.256          37.500
G08  20808666.460   109350281.071 7      3143.453          47.937    20808665.420   109350281.076 8      3143.453          48.812    20808673.280    85208038.352 8      2449.444          48.125    20808674.400    85208042.353 8      2449.444          49.937
R11  20695862.400   110592405.727 8     -1087.172          49.312    20695861.520   110592405.731 8     -1087.172          49.062    20695875.100    86016358.272 8      -845.578          50.000    20695875.020    86016360.272 8      -845.578          50.562
G21  20533220.700   107902806.011 7      2675.256          47.562    20533219.140   107902806.010 6      2675.256          39.875    20533224.700    84080123.481 6      2084.615          39.625
R22  20208581.000   107874797.983 8      1843.184          49.187    20208581.420   107874797.986 8      1843.184          49.000    20208589.660    83902657.587 8      1433.588          50.062    20208589.900    83902657.584 8      1433.588          50.750
R12  19775090.740   105634990.067 8      3209.561          50.250    19775090.800   105634990.066 8      3209.561          49.937    19775101.100    82160587.545 8      2496.325          50.375    19775101.200    82160596.551 8      2496.325          50.125
> 2024 05 09 13 02 52.0000000  0 15
G10  22376961.580   117591721.519 8       986.069          48.000    22376960.820   117591721.524 7       986.069          46.687    22376970.180    91629952.321 7       768.365          45.875    22376970.460    91629955.321 8       768.365          48.375
R07  22874512.620   122449062.647 7      5644.321          42.125    22874513.660   122449062.662 6      5644.321          40.937    22874538.080    95238272.388 7      4390.028          44.125    22874538.460    95238273.390 7      4390.028          44.875
G26  24155496.820   126937993.409 6     -1030.138          40.937    24155495.700   126937993.409 6     -1030.138          38.000    24155516.420    98912793.770 6      -802.705          37.687    24155517.220    98912797.763 7      -802.705          43.687
G27  21196430.320   111387995.750 7      1477.394          47.812    21196428.780   111387995.758 8      1477.394          49.125    21196437.420    86795864.146 8      1151.216          48.625    21196437.080    86795868.151 8      1151.216          50.062
G23  24690951.440   129751825.010 6      -503.807          37.562    24690950.680   129751825.015 4      -503.807          24.562    24690962.040   101105349.558 3      -392.577          23.687    24690962.500   101105362.535 7      -392.577          43.562
R23  22180665.440   118651606.817 7      4023.019          45.437    22180664.820   118651606.821 7      4023.019          44.750
R21  22084323.260   118177673.184 7       138.522          46.312    22084325.480   118177673.202 7       138.522          44.687    22084338.580    91916028.132 7       107.739          47.687    22084338.160    91916025.135 7       107.739          47.812
G07  23770343.580   124913987.633 7      2521.726          42.875    23770342.880   124913987.632 5      2521.726          30.250    23770352.560    97335612.195 5      1964.981          30.375    23770353.420    97335620.186 7      1964.981          42.000
G16  21498394.240   112974820.620 7       -24.610          47.750    21498392.840   112974820.627 6       -24.610          39.000    21498400.200    88032349.913 6       -19.176          38.750
G02  21726136.620   114171652.205 7      3589.285          47.812    21726135.140   114171652.215 6      3589.285          37.625    21726139.920    88964941.717 6      2796.845          37.750
G08  20808068.380   109347137.784 8      3143.134          48.250    20808067.160   109347137.792 8      3143.134          48.875    20808075.140    85205589.038 8      2449.195          48.750    20808075.960    85205593.041 8      2449.195          49.625
R11  20696066.220   110593493.255 8     -1087.842          49.375    20696065.020   110593493.258 8     -1087.842          49.000    20696078.620    86017204.112 8      -846.099          50.312    20696078.640    86017206.112 8      -846.099          50.687
G21  20532711.740   107900131.132 7      2674.543          47.625    20532710.120   107900131.139 6      2674.543          39.562    20532715.620    84078039.168 6      2084.060          39.500
R22  20208235.540   107872955.002 8      1842.781          49.625    20208236.260   107872955.011 8      1842.781          49.062    20208244.380    83901224.168 8      1433.274          50.375    20208244.420    83901224.164 8      1433.274          50.625
R12  19774490.120   105631781.065 8      3208.481          50.250    19774489.960   105631781.066 8      3208.481          49.687    19774500.520    82158091.656 8      2495.485          50.062    19774500.680    82158100.660 8      2495.485          50.750
> 2024 05 09 13 02 53.0000000  0 15
G10  22376773.900   117590735.761 7       985.374          47.437    22376773.260   117590735.768 7       985.374          46.500    22376782.540    91629184.196 7       767.824          46.000    22376782.960    91629187.198 8       767.824          48.312
R07  22873458.380   122443418.439 7      5644.037          42.625    22873459.080   122443418.467 6      5644.037          40.937    22873483.600    95233882.465 7      4389.807          43.750    22873484.120    95233883.460 7      4389.807          44.000
G26  24155693.160   126939023.709 6     -1030.510          41.312    24155691.760   126939023.719 6     -1030.510          38.125    24155712.440    98913596.605 6      -802.995          37.937    24155713.360    98913600.598 7      -802.995          43.687
G27  21196149.160   111386518.471 7      1477.111          47.812    21196147.640   111386518.481 8      1477.111          49.375    21196156.300    86794713.019 8      1150.996          49.125    21196155.940    86794717.022 8      1150.996          48.062
G23  24691047.220   129752328.887 6      -504.155          38.000    24691046.600   129752328.894 3      -504.155          23.312    24691057.980   101105742.183 3      -392.848          23.687    24691058.200   101105755.172 7      -392.848          43.562
R23  22179913.180   118647583.934 7      4022.661          45.250    22179912.440   118647583.951 7      4022.661          44.750
R21  22084297.560   118177534.631 7       138.468          46.000    22084299.460   118177534.638 7       138.468          45.062    22084312.700    91915920.360 7       107.698          47.062    22084312.360    91915917.361 7       107.698          47.750
G07  23769863.640   124911466.322 7      2520.880          43.125    23769863.000   124911466.321 5      2520.880          30.125    23769872.820    97333647.531 5      1964.322          30.375    23769873.040    97333655.531 6      1964.322          41.687
G16  21498398.780   112974845.361 7       -25.107          47.250    21498397.400   112974845.365 6       -25.107          38.562    21498404.880    88032369.183 6       -19.564          38.687
G02  21725453.520   114168063.121 7      3588.865          47.937    21725452.120   114168063.125 6      3588.865          37.562    21725456.800    88962145.030 6      2796.518          37.562
G08  20807470.200   109343994.711 8      3142.900          48.562    20807469.060   109343994.718 8      3142.900          49.062    20807477.100    85203139.890 8      2449.013          48.250    20807477.720    85203143.893 8      2449.013          50.125
R11  20696269.800   110594581.354 8     -1088.462          49.312    20696268.660   110594581.363 8     -1088.462          48.437    20696282.420    86018050.408 8      -846.582          50.562    20696282.340    86018052.410 8      -846.582          50.625
G21  20532202.940   107897456.737 7      2674.098          46.937    20532201.200   107897456.744 6      2674.098          39.562    20532206.800    84075955.226 6      2083.713          39.437
R22  20207890.320   107871112.287 8      1842.510          49.437    20207891.020   107871112.293 8      1842.510          48.687    20207899.240    83899790.941 8      1433.063          50.187    20207899.340    83899790.938 8      1433.063          50.250
R12  19773889.600   105628573.000 8      3207.538          50.062    19773889.580   105628573.001 8      3207.538          50.125    19773899.880    82155596.494 8      2494.752          50.437    19773900.160    82155605.496 8      2494.752          50.125
> 2024 05 09 13 02 54.0000000  0 15
G10  22376586.400   117589750.689 7       984.790          47.250    22376585.720   117589750.696 7       984.790          46.187    22376595.060    91628416.610 7       767.369          45.812    22376595.500    91628419.613 8       767.369          48.250
R07  22872403.740   122437774.530 7      5643.918          42.625    22872405.420   122437774.540 6      5643.918          40.937    22872429.540    95229492.748 7      4389.714          44.125    22872429.720    95229493.746 7      4389.714          44.125
G26  24155889.180   126940054.266 6     -1030.734          41.062    24155887.800   126940054.276 6     -1030.734          38.437    24155908.520    98914399.632 6      -803.169          38.375    24155909.060    98914403.625 7      -803.169          43.312
G27  21195868.200   111385041.522 7      1476.922          46.812    21195866.600   111385041.529 8      1476.922          48.062    21195875.260    86793562.148 7      1150.848          47.750    21195874.940    86793566.155 8      1150.848          50.062
G23  24691143.300   129752833.270 6      -504.755          38.000    24691142.640   129752833.278 3      -504.755          23.312    24691153.940   101106135.203 3      -393.315          23.687    24691154.720   101106148.194 7      -393.315          42.875
R23  22179161.200   118643561.465 7      4022.347          45.375    22179160.660   118643561.480 7      4022.347          44.562
R21  22084272.060   118177396.099 7       138.584          45.750    22084273.680   118177396.122 7       138.584          44.937    22084286.980    91915812.619 7       107.788          47.250    22084286.640    91915809.618 7       107.788          47.000
G07  23769384.040   124908945.581 7      2520.654          43.250    23769383.380   124908945.578 5      2520.654          30.125    23769392.880    97331683.314 5      1964.146          30.187    23769393.160    97331691.307 6      1964.146          41.875
G16  21498403.680   112974870.645 7       -25.460          47.062    21498402.220   112974870.653 6       -25.460          38.437    21498409.600    88032388.881 6       -19.839          38.000
G02  21724770.780   114164474.533 7      3588.437          47.437    21724769.220   114164474.541 6      3588.437          37.125    21724774.020    88959348.730 6      2796.185          38.125
G08  20806872.160   109340851.942 8      3142.712          48.187    20806871.020   109340851.947 7      3142.712          47.500    20806878.900    85200690.981 7      2448.867          47.062    20806879.780    85200694.984 8      2448.867          49.937
R11  20696473.360   110595670.076 8     -1088.927          49.375    20696472.640   110595670.077 8     -1088.927          48.750    20696486.100    86018897.179 8      -846.944          48.437    20696486.180    86018899.177 8      -846.944          48.562
G21  20531694.260   107894782.898 7      2673.656          47.062    20531692.240   107894782.906 6      2673.656          39.625    20531698.060    84073871.713 6      2083.368          39.437
R22  20207545.480   107869269.914 8      1842.372          50.000    20207545.980   107869269.907 8      1842.372          49.187    20207554.000    83898357.974 8      1432.956          49.375    20207554.220    83898357.971 8      1432.956          49.187
R12  19773289.060   105625365.955 8      3206.625          50.250    19773289.360   105625365.953 8      3206.625          50.187    19773299.540    82153102.124 8      2494.041          48.000    19773299.700    82153111.126 8      2494.041          48.312
> 2024 05 09 13 02 55.0000000  0 15
G10  22376399.040   117588766.218 7       984.016          47.437    22376398.340   117588766.223 7       984.016          46.812    22376407.640    91627649.486 7       766.766          46.437    22376408.100    91627652.485 7       766.766          47.750
R07  22871349.300   122432130.844 7      5643.460          42.625    22871350.960   122432130.862 6      5643.460          41.437    22871375.160    95225103.225 7      4389.357          44.250    22871375.600    95225104.220 7      4389.357          44.500
G26  24156085.280   126941084.939 6     -1030.926          41.562    24156084.080   126941084.949 6     -1030.926          38.812    24156104.500    98915202.758 6      -803.319          38.312    24156104.900    98915206.747 7      -803.319          43.562
G27  21195587.120   111383564.823 7      1476.472          46.062    21195585.560   111383564.830 8      1476.472          49.375    21195594.320    86792411.475 8      1150.497          49.125    21195594.260    86792415.478 8      1150.497          49.750
G23  24691239.480   129753337.938 6      -504.986          38.000    24691238.860   129753337.945 3      -504.986          23.312    24691250.000   101106528.448 3      -393.496          23.687    24691250.420   101106541.450 7      -393.496          43.000
R23  22178409.160   118639539.307 7      4021.835          45.500    22178408.780   118639539.336 7      4021.835          44.375
R21  22084245.920   118177257.572 7       138.462          45.562    22084247.860   118177257.593 7       138.462          45.000    22084261.420    91915704.864 7       107.692          47.937    22084260.640    91915701.861 7       107.692          47.687
G07  23768904.340   124906425.432 7      2519.914          43.375    23768903.860   124906425.434 5      2519.914          30.125    23768913.420    97329719.561 5      1963.569          30.187    23768914.120    97329727.562 6      1963.569          41.875
G16  21498408.620   112974896.408 7       -26.069          47.437    21498407.200   112974896.416 6       -26.069          38.562    21498414.620    88032408.950 6       -20.314          38.812
G02  21724087.860   114160886.355 7      3587.930          47.125    21724086.360   114160886.360 6      3587.930          37.812    21724091.260    88956552.748 6      2795.789          38.062
G08  20806274.180   109337709.392 8      3142.337          48.125    20806273.040   109337709.394 8      3142.337          48.625    20806280.960    85198242.237 8      2448.574          48.625    20806281.740    85198246.240 8      2448.574          49.937
R11  20696677.420   110596759.365 8     -1089.722          49.250    20696676.540   110596759.361 8     -1089.722          48.562    20696689.820    86019744.387 8      -847.562          50.687    20696689.680    86019746.387 8      -847.562          50.250
G21  20531185.400   107892109.551 8      2673.005          48.312    20531183.620   107892109.556 6      2673.005          39.375    20531189.280    84071788.588 6      2082.861          39.750
R22  20207200.560   107867427.819 8      1841.883          49.625    20207200.660   107867427.815 8      1841.883          49.312    20207208.960    83896925.236 8      1432.576          50.187    20207209.240    83896925.232 8      1432.576          50.187
R12  19772688.780   105622159.853 8      3205.554          50.812    19772689.020   105622159.849 8      3205.554          49.812    19772699.240    82150608.489 8      2493.209          50.062    19772699.700    82150617.491 8      2493.209          50.250
> 2024 05 09 13 02 56.0000000  0 15
G10  22376211.980   117587782.321 8       983.500          48.187    22376211.140   117587782.323 7       983.500          46.875    22376220.260    91626882.810 7       766.364          46.187    22376220.860    91626885.812 7       766.364          47.750
R07  22870294.420   122426487.316 7      5643.307          42.687    22870296.200   122426487.341 6      5643.307          41.437    22870321.220    95220713.833 7      4389.239          44.000    22870321.560    95220714.828 7      4389.239          43.687
G26  24156281.620   126942115.777 6     -1031.046          41.687    24156280.380   126942115.782 6     -1031.046          38.375    24156300.740    98916005.994 6      -803.412          38.250    24156301.560    98916009.983 7      -803.412          43.250
G27  21195306.000   111382088.350 7      1476.189          47.875    21195304.680   111382088.354 8      1476.189          48.750    21195313.300    86791260.973 8      1150.277          48.375    21195313.220    86791264.975 8      1150.277          49.875
G23  24691335.420   129753843.017 6      -505.255          37.875    24691335.240   129753843.025 3      -505.255          23.312    24691346.060   101106922.011 3      -393.705          23.687    24691346.820   101106934.996 7      -393.705          43.187
R23  22177657.320   118635517.454 7      4021.603          45.500    22177657.020   118635517.477 7      4021.603          44.375
R21  22084219.980   118177119.022 7       138.397          45.937    22084222.020   118177119.037 7       138.397          45.000    22084235.480    91915597.096 7       107.642          47.625    22084234.860    91915594.093 7       107.642          47.375
G07  23768425.300   124903905.826 7      2519.209          42.562    23768424.320   124903905.828 5      2519.209          30.187    23768434.000    97327756.228 5      1963.020          30.187    23768434.520    97327764.231 7      1963.020          42.062
G16  21498413.620   112974922.623 7       -26.536          47.062    21498412.320   112974922.628 6       -26.536          38.625    21498419.700    88032429.367 6       -20.678          38.625
G02  21723405.220   114157298.582 7      3587.414          47.750    21723403.600   114157298.587 6      3587.414          37.812    21723408.600    88953757.080 6      2795.387          37.625
G08  20805676.300   109334567.033 7      3142.123          47.375    20805675.120   109334567.035 8      3142.123          48.000    20805682.960    85195793.647 7      2448.408          47.687    20805684.120    85195797.650 8      2448.408          49.812
R11  20696881.520   110597849.169 8     -1090.164          49.062    20696880.400   110597849.168 8     -1090.164          48.375    20696893.880    86020592.000 8      -847.906          49.437    20696894.000    86020594.004 8      -847.906          49.687
G21  20530676.660   107889436.641 7      2672.579          47.875    20530675.040   107889436.651 6      2672.579          39.750    20530680.660    84069705.802 6      2082.529          39.375
R22  20206855.600   107865585.951 8      1841.594          49.625    20206855.760   107865585.955 8      1841.594          48.875    20206863.760    83895492.676 8      1432.351          50.000    20206864.140    83895492.674 8      1432.351          49.687
R12  19772088.620   105618954.681 8      3204.623          50.500    19772089.020   105618954.671 8      3204.623          49.875    19772099.440    82148115.571 8      2492.485          49.375    19772099.820    82148124.571 8      2492.485          50.000
> 2024 05 09 13 02 57.0000000  0 15
G10  22376024.840   117586799.054 7       983.001          47.437    22376024.000   117586799.056 7       983.001          47.000    22376033.300    91626116.628 7       765.975          46.687    22376033.700    91626119.632 8       765.975          48.187
R07  22869240.680   122420844.042 7      5643.079          42.687    22869242.200   122420844.073 6      5643.079          41.437    22869266.920    95216324.632 7      4389.061          44.562    22869267.340    95216325.623 7      4389.061          44.875
G26  24156477.900   126943146.794 6     -1031.302          41.937    24156476.820   126943146.799 6     -1031.302          38.312    24156496.940    98916809.382 6      -803.612          38.250    24156497.640    98916813.381 7      -803.612          43.437
G27  21195025.080   111380612.126 7      1476.063          47.062    21195023.700   111380612.134 8      1476.063          49.375    21195032.360    86790110.669 8      1150.179          48.687    21195032.260    86790114.671 8      1150.179          49.750
G23  24691431.280   129754348.491 6      -505.712          37.812    24691431.360   129754348.494 3      -505.712          23.312    24691442.180   101107315.879 3      -394.061          23.687    24691442.660   101107328.866 7      -394.061          43.437
R23  22176905.300   118631495.946 7      4021.265          45.500    22176904.800   118631495.972 7      4021.265          44.375
R21  22084194.340   118176980.460 7       138.611          45.937    22084195.580   118176980.467 7       138.611          45.125    22084209.680    91915489.315 8       107.808          48.125    22084209.040    91915486.313 8       107.808          48.062
G07  23767946.140   124901386.764 7      2518.725          42.687    23767945.040   124901386.761 5      2518.725          30.187    23767954.540    97325793.318 5      1962.643          30.187    23767955.220    97325801.320 6      1962.643          41.875
G16  21498418.680   112974949.310 8       -26.872          48.187    21498417.320   112974949.321 6       -26.872          38.562    21498424.720    88032450.159 6       -20.939          38.687
G02  21722722.540   114153711.225 7      3587.075          47.375    21722720.900   114153711.232 6      3587.075          37.750    21722726.060    88950961.739 6      2795.123          37.750
G08  20805078.320   109331424.913 7      3141.948          47.812    20805077.120   109331424.918 8      3141.948          48.687    20805085.060    85193345.242 8      2448.271          48.500    20805086.120    85193349.247 8      2448.271          50.562
R11  20697085.220   110598939.566 8     -1090.698          49.625    20697084.300   110598939.573 8     -1090.698          48.625    20697097.880    86021440.076 8      -848.320          50.687    20697097.840    86021442.076 8      -848.320          50.437
G21  20530168.060   107886764.234 7      2672.211          47.937    20530166.420   107886764.242 6      2672.211          39.250    20530172.040    84067623.410 6      2082.242          39.312
R22  20206510.300   107863744.366 8      1841.470          49.687    20206510.760   107863744.366 8      1841.470          49.437    20206518.800    83894060.327 8      1432.254          50.687    20206519.040    83894060.322 8      1432.254          50.250
R12  19771489.140   105615750.472 8      3203.699          50.187    19771489.220   105615750.465 8      3203.699          50.187    19771499.740    82145623.411 8      2491.766          50.062    19771499.760    82145632.415 8      2491.766          50.375
> 2024 05 09 13 02 58.0000000  0 15
G10  22375837.920   117585816.336 7       982.538          47.250    22375837.000   117585816.338 7       982.538          46.437    22375846.380    91625350.874 7       765.614          45.812    22375846.480    91625353.876 7       765.614          47.500
R07  22868187.140   122415200.899 7      5643.218          42.500    22868188.280   122415200.930 6      5643.218          41.062    22868212.820    95211935.521 7      4389.170          44.875    22868213.400    95211936.512 7      4389.170          44.687
G26  24156674.040   126944177.874 6     -1031.041          41.250    24156673.000   126944177.876 6     -1031.041          38.500    24156693.200    98917612.815 6      -803.409          37.812    24156693.960    98917616.814 7      -803.409          43.687
G27  21194744.240   111379136.081 7      1476.109          47.437    21194742.820   111379136.089 8      1476.109          49.062    21194751.500    86788960.502 8      1150.215          48.500    21194751.580    86788964.502 8      1150.215          49.875
G23  24691527.920   129754854.252 6      -505.979          37.625    24691527.480   129754854.257 3      -505.979          23.312    24691538.500   101107709.978 3      -394.270          23.062    24691538.660   101107722.971 7      -394.270          43.187
R23  22176153.420   118627474.687 7      4021.266          45.125    22176153.400   118627474.705 7      4021.266          44.312
R21  22084168.580   118176841.838 7       138.704          45.937    22084169.640   118176841.850 7       138.704          45.000    22084183.900    91915381.496 8       107.881          48.312    22084182.820    91915378.501 8       107.881          48.312
G07  23767467.040   124898868.207 7      2518.288          43.437    23767465.820   124898868.204 5      2518.288          30.187    23767475.320    97323830.806 4      1962.303          29.937    23767476.220    97323838.808 6      1962.303          41.875
G16  21498423.920   112974976.426 8       -27.255          48.312    21498422.340   112974976.434 6       -27.255          39.125    21498430.020    88032471.282 6       -21.238          38.625
G02  21722040.100   114150124.214 7      3586.931          47.125    21722038.420   114150124.218 6      3586.931          37.187    21722043.200    88948166.665 6      2795.011          37.437
G08  20804480.500   109328282.933 7      3141.975          47.687    20804479.260   109328282.943 8      3141.975          48.625    20804487.180    85190896.950 8      2448.293          48.062    20804488.380    85190900.957 8      2448.293          50.500
R11  20697289.280   110600030.461 8     -1091.036          49.437    20697288.480   110600030.462 8     -1091.036          49.062    20697302.120    86022288.539 8      -848.584          50.500    20697301.940    86022290.539 8      -848.584          50.937
G21  20529659.660   107884092.262 7      2671.815          47.125    20529657.880   107884092.272 6      2671.815          39.687    20529663.560    84065541.355 6      2081.933          39.562
R22  20206165.520   107861902.975 8      1841.416          49.375    20206165.760   107861902.973 8      1841.416          49.125    20206173.940    83892628.135 8      1432.212          50.375    20206174.180    83892628.133 8      1432.212          50.312
R12  19770889.360   105612547.124 8      3203.002          50.375    19770889.780   105612547.120 8      3203.002          50.500    19770900.020    82143131.922 8      2491.224          49.937    19770900.020    82143140.920 8      2491.224          51.000
> 2024 05 09 13 02 59.0000000  0 15
G10  22375651.080   117584834.369 7       981.433          47.125    22375649.920   117584834.379 7       981.433          46.562    22375659.540    91624585.709 7       764.753          46.187    22375659.900    91624588.707 8       764.753          48.187
R07  22867133.040   122409558.120 7      5642.541          42.500    22867134.080   122409558.156 6      5642.541          41.062    22867159.000    95207546.705 7      4388.643          44.500    22867159.220    95207547.703 7      4388.643          44.562
G26  24156870.340   126945209.282 7     -1031.673          42.062    24156869.300   126945209.290 6     -1031.673          38.625    24156889.480    98918416.510 6      -803.901          38.250    24156890.440    98918420.513 7      -803.901          43.687
G27  21194463.420   111377660.467 7      1475.231          47.500    21194461.940   111377660.475 8      1475.231          49.000    21194470.700    86787810.671 8      1149.531          48.250    21194470.520    86787814.675 8      1149.531          49.937
G23  24691624.160   129755360.506 6      -506.567          37.625    24691623.860   129755360.511 3      -506.567          23.312    24691634.920   101108104.455 3      -394.727          23.062    24691635.200   101108117.453 7      -394.727          43.187
R23  22175401.860   118623453.909 7      4020.476          45.312    22175401.940   118623453.927 7      4020.476          44.500
R21  22084142.680   118176703.370 7       138.221          46.125    22084143.740   118176703.385 7       138.221          44.875    22084158.140    91915273.798 7       107.505          47.875    22084157.020    91915270.798 8       107.505          48.062
G07  23766987.680   124896350.323 7      2517.557          43.500    23766986.880   124896350.322 5      2517.557          30.187    23766996.300    97321868.816 4      1961.733          29.937    23766997.120    97321876.818 7      1961.733          42.187
G16  21498429.100   112975004.157 7       -28.202          47.687    21498427.780   112975004.165 6       -28.202          39.187    21498435.200    88032492.884 6       -21.976          39.000
G02  21721357.360   114146537.789 8      3585.993          48.437    21721355.840   114146537.796 6      3585.993          37.750    21721360.680    88945372.050 6      2794.280          37.750
G08  20803882.620   109325141.344 7      3141.274          46.875    20803881.400   109325141.346 8      3141.274          49.312    20803889.360    85188448.955 8      2447.746          48.625    20803890.580    85188452.960 8      2447.746          50.062
R11  20697493.760   110601122.079 8     -1092.182          49.750    20697492.740   110601122.083 8     -1092.182          49.375    20697506.360    86023137.563 8      -849.475          50.750    20697506.400    86023139.565 8      -849.475          50.187
G21  20529151.360   107881420.909 7      2670.895          46.937    20529149.540   107881420.914 6      2670.895          40.250    20529154.980    84063459.778 6      2081.217          39.437
R22  20205820.820   107860062.025 8      1840.593          49.625    20205820.860   107860062.031 8      1840.593          49.062    20205829.100    83891196.289 8      1431.572          50.375    20205829.160    83891196.287 8      1431.572          50.437
R12  19770290.100   105609344.852 8      3201.578          50.812    19770290.440   105609344.856 8      3201.578          50.125    19770300.720    82140641.268 8      2490.117          50.062    19770300.640    82140650.270 8      2490.117          50.562
> 2024 05 09 13 03  0.0000000  0 15
G10  22375464.500   117583853.333 7       980.940          46.562    22375463.320   117583853.340 7       980.940          46.437    22375472.740    91623821.265 7       764.369          46.187    22375473.100    91623824.267 7       764.369          47.625
R07  22866078.880   122403915.906 7      5642.325          42.500    22866079.840   122403915.950 6      5642.325          41.062    22866104.840    95203158.325 7      4388.475          44.875    22866105.020    95203159.322 7      4388.475          44.500
G26  24157066.660   126946241.198 7     -1031.730          42.375    24157065.500   126946241.203 6     -1031.730          38.437    24157085.900    98919220.596 6      -803.945          37.937    24157086.180    98919224.584 7      -803.945          43.375
G27  21194182.840   111376185.400 7      1475.161          47.250    21194181.240   111376185.410 8      1475.161          49.125    21194190.020    86786661.267 8      1149.476          48.812    21194190.040    86786665.266 8      1149.476          50.062
G23  24691720.540   129755867.509 6      -507.087          37.750    24691720.220   129755867.517 3      -507.087          23.312    24691731.440   101108499.527 3      -395.132          23.062    24691731.700   101108512.528 7      -395.132          43.375
R23  22174650.400   118619433.803 7      4020.123          45.375    22174650.200   118619433.823 7      4020.123          44.500
R21  22084116.880   118176565.215 7       138.278          45.875    22084117.820   118176565.235 7       138.278          44.937    22084132.220    91915166.343 7       107.550          47.875    22084131.240    91915163.344 8       107.550          48.125
G07  23766508.720   124893833.373 7      2516.913          43.687    23766508.040   124893833.373 5      2516.913          30.187    23766517.300    97319907.553 4      1961.231          29.937    23766518.140    97319915.551 6      1961.231          41.937
G16  21498434.820   112975032.687 7       -28.622          47.312    21498433.200   112975032.700 6       -28.622          38.687    21498440.680    88032515.109 6       -22.303          38.625
G02  21720675.120   114142952.102 7      3585.656          47.250    21720673.540   114142952.104 6      3585.656          37.875    21720678.360    88942578.007 6      2794.018          37.812
G08  20803284.880   109322000.280 7      3141.197          47.750    20803283.660   109322000.283 8      3141.197          49.187    20803291.680    85186001.371 8      2447.686          48.875    20803292.940    85186005.376 8      2447.686          49.937
R11  20697698.220   110602214.590 8     -1092.633          49.625    20697697.260   110602214.594 8     -1092.633          48.875    20697710.660    86023987.280 8      -849.825          50.312    20697710.800    86023989.279 8      -849.825          50.437
G21  20528643.360   107878750.358 7      2670.517          47.187    20528641.380   107878750.365 6      2670.517          39.562    20528646.840    84061378.833 6      2080.922          39.750
R22  20205475.820   107858221.662 8      1840.406          49.250    20205475.900   107858221.663 8      1840.406          49.062    20205484.420    83889764.891 8      1431.427          50.250    20205484.480    83889764.890 8      1431.427          50.437
R12  19769690.700   105606143.865 8      3200.650          51.000    19769690.940   105606143.866 8      3200.650          49.937    19769701.500    82138151.610 8      2489.394          50.687    19769701.120    82138160.610 8      2489.394          50.625
> 2024 05 09 13 03  1.0000000  0 15
G10  22375277.880   117582872.607 7       980.418          46.437    22375276.580   117582872.609 7       980.418          46.312    22375286.200    91623057.057 7       763.962          45.562    22375286.480    91623060.059 7       763.962          47.812
R07  22865024.780   122398273.609 7      5642.100          42.375    22865026.180   122398273.650 6      5642.100          41.562    22865050.980    95198769.876 7      4388.300          44.437    22865051.100    95198770.873 7      4388.300          44.375
G26  24157262.980   126947272.974 6     -1032.022          41.937    24157261.820   126947272.979 6     -1032.022          38.125    24157282.180    98920024.573 6      -804.173          37.875    24157282.680    98920028.572 7      -804.173          43.750
G27  21193902.240   111374710.301 7      1474.925          47.000    21193900.620   111374710.303 8      1474.925          49.000    21193909.200    86785511.833 8      1149.292          48.250    21193909.080    86785515.834 8      1149.292          49.937
G23  24691817.180   129756374.570 6      -507.316          37.875    24691816.740   129756374.578 3      -507.316          23.250    24691827.820   101108894.633 3      -395.311          23.062    24691828.380   101108907.618 7      -395.311          43.250
R23  22173899.160   118615413.699 7      4019.939          45.125    22173898.640   118615413.708 7      4019.939          44.375
R21  22084090.640   118176426.737 7       138.359          45.500    22084091.860   118176426.757 7       138.359          44.937    22084106.440    91915058.629 7       107.612          47.562    22084105.540    91915055.628 8       107.612          48.062
G07  23766029.740   124891316.627 7      2516.527          43.312    23766029.200   124891316.626 5      2516.527          30.187    23766038.660    97317946.446 5      1960.930          30.187    23766039.140    97317954.459 6      1960.930          41.937
G16  21498440.200   112975061.382 7       -29.025          47.625    21498438.720   112975061.392 6       -29.025          38.437    21498446.220    88032537.462 6       -22.617          38.500
G02  21719992.600   114139366.523 7      3585.337          47.500    21719991.180   114139366.530 6      3585.337          37.562    21719996.120    88939784.049 6      2793.769          37.562
G08  20802687.160   109318859.133 7      3141.049          47.375    20802686.000   109318859.138 8      3141.049          48.750    20802694.000    85183553.727 8      2447.571          48.312    20802695.020    85183557.730 8      2447.571          49.750
R11  20697902.640   110603307.323 8     -1093.058          49.500    20697901.880   110603307.324 8     -1093.058          49.250    20697915.320    86024837.170 8      -850.156          50.375    20697915.300    86024839.172 8      -850.156          50.250
G21  20528135.140   107876079.988 7      2670.109          47.187    20528133.300   107876079.995 6      2670.109          39.625    20528138.720    84059298.027 6      2080.605          39.437
R22  20205131.060   107856381.262 8      1840.218          49.437    20205131.080   107856381.262 8      1840.218          49.625    20205139.640    83888333.464 8      1431.281          50.312    20205139.960    83888333.463 8      1431.281          50.125
R12  19769091.720   105602943.514 8      3199.880          50.500    19769092.020   105602943.509 8      3199.880          50.500    19769102.340    82135662.443 8      2488.795          50.437    19769102.280    82135671.445 8      2488.795          50.875
> 2024 05 09 13 03  2.0000000  0 15
G10  22375091.520   117581892.516 7       979.796          46.812    22375090.060   117581892.524 7       979.796          46.500    22375099.680    91622293.354 7       763.477          46.062    22375100.140    91622296.356 7       763.477          47.687
R07  22863970.920   122392631.579 7      5641.860          42.375    22863972.460   122392631.616 6      5641.860          41.562    22863996.820    95194381.637 7      4388.113          45.125    22863996.820    95194382.632 7      4388.113          44.500
G26  24157458.940   126948304.927 6     -1032.080          41.062    24157458.040   126948304.931 6     -1032.080          38.125    24157478.540    98920828.688 6      -804.218          37.937    24157479.180    98920832.685 7      -804.218          43.437
