     3.05           OBSERVATION DATA    MIXED               RINEX VERSION / TYPE
TPS2RIN 1.0.29.3920 TPS-USER            20240511 194009 UTC PGM / RUN BY / DATE
Win64 build Feb 23, 2024 (c) Topcon Positioning Systems     COMMENT
SRC: 20240509_FA12.tps                                      COMMENT
OPT: -S -v 3.05                                             COMMENT
Observer            Agency                                  OBSERVER / AGENCY
O0M3X53SBGM         TPS HIPER_SR        4.8 HSR Jul,08,2022 REC # / TYPE / VERS
FW: 4.8 HSR Jul,08,2022 p3                                  COMMENT
SN: HiPer SR 1212-12575                                     COMMENT
000                 TPSHIPER_SR     NONE                    ANT # / TYPE
        1.8000        0.0000        0.0000                  ANTENNA: DELTA H/E/N
FA12                                                        MARKER NAME
  5391795.4858 -1596703.8766  3003606.5411                  APPROX POSITION XYZ
  2024     5     9    13    37   53.0000000     GPS         TIME OF FIRST OBS
  2024     5     9    13    52   53.0000000     GPS         TIME OF LAST OBS
     1.000                                                  INTERVAL
   901 EPOCHS                                               COMMENT
G   16 C1C L1C D1C S1C C1W L1W D1W S1W C2W L2W D2W S2W C2X  SYS / # / OBS TYPES
       L2X D2X S2X                                          SYS / # / OBS TYPES
R   16 C1C L1C D1C S1C C1P L1P D1P S1P C2P L2P D2P S2P C2C  SYS / # / OBS TYPES
       L2C D2C S2C                                          SYS / # / OBS TYPES
    15                                                      # OF SATELLITES
   G02   901   901   901   901   901   901   901   901   901PRN / # OF OBS
         901   901   901     0     0     0     0            PRN / # OF OBS
   G03   901   901   901   901   901   901   901   901   901PRN / # OF OBS
         901   901   901   901   901   901   901            PRN / # OF OBS
   G08   901   901   901   901   901   901   901   901   901PRN / # OF OBS
         901   901   901   901   901   901   901            PRN / # OF OBS
   G10   901   901   901   901   901   901   901   901   901PRN / # OF OBS
         901   901   901   901   901   901   901            PRN / # OF OBS
   G16   901   901   901   901   901   901   901   901   901PRN / # OF OBS
         901   901   901     0     0     0     0            PRN / # OF OBS
   G21   901   901   901   901   901   901   901   901   901PRN / # OF OBS
         901   901   901     0     0     0     0            PRN / # OF OBS
   G27   901   901   901   901   901   901   901   901   901PRN / # OF OBS
         901   901   901   901   901   901   901            PRN / # OF OBS
   G32   901   901   901   901   901   901   901   901   901PRN / # OF OBS
         901   901   901   901   901   901   901            PRN / # OF OBS
   R07   901   901   901   901   901   901   901   901   901PRN / # OF OBS
         901   901   901   901   901   901   901            PRN / # OF OBS
   R08   901   901   901   901   901   901   901   901   901PRN / # OF OBS
         901   901   901   901   901   901   901            PRN / # OF OBS
   R11   901   901   901   901   901   901   901   901   901PRN / # OF OBS
         901   901   901   901   901   901   901            PRN / # OF OBS
   R12   901   901   901   901   901   901   901   901   901PRN / # OF OBS
         901   901   901   901   901   901   901            PRN / # OF OBS
   R21   901   901   901   901   901   901   901   901   901PRN / # OF OBS
         901   901   901   901   901   901   901            PRN / # OF OBS
   R22   901   901   901   901   901   901   901   901   901PRN / # OF OBS
         901   901   901   901   901   901   901            PRN / # OF OBS
   R23   687   687   687   687   683   683   683   683     0PRN / # OF OBS
           0     0     0     0     0     0     0            PRN / # OF OBS
G L1C                                                       SYS / PHASE SHIFT
G L1W -0.25000                                              SYS / PHASE SHIFT
G L2W  0.00000                                              SYS / PHASE SHIFT
G L2X  0.25000                                              SYS / PHASE SHIFT
R L1C                                                       SYS / PHASE SHIFT
R L1P -0.25000                                              SYS / PHASE SHIFT
R L2P -0.25000                                              SYS / PHASE SHIFT
R L2C                                                       SYS / PHASE SHIFT
  7 R07  5 R08  6 R11  0 R12 -1 R21  4 R22 -3 R23  3        GLONASS SLOT / FRQ #
                                                            GLONASS COD/PHS/BIS
    18    18  1929     7GPS                                 LEAP SECONDS
                                                            END OF HEADER
> 2024 05 09 13 37 53.0000000  0 15
G02  21633776.900   113686264.382 7      2901.325          45.875    21633775.020   113686264.390 6      2901.325          38.750    21633779.320    88586715.822 6      2260.773          38.750
R08  23669906.620   126751281.451 6      6268.325          39.250    23669905.080   126751281.450 6      6268.325          39.125    23669929.700    98584430.541 7      4875.364          42.187    23669929.540    98584427.552 6      4875.364          41.562
G21  20824846.740   109435307.631 7      1911.040          46.062    20824844.440   109435307.636 6      1911.040          40.250    20824850.060    85274278.092 6      1489.122          40.562
G32  25413838.480   133550630.015 6      3678.926          41.375    25413837.180   133550630.017 5      3678.926          33.937    25413858.960   104065517.587 5      2866.695          33.937    25413859.380   104065526.585 6      2866.695          39.625
R07  21969946.000   117606856.570 7      4942.593          44.250    21969947.300   117606856.598 7      4942.593          42.312    21969966.860    91472094.140 7      3844.239          46.750    21969967.540    91472098.142 7      3844.239          46.312
G08  20829159.120   109457967.996 7      2723.228          47.500    20829157.940   109457968.001 7      2723.228          47.500    20829165.860    85291949.272 8      2121.996          48.250    20829167.000    85291956.276 8      2121.996          49.875
R22  20750682.200   110768548.709 7      1539.040          45.750    20750681.200   110768548.712 7      1539.040          46.875    20750691.560    86153356.399 8      1197.031          49.875    20750691.860    86153357.399 8      1197.031          50.062
R12  20082227.780   107275648.378 8      1336.260          48.750    20082227.080   107275648.374 8      1336.260          49.125    20082239.740    83436667.548 8      1039.313          50.312    20082239.920    83436664.545 8      1039.313          50.812
R23  21896345.340   117130688.179 6      3568.917          41.625    21896346.540   117130688.199 6      3568.917          41.000
G16  22863402.260   120147975.425 7      -762.559          44.812    22863401.780   120147975.425 5      -762.559          33.625    22863413.740    93621833.868 5      -594.202          33.437
R11  22484448.880   120150083.982 7     -1797.809          44.812    22484449.600   120150083.980 7     -1797.809          44.625    22484466.740    93450133.349 7     -1398.296          45.437    22484467.580    93450136.355 7     -1398.296          44.562
G27  21891461.880   115040403.501 7      1023.688          45.437    21891460.460   115040403.509 7      1023.688          45.687    21891470.400    89641905.637 7       797.679          46.250    21891470.740    89641908.641 8       797.679          48.687
G10  23395825.900   122945901.406 7       -37.848          44.937    23395825.840   122945901.411 7       -37.848          42.750    23395835.560    95802035.388 7       -29.492          42.812    23395835.700    95802032.394 7       -29.492          46.125
R21  23195271.480   124122582.602 7       315.492          42.375    23195270.640   124122582.622 6       315.492          40.562    23195287.380    96539846.391 7       245.383          46.437    23195288.000    96539847.396 7       245.383          45.750
G03  23820454.100   125177330.871 6      6225.165          40.875    23820452.780   125177330.868 4      6225.165          29.312    23820471.980    97540831.952 4      4850.778          29.250    23820473.120    97540854.957 7      4850.778          46.062
> 2024 05 09 13 37 54.0000000  0 15
G02  21633224.760   113683363.482 8      2900.504          48.125    21633222.980   113683363.492 6      2900.504          39.000    21633227.400    88584455.382 6      2260.133          38.187
R08  23668735.640   126745013.409 6      6267.785          39.250    23668734.780   126745013.422 6      6267.785          39.125    23668759.040    98579555.410 6      4874.944          41.750    23668759.080    98579552.420 6      4874.944          41.562
G21  20824483.280   109433396.864 7      1910.327          47.812    20824480.860   109433396.869 6      1910.327          40.250    20824486.240    85272789.186 6      1488.566          40.437
G32  25413138.100   133546951.613 6      3678.034          41.312    25413137.340   133546951.615 5      3678.034          33.625    25413159.100   104062651.314 5      2866.000          33.687    25413159.360   104062660.307 6      2866.000          39.625
R07  21969022.620   117601914.380 7      4941.681          42.000    21969024.460   117601914.401 7      4941.681          42.312    21969043.380    91468250.222 7      3843.530          46.937    21969044.280    91468254.223 7      3843.530          46.187
G08  20828640.920   109455245.170 8      2722.434          49.187    20828639.800   109455245.173 8      2722.434          48.500    20828647.720    85289827.587 8      2121.377          48.812    20828648.440    85289834.587 8      2121.377          50.250
R22  20750393.720   110767009.957 8      1538.500          48.375    20750392.920   110767009.966 7      1538.500          47.562    20750403.440    86152159.597 8      1196.611          50.187    20750403.380    86152160.598 8      1196.611          50.625
R12  20081977.680   107274312.840 8      1334.920          50.312    20081977.060   107274312.838 8      1334.920          49.375    20081989.920    83435628.795 8      1038.271          50.312    20081989.740    83435625.794 8      1038.271          51.000
R23  21895678.100   117127119.403 6      3568.350          41.625    21895679.680   117127119.426 6      3568.350          41.000
G16  22863547.520   120148738.349 7      -763.306          45.375    22863546.980   120148738.351 5      -763.306          33.312    22863558.880    93622428.343 5      -594.784          33.500
R11  22484784.980   120151882.160 7     -1798.477          46.562    22484786.040   120151882.161 7     -1798.477          45.187    22484803.520    93451531.930 7     -1398.815          45.500    22484803.820    93451534.929 7     -1398.815          45.562
G27  21891267.240   115039380.149 7      1022.965          45.937    21891265.700   115039380.162 7      1022.965          46.625    21891275.740    89641108.222 7       797.115          46.937    21891276.060    89641111.230 8       797.115          48.687
G10  23395833.540   122945939.757 7       -38.722          45.562    23395833.300   122945939.762 7       -38.722          42.562    23395842.960    95802065.272 7       -30.173          42.687    23395842.840    95802062.281 7       -30.173          45.937
R21  23195212.760   124122267.346 6       315.089          39.500    23195211.000   124122267.361 6       315.089          40.562    23195228.640    96539601.188 7       245.069          46.437    23195229.020    96539602.193 7       245.069          46.062
G03  23819269.780   125171106.129 6      6224.501          41.312    23819268.240   125171106.131 4      6224.501          29.312    23819287.400    97535981.509 4      4850.261          29.250    23819288.540    97536004.519 7      4850.261          46.312
> 2024 05 09 13 37 55.0000000  0 15
G02  21632673.040   113680463.070 7      2900.307          47.062    21632670.960   113680463.075 6      2900.307          38.937    21632675.480    88582195.319 6      2259.980          38.750
R08  23667565.680   126738745.489 6      6268.018          39.250    23667563.560   126738745.490 6      6268.018          37.625    23667588.520    98574680.363 6      4875.125          41.625    23667588.340    98574677.376 6      4875.125          41.562
G21  20824119.540   109431486.622 7      1909.973          47.375    20824117.520   109431486.629 6      1909.973          40.625    20824122.700    85271300.684 6      1488.291          40.687
G32  25412438.260   133543273.674 6      3677.756          41.187    25412437.380   133543273.674 5      3677.756          33.625    25412459.180   104059785.400 5      2865.784          33.687    25412459.640   104059794.403 6      2865.784          39.625
R07  21968099.780   117596972.956 7      4941.191          45.000    21968101.120   117596972.971 7      4941.191          42.312    21968120.300    91464406.904 7      3843.148          47.125    21968120.960    91464410.908 7      3843.148          46.687
G08  20828122.880   109452522.794 8      2722.219          48.125    20828121.760   109452522.796 7      2722.219          47.562    20828129.700    85287706.253 8      2121.210          48.125    20828130.560    85287713.255 8      2121.210          50.250
R22  20750105.420   110765471.526 7      1538.375          47.875    20750104.540   110765471.530 8      1538.375          48.125    20750115.200    86150963.035 8      1196.514          50.437    20750115.160    86150964.036 8      1196.514          50.437
R12  20081728.120   107272978.378 8      1334.007          51.500    20081727.340   107272978.374 8      1334.007          49.500    20081740.020    83434590.876 8      1037.561          50.625    20081739.900    83434587.877 8      1037.561          50.625
R23  21895010.880   117123551.007 7      3568.270          42.187    21895012.720   117123551.027 6      3568.270          41.437
G16  22863692.740   120149501.777 7      -763.675          44.562    22863692.420   120149501.782 5      -763.675          33.312    22863704.200    93623023.212 5      -595.072          33.500
R11  22485122.000   120153680.730 7     -1798.649          45.625    22485122.880   120153680.723 7     -1798.649          45.562    22485140.100    93452930.818 7     -1398.949          45.500    22485140.460    93452933.820 7     -1398.949          45.250
G27  21891072.380   115038357.262 7      1022.692          45.812    21891071.000   115038357.274 7      1022.692          47.062    21891081.180    89640311.167 7       796.903          47.000    21891081.620    89640314.169 8       796.903          48.750
G10  23395840.760   122945978.749 7       -39.187          45.687    23395840.800   122945978.757 7       -39.187          43.875    23395850.480    95802095.655 7       -30.535          43.375    23395850.240    95802092.664 7       -30.535          46.375
R21  23195153.940   124121952.291 6       314.983          39.500    23195151.680   124121952.301 6       314.983          40.437    23195169.720    96539356.137 7       244.986          46.312    23195170.260    96539357.136 7       244.986          46.312
G03  23818085.060   125164881.729 6      6224.266          41.625    23818083.780   125164881.728 4      6224.266          29.312    23818102.940    97531131.329 4      4850.078          29.250    23818104.000    97531154.334 7      4850.078          46.312
> 2024 05 09 13 37 56.0000000  0 15
G02  21632121.100   113677563.113 7      2899.759          47.812    21632119.100   113677563.123 6      2899.759          38.812    21632123.480    88579935.620 6      2259.553          39.000
R08  23666395.180   126732477.629 6      6267.919          38.312    23666394.340   126732477.642 6      6267.919          37.625    23666418.120    98569805.367 6      4875.048          41.750    23666417.740    98569802.379 6      4875.048          40.812
G21  20823756.180   109429576.826 7      1909.502          47.750    20823754.060   109429576.836 6      1909.502          40.562    20823759.280    85269812.536 6      1487.924          40.625
G32  25411738.540   133539596.153 7      3677.305          42.812    25411737.500   133539596.148 5      3677.305          33.750    25411759.340   104056919.808 5      2865.432          33.937    25411760.040   104056928.808 6      2865.432          39.812
R07  21967176.680   117592032.207 7      4940.422          44.500    21967178.180   117592032.225 7      4940.422          43.062    21967197.360    91460564.120 7      3842.550          46.500    21967198.020    91460568.124 7      3842.550          46.750
G08  20827605.080   109449800.817 8      2721.753          49.062    20827603.900   109449800.824 8      2721.753          48.750    20827611.600    85285585.238 8      2120.846          49.125    20827612.660    85285592.240 8      2120.846          50.000
R22  20749817.320   110763933.351 7      1538.067          47.625    20749816.640   110763933.355 7      1538.067          47.875    20749827.020    86149766.675 8      1196.275          49.812    20749827.000    86149767.674 8      1196.275          50.562
R12  20081478.580   107271644.924 8      1332.926          48.437    20081477.700   107271644.917 8      1332.926          50.062    20081490.420    83433553.736 8      1036.720          50.187    20081490.360    83433550.735 8      1036.720          51.375
R23  21894343.660   117119982.926 7      3568.018          43.062    21894345.880   117119982.946 6      3568.018          41.437
G16  22863838.100   120150265.641 7      -764.083          45.062    22863837.620   120150265.643 5      -764.083          33.500    22863849.400    93623618.416 5      -595.389          33.562
R11  22485458.720   120155479.632 7     -1799.047          46.500    22485459.700   120155479.626 7     -1799.047          45.687    22485476.860    93454329.956 7     -1399.258          45.500    22485477.220    93454332.956 7     -1399.258          45.312
G27  21890877.800   115037334.766 7      1022.287          46.937    21890876.580   115037334.776 7      1022.287          47.000    21890886.680    89639514.411 7       796.587          46.875    21890886.780    89639517.416 8       796.587          48.937
G10  23395848.380   122946018.314 7       -39.820          46.000    23395848.620   122946018.317 7       -39.820          43.187    23395857.920    95802126.483 7       -31.029          43.500    23395857.740    95802123.488 7       -31.029          46.125
R21  23195094.860   124121637.357 6       314.705          39.500    23195092.340   124121637.369 6       314.705          40.437    23195110.800    96539111.180 7       244.771          46.437    23195111.040    96539112.185 7       244.771          45.875
G03  23816900.740   125158657.580 6      6223.942          41.812    23816899.360   125158657.577 4      6223.942          29.312    23816918.520    97526281.342 4      4849.825          29.250    23816919.820    97526304.341 7      4849.825          46.437
> 2024 05 09 13 37 57.0000000  0 15
G02  21631569.340   113674663.397 7      2899.579          47.437    21631567.460   113674663.405 6      2899.579          38.500    21631571.800    88577676.102 6      2259.412          39.000
R08  23665224.400   126726209.660 6      6267.916          38.312    23665223.700   126726209.662 6      6267.916          37.625    23665247.420    98564930.274 6      4875.046          41.750    23665247.340    98564927.286 6      4875.046          40.812
G21  20823392.700   109427667.278 7      1909.440          47.250    20823390.820   109427667.285 6      1909.440          40.500    20823395.940    85268324.574 6      1487.875          40.562
G32  25411038.760   133535918.840 7      3677.122          42.187    25411037.680   133535918.839 5      3677.122          33.750    25411059.420   104054054.389 5      2865.290          33.937    25411060.480   104054063.402 6      2865.290          39.812
R07  21966253.520   117587091.904 7      4939.998          44.500    21966254.980   117587091.936 7      4939.998          43.062    21966274.380    91456721.684 7      3842.221          46.000    21966275.160    91456725.689 7      3842.221          45.750
G08  20827087.340   109447079.032 8      2721.695          48.250    20827086.000   109447079.037 7      2721.695          47.312    20827093.740    85283464.364 7      2120.801          47.125    20827094.660    85283471.365 8      2120.801          48.750
R22  20749529.280   110762395.222 7      1538.011          47.062    20749528.440   110762395.222 7      1538.011          47.875    20749538.920    86148570.354 8      1196.231          49.250    20749538.840    86148571.355 8      1196.231          48.250
R12  20081228.960   107270312.278 8      1332.174          49.250    20081228.200   107270312.277 8      1332.174          49.937    20081240.960    83432517.234 8      1036.135          48.812    20081240.860    83432514.235 8      1036.135          49.750
R23  21893676.780   117116415.001 7      3567.749          43.062    21893678.620   117116415.032 7      3567.749          42.062
G16  22863983.680   120151029.744 7      -764.344          45.562    22863982.980   120151029.749 5      -764.344          33.500    22863994.860    93624213.803 5      -595.593          33.562
R11  22485795.140   120157278.657 7     -1799.162          46.562    22485796.140   120157278.661 7     -1799.162          46.812    22485813.560    93455729.204 7     -1399.348          44.937    22485814.020    93455732.206 7     -1399.348          45.125
G27  21890683.520   115036312.464 7      1022.164          46.062    21890682.020   115036312.472 7      1022.164          46.562    21890692.260    89638717.804 7       796.491          46.312    21890692.480    89638720.810 7       796.491          47.812
G10  23395855.880   122946058.240 7       -40.047          45.812    23395856.200   122946058.239 7       -40.047          43.187    23395865.500    95802157.583 7       -31.206          43.250    23395865.580    95802154.590 7       -31.206          46.000
R21  23195035.840   124121322.238 6       315.135          40.312    23195033.300   124121322.250 6       315.135          40.437    23195052.000    96538866.089 7       245.105          45.875    23195052.420    96538867.095 7       245.105          45.312
G03  23815716.340   125152433.456 6      6224.175          41.375    23815715.080   125152433.448 4      6224.175          29.312    23815734.100    97521431.373 4      4850.007          29.500    23815735.460    97521454.372 7      4850.007          46.062
> 2024 05 09 13 37 58.0000000  0 15
G02  21631017.740   113671763.837 8      2899.569          48.375    21631015.540   113671763.844 6      2899.569          38.750    21631020.040    88575416.704 6      2259.404          38.625
R08  23664054.180   126719941.413 6      6268.436          38.312    23664053.620   126719941.420 6      6268.436          37.625    23664076.400    98560054.974 6      4875.450          41.687    23664076.440    98560051.980 6      4875.450          40.625
G21  20823029.420   109425757.923 7      1909.312          47.812    20823027.480   109425757.928 6      1909.312          40.625    20823032.500    85266836.765 6      1487.776          40.375
G32  25410339.220   133532241.673 6      3677.235          41.500    25410337.940   133532241.670 5      3677.235          33.750    25410359.820   104051189.077 5      2865.378          34.000    25410360.440   104051198.088 6      2865.378          39.812
R07  21965330.960   117582151.969 7      4939.861          43.000    21965332.500   117582151.986 7      4939.861          43.250    21965351.580    91452879.518 7      3842.114          46.750    21965352.160    91452883.525 7      3842.114          46.750
G08  20826569.340   109444357.375 8      2721.706          48.625    20826568.040   109444357.378 8      2721.706          48.437    20826575.860    85281343.589 8      2120.810          48.250    20826576.600    85281350.591 8      2120.810          50.250
R22  20749241.080   110760857.025 8      1538.401          48.375    20749240.340   110760857.031 7      1538.401          47.562    20749250.880    86147373.983 8      1196.534          50.000    20749250.720    86147374.986 8      1196.534          50.625
R12  20080979.780   107268980.381 8      1331.583          50.437    20080978.960   107268980.377 8      1331.583          50.937    20080991.540    83431481.310 8      1035.676          50.062    20080991.540    83431478.311 8      1035.676          50.687
R23  21893010.040   117112847.084 7      3568.027          43.062    21893011.000   117112847.104 7      3568.027          42.062
G16  22864129.040   120151793.973 7      -764.194          46.187    22864128.540   120151793.981 5      -764.194          33.375    22864140.200    93624809.294 5      -595.476          33.500
R11  22486131.720   120159077.717 7     -1798.966          47.125    22486133.000   120159077.716 7     -1798.966          46.750    22486150.340    93457128.471 7     -1399.196          45.562    22486150.620    93457131.468 7     -1399.196          45.687
G27  21890488.740   115035290.271 7      1022.232          46.687    21890487.580   115035290.278 7      1022.232          47.562    21890497.680    89637921.289 7       796.544          46.687    21890497.920    89637924.297 8       796.544          49.125
G10  23395863.520   122946098.422 7       -40.197          45.875    23395863.980   122946098.432 7       -40.197          43.312    23395873.120    95802188.903 7       -31.322          43.375    23395873.040    95802185.914 7       -31.322          46.062
R21  23194977.360   124121006.887 6       315.625          40.312    23194974.300   124121006.891 6       315.625          40.312    23194993.260    96538620.803 7       245.486          46.187    23194993.240    96538621.807 7       245.486          45.750
G03  23814531.780   125146209.324 6      6224.272          41.375    23814530.580   125146209.321 4      6224.272          29.875    23814549.700    97516581.402 4      4850.082          29.500    23814551.120    97516604.413 7      4850.082          46.812
> 2024 05 09 13 37 59.0000000  0 15
G02  21630465.980   113668864.524 7      2899.275          47.500    21630463.980   113668864.536 6      2899.275          38.750    21630468.300    88573157.499 6      2259.176          38.812
R08  23662883.160   126713673.042 6      6268.422          38.312    23662884.140   126713673.068 6      6268.422          38.750    23662905.980    98555179.586 6      4875.439          41.625    23662905.860    98555176.591 6      4875.439          40.625
G21  20822666.240   109423848.801 7      1909.042          47.250    20822664.300   109423848.811 6      1909.042          40.250    20822669.320    85265349.139 6      1487.565          40.500
G32  25409639.140   133528564.743 6      3676.881          41.687    25409638.280   133528564.743 5      3676.881          34.437    25409660.240   104048323.953 5      2865.102          34.375    25409660.720   104048332.962 6      2865.102          40.062
R07  21964408.300   117577212.480 7      4939.341          44.250    21964409.580   117577212.500 7      4939.341          43.812    21964429.000    91449037.710 7      3841.710          47.187    21964429.760    91449041.711 7      3841.710          47.437
G08  20826051.520   109441635.900 7      2721.467          47.812    20826050.240   109441635.908 8      2721.467          49.000    20826058.000    85279222.963 8      2120.624          48.687    20826058.920    85279229.965 8      2120.624          50.062
R22  20748952.880   110759318.890 7      1538.224          47.500    20748952.200   110759318.897 8      1538.224          48.187    20748962.820    86146177.658 8      1196.396          49.812    20748962.460    86146178.661 8      1196.396          50.437
R12  20080730.540   107267649.274 8      1330.775          49.875    20080729.720   107267649.264 8      1330.775          50.000    20080742.540    83430445.998 8      1035.047          50.562    20080742.500    83430442.999 8      1035.047          50.875
R23  21892343.640   117109279.300 7      3567.822          43.062    21892344.500   117109279.320 6      3567.822          41.875
G16  22864274.480   120152558.468 7      -764.548          44.562    22864274.060   120152558.478 5      -764.548          33.375    22864285.740    93625404.994 5      -595.752          33.500
R11  22486468.760   120160876.916 7     -1799.252          46.812    22486469.480   120160876.912 7     -1799.252          46.250    22486486.840    93458527.841 7     -1399.418          46.187    22486487.580    93458530.836 7     -1399.418          45.750
G27  21890294.420   115034268.284 7      1021.975          46.250    21890293.080   115034268.289 7      1021.975          47.125    21890303.380    89637124.936 7       796.344          47.250    21890303.180    89637127.942 8       796.344          49.000
G10  23395871.520   122946139.023 7       -40.740          45.250    23395871.800   122946139.025 7       -40.740          43.625    23395881.020    95802220.533 7       -31.746          43.187    23395880.760    95802217.538 7       -31.746          46.187
R21  23194918.380   124120691.369 6       315.621          40.312    23194915.140   124120691.379 6       315.621          40.312    23194934.260    96538375.407 7       245.483          46.437    23194934.080    96538376.408 7       245.483          45.562
G03  23813347.480   125139985.257 6      6224.124          41.125    23813346.200   125139985.251 4      6224.124          29.875    23813365.460    97511731.484 4      4849.967          29.500    23813366.720    97511754.497 7      4849.967          46.500
> 2024 05 09 13 38  0.0000000  0 15
G02  21629914.180   113665965.420 8      2898.743          48.000    21629912.200   113665965.430 6      2898.743          39.562    21629916.480    88570898.464 6      2258.761          39.187
R08  23661712.420   126707404.498 6      6268.385          40.062    23661713.940   126707404.532 6      6268.385          38.750    23661735.360    98550304.061 6      4875.410          41.625    23661734.960    98550301.073 6      4875.410          40.062
G21  20822303.120   109421939.919 8      1908.415          48.062    20822301.120   109421939.924 6      1908.415          40.812    20822306.120    85263861.699 6      1487.076          40.500
G32  25408939.340   133524887.979 6      3676.434          41.312    25408938.680   133524887.976 5      3676.434          34.437    25408960.640   104045458.954 5      2864.754          34.375    25408961.300   104045467.963 6      2864.754          40.062
R07  21963485.560   117572273.425 7      4938.519          44.250    21963487.080   117572273.448 7      4938.519          43.812    21963506.300    91445196.233 7      3841.070          46.812    21963507.240    91445200.240 7      3841.070          46.937
G08  20825533.720   109438914.598 8      2721.018          48.187    20825532.420   109438914.606 8      2721.018          48.625    20825540.220    85277102.472 8      2120.274          48.625    20825541.060    85277109.475 8      2120.274          49.750
R22  20748664.780   110757780.779 7      1537.804          47.250    20748664.040   110757780.786 8      1537.804          48.125    20748674.520    86144981.349 8      1196.070          50.375    20748674.360    86144982.349 8      1196.070          50.125
R12  20080481.640   107266318.915 8      1329.690          50.750    20080480.800   107266318.911 8      1329.690          50.062    20080493.340    83429411.275 8      1034.204          50.125    20080493.540    83429408.274 8      1034.204          50.875
R23  21891676.740   117105711.610 7      3567.424          42.437    21891678.020   117105711.625 6      3567.424          41.875
G16  22864419.820   120153323.155 7      -765.028          46.687    22864419.580   120153323.162 5      -765.028          33.437    22864431.400    93626000.839 5      -596.126          33.437
R11  22486805.420   120162676.187 7     -1799.631          46.187    22486806.220   120162676.188 7     -1799.631          45.562    22486823.640    93459927.278 7     -1399.713          45.437    22486824.220    93459930.280 7     -1399.713          44.937
G27  21890099.860   115033246.453 7      1021.505          46.687    21890098.500   115033246.463 7      1021.505          46.625    21890108.960    89636328.706 7       795.978          46.812    21890108.700    89636331.710 8       795.978          48.875
G10  23395879.580   122946179.917 7       -41.373          45.812    23395879.620   122946179.917 7       -41.373          43.937    23395888.800    95802252.395 7       -32.239          43.375    23395889.040    95802249.402 7       -32.239          46.500
R21  23194859.620   124120375.734 6       315.317          40.250    23194856.920   124120375.735 6       315.317          40.312    23194875.340    96538129.890 7       245.246          46.875    23194875.140    96538130.891 7       245.246          45.562
G03  23812163.160   125133761.235 7      6223.660          42.187    23812162.080   125133761.229 4      6223.660          29.875    23812181.180    97506881.598 4      4849.605          29.500    23812182.220    97506904.607 7      4849.605          46.500
> 2024 05 09 13 38  1.0000000  0 15
G02  21629362.500   113663066.624 7      2898.792          47.750    21629360.620   113663066.635 6      2898.792          38.750    21629365.020    88568639.664 6      2258.799          38.875
R08  23660542.040   126701135.916 6      6268.794          40.062    23660543.380   126701135.960 6      6268.794          38.750    23660564.760    98545428.497 6      4875.728          41.500    23660564.060    98545425.494 6      4875.728          40.062
G21  20821939.740   109420031.333 8      1908.524          48.187    20821937.720   109420031.335 6      1908.524          40.437    20821942.820    85262374.485 6      1487.161          40.187
G32  25408239.520   133521211.509 6      3676.474          41.125    25408239.060   133521211.498 5      3676.474          34.500    25408261.220   104042594.178 5      2864.785          34.437    25408262.140   104042603.185 6      2864.785          40.500
R07  21962562.960   117567334.913 7      4938.352          44.125    21962565.020   117567334.925 7      4938.352          43.875    21962583.620    91441355.176 7      3840.941          46.875    21962584.660    91441359.184 7      3840.941          46.437
G08  20825015.720   109436193.565 8      2721.067          48.750    20825014.680   109436193.572 8      2721.067          48.625    20825022.460    85274982.184 8      2120.312          48.687    20825023.380    85274989.189 8      2120.312          50.062
R22  20748376.560   110756242.775 8      1538.023          48.125    20748376.040   110756242.774 7      1538.023          47.687    20748386.600    86143785.118 8      1196.240          49.875    20748386.340    86143786.113 8      1196.240          49.625
R12  20080232.620   107264989.461 8      1329.112          49.625    20080231.780   107264989.454 8      1329.112          50.062    20080244.340    83428377.247 8      1033.753          49.562    20080244.500    83428374.248 8      1033.753          50.125
R23  21891009.800   117102144.123 7      3567.581          43.312    21891011.120   117102144.141 7      3567.581          42.062
G16  22864565.300   120154088.148 7      -765.092          45.562    22864564.900   120154088.153 5      -765.092          33.437    22864576.980    93626596.922 5      -596.176          33.437
R11  22487142.420   120164475.663 7     -1799.450          46.125    22487142.660   120164475.656 7     -1799.450          45.812    22487160.520    93461326.863 7     -1399.572          45.312    22487161.120    93461329.858 7     -1399.572          44.875
G27  21889905.540   115032224.885 7      1021.583          46.312    21889904.340   115032224.890 7      1021.583          46.937    21889914.540    89635532.671 7       796.039          46.687    21889914.580    89635535.675 8       796.039          49.000
G10  23395887.360   122946221.246 7       -41.390          46.062    23395887.460   122946221.250 7       -41.390          43.687    23395896.640    95802284.595 7       -32.252          43.500    23395896.600    95802281.600 7       -32.252          46.500
R21  23194801.000   124120060.015 6       315.898          40.250    23194798.060   124120060.004 6       315.898          40.125    23194816.480    96537884.321 7       245.698          46.500    23194816.220    96537885.316 7       245.698          45.625
G03  23810978.740   125127537.321 7      6224.037          42.375    23810977.740   125127537.315 4      6224.037          29.875    23810996.880    97502031.791 4      4849.899          29.687    23810997.940    97502054.792 7      4849.899          46.812
> 2024 05 09 13 38  2.0000000  0 15
G02  21628811.120   113660168.147 8      2898.285          48.125    21628809.020   113660168.154 6      2898.285          38.812    21628813.460    88566381.107 6      2258.404          39.125
R08  23659371.340   126694867.320 6      6268.659          40.062    23659373.060   126694867.357 6      6268.659          38.750    23659394.080    98540552.917 6      4875.623          41.937    23659393.620    98540549.912 6      4875.623          40.062
G21  20821576.640   109418123.066 7      1907.988          47.500    20821574.660   109418123.071 6      1907.988          40.625    20821579.700    85260887.528 6      1486.744          40.437
G32  25407540.560   133517535.312 6      3676.009          40.812    25407539.520   133517535.306 5      3676.009          34.250    25407561.620   104039729.628 5      2864.422          34.437    25407562.320   104039738.647 6      2864.422          40.500
R07  21961640.420   117562396.961 7      4937.529          44.562    21961642.180   117562396.973 7      4937.529          43.625    21961661.280    91437514.557 7      3840.301          47.187    21961662.240    91437518.567 7      3840.301          47.125
G08  20824497.860   109433472.796 8      2720.582          48.312    20824496.980   109433472.806 8      2720.582          48.625    20824504.640    85272862.105 8      2119.934          48.500    20824505.760    85272869.107 8      2119.934          50.187
R22  20748088.640   110754704.886 8      1537.660          48.062    20748088.020   110754704.887 7      1537.660          47.937    20748098.420    86142588.982 8      1195.958          50.250    20748098.160    86142589.977 8      1195.958          49.937
R12  20079983.920   107263660.916 8      1328.010          50.375    20079983.120   107263660.909 8      1328.010          50.375    20079995.620    83427343.932 8      1032.897          50.375    20079995.720    83427340.933 8      1032.897          51.187
R23  21890342.720   117098576.818 7      3567.271          43.312    21890344.200   117098576.836 7      3567.271          42.062
G16  22864710.900   120154853.421 7      -765.516          45.937    22864710.520   120154853.428 5      -765.516          33.312    22864722.620    93627193.226 5      -596.506          33.312
R11  22487479.280   120166275.337 7     -1799.893          47.062    22487479.660   120166275.333 7     -1799.893          45.437    22487497.440    93462726.597 7     -1399.917          45.812    22487497.580    93462729.592 7     -1399.917          45.000
G27  21889711.040   115031203.574 7      1021.157          47.187    21889709.980   115031203.581 7      1021.157          47.000    21889720.240    89634736.844 7       795.707          46.937    21889720.320    89634739.852 8       795.707          49.250
G10  23395895.040   122946263.018 7       -42.090          44.687    23395895.480   122946263.020 7       -42.090          43.875    23395904.680    95802317.143 7       -32.797          43.687    23395904.780    95802314.152 7       -32.797          46.250
R21  23194742.000   124119744.300 6       315.581          40.250    23194739.000   124119744.291 6       315.581          40.125    23194757.760    96537638.758 7       245.452          46.812    23194757.240    96537639.751 7       245.452          46.250
G03  23809794.640   125121313.543 6      6223.513          41.562    23809793.420   125121313.538 4      6223.513          29.937    23809812.560    97497182.096 4      4849.490          29.687    23809814.140    97497205.107 7      4849.490          46.625
> 2024 05 09 13 38  3.0000000  0 15
G02  21628259.460   113657270.089 8      2897.793          48.062    21628257.420   113657270.097 6      2897.793          38.812    21628261.980    88564122.881 6      2258.020          38.937
R08  23658200.200   126688598.778 6      6268.457          40.625    23658202.880   126688598.823 6      6268.457          39.750    23658223.820    98535677.388 6      4875.467          41.750    23658222.900    98535674.394 6      4875.467          40.062
G21  20821213.600   109416215.247 7      1907.452          47.875    20821211.580   109416215.254 6      1907.452          40.875    20821216.720    85259400.913 6      1486.326          40.125
G32  25406841.020   133513859.520 6      3675.671          40.500    25406840.140   133513859.514 5      3675.671          34.250    25406862.220   104036865.386 5      2864.159          34.375    25406863.140   104036874.401 6      2864.159          40.687
R07  21960717.840   117557459.653 7      4936.914          44.000    21960719.940   117557459.668 7      4936.914          43.437    21960739.260    91433674.450 7      3839.822          47.125    21960739.920    91433678.459 7      3839.822          46.625
G08  20823980.260   109430752.404 8      2720.164          48.937    20823979.420   109430752.411 8      2720.164          48.687    20823986.980    85270742.317 8      2119.609          48.562    20823988.060    85270749.319 8      2119.609          50.187
R22  20747800.520   110753167.210 7      1537.477          47.812    20747799.840   110753167.211 7      1537.477          47.687    20747810.280    86141393.009 8      1195.815          50.250    20747809.980    86141394.003 8      1195.815          50.125
R12  20079735.380   107262333.353 8      1326.977          51.125    20079734.780   107262333.346 8      1326.977          50.500    20079747.060    83426311.381 8      1032.093          50.125    20079747.260    83426308.384 8      1032.093          50.750
R23  21889675.660   117095009.840 7      3566.772          42.437    21889677.720   117095009.863 6      3566.772          41.562
G16  22864856.880   120155619.116 7      -765.927          45.812    22864856.260   120155619.126 5      -765.927          33.312    22864868.140    93627789.859 5      -596.826          33.312
R11  22487815.940   120168075.311 7     -1800.218          45.437    22487816.120   120168075.304 7     -1800.218          45.375    22487833.840    93464126.581 7     -1400.170          46.000    22487834.480    93464129.578 7     -1400.170          44.875
G27  21889516.780   115030182.639 7      1020.755          46.250    21889515.700   115030182.646 7      1020.755          47.250    21889525.900    89633941.308 7       795.394          47.125    21889526.100    89633944.312 8       795.394          49.250
G10  23395902.940   122946305.316 7       -42.604          46.187    23395903.420   122946305.320 7       -42.604          43.437    23395912.820    95802350.102 7       -33.198          43.875    23395912.860    95802347.109 7       -33.198          46.312
R21  23194682.700   124119428.614 6       315.653          40.250    23194680.640   124119428.607 6       315.653          40.125    23194698.780    96537393.222 7       245.508          46.937    23194698.260    96537394.220 7       245.508          46.250
G03  23808610.020   125115089.986 7      6223.297          42.250    23808609.200   125115089.983 4      6223.297          29.937    23808628.240    97492332.573 4      4849.323          29.687    23808629.660    97492355.584 7      4849.323          46.875
> 2024 05 09 13 38  4.0000000  0 15
G02  21627708.080   113654372.607 7      2897.395          47.625    21627705.980   113654372.615 6      2897.395          38.750    21627710.560    88561865.103 6      2257.710          38.750
R08  23657029.860   126682330.429 6      6268.489          40.625    23657032.940   126682330.476 6      6268.489          39.750    23657053.000    98530802.001 6      4875.491          41.750    23657051.800    98530798.999 6      4875.491          40.125
G21  20820850.760   109414307.997 7      1907.059          47.812    20820848.720   109414308.002 6      1907.059          40.375    20820853.920    85257914.743 6      1486.020          40.312
G32  25406141.640   133510184.282 6      3675.234          40.750    25406140.720   133510184.276 5      3675.234          34.187    25406162.840   104034001.579 5      2863.819          34.125    25406163.660   104034010.598 6      2863.819          40.687
R07  21959795.720   117552523.192 7      4936.215          45.250    21959797.980   117552523.204 7      4936.215          43.437    21959816.920    91429834.984 7      3839.279          47.500    21959817.640    91429838.991 7      3839.279          47.312
G08  20823462.620   109428032.563 8      2719.702          48.937    20823461.880   109428032.565 8      2719.702          48.562    20823469.520    85268622.954 8      2119.248          48.812    20823470.480    85268629.956 8      2119.248          50.062
R22  20747512.840   110751629.935 7      1537.176          47.187    20747511.600   110751629.930 7      1537.176          47.250    20747522.280    86140197.351 8      1195.581          49.625    20747522.180    86140198.344 8      1195.581          50.062
R12  20079487.400   107261006.942 8      1326.006          49.437    20079486.500   107261006.940 8      1326.006          49.812    20079498.600    83425279.726 8      1031.338          50.375    20079498.960    83425276.729 8      1031.338          50.750
R23  21889008.780   117091443.311 7      3566.442          42.437    21889011.280   117091443.342 6      3566.442          41.562
G16  22865002.660   120156385.395 7      -766.514          46.250    22865002.100   120156385.403 5      -766.514          33.375    22865014.020    93628386.945 5      -597.284          33.437
R11  22488153.120   120169875.776 7     -1800.564          47.500    22488153.100   120169875.775 7     -1800.564          45.125    22488170.820    93465526.944 7     -1400.439          45.500    22488171.580    93465529.946 7     -1400.439          44.875
G27  21889322.800   115029162.271 7      1020.221          47.125    21889321.480   115029162.276 7      1020.221          46.625    21889331.760    89633146.209 7       794.978          46.937    21889332.220    89633149.210 8       794.978          49.000
G10  23395911.020   122946348.336 7       -43.261          46.562    23395911.620   122946348.338 7       -43.261          43.625    23395920.980    95802383.620 7       -33.710          43.812    23395920.880    95802380.633 7       -33.710          46.562
R21  23194623.900   124119113.144 6       315.458          39.375    23194621.900   124119113.138 6       315.458          39.750    23194639.700    96537147.847 7       245.356          46.937    23194639.340    96537148.844 7       245.356          45.937
G03  23807425.980   125108866.863 7      6222.907          43.250    23807425.040   125108866.863 4      6222.907          29.937    23807444.080    97487483.388 4      4849.018          29.687    23807445.420    97487506.389 7      4849.018          46.500
> 2024 05 09 13 38  5.0000000  0 15
G02  21627156.940   113651475.430 8      2896.925          48.125    21627154.820   113651475.437 6      2896.925          38.937    21627159.360    88559607.564 6      2257.344          39.500
R08  23655859.600   126676062.018 6      6268.394          40.625    23655862.180   126676062.079 6      6268.394          39.750    23655882.440    98525926.579 7      4875.418          42.062    23655881.700    98525923.574 6      4875.418          40.125
G21  20820487.680   109412401.076 8      1906.675          48.312    20820485.760   109412401.079 6      1906.675          40.437    20820491.080    85256428.830 6      1485.721          40.312
G32  25405442.100   133506509.346 6      3674.771          40.312    25405441.340   133506509.349 5      3674.771          34.187    25405463.480   104031138.013 5      2863.458          34.125    25405464.120   104031147.032 6      2863.458          40.875
R07  21958874.100   117547587.220 7      4935.619          46.187    21958875.800   117547587.240 7      4935.619          43.625    21958894.980    91425995.920 7      3838.815          47.250    21958896.040    91425999.929 7      3838.815          47.187
G08  20822945.300   109425312.956 8      2719.385          50.000    20822944.400   109425312.961 8      2719.385          48.937    20822952.080    85266503.780 8      2119.001          48.687    20822952.980    85266510.786 8      2119.001          49.937
R22  20747224.760   110750092.742 8      1537.061          48.312    20747223.920   110750092.753 8      1537.061          48.250    20747234.500    86139001.769 8      1195.492          50.500    20747234.100    86139002.762 8      1195.492          50.187
R12  20079238.860   107259681.401 8      1325.051          50.062    20079238.460   107259681.405 8      1325.051          50.312    20079250.580    83424248.751 8      1030.596          49.750    20079250.720    83424245.755 8      1030.596          50.875
R23  21888341.580   117087876.945 7      3566.236          42.937    21888343.940   117087876.984 6      3566.236          41.625
G16  22865148.540   120157151.944 7      -766.758          46.062    22865147.820   120157151.952 5      -766.758          33.375    22865159.760    93628984.242 5      -597.474          33.437
R11  22488490.420   120171676.423 7     -1800.845          46.812    22488489.540   120171676.405 7     -1800.845          46.000    22488508.160    93466927.433 7     -1400.657          45.062    22488507.980    93466930.434 7     -1400.657          45.125
G27  21889128.580   115028142.119 7      1019.931          46.437    21889127.520   115028142.129 7      1019.931          47.437    21889137.720    89632351.287 7       794.752          46.750    21889138.220    89632354.291 8       794.752          49.062
G10  23395919.420   122946391.785 7       -43.694          45.625    23395919.660   122946391.779 7       -43.694          44.062    23395929.360    95802417.466 7       -34.047          43.687    23395929.100    95802414.479 7       -34.047          46.562
R21  23194564.540   124118797.506 6       315.756          39.375    23194563.340   124118797.503 6       315.756          39.750    23194580.980    96536902.351 7       245.588          46.937    23194580.080    96536903.346 7       245.588          46.437
G03  23806241.860   125102643.808 6      6222.948          41.500    23806241.040   125102643.805 4      6222.948          29.937    23806259.860    97482634.257 5      4849.050          30.000    23806261.140    97482657.266 7      4849.050          46.937
> 2024 05 09 13 38  6.0000000  0 15
G02  21626605.620   113648578.644 8      2896.604          48.062    21626603.520   113648578.649 6      2896.604          38.500    21626608.140    88557350.330 6      2257.094          38.750
R08  23654688.800   126669793.639 6      6268.442          40.500    23654691.700   126669793.684 6      6268.442          40.125    23654711.800    98521051.165 6      4875.455          41.750    23654710.800    98521048.156 6      4875.455          39.937
G21  20820124.800   109410494.568 7      1906.271          47.687    20820123.040   109410494.570 6      1906.271          40.687    20820128.180    85254943.237 6      1485.406          40.625
G32  25404742.700   133502834.776 6      3674.492          39.875    25404742.160   133502834.768 5      3674.492          34.187    25404764.320   104028274.724 5      2863.240          34.312    25404764.980   104028283.743 6      2863.240          40.875
R07  21957952.200   117542651.864 7      4935.094          45.562    21957954.200   117542651.881 7      4935.094          44.312    21957973.000    91422157.316 7      3838.407          47.562    21957974.060    91422161.327 7      3838.407          47.437
G08  20822427.820   109422593.727 8      2719.047          49.125    20822427.080   109422593.730 8      2719.047          48.750    20822434.640    85264384.900 8      2118.738          48.687    20822435.660    85264391.905 8      2118.738          50.437
R22  20746936.900   110748555.787 7      1536.914          47.937    20746935.760   110748555.793 7      1536.914          47.875    20746946.540    86137806.355 8      1195.377          50.500    20746946.300    86137807.352 8      1195.377          50.437
R12  20078990.960   107258356.830 8      1324.146          50.250    20078990.560   107258356.828 8      1324.146          50.750    20079002.500    83423218.525 8      1029.891          50.375    20079003.060    83423215.526 8      1029.891          51.062
R23  21887674.860   117084310.889 7      3566.007          42.312    21887677.460   117084310.914 6      3566.007          41.625
G16  22865294.880   120157918.901 7      -767.130          45.812    22865293.900   120157918.906 5      -767.130          33.187    22865305.760    93629581.856 5      -597.764          33.187
R11  22488827.640   120173477.345 7     -1801.085          46.250    22488826.760   120173477.333 7     -1801.085          45.750    22488845.020    93468328.148 7     -1400.844          45.062    22488845.080    93468331.153 7     -1400.844          45.062
G27  21888934.660   115027122.343 7      1019.609          46.562    21888933.420   115027122.350 7      1019.609          47.125    21888943.580    89631556.650 7       794.501          47.062    21888944.140    89631559.658 8       794.501          49.312
G10  23395928.000   122946435.738 7       -44.162          45.000    23395928.160   122946435.737 7       -44.162          43.875    23395937.880    95802451.724 7       -34.412          43.937    23395937.360    95802448.730 7       -34.412          46.437
R21  23194505.300   124118481.935 6       315.538          41.187    23194504.860   124118481.929 6       315.538          39.750    23194522.180    96536656.896 7       245.419          46.812    23194521.480    96536657.891 7       245.419          46.687
G03  23805057.620   125096421.016 7      6222.700          42.562    23805056.820   125096421.015 5      6222.700          30.312    23805075.740    97477785.332 5      4848.857          30.000    23805077.020    97477808.335 7      4848.857          46.875
> 2024 05 09 13 38  7.0000000  0 15
G02  21626054.360   113645681.942 8      2896.615          48.250    21626052.280   113645681.950 6      2896.615          39.250    21626056.880    88555093.160 6      2257.103          38.687
R08  23653518.740   126663524.956 6      6268.771          40.500    23653521.720   126663524.992 6      6268.771          40.125    23653541.240    98516175.510 6      4875.711          41.750    23653539.860    98516172.486 6      4875.711          39.937
G21  20819762.120   109408588.141 8      1906.346          48.125    20819760.280   109408588.140 6      1906.346          40.312    20819765.420    85253457.712 6      1485.465          40.125
G32  25404043.760   133499160.266 6      3674.495          39.687    25404042.900   133499160.260 5      3674.495          34.500    25404064.940   104025411.490 5      2863.243          34.312    25404065.860   104025420.513 6      2863.243          40.687
R07  21957030.400   117537716.788 7      4934.956          45.750    21957032.580   117537716.814 7      4934.956          43.875    21957051.400    91418318.940 7      3838.299          47.750    21957051.960    91418322.946 7      3838.299          46.875
G08  20821910.500   109419874.533 8      2719.125          49.625    20821909.540   109419874.538 8      2719.125          48.562    20821917.200    85262266.045 8      2118.799          48.687    20821918.080    85262273.048 8      2118.799          50.312
R22  20746648.940   110747018.714 7      1537.145          47.625    20746648.220   110747018.718 7      1537.145          47.562    20746658.540    86136610.846 8      1195.558          50.437    20746658.480    86136611.843 8      1195.558          50.562
R12  20078743.020   107257032.908 8      1323.570          50.625    20078742.780   107257032.912 8      1323.570          50.375    20078754.700    83422188.808 8      1029.443          50.250    20078754.940    83422185.807 8      1029.443          50.625
R23  21887008.140   117080744.785 7      3565.988          42.312    21887009.980   117080744.816 6      3565.988          41.187
G16  22865440.760   120158685.923 7      -767.100          45.875    22865439.840   120158685.931 5      -767.100          33.187    22865451.760    93630179.522 5      -597.740          33.187
R11  22489164.180   120175278.219 7     -1800.911          46.437    22489164.020   120175278.217 7     -1800.911          45.562    22489182.180    93469728.832 7     -1400.708          45.687    22489182.180    93469731.837 7     -1400.708          45.375
G27  21888740.480   115026102.598 7      1019.692          45.687    21888739.380   115026102.608 7      1019.692          47.312    21888749.700    89630762.041 7       794.565          47.375    21888750.060    89630765.045 8       794.565          49.312
G10  23395936.260   122946479.914 7       -44.274          45.562    23395936.540   122946479.919 7       -44.274          44.062    23395946.200    95802486.143 7       -34.499          43.875    23395946.020    95802483.150 7       -34.499          46.625
R21  23194446.740   124118166.075 6       316.013          41.187    23194445.380   124118166.055 6       316.013          40.625    23194462.980    96536411.213 7       245.788          47.125    23194462.600    96536412.201 7       245.788          46.625
G03  23803873.620   125090198.118 7      6222.957          42.562    23803872.720   125090198.118 5      6222.957          30.312    23803891.500    97472936.321 5      4849.058          30.000    23803892.740    97472959.320 7      4849.058          46.875
> 2024 05 09 13 38  8.0000000  0 15
G02  21625503.180   113642785.661 8      2895.930          48.000    21625501.160   113642785.666 6      2895.930          38.875    21625505.820    88552836.320 6      2256.568          39.125
R08  23652347.860   126657256.307 6      6268.420          40.500    23652350.340   126657256.356 6      6268.420          40.125    23652371.060    98511299.902 6      4875.438          41.875    23652369.740    98511296.887 6      4875.438          39.875
G21  20819399.420   109406682.137 7      1905.638          47.250    20819397.680   109406682.144 6      1905.638          40.125    20819402.780    85251972.518 6      1484.913          40.125
G32  25403345.060   133495486.189 6      3673.668          40.125    25403343.720   133495486.184 5      3673.668          34.500    25403365.820   104022548.583 5      2862.599          34.500    25403366.840   104022557.592 6      2862.599          40.687
