     3.05           OBSERVATION DATA    MIXED               RINEX VERSION / TYPE
TPS2RIN 1.0.29.3920 TPS-USER            20240511 194050 UTC PGM / RUN BY / DATE
Win64 build Feb 23, 2024 (c) Topcon Positioning Systems     COMMENT
SRC: 20240509_FA14.tps                                      COMMENT
OPT: -S -v 3.05                                             COMMENT
Observer            Agency                                  OBSERVER / AGENCY
O0M3X53SBGM         TPS HIPER_SR        4.8 HSR Jul,08,2022 REC # / TYPE / VERS
FW: 4.8 HSR Jul,08,2022 p3                                  COMMENT
SN: HiPer SR 1212-12575                                     COMMENT
000                 TPSHIPER_SR     NONE                    ANT # / TYPE
        1.8000        0.0000        0.0000                  ANTENNA: DELTA H/E/N
FA14                                                        MARKER NAME
  5391876.1014 -1595201.7655  3003517.1218                  APPROX POSITION XYZ
  2024     5     9    14    44   59.0000000     GPS         TIME OF FIRST OBS
  2024     5     9    14    59   59.0000000     GPS         TIME OF LAST OBS
     1.000                                                  INTERVAL
   901 EPOCHS                                               COMMENT
G   16 C1C L1C D1C S1C C1W L1W D1W S1W C2W L2W D2W S2W C2X  SYS / # / OBS TYPES
       L2X D2X S2X                                          SYS / # / OBS TYPES
R   16 C1C L1C D1C S1C C1P L1P D1P S1P C2P L2P D2P S2P C2C  SYS / # / OBS TYPES
       L2C D2C S2C                                          SYS / # / OBS TYPES
    15                                                      # OF SATELLITES
   G02   901   901   901   901   901   901   901   901   901PRN / # OF OBS
         901   901   901     0     0     0     0            PRN / # OF OBS
   G03   901   901   901   901   901   901   901   901   901PRN / # OF OBS
         901   901   901   901   901   901   901            PRN / # OF OBS
   G04   267   267   267   267   267   267   267   267   267PRN / # OF OBS
         267   267   267   267   267   267   267            PRN / # OF OBS
   G08   901   901   901   901   901   901   901   901   901PRN / # OF OBS
         901   901   901   901   901   901   901            PRN / # OF OBS
   G14   901   901   901   901   901   901   901   901   901PRN / # OF OBS
         901   901   901   901   901   901   901            PRN / # OF OBS
   G16   356   356   356   356   356   356   356   356   356PRN / # OF OBS
         356   356   356     0     0     0     0            PRN / # OF OBS
   G21   901   901   901   901   901   901   901   901   901PRN / # OF OBS
         901   901   901     0     0     0     0            PRN / # OF OBS
   G27   901   901   901   901   901   901   901   901   901PRN / # OF OBS
         901   901   901   901   901   901   901            PRN / # OF OBS
   G32   901   901   901   901   901   901   901   901   901PRN / # OF OBS
         901   901   901   901   901   901   901            PRN / # OF OBS
   R01   730   730   730   730   725   725   725   725   725PRN / # OF OBS
         725   725   725   724   724   724   724            PRN / # OF OBS
   R07   901   901   901   901   901   901   901   901   901PRN / # OF OBS
         901   901   901   901   901   901   901            PRN / # OF OBS
   R08   901   901   901   901   901   901   901   901   901PRN / # OF OBS
         901   901   901   901   901   901   901            PRN / # OF OBS
   R12   901   901   901   901   901   901   901   901   901PRN / # OF OBS
         901   901   901   901   901   901   901            PRN / # OF OBS
   R22   901   901   901   901   901   901   901   901   901PRN / # OF OBS
         901   901   901   901   901   901   901            PRN / # OF OBS
   R23   901   901   901   901   901   901   901   901     0PRN / # OF OBS
           0     0     0     0     0     0     0            PRN / # OF OBS
G L1C                                                       SYS / PHASE SHIFT
G L1W -0.25000                                              SYS / PHASE SHIFT
G L2W  0.00000                                              SYS / PHASE SHIFT
G L2X  0.25000                                              SYS / PHASE SHIFT
R L1C                                                       SYS / PHASE SHIFT
R L1P -0.25000                                              SYS / PHASE SHIFT
R L2P -0.25000                                              SYS / PHASE SHIFT
R L2C                                                       SYS / PHASE SHIFT
  6 R01  1 R07  5 R08  6 R12 -1 R22 -3 R23  3               GLONASS SLOT / FRQ #
                                                            GLONASS COD/PHS/BIS
    18    18  1929     7GPS                                 LEAP SECONDS
                                                            END OF HEADER
> 2024 05 09 14 44 59.0000000  0 13
G02  21557467.840   113285258.230 7      2154.150          47.250    21557466.300   113285258.238 6      2154.150          39.687    21557470.160    88274239.010 6      1678.558          40.125
R08  20953651.560   112205852.919 7      5326.568          46.000    20953652.480   112205852.956 7      5326.568          45.375    20953669.620    87271301.551 8      4142.887          49.312    20953669.340    87271303.557 8      4142.887          48.812
G03  21226359.860   111545276.723 7      5015.841          46.812    21226359.180   111545276.728 6      5015.841          40.062    21226370.780    86918443.501 6      3908.448          39.750    21226371.480    86918446.505 8      3908.448          50.437
G27  23305273.180   122470030.628 7         -.872          43.500    23305272.780   122470030.633 7         -.872          42.375    23305289.660    95431252.126 7         -.679          42.187    23305289.920    95431255.130 7         -.679          46.625
R12  21947191.940   117237959.210 7     -1083.308          44.062    21947191.200   117237959.212 7     -1083.308          44.687    21947213.540    91185163.988 7      -842.573          46.500    21947214.280    91185164.992 7      -842.573          47.312
G21  21487195.860   112915972.951 7      1247.080          47.125    21487194.140   112915972.956 6      1247.080          39.562    21487199.380    87986483.090 6       971.750          39.125
R23  21180160.440   113299577.442 7      3242.776          42.750    21180159.060   113299577.452 7      3242.776          43.375
G16  25506052.640   134035214.552 6     -1176.748          37.750    25506050.400   134035214.565 3     -1176.748          22.500    25506071.420   104443095.687 3      -916.946          22.812
G32  24964251.600   131188026.640 7      2056.455          43.875    24964251.600   131188026.640 6      2056.455          39.937    24964264.760   102224489.611 6      1602.432          39.750    24964265.580   102224495.618 7      1602.432          43.812
R22  21472974.240   114624192.875 7      1377.404          46.375    21472973.960   114624192.887 7      1377.404          46.187    21472984.600    89152189.690 8      1071.314          48.937    21472984.540    89152188.695 8      1071.314          49.187
G14  23192870.660   121879362.485 7      4855.349          42.750    23192870.040   121879362.500 5      4855.349          30.562    23192877.920    94970956.093 5      3783.389          30.625    23192879.320    94970961.084 7      3783.389          46.000
R07  21087794.520   112884614.045 7      1970.985          46.937    21087794.500   112884614.071 7      1970.985          45.250    21087807.280    87799201.141 8      1532.988          49.062    21087807.360    87799203.150 8      1532.988          49.062
G08  21000542.220   110358593.526 7      1461.171          47.500    21000540.980   110358593.529 7      1461.171          47.937    21000550.560    85993739.127 8      1138.574          48.500    21000552.120    85993747.127 8      1138.574          50.687
> 2024 05 09 14 45  0.0000000  0 13
G02  21557058.020   113283104.060 7      2154.117          47.250    21557056.400   113283104.067 6      2154.117          39.937    21557060.140    88272560.429 6      1678.533          39.875
R08  20952657.060   112200526.648 7      5325.987          45.375    20952657.540   112200526.693 7      5325.987          43.875    20952675.140    87267158.911 8      4142.434          49.312    20952674.660    87267160.916 8      4142.434          49.312
G03  21225405.580   111540261.097 7      5015.560          47.312    21225404.800   111540261.099 6      5015.560          39.937    21225416.460    86914535.217 6      3908.229          40.000    21225417.140    86914538.223 8      3908.229          50.750
G27  23305273.360   122470031.527 7         -.977          43.375    23305273.060   122470031.532 7         -.977          42.562    23305289.920    95431252.805 7         -.761          42.125    23305289.820    95431255.809 7         -.761          46.500
R12  21947394.600   117239042.684 7     -1083.641          43.875    21947394.080   117239042.680 7     -1083.641          44.562    21947416.520    91186006.665 7      -842.832          46.812    21947417.140    91186007.671 7      -842.832          47.250
G21  21486958.700   112914725.808 7      1247.125          46.875    21486956.840   112914725.813 6      1247.125          39.187    21486962.200    87985511.288 6       971.785          39.437
R23  21179553.820   113296334.753 7      3242.705          42.750    21179552.980   113296334.784 6      3242.705          41.375
G16  25506276.880   134036391.326 6     -1176.769          37.875    25506274.420   134036391.338 3     -1176.769          22.500    25506295.240   104444012.651 3      -916.963          22.812
G32  24963860.540   131185970.282 7      2056.166          44.125    24963860.300   131185970.286 6      2056.166          40.000    24963873.320   102222887.261 6      1602.207          39.875    24963874.040   102222893.263 7      1602.207          43.375
R22  21472715.900   114622815.443 7      1377.483          46.812    21472716.180   114622815.457 7      1377.483          46.062    21472726.780    89151118.354 8      1071.376          49.187    21472726.540    89151117.356 8      1071.376          49.875
G14  23191946.500   121874507.200 7      4855.113          42.812    23191946.240   121874507.215 5      4855.113          30.562    23191954.300    94967172.754 5      3783.205          30.625    23191955.300    94967177.739 7      3783.205          46.187
R07  21087426.060   112882643.456 7      1970.149          46.187    21087426.480   112882643.482 7      1970.149          44.375    21087439.340    87797668.461 8      1532.338          48.625    21087439.300    87797670.468 8      1532.338          48.875
G08  21000264.280   110357132.495 7      1460.927          47.750    21000262.900   110357132.497 8      1460.927          48.062    21000272.600    85992600.651 8      1138.385          48.750    21000274.020    85992608.651 8      1138.385          50.875
> 2024 05 09 14 45  1.0000000  0 13
G02  21556648.120   113280950.149 7      2153.832          47.812    21556646.660   113280950.157 6      2153.832          40.375    21556650.220    88270882.062 6      1678.310          40.375
R08  20951662.160   112195201.133 7      5325.166          46.500    20951663.260   112195201.177 7      5325.166          44.812    20951680.700    87263016.853 8      4141.796          49.250    20951680.300    87263018.863 8      4141.796          48.812
G03  21224451.380   111535246.151 7      5014.672          47.500    21224450.460   111535246.153 6      5014.672          39.937    21224462.060    86910627.473 6      3907.537          39.750    21224462.660    86910630.477 8      3907.537          50.687
G27  23305273.760   122470032.870 7        -1.489          43.437    23305273.320   122470032.869 7        -1.489          42.625    23305290.120    95431253.835 7        -1.160          42.437    23305290.360    95431256.831 7        -1.160          46.500
R12  21947597.760   117240126.622 7     -1084.134          45.500    21947596.760   117240126.618 7     -1084.134          45.125    21947619.480    91186849.707 7      -843.215          46.937    21947620.200    91186850.715 7      -843.215          47.750
G21  21486721.600   112913478.888 7      1246.854          47.812    21486719.540   112913478.893 6      1246.854          39.937    21486724.900    87984539.662 6       971.575          39.625
R23  21178947.840   113293092.278 6      3242.435          40.812    21178947.000   113293092.299 7      3242.435          42.437
G16  25506500.860   134037568.170 6     -1176.893          38.125    25506498.480   134037568.180 3     -1176.893          23.062    25506519.100   104444929.665 3      -917.059          22.812
G32  24963469.520   131183914.614 7      2055.514          44.250    24963469.280   131183914.616 6      2055.514          40.437    24963482.180   102221285.439 6      1601.699          40.437    24963483.460   102221291.442 7      1601.699          43.500
R22  21472458.220   114621438.235 7      1377.205          46.375    21472458.280   114621438.246 7      1377.205          45.812    21472468.840    89150047.198 8      1071.159          49.312    21472468.440    89150046.198 8      1071.159          49.625
G14  23191022.760   121869652.556 7      4854.335          43.000    23191022.360   121869652.571 5      4854.335          30.562    23191030.780    94963389.910 5      3782.599          30.625    23191031.260    94963394.896 7      3782.599          46.000
R07  21087058.240   112880673.920 7      1969.033          47.125    21087058.480   112880673.943 7      1969.033          45.750    21087071.260    87796136.601 8      1531.470          49.250    21087071.660    87796138.608 8      1531.470          48.562
G08  20999986.480   110355672.016 7      1460.327          47.250    20999985.060   110355672.018 8      1460.327          48.812    20999994.540    85991462.613 8      1137.917          48.500    20999996.440    85991470.617 8      1137.917          50.750
> 2024 05 09 14 45  2.0000000  0 13
G02  21556238.360   113278796.347 7      2153.756          47.937    21556236.940   113278796.352 6      2153.756          39.937    21556240.460    88269203.772 6      1678.252          40.000
R08  20950667.780   112189876.176 7      5324.677          46.937    20950668.780   112189876.224 7      5324.677          45.750    20950686.280    87258875.237 8      4141.415          49.250    20950685.840    87258877.247 8      4141.415          49.000
G03  21223497.060   111530231.667 7      5014.244          47.750    21223496.180   111530231.669 6      5014.244          39.937    21223507.820    86906720.091 6      3907.203          39.812    21223508.360    86906723.093 8      3907.203          50.062
G27  23305274.080   122470034.446 7        -1.767          43.937    23305273.720   122470034.448 7        -1.767          43.000    23305290.520    95431255.049 7        -1.377          42.625    23305290.700    95431258.053 7        -1.377          46.375
R12  21947800.540   117241210.835 7     -1084.348          45.437    21947799.960   117241210.834 7     -1084.348          45.687    21947822.640    91187692.968 7      -843.382          46.750    21947823.060    91187693.976 7      -843.382          47.750
G21  21486484.180   112912232.026 7      1246.867          47.937    21486482.200   112912232.036 6      1246.867          39.187    21486487.580    87983568.083 6       971.585          39.437
R23  21178341.340   113289849.790 7      3242.600          44.312    21178340.960   113289849.799 7      3242.600          42.437
G16  25506724.320   134038744.954 6     -1176.965          38.125    25506722.460   134038744.966 3     -1176.965          23.062    25506742.900   104445846.629 3      -917.116          22.812
G32  24963078.420   131181859.433 7      2054.994          44.875    24963078.240   131181859.440 6      2054.994          40.062    24963091.220   102219684.005 6      1601.294          40.375    24963092.200   102219690.016 7      1601.294          43.562
R22  21472199.940   114620061.088 7      1377.147          47.562    21472200.180   114620061.099 7      1377.147          47.000    21472211.120    89148976.076 8      1071.115          49.625    21472210.800    89148975.076 8      1071.115          50.187
G14  23190099.400   121864798.338 6      4854.000          40.937    23190098.540   121864798.356 5      4854.000          30.562    23190107.140    94959607.405 5      3782.338          30.625    23190107.820    94959612.407 7      3782.338          46.125
R07  21086690.160   112878705.245 8      1968.330          48.312    21086690.660   112878705.263 7      1968.330          46.125    21086703.520    87794605.408 8      1530.923          49.250    21086703.700    87794607.417 8      1530.923          48.937
G08  20999708.580   110354211.907 8      1459.957          48.375    20999707.180   110354211.909 8      1459.957          48.562    20999716.800    85990324.864 8      1137.629          48.750    20999718.820    85990332.868 8      1137.629          51.000
> 2024 05 09 14 45  3.0000000  0 13
G02  21555828.340   113276642.607 8      2153.687          48.750    21555827.000   113276642.607 6      2153.687          39.812    21555830.740    88267525.531 6      1678.197          39.812
R08  20949673.520   112184551.799 7      5324.131          47.875    20949674.540   112184551.848 7      5324.131          46.187    20949692.080    87254734.069 8      4140.991          48.687    20949691.700    87254736.081 8      4140.991          49.062
G03  21222542.900   111525217.643 7      5013.832          47.937    21222541.900   111525217.643 6      5013.832          40.375    21222553.640    86902813.064 6      3906.882          40.250    21222553.840    86902816.070 8      3906.882          49.875
G27  23305274.420   122470036.230 7        -1.936          44.312    23305273.960   122470036.235 7        -1.936          42.750    23305290.840    95431256.425 7        -1.509          42.437    23305290.900    95431259.423 7        -1.509          46.812
R12  21948003.360   117242295.284 7     -1084.609          45.000    21948002.820   117242295.287 7     -1084.609          45.750    21948025.560    91188536.417 7      -843.585          47.062    21948026.040    91188537.421 7      -843.585          47.625
G21  21486246.840   112910985.211 8      1246.798          48.437    21486244.940   112910985.218 6      1246.798          39.500    21486250.240    87982596.535 6       971.531          39.437
R23  21177735.100   113286607.304 7      3242.486          43.250    21177734.460   113286607.322 7      3242.486          43.250
G16  25506948.360   134039921.609 6     -1176.678          38.687    25506946.400   134039921.619 3     -1176.678          23.062    25506966.660   104446763.501 3      -916.892          22.812
G32  24962687.460   131179804.743 7      2054.483          44.500    24962687.100   131179804.750 6      2054.483          40.437    24962700.220   102218082.950 6      1600.895          40.687    24962701.300   102218088.955 7      1600.895          43.937
R22  21471941.640   114618683.928 7      1377.083          46.562    21471942.260   114618683.937 7      1377.083          46.687    21471953.040    89147904.953 8      1071.065          49.375    21471952.700    89147903.949 8      1071.065          50.000
G14  23189175.560   121859944.579 6      4853.516          41.437    23189174.700   121859944.595 5      4853.516          30.937    23189183.720    94955825.253 5      3781.960          30.875    23189183.920    94955830.257 7      3781.960          46.250
R07  21086322.640   112876737.459 7      1967.271          45.812    21086322.900   112876737.479 7      1967.271          47.000    21086335.940    87793074.915 8      1530.099          49.250    21086336.340    87793076.920 8      1530.099          48.812
G08  20999430.760   110352752.150 8      1459.613          48.500    20999429.460   110352752.147 8      1459.613          49.187    20999438.940    85989187.387 8      1137.361          48.812    20999440.700    85989195.389 8      1137.361          50.437
> 2024 05 09 14 45  4.0000000  0 13
G02  21555418.420   113274488.991 8      2153.562          48.625    21555417.280   113274488.999 6      2153.562          39.937    21555420.820    88265847.395 6      1678.101          39.750
R08  20948679.340   112179228.034 7      5323.492          46.937    20948680.280   112179228.086 7      5323.492          46.750    20948697.860    87250593.380 8      4140.494          49.187    20948697.540    87250595.386 8      4140.494          49.437
G03  21221588.980   111520204.127 8      5013.284          48.187    21221588.080   111520204.126 6      5013.284          40.312    21221599.580    86898906.434 6      3906.455          40.187    21221600.020    86898909.433 8      3906.455          50.500
G27  23305274.760   122470038.311 7        -2.248          44.187    23305274.560   122470038.316 7        -2.248          43.062    23305291.220    95431258.035 7        -1.751          42.812    23305291.300    95431261.030 7        -1.751          46.687
R12  21948206.140   117243380.061 7     -1085.019          46.062    21948206.080   117243380.064 7     -1085.019          45.937    21948228.900    91189380.114 7      -843.904          47.000    21948229.140    91189381.124 7      -843.904          47.250
G21  21486009.500   112909738.464 8      1246.704          48.000    21486007.700   112909738.471 6      1246.704          39.750    21486013.040    87981625.044 6       971.458          39.937
R23  21177128.380   113283364.877 7      3242.308          43.250    21177128.000   113283364.903 7      3242.308          43.250
G16  25507172.440   134041098.227 6     -1176.598          38.562    25507170.400   134041098.237 3     -1176.598          23.062    25507190.560   104447680.340 3      -916.830          22.812
G32  24962296.500   131177750.563 7      2053.914          44.625    24962295.960   131177750.568 6      2053.914          39.937    24962309.320   102216482.294 6      1600.453          40.125    24962310.840   102216488.301 7      1600.453          43.562
R22  21471684.080   114617306.826 7      1377.081          47.187    21471684.140   114617306.838 7      1377.081          46.875    21471695.060    89146833.874 8      1071.063          49.250    21471694.660    89146832.873 8      1071.063          49.437
G14  23188252.160   121855091.281 6      4853.043          41.187    23188250.920   121855091.296 5      4853.043          30.937    23188260.280    94952043.466 5      3781.592          30.875    23188260.900    94952048.479 7      3781.592          45.812
R07  21085954.900   112874770.545 7      1966.457          47.812    21085955.740   112874770.565 7      1966.457          46.312    21085968.540    87791545.098 8      1529.467          49.062    21085968.880    87791547.103 8      1529.467          48.562
G08  20999153.040   110351292.800 8      1459.150          48.750    20999151.660   110351292.802 8      1459.150          49.312    20999161.220    85988050.232 8      1137.000          49.125    20999162.960    85988058.235 8      1137.000          50.875
> 2024 05 09 14 45  5.0000000  0 13
G02  21555008.540   113272335.446 8      2153.304          48.312    21555007.380   113272335.451 6      2153.304          40.000    21555011.100    88264169.304 6      1677.899          39.937
R08  20947685.260   112173904.773 7      5322.807          46.375    20947686.520   112173904.823 7      5322.807          46.562    20947703.900    87246453.072 8      4139.961          49.625    20947703.400    87246455.075 8      4139.961          49.687
G03  21220634.660   111515191.049 7      5012.647          47.937    21220634.220   111515191.048 6      5012.647          40.062    21220645.600    86895000.145 6      3905.959          40.187    21220646.240    86895003.149 8      3905.959          50.000
G27  23305275.340   122470040.608 7        -2.706          42.875    23305275.080   122470040.610 7        -2.706          42.687    23305291.580    95431259.806 7        -2.109          43.000    23305291.820    95431262.805 7        -2.109          46.500
R12  21948409.120   117244465.080 7     -1085.409          45.750    21948408.980   117244465.076 7     -1085.409          44.812    21948432.080    91190223.991 7      -844.207          46.875    21948432.260    91190225.001 7      -844.207          47.562
G21  21485772.180   112908491.741 8      1246.518          48.437    21485770.460   112908491.748 6      1246.518          39.562    21485775.640    87980653.568 6       971.313          39.250
R23  21176522.400   113280122.442 7      3242.107          43.000    21176521.520   113280122.468 7      3242.107          43.250
G16  25507396.200   134042274.779 6     -1176.826          39.062    25507394.300   134042274.792 3     -1176.826          23.062    25507414.560   104448597.126 3      -917.007          22.812
G32  24961905.640   131175696.850 7      2053.243          44.187    24961905.200   131175696.855 6      2053.243          39.750    24961918.460   102214881.998 6      1599.930          39.937    24961919.700   102214887.993 7      1599.930          43.562
R22  21471425.860   114615929.746 7      1376.865          47.812    21471426.040   114615929.758 7      1376.865          46.562    21471437.080    89145762.795 8      1070.895          49.375    21471436.860    89145761.794 8      1070.895          50.312
G14  23187328.420   121850238.384 6      4852.531          41.375    23187326.960   121850238.402 5      4852.531          30.937    23187336.820    94948261.995 5      3781.193          30.875    23187337.060    94948267.007 7      3781.193          45.312
R07  21085587.980   112872804.453 7      1965.450          47.250    21085588.200   112872804.468 7      1965.450          45.875    21085601.260    87790015.909 8      1528.683          49.125    21085601.440    87790017.918 8      1528.683          49.062
G08  20998875.400   110349833.784 8      1458.626          48.562    20998874.060   110349833.787 8      1458.626          48.687    20998883.640    85986913.332 8      1136.592          48.562    20998885.280    85986921.333 8      1136.592          51.000
> 2024 05 09 14 45  6.0000000  0 13
G02  21554598.880   113270182.159 8      2153.277          48.250    21554597.740   113270182.163 6      2153.277          40.187    21554601.240    88262491.418 6      1677.878          40.125
R08  20946691.400   112168582.229 7      5322.372          46.937    20946692.600   112168582.281 7      5322.372          45.687    20946710.040    87242313.330 8      4139.623          49.312    20946709.580    87242315.334 8      4139.623          49.187
G03  21219680.920   111510178.617 8      5012.257          48.062    21219680.340   111510178.620 6      5012.257          40.125    21219691.780    86891094.365 6      3905.655          39.812    21219692.360    86891097.364 8      3905.655          50.125
G27  23305275.520   122470043.309 7        -2.845          43.500    23305275.620   122470043.311 7        -2.845          43.125    23305292.060    95431261.898 7        -2.217          42.625    23305292.420    95431264.898 7        -2.217          46.625
R12  21948612.720   117245550.506 7     -1085.471          44.687    21948612.240   117245550.497 7     -1085.471          45.125    21948635.420    91191068.190 7      -844.256          47.125    21948635.600    91191069.199 7      -844.256          47.437
G21  21485535.100   112907245.223 7      1246.637          47.875    21485533.180   112907245.228 6      1246.637          39.187    21485538.520    87979682.255 6       971.405          39.687
R23  21175916.480   113276880.235 7      3242.174          43.812    21175915.520   113276880.234 7      3242.174          43.000
G16  25507619.900   134043451.392 6     -1176.647          39.062    25507618.240   134043451.402 3     -1176.647          23.062    25507638.440   104449513.961 3      -916.868          22.812
G32  24961514.960   131173643.787 7      2052.840          44.250    24961514.500   131173643.786 6      2052.840          39.875    24961527.800   102213282.205 6      1599.616          40.062    24961528.680   102213288.204 7      1599.616          43.625
R22  21471168.220   114614552.866 7      1376.949          46.875    21471168.040   114614552.873 7      1376.949          45.937    21471179.400    89144691.883 8      1070.960          49.687    21471178.600    89144690.881 8      1070.960          49.437
G14  23186405.020   121845386.118 6      4852.155          41.375    23186403.380   121845386.139 5      4852.155          30.250    23186413.580    94944481.014 5      3780.900          30.875    23186413.520    94944486.021 7      3780.900          45.625
R07  21085220.940   112870839.330 7      1964.778          47.312    21085220.860   112870839.345 7      1964.778          46.250    21085234.200    87788487.486 8      1528.161          49.250    21085234.280    87788489.491 8      1528.161          49.562
G08  20998597.760   110348375.304 7      1458.283          47.750    20998596.460   110348375.304 8      1458.283          48.687    20998606.020    85985776.850 8      1136.324          49.000    20998607.700    85985784.851 8      1136.324          50.750
> 2024 05 09 14 45  7.0000000  0 13
G02  21554189.080   113268028.916 8      2153.302          48.875    21554187.920   113268028.923 6      2153.302          40.562    21554191.580    88260813.570 6      1677.898          40.375
R08  20945697.700   112163260.234 7      5321.810          46.937    20945699.140   112163260.284 7      5321.810          46.250    20945716.180    87238174.007 8      4139.185          49.187    20945715.680    87238176.013 8      4139.185          49.500
G03  21218727.080   111505166.633 8      5011.921          48.250    21218726.440   111505166.635 6      5011.921          40.187    21218738.060    86887188.924 6      3905.393          40.125    21218738.500    86887191.926 8      3905.393          50.500
G27  23305275.800   122470046.228 7        -3.013          43.875    23305276.240   122470046.230 7        -3.013          43.187    23305292.540    95431264.162 7        -2.347          42.687    23305293.140    95431267.162 7        -2.347          46.562
R12  21948816.020   117246636.213 7     -1085.821          45.250    21948815.360   117246636.208 7     -1085.821          44.187    21948838.540    91191912.610 7      -844.527          47.187    21948838.940    91191913.620 7      -844.527          47.812
G21  21485297.880   112905998.763 7      1246.537          47.812    21485296.100   112905998.770 6      1246.537          39.250    21485301.340    87978710.987 6       971.327          39.375
R23  21175310.860   113273638.003 7      3242.293          43.812    21175309.480   113273638.005 7      3242.293          42.812
G16  25507843.560   134044627.897 6     -1176.364          37.812    25507841.980   134044627.908 3     -1176.364          23.062    25507862.500   104450430.712 3      -916.647          22.812
G32  24961124.260   131171591.183 7      2052.474          45.062    24961123.740   131171591.180 6      2052.474          40.000    24961137.100   102211682.773 6      1599.331          39.937    24961138.000   102211688.770 7      1599.331          43.687
R22  21470910.340   114613175.981 7      1376.959          47.812    21470909.820   114613175.995 7      1376.959          47.000    21470921.360    89143620.982 8      1070.968          49.500    21470920.660    89143619.981 8      1070.968          49.375
G14  23185481.900   121840534.297 6      4851.716          41.312    23185479.720   121840534.312 5      4851.716          30.250    23185490.480    94940700.378 5      3780.558          30.125    23185490.480    94940705.386 7      3780.558          45.875
R07  21084853.920   112868875.045 7      1963.872          47.687    21084853.960   112868875.062 7      1963.872          45.562    21084867.260    87786959.715 8      1527.456          48.812    21084867.400    87786961.724 8      1527.456          49.187
G08  20998320.420   110346917.161 8      1458.015          48.062    20998319.000   110346917.166 8      1458.015          49.437    20998328.580    85984640.638 8      1136.116          49.062    20998330.160    85984648.638 8      1136.116          50.500
> 2024 05 09 14 45  8.0000000  0 13
G02  21553779.580   113265875.736 8      2153.047          48.375    21553778.140   113265875.741 6      2153.047          40.500    21553781.800    88259135.764 6      1677.699          40.437
R08  20944704.200   112157938.735 7      5321.112          47.062    20944705.160   112157938.782 7      5321.112          46.937    20944722.380    87234035.078 8      4138.643          49.125    20944721.600    87234037.079 8      4138.643          49.375
G03  21217773.460   111500155.081 8      5011.240          48.312    21217772.900   111500155.078 6      5011.240          40.375    21217784.380    86883283.827 6      3904.862          40.687    21217785.020    86883286.829 8      3904.862          50.687
G27  23305276.440   122470049.321 7        -3.223          44.375    23305276.920   122470049.325 7        -3.223          43.625    23305293.140    95431266.556 7        -2.511          43.187    23305293.760    95431269.558 7        -2.511          46.375
R12  21949019.760   117247722.127 7     -1086.175          46.187    21949018.680   117247722.128 7     -1086.175          45.937    21949042.220    91192757.200 7      -844.803          47.062    21949042.200    91192758.206 7      -844.803          47.625
G21  21485060.860   112904752.279 8      1246.369          48.125    21485058.680   112904752.284 6      1246.369          39.937    21485064.220    87977739.701 6       971.197          39.750
R23  21174704.560   113270395.739 7      3242.109          43.562    21174703.160   113270395.754 7      3242.109          42.812
G16  25508067.360   134045804.253 6     -1176.382          37.875    25508065.820   134045804.263 3     -1176.382          23.062    25508086.500   104451347.347 3      -916.661          22.562
G32  24960733.400   131169539.007 7      2051.833          44.375    24960733.200   131169539.012 6      2051.833          39.937    24960746.440   102210083.688 6      1598.831          39.812    24960747.320   102210089.687 7      1598.831          43.812
R22  21470652.400   114611799.088 7      1376.780          47.187    21470651.920   114611799.094 7      1376.780          46.687    21470663.460    89142550.059 8      1070.829          49.500    21470662.840    89142549.057 8      1070.829          50.062
G14  23184558.500   121835682.848 6      4851.108          41.562    23184556.340   121835682.863 5      4851.108          30.250    23184567.300    94936920.032 5      3780.084          30.125    23184567.180    94936925.051 7      3780.084          46.500
R07  21084487.340   112866911.525 7      1962.994          47.000    21084487.280   112866911.540 7      1962.994          46.187    21084500.480    87785432.529 8      1526.773          49.312    21084500.520    87785434.538 8      1526.773          49.125
G08  20998042.900   110345459.343 7      1457.553          47.875    20998041.600   110345459.345 8      1457.553          49.187    20998051.160    85983504.670 8      1135.756          49.125    20998052.840    85983512.670 8      1135.756          50.625
> 2024 05 09 14 45  9.0000000  0 13
G02  21553369.820   113263722.706 7      2152.957          47.812    21553368.560   113263722.711 6      2152.957          40.125    21553372.160    88257458.078 6      1677.629          39.937
R08  20943710.180   112152617.862 7      5320.529          47.125    20943711.720   112152617.906 7      5320.529          46.062    20943728.500    87229896.627 8      4138.189          49.312    20943728.020    87229898.629 8      4138.189          49.500
G03  21216819.960   111495144.076 8      5010.697          48.375    21216819.380   111495144.076 6      5010.697          40.312    21216830.820    86879379.154 6      3904.439          40.125    21216831.340    86879382.154 8      3904.439          50.187
G27  23305277.360   122470052.768 7        -3.666          44.250    23305277.660   122470052.770 7        -3.666          43.062    23305293.840    95431269.226 7        -2.857          43.125    23305294.300    95431272.225 7        -2.857          46.687
R12  21949222.920   117248808.403 7     -1086.393          46.000    21949222.080   117248808.412 7     -1086.393          45.437    21949245.460    91193602.062 7      -844.973          46.875    21949245.440    91193603.066 7      -844.973          47.562
G21  21484823.820   112903505.931 7      1246.283          47.500    21484821.600   112903505.939 6      1246.283          39.125    21484827.140    87976768.519 6       971.130          39.437
R23  21174098.240   113267153.577 7      3242.164          43.437    21174097.840   113267153.592 7      3242.164          43.437
G16  25508290.960   134046980.671 6     -1176.550          38.437    25508289.680   134046980.679 3     -1176.550          23.062    25508310.340   104452264.030 3      -916.793          22.562
G32  24960343.280   131167487.394 7      2051.344          43.875    24960342.640   131167487.402 6      2051.344          39.937    24960355.920   102208485.030 6      1598.450          39.812    24960357.000   102208491.035 7      1598.450          43.500
R22  21470394.140   114610422.304 7      1376.685          47.312    21470393.920   114610422.308 7      1376.685          47.312    21470405.320    89141479.219 8      1070.755          49.562    21470405.220    89141478.221 8      1070.755          49.687
G14  23183635.460   121830831.938 6      4850.665          41.187    23183633.260   121830831.956 5      4850.665          30.250    23183644.280    94933140.105 5      3779.739          30.125    23183644.400    94933145.117 7      3779.739          46.500
R07  21084120.480   112864948.942 7      1962.083          47.250    21084120.320   112864948.957 7      1962.083          45.937    21084133.760    87783906.079 8      1526.065          48.687    21084134.040    87783908.084 8      1526.065          48.625
G08  20997765.560   110344001.959 7      1457.243          47.687    20997764.240   110344001.958 8      1457.243          48.750    20997773.820    85982369.036 8      1135.514          49.125    20997775.440    85982377.039 8      1135.514          50.625
> 2024 05 09 14 45 10.0000000  0 13
G02  21552960.160   113261569.702 8      2152.750          48.000    21552958.800   113261569.709 6      2152.750          39.687    21552962.360    88255780.413 6      1677.468          39.812
R08  20942716.660   112147297.503 7      5319.882          46.875    20942718.300   112147297.542 7      5319.882          46.250    20942735.040    87225758.574 8      4137.686          49.687    20942734.700    87225760.576 8      4137.686          49.312
G03  21215866.240   111490133.461 7      5010.139          47.562    21215865.880   111490133.458 6      5010.139          40.375    21215877.420    86875474.787 6      3904.004          40.125    21215878.180    86875477.786 8      3904.004          50.562
G27  23305278.180   122470056.360 7        -3.858          44.000    23305278.280   122470056.359 7        -3.858          43.312    23305294.440    95431272.008 7        -3.006          42.750    23305294.660    95431275.010 7        -3.006          46.187
R12  21949426.320   117249894.889 7     -1086.794          45.437    21949425.780   117249894.892 7     -1086.794          45.562    21949448.920    91194447.080 7      -845.284          47.312    21949449.120    91194448.086 7      -845.284          47.875
G21  21484586.720   112902259.555 7      1246.156          46.562    21484584.300   112902259.563 6      1246.156          39.187    21484590.040    87975797.315 6       971.031          39.125
R23  21173492.520   113263911.383 7      3241.990          43.437    21173492.260   113263911.398 7      3241.990          43.625
G16  25508515.360   134048156.856 6     -1176.256          38.437    25508513.600   134048156.866 3     -1176.256          22.500    25508534.000   104453180.534 3      -916.563          22.562
G32  24959952.860   131165436.217 7      2050.770          43.812    24959952.200   131165436.222 6      2050.770          40.062    24959965.560   102206886.710 6      1598.002          39.750    24959966.560   102206892.707 7      1598.002          43.500
R22  21470136.400   114609045.464 7      1376.665          47.187    21470135.880   114609045.463 7      1376.665          46.875    21470147.480    89140408.337 8      1070.739          49.812    21470147.100    89140407.338 8      1070.739          49.875
G14  23182712.240   121825981.406 7      4850.049          42.250    23182710.280   121825981.419 5      4850.049          30.000    23182721.320    94929360.474 5      3779.259          30.187    23182721.320    94929365.488 7      3779.259          46.812
R07  21083754.100   112862987.146 7      1961.144          47.250    21083753.440   112862987.166 7      1961.144          46.000    21083767.280    87782380.246 8      1525.334          49.187    21083767.820    87782382.249 8      1525.334          48.500
G08  20997488.300   110342544.866 7      1456.756          46.812    20997486.960   110342544.874 8      1456.756          49.000    20997496.600    85981233.643 8      1135.135          48.562    20997498.300    85981241.647 8      1135.135          50.062
> 2024 05 09 14 45 11.0000000  0 13
G02  21552550.500   113259416.840 8      2152.857          48.500    21552549.180   113259416.842 6      2152.857          39.625    21552552.780    88254102.856 6      1677.551          39.750
R08  20941723.380   112141977.752 7      5319.504          47.000    20941725.100   112141977.793 7      5319.504          46.000    20941741.680    87221621.001 8      4137.392          49.250    20941741.020    87221623.000 8      4137.392          49.250
G03  21214912.880   111485123.381 8      5009.848          48.000    21214912.440   111485123.380 6      5009.848          40.375    21214924.140    86871570.834 6      3903.778          40.250    21214924.880    86871573.840 8      3903.778          50.750
G27  23305278.660   122470060.248 7        -3.937          43.812    23305278.960   122470060.256 7        -3.937          43.312    23305295.180    95431275.030 7        -3.068          42.875    23305295.560    95431278.034 7        -3.068          46.250
R12  21949629.840   117250981.677 7     -1086.780          44.625    21949629.280   117250981.681 7     -1086.780          44.812    21949652.200    91195292.339 7      -845.273          46.937    21949652.400    91195293.347 7      -845.273          47.937
G21  21484349.540   112901013.284 7      1246.351          46.687    21484347.320   112901013.292 6      1246.351          39.250    21484352.740    87974826.199 6       971.182          39.562
R23  21172886.340   113260669.277 7      3242.132          42.812    21172886.400   113260669.292 7      3242.132          43.625
G16  25508739.240   134049333.093 6     -1176.213          38.125    25508737.520   134049333.101 3     -1176.213          22.500    25508757.680   104454097.076 3      -916.530          22.562
G32  24959562.720   131163385.587 7      2050.386          44.187    24959561.960   131163385.592 6      2050.386          39.625    24959575.420   102205288.819 6      1597.703          39.687    24959576.780   102205294.818 7      1597.703          43.250
R22  21469877.940   114607668.718 7      1376.735          46.687    21469877.920   114607668.724 7      1376.735          46.750    21469889.660    89139337.537 8      1070.794          49.562    21469889.220    89139336.541 8      1070.794          49.750
G14  23181789.280   121821131.347 7      4849.882          42.125    23181787.240   121821131.355 5      4849.882          30.000    23181798.320    94925581.213 5      3779.129          30.187    23181797.920    94925586.227 7      3779.129          46.562
R07  21083387.740   112861026.305 7      1960.535          47.000    21083387.120   112861026.317 7      1960.535          45.625    21083401.180    87780855.146 8      1524.860          49.062    21083401.580    87780857.143 8      1524.860          49.500
G08  20997211.280   110341088.204 8      1456.613          48.312    20997209.800   110341088.212 8      1456.613          48.437    20997219.360    85980098.580 8      1135.023          48.375    20997221.160    85980106.582 8      1135.023          50.125
> 2024 05 09 14 45 12.0000000  0 13
G02  21552140.880   113257263.826 8      2153.099          48.187    21552139.400   113257263.828 6      2153.099          40.062    21552143.160    88252425.182 6      1677.740          40.250
R08  20940729.460   112136658.282 7      5319.330          46.437    20940731.660   112136658.337 7      5319.330          45.437    20940748.040    87217483.656 8      4137.256          49.562    20940747.680    87217485.657 8      4137.256          49.187
G03  21213959.720   111480113.532 7      5009.765          47.937    21213959.080   111480113.534 6      5009.765          40.375    21213970.900    86867667.064 6      3903.713          40.312    21213971.540    86867670.066 8      3903.713          51.062
G27  23305279.580   122470064.158 7        -3.858          43.062    23305279.600   122470064.158 7        -3.858          42.562    23305295.900    95431278.056 7        -3.006          42.687    23305296.360    95431281.054 7        -3.006          45.875
R12  21949833.600   117252068.545 7     -1086.850          44.500    21949832.460   117252068.541 7     -1086.850          45.437    21949855.780    91196137.651 7      -845.327          47.562    21949856.060    91196138.655 7      -845.327          47.875
G21  21484112.440   112899766.829 7      1246.584          46.687    21484109.960   112899766.842 6      1246.584          39.500    21484115.460    87973854.933 6       971.365          39.375
R23  21172280.640   113257426.914 7      3242.450          43.500    21172280.720   113257426.937 7      3242.450          42.687
G16  25508963.420   134050508.955 6     -1175.650          38.000    25508961.420   134050508.962 3     -1175.650          22.500    25508981.600   104455013.324 3      -916.091          22.562
G32  24959172.540   131161335.188 7      2050.229          44.312    24959171.760   131161335.195 6      2050.229          39.750    24959185.100   102203691.109 6      1597.581          39.562    24959186.720   102203697.110 7      1597.581          43.187
R22  21469620.120   114606291.755 7      1377.075          46.875    21469620.060   114606291.761 7      1377.075          46.625    21469631.600    89138266.564 8      1071.058          49.625    21469631.140    89138265.568 8      1071.058          49.562
G14  23180866.640   121816281.520 6      4849.676          41.750    23180864.420   121816281.527 5      4849.676          30.000    23180875.200    94921802.131 5      3778.968          30.187    23180875.260    94921807.157 7      3778.968          46.437
R07  21083021.360   112859066.101 7      1959.930          46.437    21083020.800   112859066.116 7      1959.930          45.062    21083034.960    87779330.543 8      1524.390          49.125    21083035.280    87779332.544 8      1524.390          49.437
G08  20996934.000   110339631.677 7      1456.506          47.187    20996932.680   110339631.679 8      1456.506          48.125    20996942.120    85978963.621 8      1134.940          48.250    20996943.600    85978971.619 8      1134.940          50.375
> 2024 05 09 14 45 13.0000000  0 13
G02  21551731.360   113255110.743 8      2152.836          49.250    21551729.680   113255110.748 6      2152.836          40.125    21551733.560    88250747.456 6      1677.535          39.750
R08  20939736.120   112131339.240 7      5318.620          46.812    20939738.760   112131339.293 7      5318.620          45.750    20939754.780    87213346.632 8      4136.705          49.500    20939754.340    87213348.631 8      4136.705          49.000
G03  21213006.480   111475104.007 8      5009.099          48.125    21213005.860   111475104.009 6      5009.099          40.687    21213017.540    86863763.546 6      3903.194          40.625    21213018.220    86863766.546 8      3903.194          50.625
G27  23305280.320   122470068.149 7        -4.368          43.250    23305280.380   122470068.154 7        -4.368          43.062    23305296.600    95431281.154 7        -3.403          42.625    23305296.900    95431284.158 7        -3.403          45.937
R12  21950036.920   117253155.501 7     -1087.171          45.625    21950035.900   117253155.497 7     -1087.171          45.875    21950059.260    91196983.041 7      -845.577          47.187    21950059.340    91196984.047 7      -845.577          47.875
G21  21483874.860   112898520.272 7      1246.338          47.125    21483872.680   112898520.282 6      1246.338          39.625    21483878.380    87972883.590 6       971.172          39.000
R23  21171674.300   113254184.418 7      3242.352          44.187    21171674.460   113254184.433 7      3242.352          43.687
G16  25509187.220   134051684.622 6     -1175.928          38.000    25509185.180   134051684.629 3     -1175.928          22.500    25509205.260   104455929.428 3      -916.307          22.562
G32  24958782.200   131159285.127 7      2049.661          45.625    24958781.700   131159285.130 6      2049.661          39.750    24958795.000   102202093.655 6      1597.138          39.687    24958796.440   102202099.656 7      1597.138          43.125
R22  21469361.940   114604914.681 7      1376.890          46.750    21469361.840   114604914.679 7      1376.890          46.625    21469373.620    89137195.503 8      1070.914          50.312    21469373.420    89137194.506 8      1070.914          49.437
G14  23179943.780   121811431.968 6      4849.121          41.312    23179941.680   121811431.978 5      4849.121          30.562    23179952.480    94918023.265 5      3778.536          30.187    23179952.740    94918028.286 7      3778.536          46.750
R07  21082655.480   112857106.564 7      1958.995          47.437    21082654.800   112857106.574 7      1958.995          45.687    21082668.800    87777806.457 8      1523.663          48.812    21082669.460    87777808.455 8      1523.663          49.000
G08  20996656.880   110338175.351 8      1456.028          48.125    20996655.540   110338175.351 8      1456.028          49.312    20996665.020    85977828.812 8      1134.567          49.187    20996666.480    85977836.810 8      1134.567          50.750
> 2024 05 09 14 45 14.0000000  0 13
G02  21551321.620   113252957.776 7      2152.809          47.625    21551320.040   113252957.784 6      2152.809          40.125    21551323.840    88249069.819 6      1677.513          39.750
R08  20938743.100   112126020.801 7      5317.997          46.875    20938745.240   112126020.851 7      5317.997          46.750    20938761.640    87209210.078 8      4136.220          49.500    20938760.920    87209212.076 8      4136.220          49.125
G03  21212053.200   111470094.991 8      5008.595          48.062    21212052.780   111470094.991 6      5008.595          40.375    21212064.300    86859860.419 6      3902.801          40.000    21212065.220    86859863.417 8      3902.801          50.562
G27  23305281.580   122470072.398 7        -4.509          43.312    23305281.220   122470072.400 7        -4.509          42.750    23305297.280    95431284.446 7        -3.514          42.562    23305297.560    95431287.444 7        -3.514          45.750
R12  21950240.860   117254242.775 7     -1087.525          44.625    21950239.460   117254242.776 7     -1087.525          45.625    21950262.740    91197828.684 7      -845.853          47.250    21950262.940    91197829.688 7      -845.853          47.687
G21  21483637.820   112897273.790 7      1246.323          47.062    21483635.460   112897273.798 6      1246.323          39.375    21483641.040    87971912.301 6       971.161          39.187
R23  21171067.980   113250941.943 7      3242.469          44.625    21171068.580   113250941.963 7      3242.469          43.812
G16  25509411.040   134052860.218 6     -1175.639          38.000    25509408.740   134052860.225 3     -1175.639          22.500    25509428.860   104456845.470 3      -916.082          22.562
G32  24958392.300   131157235.582 7      2049.201          44.625    24958391.620   131157235.584 6      2049.201          39.625    24958405.080   102200496.605 6      1596.780          39.625    24958406.420   102200502.612 7      1596.780          43.125
R22  21469104.220   114603537.643 7      1376.923          46.062    21469103.820   114603537.649 7      1376.923          47.062    21469115.460    89136124.479 8      1070.940          49.437    21469115.200    89136123.481 8      1070.940          49.187
G14  23179021.060   121806582.902 7      4848.707          42.062    23179019.220   121806582.910 5      4848.707          30.562    23179029.460    94914244.777 5      3778.214          30.500    23179030.040    94914249.787 7      3778.214          46.625
R07  21082289.420   112855147.894 7      1958.079          46.937    21082288.900   112855147.899 7      1958.079          45.875    21082302.820    87776283.045 8      1522.950          49.187    21082303.140    87776285.045 8      1522.950          49.375
G08  20996379.840   110336719.436 7      1455.605          47.812    20996378.540   110336719.438 8      1455.605          49.312    20996387.940    85976694.328 8      1134.238          49.562    20996389.620    85976702.330 8      1134.238          50.687
> 2024 05 09 14 45 15.0000000  0 13
G02  21550911.720   113250804.880 7      2152.984          47.937    21550910.440   113250804.888 6      2152.984          41.062    21550914.120    88247392.238 6      1677.650          40.562
R08  20937749.980   112120702.894 7      5317.663          46.937    20937752.220   112120702.947 7      5317.663          46.062    20937768.440    87205073.940 8      4135.960          49.375    20937767.900    87205075.937 8      4135.960          48.625
G03  21211100.000   111465086.417 7      5008.350          47.437    21211099.660   111465086.416 6      5008.350          40.187    21211111.300    86855957.642 6      3902.611          40.000    21211112.040    86855960.642 8      3902.611          51.000
G27  23305282.600   122470076.881 7        -4.553          44.125    23305282.120   122470076.880 7        -4.553          42.937    23305298.040    95431287.927 7        -3.548          42.500    23305298.520    95431290.924 7        -3.548          45.750
R12  21950444.560   117255330.271 7     -1087.495          45.125    21950443.520   117255330.267 7     -1087.495          45.250    21950466.360    91198674.489 7      -845.829          47.500    21950466.380    91198675.491 8      -845.829          48.000
G21  21483400.540   112896027.346 7      1246.389          47.250    21483398.360   112896027.356 6      1246.389          39.625    21483403.840    87970941.048 6       971.212          39.562
R23  21170461.900   113247699.519 7      3242.457          44.437    21170462.500   113247699.536 7      3242.457          43.812
G16  25509634.600   134054035.712 6     -1175.378          37.812    25509632.500   134054035.722 3     -1175.378          22.500    25509652.380   104457761.433 3      -915.879          22.562
G32  24958002.540   131155186.515 7      2048.794          44.687    24958001.620   131155186.517 6      2048.794          39.750    24958015.200   102198899.933 6      1596.463          39.687    24958016.420   102198905.937 7      1596.463          43.187
R22  21468846.040   114602160.641 7      1377.068          47.000    21468846.060   114602160.647 7      1377.068          47.125    21468857.500    89135053.470 8      1071.053          49.625    21468857.000    89135052.466 8      1071.053          49.625
G14  23178098.560   121801734.281 7      4848.403          42.687    23178096.760   121801734.286 5      4848.403          30.562    23178106.700    94910466.634 5      3777.976          30.500    23178106.920    94910471.636 7      3777.976          46.437
R07  21081923.520   112853190.017 7      1957.456          46.125    21081922.820   112853190.032 7      1957.456          45.750    21081937.080    87774760.261 8      1522.466          49.000    21081937.320    87774762.260 8      1522.466          49.312
G08  20996102.920   110335263.867 7      1455.441          47.250    20996101.480   110335263.867 8      1455.441          49.250    20996110.980    85975560.117 8      1134.110          48.937    20996112.600    85975568.117 8      1134.110          50.687
> 2024 05 09 14 45 16.0000000  0 13
G02  21550502.140   113248652.147 8      2152.785          48.250    21550500.780   113248652.149 6      2152.785          40.187    21550504.360    88245714.781 6      1677.495          40.250
R08  20936757.080   112115385.604 7      5317.050          47.125    20936759.580   112115385.654 7      5317.050          46.500    20936775.560    87200938.280 8      4135.483          49.312    20936774.880    87200940.279 8      4135.483          49.062
G03  21210146.840   111460078.391 7      5007.810          47.500    21210146.600   111460078.391 6      5007.810          40.625    21210158.220    86852055.291 6      3902.190          40.062    21210159.040    86852058.289 8      3902.190          50.812
G27  23305283.600   122470081.652 7        -4.821          43.312    23305282.920   122470081.657 7        -4.821          43.000    23305299.080    95431291.635 7        -3.757          42.937    23305299.400    95431294.636 7        -3.757          45.937
R12  21950648.640   117256418.085 7     -1087.883          45.125    21950647.180   117256418.083 7     -1087.883          45.500    21950669.820    91199520.548 7      -846.131          47.187    21950670.320    91199521.548 7      -846.131          47.562
G21  21483163.400   112894781.009 7      1246.293          47.000    21483161.240   112894781.017 6      1246.293          39.562    21483166.680    87969969.872 6       971.137          39.812
R23  21169855.820   113244457.132 7      3242.447          45.000    21169856.280   113244457.152 7      3242.447          44.375
G16  25509858.180   134055211.239 6     -1175.582          37.812    25509856.140   134055211.249 3     -1175.582          22.500    25509875.900   104458677.427 3      -916.038          22.562
G32  24957612.680   131153137.971 7      2048.362          44.687    24957611.780   131153137.981 6      2048.362          39.875    24957625.340   102197303.673 6      1596.126          39.625    24957626.200   102197309.673 7      1596.126          43.187
R22  21468588.540   114600783.726 7      1376.934          46.750    21468588.280   114600783.727 7      1376.934          46.187    21468599.620    89133982.533 8      1070.949          49.375    21468599.200    89133981.529 8      1070.949          49.500
G14  23177175.440   121796886.143 7      4847.945          44.062    23177174.440   121796886.148 5      4847.945          30.937    23177184.260    94906688.864 5      3777.619          30.500    23177184.500    94906693.873 7      3777.619          46.437
