     3.05           OBSERVATION DATA    MIXED               RINEX VERSION / TYPE
TPS2RIN 1.0.29.3920 TPS-USER            20240511 194056 UTC PGM / RUN BY / DATE
Win64 build Feb 23, 2024 (c) Topcon Positioning Systems     COMMENT
SRC: 20240509_FA15.tps                                      COMMENT
OPT: -S -v 3.05                                             COMMENT
Observer            Agency                                  OBSERVER / AGENCY
O0M3X53SBGM         TPS HIPER_SR        4.8 HSR Jul,08,2022 REC # / TYPE / VERS
FW: 4.8 HSR Jul,08,2022 p3                                  COMMENT
SN: HiPer SR 1212-12575                                     COMMENT
000                 TPSHIPER_SR     NONE                    ANT # / TYPE
        1.8000        0.0000        0.0000                  ANTENNA: DELTA H/E/N
FA15                                                        MARKER NAME
  5392890.5201 -1593336.7545  3001619.6977                  APPROX POSITION XYZ
  2024     5     9    15    14   55.0000000     GPS         TIME OF FIRST OBS
  2024     5     9    15    29   54.0000000     GPS         TIME OF LAST OBS
     1.000                                                  INTERVAL
   900 EPOCHS                                               COMMENT
G   16 C1C L1C D1C S1C C1W L1W D1W S1W C2W L2W D2W S2W C2X  SYS / # / OBS TYPES
       L2X D2X S2X                                          SYS / # / OBS TYPES
R   16 C1C L1C D1C S1C C1P L1P D1P S1P C2P L2P D2P S2P C2C  SYS / # / OBS TYPES
       L2C D2C S2C                                          SYS / # / OBS TYPES
    19                                                      # OF SATELLITES
   G02   900   900   900   900   900   900   900   900   900PRN / # OF OBS
         900   900   900     0     0     0     0            PRN / # OF OBS
   G03   900   900   900   900   900   900   900   900   900PRN / # OF OBS
         900   900   900   900   900   900   900            PRN / # OF OBS
   G04   900   900   900   900   900   900   900   900   900PRN / # OF OBS
         900   900   900   900   900   900   900            PRN / # OF OBS
   G08   900   900   900   900   900   900   900   900   900PRN / # OF OBS
         900   900   900   900   900   900   900            PRN / # OF OBS
   G14   900   900   900   900   900   900   900   900   900PRN / # OF OBS
         900   900   900   900   900   900   900            PRN / # OF OBS
   G17   798   798   798   798   797   797   797   797   797PRN / # OF OBS
         797   797   797   793   793   793   793            PRN / # OF OBS
   G21   900   900   900   900   900   900   900   900   900PRN / # OF OBS
         900   900   900     0     0     0     0            PRN / # OF OBS
   G22   900   900   900   900   900   900   900   900   900PRN / # OF OBS
         900   900   900     0     0     0     0            PRN / # OF OBS
   G27   900   900   900   900   900   900   900   900   900PRN / # OF OBS
         900   900   900   900   900   900   900            PRN / # OF OBS
   G32   900   900   900   900   900   900   900   900   900PRN / # OF OBS
         900   900   900   900   900   900   900            PRN / # OF OBS
   R01   900   900   900   900   900   900   900   900   900PRN / # OF OBS
         900   900   900   900   900   900   900            PRN / # OF OBS
   R07   900   900   900   900   900   900   900   900   900PRN / # OF OBS
         900   900   900   900   900   900   900            PRN / # OF OBS
   R08   900   900   900   900   900   900   900   900   900PRN / # OF OBS
         900   900   900   900   900   900   900            PRN / # OF OBS
   R12   900   900   900   900   900   900   900   900   900PRN / # OF OBS
         900   900   900   900   900   900   900            PRN / # OF OBS
   R13   745   745   745   745   739   739   739   739   739PRN / # OF OBS
         739   739   739   738   738   738   738            PRN / # OF OBS
   R14   900   900   900   900   900   900   900   900   900PRN / # OF OBS
         900   900   900   900   900   900   900            PRN / # OF OBS
   R22   900   900   900   900   900   900   900   900   900PRN / # OF OBS
         900   900   900   900   900   900   900            PRN / # OF OBS
   R23   900   900   900   900   900   900   900   900     0PRN / # OF OBS
           0     0     0     0     0     0     0            PRN / # OF OBS
   R24   700   700   700   700   695   695   695   695   695PRN / # OF OBS
         695   695   695   694   694   694   694            PRN / # OF OBS
G L1C                                                       SYS / PHASE SHIFT
G L1W -0.25000                                              SYS / PHASE SHIFT
G L2W  0.00000                                              SYS / PHASE SHIFT
G L2X  0.25000                                              SYS / PHASE SHIFT
R L1C                                                       SYS / PHASE SHIFT
R L1P -0.25000                                              SYS / PHASE SHIFT
R L2P -0.25000                                              SYS / PHASE SHIFT
R L2C                                                       SYS / PHASE SHIFT
  9 R01  1 R07  5 R08  6 R12 -1 R13 -2 R14 -7 R22 -3 R23  3 GLONASS SLOT / FRQ #
    R24  2                                                  GLONASS SLOT / FRQ #
                                                            GLONASS COD/PHS/BIS
    18    18  1929     7GPS                                 LEAP SECONDS
                                                            END OF HEADER
> 2024 05 09 15 14 55.0000000  0 16
G22  24542273.160   128970515.654 7      4853.023          43.062    24542272.140   128970515.662 4      4853.023          28.250    24542280.740   100496539.114 4      3781.577          28.312
R01  22803435.180   121897432.689 7      6810.856          42.375    22803433.420   121897432.711 6      6810.856          41.562    22803459.140    94809213.043 6      5297.333          40.062    22803458.440    94809211.025 6      5297.333          41.062
R14  23241882.580   123892315.747 7      3720.469          45.312    23241881.100   123892315.739 7      3720.469          44.750    23241898.080    96360749.200 7      2893.698          47.562    23241897.840    96360748.206 8      2893.698          48.000
R12  23261643.840   124259523.864 7     -1313.024          43.250    23261644.860   124259523.873 7     -1313.024          42.687    23261668.340    96646402.114 7     -1021.241          44.062    23261668.200    96646401.120 7     -1021.241          45.250
G27  24272312.720   127551860.961 6      -409.890          41.062    24272311.400   127551860.971 6      -409.890          38.750    24272334.340    99391146.562 6      -319.395          38.562    24272335.120    99391153.557 7      -319.395          43.187
G32  25310148.640   133005729.795 6      1168.590          41.312    25310147.920   133005729.800 5      1168.590          35.125    25310160.080   103640876.203 5       910.590          35.250    25310161.540   103640886.223 6       910.590          40.312
R07  21575601.480   115495877.328 7       495.326          46.375    21575600.680   115495877.345 7       495.326          45.187    21575614.340    89830187.762 7       385.254          47.875    21575614.900    89830186.763 7       385.254          47.562
R23  20997802.360   112324077.682 7      3194.772          46.000    20997802.100   112324077.705 7      3194.772          45.187
G14  22585171.340   118685880.964 7      3929.572          45.062    22585170.100   118685880.969 5      3929.572          34.687    22585178.740    92482532.914 5      3062.004          34.500    22585179.120    92482537.916 8      3062.004          48.375
G04  24629696.960   129429932.479 6      5410.536          41.500    24629697.300   129429932.487 4      5410.536          27.875    24629716.840   100854546.061 4      4216.002          27.812    24629716.060   100854571.054 7      4216.002          44.000
G08  21513471.060   113054054.297 7       776.884          47.625    21513470.220   113054054.308 8       776.884          48.125    21513481.600    88094106.034 7       605.364          47.500    21513482.140    88094113.038 8       605.364          50.312
R22  21921587.240   117018914.160 7      1270.573          45.062    21921586.080   117018914.158 7      1270.573          45.687    21921598.700    91014761.222 7       988.223          47.437    21921598.440    91014763.222 8       988.223          48.000
R08  20258973.080   108485882.332 8      4084.379          48.562    20258974.220   108485882.371 7      4084.379          47.250    20258987.520    84377971.933 8      3176.739          49.812    20258987.480    84377969.934 8      3176.739          50.187
G03  20567631.280   108083630.583 8      4059.821          49.250    20567630.640   108083630.583 7      4059.821          43.187    20567639.740    84221050.021 7      3163.497          42.687    20567640.160    84221050.025 8      3163.497          52.562
G02  21742897.240   114259697.754 8      2033.227          48.000    21742895.500   114259697.759 6      2033.227          39.062    21742899.520    89033544.298 6      1584.333          39.187
G21  21969694.940   115451525.760 7      1198.804          47.437    21969693.160   115451525.762 6      1198.804          38.375    21969698.520    89962244.776 6       934.133          38.312
> 2024 05 09 15 14 56.0000000  0 16
G22  24541349.220   128965662.994 6      4852.515          41.125    24541348.780   128965663.007 4      4852.515          28.250    24541357.360   100492757.823 4      3781.180          28.312
R01  22802160.980   121890621.950 7      6810.671          42.312    22802159.600   121890621.954 6      6810.671          41.562    22802184.460    94803915.781 6      5297.189          40.062    22802184.180    94803913.767 6      5297.189          41.062
R14  23241185.120   123888595.630 7      3719.731          45.687    23241183.120   123888595.630 7      3719.731          45.312    23241199.820    96357855.782 7      2893.124          47.562    23241199.940    96357854.790 8      2893.124          48.062
R12  23261889.900   124260836.969 7     -1313.030          43.187    23261890.700   124260836.992 7     -1313.030          43.062    23261914.380    96647423.428 7     -1021.246          44.375    23261913.780    96647422.430 7     -1021.246          44.750
G27  24272390.600   127552270.864 6      -410.020          40.937    24272389.400   127552270.872 6      -410.020          38.750    24272412.240    99391465.957 6      -319.496          38.625    24272412.960    99391472.943 7      -319.496          43.187
G32  25309926.760   133004561.601 7      1168.031          42.250    25309925.780   133004561.603 5      1168.031          35.437    25309937.860   103639965.921 5       910.154          35.250    25309939.560   103639975.938 6       910.154          40.687
R07  21575508.720   115495382.409 7       494.496          46.625    21575508.440   115495382.424 7       494.496          45.375    21575522.100    89829802.817 7       384.608          47.500    21575522.420    89829801.816 7       384.608          46.812
R23  20997204.920   112320882.939 7      3194.749          45.937    20997204.680   112320882.962 7      3194.749          44.687
G14  22584423.580   118681951.627 7      3929.088          45.500    22584422.440   118681951.632 5      3929.088          35.062    22584430.980    92479471.095 5      3061.627          34.937    22584431.280    92479476.095 8      3061.627          48.437
G04  24628667.360   129424521.921 7      5410.748          42.687    24628667.640   129424521.926 4      5410.748          27.875    24628687.360   100850330.042 4      4216.167          27.812    24628686.620   100850355.031 7      4216.167          44.062
G08  21513323.600   113053277.637 8       776.466          48.187    21513322.440   113053277.642 8       776.466          48.750    21513333.860    88093500.836 8       605.038          48.312    21513334.440    88093507.838 8       605.038          50.312
R22  21921348.860   117017643.678 7      1270.519          45.812    21921348.280   117017643.679 7      1270.519          46.125    21921360.540    91013773.070 7       988.182          47.562    21921360.580    91013775.072 8       988.182          48.062
R08  20258210.400   108481798.290 8      4083.778          48.125    20258211.400   108481798.324 7      4083.778          47.312    20258224.740    84374795.458 8      3176.272          50.062    20258224.780    84374793.457 8      3176.272          50.062
G03  20566858.740   108079571.042 8      4059.284          49.500    20566858.100   108079571.041 7      4059.284          42.937    20566867.280    84217886.746 7      3163.079          42.625    20566867.720    84217886.751 8      3163.079          52.500
G02  21742510.320   114257664.544 8      2033.108          48.562    21742508.640   114257664.547 6      2033.108          39.500    21742512.680    89031959.977 6      1584.240          39.812
G21  21969466.840   115450327.018 8      1198.774          48.187    21969465.080   115450327.023 6      1198.774          38.437    21969470.360    89961310.690 6       934.109          38.312
> 2024 05 09 15 14 57.0000000  0 16
G22  24540425.640   128960810.618 6      4852.359          41.312    24540425.220   128960810.625 4      4852.359          28.250    24540434.040   100488976.750 4      3781.059          28.125
R01  22800887.180   121883811.225 7      6810.846          42.312    22800885.500   121883811.232 6      6810.846          41.250    22800910.480    94798618.552 6      5297.324          40.437    22800910.120    94798616.543 6      5297.324          41.000
R14  23240487.200   123884876.232 7      3719.202          45.937    23240485.960   123884876.227 7      3719.202          45.062    23240501.980    96354962.913 7      2892.713          47.562    23240502.440    96354961.919 8      2892.713          48.187
R12  23262135.240   124262150.032 7     -1312.841          43.187    23262136.540   124262150.049 7     -1312.841          43.000    23262160.260    96648444.697 7     -1021.099          44.375    23262159.740    96648443.700 7     -1021.099          44.687
G27  24272468.760   127552680.936 6      -410.185          40.875    24272467.400   127552680.946 6      -410.185          38.625    24272490.340    99391785.483 6      -319.625          38.125    24272491.420    99391792.479 7      -319.625          43.187
G32  25309704.220   133003393.817 7      1167.715          42.125    25309703.500   133003393.819 5      1167.715          35.562    25309715.900   103639055.966 5       909.908          35.375    25309717.200   103639065.992 6       909.908          40.687
R07  21575416.140   115494888.205 7       493.956          46.500    21575416.340   115494888.212 7       493.956          45.375    21575429.740    89829418.434 7       384.188          47.562    21575430.100    89829417.432 7       384.188          47.375
R23  20996607.900   112317688.185 7      3194.928          45.812    20996607.320   112317688.208 7      3194.928          45.187
G14  22583675.820   118678022.831 7      3928.658          45.687    22583674.880   118678022.839 5      3928.658          35.062    22583683.400    92476409.696 5      3061.292          34.937    22583683.780    92476414.698 8      3061.292          48.500
G04  24627637.700   129419111.184 7      5410.958          42.375    24627637.900   129419111.189 4      5410.958          27.875    24627657.600   100846113.881 4      4216.331          28.187    24627657.000   100846138.876 7      4216.331          44.187
G08  21513175.980   113052501.306 8       776.247          48.250    21513174.740   113052501.316 8       776.247          48.500    21513186.180    88092895.900 7       604.868          47.937    21513186.940    88092902.905 8       604.868          50.375
R22  21921110.800   117016373.279 7      1270.502          45.625    21921110.340   117016373.283 7      1270.502          45.375    21921122.560    91012784.978 7       988.168          47.187    21921122.600    91012786.978 7       988.168          47.625
R08  20257447.720   108477715.033 8      4083.013          48.312    20257448.860   108477715.066 7      4083.013          47.312    20257462.280    84371619.598 8      3175.677          50.312    20257461.980    84371617.597 8      3175.677          50.250
G03  20566086.260   108075512.026 8      4058.908          49.625    20566085.580   108075512.026 7      4058.908          43.125    20566094.980    84214723.879 7      3162.786          42.625    20566095.280    84214723.881 8      3162.786          52.312
G02  21742123.520   114255631.311 8      2033.382          48.687    21742121.720   114255631.318 6      2033.382          39.437    21742125.840    89030375.641 6      1584.454          39.562
G21  21969238.720   115449128.250 8      1198.883          48.312    21969236.980   115449128.252 6      1198.883          38.500    21969242.380    89960376.585 6       934.194          38.250
> 2024 05 09 15 14 58.0000000  0 16
G22  24539502.800   128955958.654 7      4851.602          42.125    24539501.900   128955958.664 4      4851.602          28.250    24539510.760   100485196.003 4      3780.469          28.125
R01  22799612.680   121877000.674 7      6810.233          42.500    22799611.440   121877000.691 6      6810.233          41.250    22799636.800    94793321.467 6      5296.848          40.062    22799636.200    94793319.460 6      5296.848          41.125
R14  23239789.620   123881157.642 7      3718.054          46.187    23239788.440   123881157.637 7      3718.054          45.312    23239804.340    96352070.674 7      2891.820          47.312    23239804.440    96352069.678 7      2891.820          47.687
R12  23262380.720   124263463.110 7     -1313.284          43.000    23262382.020   124263463.127 7     -1313.284          43.000    23262405.740    96649465.986 7     -1021.443          43.812    23262405.820    96649464.990 7     -1021.443          44.500
G27  24272546.280   127553091.246 6      -410.571          40.625    24272545.540   127553091.248 6      -410.571          38.812    24272568.540    99392105.191 6      -319.926          38.625    24272569.360    99392112.181 7      -319.926          43.375
G32  25309482.000   133002226.558 6      1167.043          41.812    25309481.380   133002226.560 5      1167.043          35.437    25309493.860   103638146.417 5       909.384          35.312    25309494.900   103638156.442 6       909.384          41.500
R07  21575324.100   115494394.801 7       492.829          46.750    21575324.160   115494394.821 7       492.829          45.500    21575338.000    89829034.685 7       383.311          47.562    21575338.040    89829033.680 7       383.311          47.875
R23  20996010.320   112314493.512 7      3194.597          46.125    20996010.080   112314493.534 7      3194.597          44.812
G14  22582928.200   118674094.653 7      3927.714          44.937    22582927.520   118674094.660 5      3927.714          35.125    22582936.020    92473348.777 5      3060.556          34.812    22582936.380    92473353.779 8      3060.556          48.687
G04  24626607.900   129413700.355 6      5410.705          41.937    24626608.340   129413700.363 4      5410.705          28.312    24626628.000   100841897.651 4      4216.134          28.187    24626627.840   100841922.640 7      4216.134          44.312
G08  21513028.120   113051725.405 7       775.578          47.562    21513027.000   113051725.407 8       775.578          48.000    21513038.340    88092291.292 7       604.347          47.437    21513039.180    88092298.301 8       604.347          50.250
R22  21920873.120   117015103.001 7      1270.040          45.562    21920872.520   117015103.004 7      1270.040          45.812    21920884.600    91011796.979 7       987.809          47.375    21920884.680    91011798.979 7       987.809          47.125
R08  20256685.580   108473632.605 8      4081.858          48.250    20256686.540   108473632.647 7      4081.858          47.625    20256699.920    84368444.389 8      3174.778          49.937    20256699.740    84368442.390 8      3174.778          50.562
G03  20565314.000   108071453.617 8      4058.032          48.937    20565313.280   108071453.622 7      4058.032          42.812    20565322.640    84211561.491 7      3162.103          42.812    20565322.980    84211561.495 8      3162.103          52.750
G02  21741736.740   114253598.198 7      2032.903          47.687    21741734.820   114253598.205 6      2032.903          39.750    21741738.900    89028791.399 6      1584.081          39.250
G21  21969010.660   115447929.524 7      1198.551          47.625    21969008.880   115447929.528 6      1198.551          38.562    21969014.220    89959442.512 6       933.936          38.812
> 2024 05 09 15 14 59.0000000  0 16
G22  24538579.340   128951107.058 7      4851.334          42.625    24538578.580   128951107.068 4      4851.334          28.250    24538587.580   100481415.545 4      3780.261          28.125
R01  22798338.620   121870190.234 7      6810.224          42.500    22798337.440   121870190.236 6      6810.224          41.562    22798362.460    94788024.461 6      5296.841          40.062    22798361.700    94788022.443 6      5296.841          41.125
R14  23239092.160   123877439.777 7      3717.456          46.375    23239091.040   123877439.770 7      3717.456          45.562    23239106.640    96349179.003 7      2891.355          47.750    23239107.100    96349178.014 8      2891.355          48.187
R12  23262626.680   124264776.180 7     -1313.104          43.000    23262627.700   124264776.197 7     -1313.104          43.062    23262651.660    96650487.267 7     -1021.303          44.375    23262651.580    96650486.271 7     -1021.303          44.687
G27  24272624.180   127553501.764 6      -410.608          41.687    24272623.660   127553501.764 6      -410.608          39.062    24272646.660    99392425.067 6      -319.954          38.812    24272647.040    99392432.060 7      -319.954          43.312
G32  25309259.680   133001059.819 6      1166.494          41.187    25309259.480   133001059.826 5      1166.494          35.750    25309271.900   103637237.280 5       908.957          35.625    25309273.080   103637247.295 6       908.957          41.500
R07  21575232.140   115493902.168 7       492.148          46.500    21575232.100   115493902.185 7       492.148          45.500    21575245.960    89828651.520 7       382.782          47.562    21575245.800    89828650.517 7       382.782          47.687
R23  20995413.480   112311298.916 7      3194.482          45.437    20995412.860   112311298.938 7      3194.482          44.812
G14  22582180.980   118670167.045 7      3927.296          45.062    22582180.280   118670167.047 5      3927.296          35.187    22582188.600    92470288.305 5      3060.231          34.812    22582188.920    92470293.301 8      3060.231          48.500
G04  24625578.900   129408289.366 7      5410.975          42.375    24625578.460   129408289.371 4      5410.975          28.312    24625598.180   100837681.290 4      4216.344          28.187    24625597.800   100837706.289 7      4216.344          44.625
G08  21512880.620   113050949.909 7       775.248          47.437    21512879.500   113050949.911 8       775.248          48.812    21512890.880    88091687.009 8       604.090          48.437    21512891.580    88091694.014 8       604.090          50.125
R22  21920634.960   117013832.813 7      1270.075          46.187    21920634.720   117013832.811 7      1270.075          46.000    21920646.520    91010809.051 7       987.836          46.937    21920646.420    91010811.053 7       987.836          47.437
R08  20255923.420   108469551.019 8      4081.115          48.625    20255924.660   108469551.055 7      4081.115          47.250    20255937.740    84365269.824 8      3174.200          50.000    20255937.540    84365267.825 8      3174.200          50.187
G03  20564541.720   108067395.823 8      4057.425          49.625    20564541.100   108067395.826 7      4057.425          42.937    20564550.480    84208399.576 7      3161.630          42.062    20564550.720    84208399.582 8      3161.630          52.875
G02  21741349.740   114251565.143 7      2032.957          47.937    21741348.020   114251565.148 6      2032.957          39.687    21741351.960    89027207.198 6      1584.123          39.437
G21  21968782.400   115446730.813 7      1198.632          47.750    21968780.840   115446730.821 6      1198.632          37.750    21968786.080    89958508.458 6       933.999          38.187
> 2024 05 09 15 15  0.0000000  0 16
G22  24537656.320   128946255.778 7      4851.043          42.812    24537655.540   128946255.788 4      4851.043          28.250    24537664.500   100477635.333 4      3780.034          28.125
R01  22797064.880   121863379.854 7      6810.253          42.500    22797063.480   121863379.855 6      6810.253          41.562    22797088.940    94782727.492 6      5296.863          40.312    22797087.540    94782725.483 6      5296.863          41.125
R14  23238395.140   123873722.600 7      3716.791          46.375    23238393.540   123873722.593 7      3716.791          45.750    23238409.120    96346287.863 7      2890.838          47.375    23238409.740    96346286.878 7      2890.838          47.562
R12  23262872.500   124266089.234 7     -1313.050          43.312    23262873.420   124266089.238 7     -1313.050          43.062    23262897.860    96651508.523 7     -1021.261          44.125    23262897.400    96651507.525 7     -1021.261          45.000
G27  24272702.740   127553912.456 6      -410.796          40.812    24272701.820   127553912.461 6      -410.796          39.000    24272724.900    99392745.081 6      -320.101          38.937    24272725.580    99392752.079 7      -320.101          43.250
G32  25309037.540   132999893.503 6      1166.136          41.500    25309037.680   132999893.511 5      1166.136          35.750    25309050.040   103636328.463 6       908.678          36.062    25309051.660   103636338.477 6       908.678          41.875
R07  21575140.380   115493410.217 7       491.502          46.625    21575140.340   115493410.243 7       491.502          45.187    21575154.040    89828268.898 7       382.280          47.687    21575153.940    89828267.899 7       382.280          47.062
R23  20994816.300   112308104.314 7      3194.453          45.437    20994815.580   112308104.337 7      3194.453          44.937
G14  22581433.500   118666239.967 7      3926.775          45.500    22581432.920   118666239.969 5      3926.775          35.000    22581441.300    92467228.247 5      3059.824          34.812    22581441.920    92467233.247 8      3059.824          48.562
G04  24624549.140   129402878.172 6      5411.275          41.437    24624548.780   129402878.179 4      5411.275          28.312    24624568.340   100833464.779 4      4216.578          28.187    24624567.780   100833489.780 7      4216.578          44.625
G08  21512732.960   113050174.752 8       774.892          48.375    21512731.920   113050174.754 8       774.892          48.812    21512743.380    88091082.985 8       603.812          48.375    21512744.180    88091089.989 8       603.812          50.000
R22  21920397.020   117012562.659 7      1270.077          45.812    21920396.740   117012562.668 7      1270.077          45.625    21920408.640    91009821.156 7       987.837          47.062    21920408.700    91009823.156 7       987.837          47.375
R08  20255161.200   108465470.184 8      4080.440          48.562    20255162.540   108465470.226 7      4080.440          47.062    20255175.680    84362095.852 8      3173.675          49.750    20255175.460    84362093.851 8      3173.675          50.125
G03  20563769.720   108063338.524 8      4057.009          49.812    20563769.060   108063338.528 7      4057.009          42.437    20563778.340    84205238.051 7      3161.306          42.562    20563778.720    84205238.058 8      3161.306          51.875
G02  21740962.760   114249532.088 7      2032.945          47.562    21740961.020   114249532.090 6      2032.945          39.437    21740965.240    89025623.002 6      1584.113          39.250
G21  21968554.300   115445532.082 7      1198.679          47.187    21968552.760   115445532.089 6      1198.679          38.187    21968558.080    89957574.380 6       934.036          38.250
> 2024 05 09 15 15  1.0000000  0 16
G22  24536733.680   128941404.894 7      4850.975          43.062    24536732.480   128941404.901 4      4850.975          28.062    24536741.500   100473855.425 4      3779.980          28.125
R01  22795791.100   121856569.650 7      6810.216          42.187    22795789.460   121856569.673 6      6810.216          41.562    22795814.520    94777430.692 6      5296.835          40.312    22795813.520    94777428.676 6      5296.835          41.125
R14  23237697.960   123870006.220 7      3716.218          46.687    23237696.140   123870006.215 7      3716.218          45.750    23237712.080    96343397.352 7      2890.392          47.125    23237712.500    96343396.362 7      2890.392          47.562
R12  23263118.480   124267402.334 7     -1312.935          43.000    23263118.920   124267402.340 7     -1312.935          42.812    23263143.560    96652529.829 7     -1021.171          43.937    23263143.320    96652528.833 7     -1021.171          45.062
G27  24272781.300   127554323.434 6      -410.965          41.062    24272780.120   127554323.444 6      -410.965          38.562    24272803.060    99393065.317 6      -320.232          38.500    24272803.720    99393072.317 7      -320.232          43.250
G32  25308815.660   132998727.773 6      1165.549          41.000    25308815.700   132998727.778 5      1165.549          35.937    25308828.340   103635420.108 6       908.220          36.062    25308830.060   103635430.114 7       908.220          42.000
R07  21575048.560   115492919.131 7       490.941          46.937    21575048.600   115492919.146 7       490.941          45.437    21575062.200    89827886.934 7       381.843          47.812    21575062.360    89827885.926 7       381.843          47.625
R23  20994219.280   112304909.825 7      3194.585          45.687    20994218.520   112304909.846 7      3194.585          44.937
G14  22580686.540   118662313.539 7      3926.320          44.687    22580685.720   118662313.541 5      3926.320          35.000    22580694.040    92464168.688 5      3059.470          35.062    22580694.880    92464173.694 8      3059.470          48.562
G04  24623519.200   129397466.917 6      5411.518          41.437    24623519.000   129397466.927 4      5411.518          28.312    24623538.800   100829248.221 4      4216.768          28.187    24623538.060   100829273.218 7      4216.768          44.375
G08  21512585.700   113049400.044 8       774.673          48.625    21512584.620   113049400.046 8       774.673          48.562    21512595.860    88090479.310 8       603.642          48.000    21512596.740    88090486.317 8       603.642          50.000
R22  21920159.160   117011292.701 7      1270.128          46.437    21920159.320   117011292.705 7      1270.128          46.375    21920170.740    91008833.405 7       987.878          47.625    21920170.580    91008835.403 7       987.878          47.125
R08  20254399.320   108461390.261 8      4079.669          48.250    20254400.700   108461390.302 7      4079.669          47.312    20254413.700    84358922.582 8      3173.076          50.187    20254413.700    84358920.581 8      3173.076          50.000
G03  20562997.680   108059281.894 8      4056.554          49.187    20562997.060   108059281.896 7      4056.554          42.750    20563006.520    84202077.045 7      3160.951          42.250    20563006.700    84202077.047 8      3160.951          52.062
G02  21740575.800   114247499.149 8      2033.032          48.062    21740574.120   114247499.159 6      2033.032          39.750    21740578.280    89024038.893 6      1584.181          39.500
G21  21968326.100   115444333.416 7      1198.890          46.812    21968324.660   115444333.421 6      1198.890          37.625    21968329.900    89956640.353 6       934.200          37.875
> 2024 05 09 15 15  2.0000000  0 16
G22  24535810.660   128936554.183 7      4850.558          42.625    24535809.300   128936554.191 4      4850.558          28.062    24535818.600   100470075.657 4      3779.656          28.000
R01  22794517.060   121849759.376 7      6810.199          42.187    22794515.440   121849759.383 6      6810.199          41.375    22794540.440    94772133.798 6      5296.822          40.125    22794539.740    94772131.792 6      5296.822          41.250
R14  23237000.860   123866290.370 7      3715.563          45.812    23236999.540   123866290.370 7      3715.563          45.625    23237015.100    96340507.248 7      2889.882          47.062    23237015.200    96340506.258 7      2889.882          47.062
R12  23263364.680   124268715.188 7     -1312.781          43.000    23263364.440   124268715.197 7     -1312.781          42.437    23263389.220    96653550.938 7     -1021.052          43.750    23263388.980    96653549.939 7     -1021.052          44.687
G27  24272859.600   127554734.391 6      -410.974          41.750    24272858.420   127554734.390 6      -410.974          38.812    24272881.200    99393385.529 6      -320.239          38.562    24272881.900    99393392.521 7      -320.239          43.187
G32  25308594.020   132997562.280 6      1165.256          40.312    25308593.860   132997562.280 6      1165.256          36.062    25308606.680   103634511.928 6       907.992          36.000    25308608.360   103634521.938 7       907.992          42.000
R07  21574957.200   115492428.580 7       490.243          46.500    21574956.760   115492428.598 7       490.243          45.312    21574970.520    89827505.394 7       381.300          47.312    21574970.780    89827504.385 7       381.300          47.125
R23  20993621.960   112301715.173 7      3194.679          45.625    20993621.360   112301715.188 7      3194.679          44.875
G14  22579939.520   118658387.467 7      3925.832          45.687    22579938.700   118658387.475 5      3925.832          35.062    22579947.140    92461109.416 5      3059.090          34.875    22579947.240    92461114.424 8      3059.090          48.562
G04  24622489.300   129392055.319 6      5411.742          41.562    24622489.160   129392055.326 4      5411.742          28.437    24622508.800   100825031.391 4      4216.942          28.250    24622508.240   100825056.386 7      4216.942          44.437
G08  21512438.420   113048625.530 7       774.299          47.812    21512437.220   113048625.533 8       774.299          48.000    21512448.400    88089875.791 7       603.350          47.562    21512449.280    88089882.798 8       603.350          50.312
R22  21919921.020   117010022.620 7      1270.148          46.125    21919921.160   117010022.618 7      1270.148          46.125    21919932.760    91007845.555 7       987.893          46.812    21919932.860    91007847.553 7       987.893          47.625
R08  20253637.380   108457310.880 8      4079.021          48.312    20253638.840   108457310.928 7      4079.021          47.437    20253652.000    84355749.741 8      3172.572          49.812    20253651.700    84355747.742 8      3172.572          49.812
G03  20562225.860   108055225.626 8      4055.958          49.500    20562225.160   108055225.626 7      4055.958          42.937    20562234.520    84198916.322 7      3160.486          42.562    20562234.780    84198916.324 8      3160.486          52.812
G02  21740189.100   114245466.041 8      2033.148          48.937    21740187.260   114245466.048 6      2033.148          40.062    21740191.380    89022454.656 6      1584.271          39.625
G21  21968097.860   115443134.559 7      1198.931          47.187    21968096.520   115443134.566 6      1198.931          38.125    21968101.900    89955706.176 6       934.232          37.937
> 2024 05 09 15 15  3.0000000  0 16
G22  24534887.640   128931703.833 6      4850.286          41.875    24534886.360   128931703.843 4      4850.286          28.062    24534895.880   100466296.165 4      3779.444          28.000
R01  22793243.060   121842949.213 7      6810.133          42.250    22793241.560   121842949.214 6      6810.133          41.375    22793266.620    94766837.002 6      5296.770          40.125    22793265.640    94766834.996 6      5296.770          41.125
R14  23236303.880   123862575.293 7      3714.893          46.750    23236303.200   123862575.291 7      3714.893          46.000    23236318.340    96337617.744 7      2889.361          47.437    23236318.480    96337616.750 7      2889.361          47.312
R12  23263610.260   124270028.044 7     -1312.678          43.062    23263610.240   124270028.045 7     -1312.678          42.437    23263634.900    96654572.044 7     -1020.972          44.062    23263634.700    96654571.048 7     -1020.972          45.375
G27  24272937.400   127555145.558 6      -411.061          41.250    24272936.520   127555145.557 6      -411.061          39.437    24272959.540    99393705.911 6      -320.307          38.812    24272960.000    99393712.905 7      -320.307          43.687
G32  25308372.580   132996397.273 6      1164.912          40.562    25308372.100   132996397.275 5      1164.912          35.750    25308385.200   103633604.140 5       907.724          35.687    25308386.440   103633614.152 6       907.724          41.687
R07  21574865.660   115491938.808 7       489.559          47.000    21574865.360   115491938.831 7       489.559          45.312    21574879.080    89827124.463 7       380.768          47.500    21574878.960    89827123.460 7       380.768          47.062
R23  20993024.880   112298520.569 7      3194.733          45.937    20993024.180   112298520.576 7      3194.733          44.875
G14  22579192.420   118654461.982 7      3925.339          45.437    22579191.720   118654461.987 5      3925.339          35.312    22579200.360    92458050.597 5      3058.705          34.875    22579200.540    92458055.597 8      3058.705          49.125
G04  24621459.700   129386643.583 7      5411.716          42.375    24621459.440   129386643.591 4      5411.716          28.437    24621479.000   100820814.452 4      4216.922          28.250    24621478.300   100820839.445 7      4216.922          44.500
G08  21512291.000   113047851.401 7       774.035          47.687    21512289.920   113047851.403 8       774.035          48.312    21512301.120    88089272.565 7       603.144          47.750    21512301.940    88089279.569 8       603.144          49.937
R22  21919683.180   117008752.632 7      1270.044          46.000    21919683.220   117008752.636 7      1270.044          46.125    21919694.940    91006857.802 7       987.812          47.562    21919695.000    91006859.802 8       987.812          48.000
R08  20252875.740   108453232.325 8      4078.384          48.312    20252877.180   108453232.364 7      4078.384          47.437    20252890.300    84352577.533 8      3172.077          49.812    20252890.100    84352575.534 8      3172.077          50.062
G03  20561454.140   108051169.932 8      4055.564          49.437    20561453.400   108051169.934 7      4055.564          43.000    20561462.780    84195756.042 7      3160.180          42.562    20561463.100    84195756.046 8      3160.180          52.125
G02  21739802.420   114243432.999 7      2033.184          47.437    21739800.460   114243433.004 6      2033.184          39.500    21739804.500    89020870.467 6      1584.299          39.625
G21  21967869.680   115441935.714 7      1199.050          46.125    21967868.400   115441935.719 6      1199.050          38.250    21967873.620    89954772.012 6       934.324          38.187
> 2024 05 09 15 15  4.0000000  0 16
G22  24533964.520   128926853.771 6      4849.806          41.875    24533963.400   128926853.782 4      4849.806          28.062    24533973.100   100462516.903 4      3779.070          28.000
R01  22791968.680   121836139.059 7      6810.108          42.250    22791967.580   121836139.066 6      6810.108          41.062    22791992.740    94761540.222 6      5296.751          40.000    22791991.520    94761538.212 6      5296.751          41.125
R14  23235607.300   123858860.890 7      3714.010          46.937    23235606.200   123858860.885 7      3714.010          46.125    23235621.780    96334728.762 7      2888.674          47.062    23235621.620    96334727.768 7      2888.674          47.750
R12  23263856.120   124271340.805 7     -1312.749          43.062    23263855.840   124271340.800 7     -1312.749          42.437    23263880.920    96655593.076 7     -1021.027          43.937    23263880.580    96655592.077 7     -1021.027          44.750
G27  24273015.780   127555556.877 6      -411.393          41.562    24273014.780   127555556.879 6      -411.393          38.750    24273037.780    99394026.413 6      -320.566          38.750    24273038.520    99394033.403 7      -320.566          43.375
G32  25308150.860   132995232.707 6      1164.325          40.562    25308150.400   132995232.709 6      1164.325          36.250    25308163.600   103632696.692 5       907.266          35.875    25308164.320   103632706.698 6       907.266          41.687
R07  21574774.180   115491449.740 7       488.755          46.437    21574774.320   115491449.763 7       488.755          45.375    21574787.680    89826744.075 7       380.143          47.562    21574787.600    89826743.067 7       380.143          47.562
R23  20992427.740   112295325.917 7      3194.702          45.687    20992427.120   112295325.932 7      3194.702          44.875
G14  22578445.440   118650536.996 7      3924.706          45.500    22578444.900   118650537.001 5      3924.706          35.312    22578453.300    92454992.166 5      3058.213          35.312    22578453.900    92454997.174 8      3058.213          48.625
G04  24620429.580   129381231.588 6      5412.035          41.437    24620429.460   129381231.595 4      5412.035          28.437    24620449.160   100816597.313 4      4217.170          28.250    24620448.800   100816622.308 7      4217.170          44.375
G08  21512143.800   113047077.586 7       773.636          47.187    21512142.620   113047077.588 8       773.636          48.937    21512153.980    88088669.591 8       602.834          48.000    21512154.680    88088676.595 8       602.834          50.062
R22  21919445.300   117007482.666 7      1269.902          46.312    21919445.120   117007482.677 7      1269.902          46.125    21919456.980    91005870.052 7       987.701          47.500    21919456.880    91005872.052 7       987.701          47.187
R08  20252114.100   108449154.519 8      4077.412          48.437    20252115.580   108449154.555 7      4077.412          47.562    20252128.800    84349405.909 8      3171.320          49.562    20252128.520    84349403.910 8      3171.320          49.750
G03  20560682.520   108047114.747 8      4054.897          49.312    20560681.680   108047114.749 7      4054.897          43.187    20560691.200    84192596.166 7      3159.660          42.812    20560691.320    84192596.168 8      3159.660          52.500
G02  21739415.500   114241399.934 7      2033.077          47.062    21739413.460   114241399.939 6      2033.077          39.687    21739417.740    89019286.258 6      1584.216          39.562
G21  21967641.660   115440736.804 7      1198.948          46.875    21967640.240   115440736.809 6      1198.948          37.812    21967645.560    89953837.798 6       934.245          38.250
> 2024 05 09 15 15  5.0000000  0 16
G22  24533041.680   128922004.036 7      4849.693          42.250    24533040.480   128922004.041 4      4849.693          28.062    24533050.440   100458737.890 4      3778.981          28.000
R01  22790694.540   121829329.018 7      6810.100          42.437    22790693.460   121829329.030 6      6810.100          41.062    22790718.540    94756243.528 6      5296.744          40.000    22790717.520    94756241.520 6      5296.744          41.187
R14  23234910.220   123855147.180 7      3713.454          46.937    23234909.360   123855147.186 7      3713.454          46.312    23234924.900    96331840.329 7      2888.242          47.500    23234925.280    96331839.340 7      2888.242          47.437
R12  23264101.740   124272653.522 7     -1312.516          42.750    23264101.120   124272653.521 7     -1312.516          42.437    23264126.380    96656614.079 7     -1020.846          44.187    23264126.200    96656613.082 7     -1020.846          44.750
G27  24273094.280   127555968.381 6      -411.536          41.125    24273093.180   127555968.385 6      -411.536          38.937    24273116.080    99394347.059 6      -320.677          38.687    24273116.800    99394354.059 7      -320.677          43.500
G32  25307929.540   132994068.559 6      1164.122          41.187    25307928.760   132994068.572 5      1164.122          35.625    25307942.240   103631789.572 5       907.108          35.500    25307942.840   103631799.586 6       907.108          41.812
R07  21574682.520   115490961.414 7       488.041          46.125    21574682.860   115490961.440 7       488.041          45.750    21574696.280    89826364.271 7       379.588          47.625    21574696.240    89826363.264 7       379.588          47.437
R23  20991830.480   112292131.316 7      3194.678          46.187    20991829.800   112292131.328 7      3194.678          44.750
G14  22577698.420   118646612.562 7      3924.357          45.250    22577698.040   118646612.564 5      3924.357          34.937    22577706.740    92451934.163 5      3057.940          34.750    22577707.240    92451939.171 8      3057.940          48.937
G04  24619399.800   129375819.440 6      5412.430          41.875    24619399.560   129375819.447 4      5412.430          28.437    24619419.320   100812380.053 4      4217.478          28.250    24619419.080   100812405.056 7      4217.478          44.625
G08  21511996.560   113046304.145 7       773.355          47.875    21511995.460   113046304.147 8       773.355          48.250    21512006.820    88088066.903 7       602.614          47.937    21512007.360    88088073.909 8       602.614          50.125
R22  21919207.040   117006212.795 7      1269.963          45.625    21919207.360   117006212.802 7      1269.963          46.687    21919219.120    91004882.369 7       987.749          47.312    21919218.980    91004884.369 7       987.749          47.625
R08  20251352.740   108445077.465 7      4076.746          47.937    20251354.200   108445077.507 7      4076.746          47.500    20251367.400    84346234.882 8      3170.803          50.250    20251366.840    84346232.880 8      3170.803          49.625
G03  20559910.920   108043060.122 8      4054.462          48.687    20559910.120   108043060.124 7      4054.462          43.125    20559919.500    84189436.720 7      3159.321          43.187    20559919.900    84189436.722 8      3159.321          52.375
G02  21739028.480   114239366.908 7      2033.175          47.562    21739026.620   114239366.910 6      2033.175          39.625    21739030.860    89017702.080 6      1584.292          39.500
G21  21967413.580   115439537.905 7      1199.024          47.937    21967412.140   115439537.909 6      1199.024          38.375    21967417.300    89952903.588 6       934.304          38.500
> 2024 05 09 15 15  6.0000000  0 16
G22  24532118.920   128917154.676 7      4848.914          42.562    24532117.660   128917154.683 4      4848.914          28.250    24532127.520   100454959.178 4      3778.374          28.000
R01  22789420.620   121822519.071 7      6809.773          42.437    22789419.620   121822519.083 6      6809.773          41.437    22789444.420    94750946.904 6      5296.490          39.812    22789443.760    94750944.899 6      5296.490          41.062
R14  23234213.900   123851434.222 7      3712.395          46.187    23234212.700   123851434.225 7      3712.395          46.000    23234228.220    96328952.471 7      2887.419          47.125    23234228.580    96328951.479 7      2887.419          47.500
R12  23264347.800   124273966.251 7     -1312.993          42.437    23264346.940   124273966.257 7     -1312.993          42.125    23264372.180    96657635.092 7     -1021.217          44.187    23264371.840    96657634.095 7     -1021.217          44.687
G27  24273172.660   127556380.107 6      -412.087          41.625    24273171.360   127556380.107 6      -412.087          38.625    24273194.460    99394667.873 6      -321.107          38.750    24273194.740    99394674.873 7      -321.107          43.500
G32  25307708.340   132992905.002 6      1162.907          40.625    25307707.380   132992905.015 5      1162.907          35.562    25307720.800   103630882.907 5       906.162          35.500    25307721.500   103630892.911 6       906.162          41.562
R07  21574591.440   115490473.842 7       486.895          46.812    21574591.960   115490473.879 7       486.895          45.687    21574604.940    89825985.055 7       378.696          47.500    21574605.520    89825984.054 7       378.696          47.625
R23  20991233.600   112288936.744 7      3194.277          45.625    20991232.160   112288936.762 7      3194.277          44.750
G14  22576951.980   118642688.735 7      3923.240          45.062    22576951.160   118642688.742 5      3923.240          35.000    22576959.760    92448876.640 5      3057.070          34.750    22576960.180    92448881.640 8      3057.070          49.187
G04  24618369.500   129370407.192 6      5412.025          41.500    24618369.820   129370407.205 4      5412.025          28.437    24618389.320   100808162.717 4      4217.163          28.250    24618389.340   100808187.722 7      4217.163          44.687
G08  21511849.680   113045531.103 8       772.607          48.562    21511848.340   113045531.108 8       772.607          48.812    21511859.660    88087464.532 8       602.032          48.312    21511860.380    88087471.539 8       602.032          49.750
R22  21918969.400   117004943.019 7      1269.490          45.687    21918969.700   117004943.027 7      1269.490          46.125    21918981.400    91003894.763 7       987.381          47.562    21918981.320    91003896.763 7       987.381          47.437
R08  20250591.420   108441001.236 8      4075.525          48.062    20250593.020   108441001.275 7      4075.525          47.625    20250606.100    84343064.483 8      3169.853          50.250    20250605.840    84343062.482 8      3169.853          49.875
G03  20559139.380   108039006.083 8      4053.487          48.375    20559138.520   108039006.083 7      4053.487          42.750    20559148.040    84186277.735 7      3158.562          42.375    20559148.420    84186277.735 8      3158.562          52.375
G02  21738641.760   114237333.934 8      2032.756          48.000    21738639.900   114237333.939 6      2032.756          40.000    21738643.880    89016117.947 6      1583.966          39.625
G21  21967185.800   115438339.015 8      1198.680          48.625    21967184.080   115438339.023 6      1198.680          38.562    21967189.200    89951969.389 6       934.037          38.375
> 2024 05 09 15 15  7.0000000  0 16
G22  24531196.540   128912305.873 7      4848.519          42.187    24531194.740   128912305.888 4      4848.519          28.250    24531204.820   100451180.897 4      3778.067          28.125
R01  22788147.380   121815709.455 7      6809.568          42.437    22788145.720   121815709.472 6      6809.568          41.437    22788170.520    94745650.540 6      5296.331          39.812    22788170.180    94745648.533 6      5296.331          41.062
R14  23233517.440   123847722.194 7      3711.642          46.687    23233516.280   123847722.192 7      3711.642          45.625    23233531.460    96326065.340 7      2886.833          47.062    23233531.840    96326064.346 7      2886.833          46.562
R12  23264593.420   124275279.179 7     -1312.953          42.437    23264592.920   124275279.180 7     -1312.953          42.125    23264617.920    96658656.256 7     -1021.186          44.250    23264617.740    96658655.264 7     -1021.186          44.562
G27  24273250.880   127556792.231 6      -412.354          41.062    24273249.840   127556792.236 6      -412.354          38.937    24273272.880    99394989.002 6      -321.314          39.062    24273273.620    99394996.000 7      -321.314          43.437
G32  25307487.320   132991742.034 6      1162.670          39.562    25307486.020   132991742.039 5      1162.670          35.562    25307499.560   103629976.696 5       905.976          35.500    25307500.140   103629986.710 6       905.976          41.562
R07  21574500.920   115489987.242 7       486.158          46.625    21574501.440   115489987.268 7       486.158          45.812    21574514.000    89825606.580 7       378.123          47.250    21574514.420    89825605.579 7       378.123          47.625
R23  20990635.980   112285742.402 7      3194.375          45.375    20990635.540   112285742.415 7      3194.375          44.812
G14  22576205.340   118638765.646 7      3922.714          45.437    22576204.500   118638765.651 5      3922.714          34.875    22576213.260    92445819.687 5      3056.661          34.500    22576213.880    92445824.697 8      3056.661          49.687
G04  24617339.600   129364994.926 6      5412.526          41.750    24617339.780   129364994.939 4      5412.526          28.312    24617359.480   100803945.369 4      4217.553          28.062    24617358.800   100803970.366 7      4217.553          44.625
G08  21511702.620   113044758.628 8       772.324          48.250    21511701.320   113044758.633 8       772.324          48.312    21511712.700    88086862.598 8       601.811          48.000    21511713.440    88086869.605 8       601.811          49.750
R22  21918731.420   117003673.543 7      1269.401          45.812    21918731.660   117003673.544 7      1269.401          46.125    21918743.420    91002907.385 7       987.312          46.750    21918743.600    91002909.387 7       987.312          47.687
R08  20249830.280   108436925.998 7      4074.903          47.937    20249831.920   108436926.034 7      4074.903          47.437    20249845.020    84339894.860 8      3169.369          50.125    20249844.920    84339892.859 8      3169.369          50.125
G03  20558368.160   108034952.800 8      4052.926          48.937    20558367.400   108034952.805 7      4052.926          43.187    20558376.700    84183119.337 7      3158.124          42.750    20558377.060    84183119.341 8      3158.124          52.187
G02  21738255.120   114235301.200 8      2032.762          48.812    21738252.980   114235301.204 6      2032.762          39.750    21738257.160    89014534.002 6      1583.970          39.562
G21  21966957.360   115437140.324 8      1198.700          48.250    21966956.080   115437140.328 6      1198.700          37.937    21966961.060    89951035.341 6       934.052          38.125
> 2024 05 09 15 15  8.0000000  0 16
G22  24530273.600   128907457.273 6      4848.296          41.687    24530272.060   128907457.283 4      4848.296          28.250    24530282.160   100447402.770 4      3777.893          28.125
R01  22786873.440   121808899.834 7      6809.488          42.437    22786871.580   121808899.827 6      6809.488          41.437    22786896.140    94740354.154 6      5296.268          39.937    22786896.200    94740352.140 6      5296.268          40.625
R14  23232821.020   123844010.744 7      3711.062          46.625    23232820.040   123844010.745 7      3711.062          45.625    23232834.840    96323178.657 7      2886.382          46.625    23232835.600    96323177.667 7      2886.382          46.562
R12  23264839.040   124276591.924 7     -1312.734          42.562    23264838.920   124276591.919 7     -1312.734          42.125    23264863.960    96659677.271 7     -1021.015          44.312    23264863.560    96659676.277 7     -1021.015          44.937
G27  24273329.460   127557204.391 6      -412.326          41.062    24273328.300   127557204.393 6      -412.326          38.562    24273351.400    99395310.154 6      -321.293          38.125    24273352.220    99395317.150 7      -321.293          43.437
G32  25307265.660   132990579.439 6      1162.187          40.062    25307264.700   132990579.444 5      1162.187          35.812    25307278.560   103629070.779 5       905.600          35.562    25307278.800   103629080.791 6       905.600          41.937
R07  21574409.880   115489501.255 7       485.486          46.562    21574410.580   115489501.283 7       485.486          45.812    21574423.260    89825228.592 7       377.600          47.375    21574423.520    89825227.587 7       377.600          47.375
R23  20990038.680   112282547.962 7      3194.286          45.375    20990037.860   112282547.984 7      3194.286          44.812
G14  22575458.900   118634842.985 7      3922.281          45.125    22575457.920   118634842.993 5      3922.281          34.875    22575466.740    92442763.068 5      3056.323          34.812    22575467.440    92442768.079 8      3056.323          49.000
G04  24616309.720   129359582.439 6      5412.427          41.812    24616309.800   129359582.452 4      5412.427          28.312    24616329.700   100799727.848 4      4217.475          28.062    24616328.680   100799752.848 7      4217.475          44.500
G08  21511555.680   113043986.422 8       771.889          48.187    21511554.340   113043986.427 8       771.889          48.437    21511565.760    88086260.875 7       601.472          47.812    21511566.420    88086267.877 8       601.472          50.125
R22  21918494.040   117002403.999 7      1269.353          46.312    21918493.620   117002404.002 7      1269.353          45.937    21918505.560    91001919.959 7       987.275          47.187    21918505.620    91001921.959 7       987.275          47.562
R08  20249069.380   108432851.440 8      4074.089          48.312    20249071.140   108432851.479 7      4074.089          47.625    20249084.300    84336725.761 8      3168.736          49.687    20249083.800    84336723.764 8      3168.736          49.875
G03  20557596.840   108030899.952 8      4052.452          48.937    20557596.040   108030899.956 7      4052.452          42.812    20557605.440    84179961.277 7      3157.755          42.125    20557605.860    84179961.283 8      3157.755          52.062
G02  21737868.240   114233268.384 8      2032.691          48.062    21737866.220   114233268.389 6      2032.691          39.562    21737870.340    89012949.988 6      1583.915          39.500
G21  21966729.220   115435941.503 7      1198.705          47.937    21966727.840   115435941.508 6      1198.705          37.937    21966733.080    89950101.195 6       934.056          38.000
> 2024 05 09 15 15  9.0000000  0 16
G22  24529351.040   128902609.082 6      4847.838          41.937    24529349.460   128902609.095 4      4847.838          28.250    24529359.760   100443624.966 4      3777.536          28.125
