     3.05           OBSERVATION DATA    MIXED               RINEX VERSION / TYPE
TPS2RIN 1.0.29.3920 TPS-USER            20240511 184110 UTC PGM / RUN BY / DATE
Win64 build Feb 23, 2024 (c) Topcon Positioning Systems     COMMENT
SRC: 20240506_GUI03.tps                                     COMMENT
OPT: -S -v 3.05                                             COMMENT
Observer            Agency                                  OBSERVER / AGENCY
O0M3X53SBGM         TPS HIPER_SR        4.8 HSR Jul,08,2022 REC # / TYPE / VERS
FW: 4.8 HSR Jul,08,2022 p3                                  COMMENT
SN: HiPer SR 1212-12575                                     COMMENT
000                 TPSHIPER_SR     NONE                    ANT # / TYPE
        1.8000        0.0000        0.0000                  ANTENNA: DELTA H/E/N
DELTA H stands for **SLANT** height here!                   COMMENT
GUI03                                                       MARKER NAME
  5390009.5418 -1591250.1435  3008159.2907                  APPROX POSITION XYZ
  2024     5     6    13    46   16.0000000     GPS         TIME OF FIRST OBS
  2024     5     6    14     1   17.0000000     GPS         TIME OF LAST OBS
     1.000                                                  INTERVAL
   901 EPOCHS                                               COMMENT
G   16 C1C L1C D1C S1C C1W L1W D1W S1W C2W L2W D2W S2W C2X  SYS / # / OBS TYPES
       L2X D2X S2X                                          SYS / # / OBS TYPES
R   16 C1C L1C D1C S1C C1P L1P D1P S1P C2P L2P D2P S2P C2C  SYS / # / OBS TYPES
       L2C D2C S2C                                          SYS / # / OBS TYPES
    14                                                      # OF SATELLITES
   G02   901   901   901   901   901   901   901   901   901PRN / # OF OBS
         901   901   901     0     0     0     0            PRN / # OF OBS
   G03   901   901   901   901   901   901   901   901   901PRN / # OF OBS
         901   901   901   901   901   901   901            PRN / # OF OBS
   G08   901   901   901   901   901   901   901   901   901PRN / # OF OBS
         901   901   901   901   901   901   901            PRN / # OF OBS
   G10   901   901   901   901   901   901   901   901   901PRN / # OF OBS
         901   901   901   901   901   901   901            PRN / # OF OBS
   G16   901   901   901   901   901   901   901   901   901PRN / # OF OBS
         901   901   901     0     0     0     0            PRN / # OF OBS
   G21   901   901   901   901   901   901   901   901   901PRN / # OF OBS
         901   901   901     0     0     0     0            PRN / # OF OBS
   G27   901   901   901   901   901   901   901   901   901PRN / # OF OBS
         901   901   901   901   901   901   901            PRN / # OF OBS
   G32    41    41    41    41    37    37    37    37    37PRN / # OF OBS
          37    37    37    33    33    33    33            PRN / # OF OBS
   R03   863   863   863   863   854   854   854   854   854PRN / # OF OBS
         854   854   854   852   852   852   852            PRN / # OF OBS
   R04   901   901   901   901   901   901   901   901   901PRN / # OF OBS
         901   901   901   901   901   901   901            PRN / # OF OBS
   R05   901   901   901   901   901   901   901   901   901PRN / # OF OBS
         901   901   901   901   901   901   901            PRN / # OF OBS
   R09   901   901   901   901   901   901   901   901   901PRN / # OF OBS
         901   901   901   901   901   901   901            PRN / # OF OBS
   R16   901   901   901   901   901   901   901   901   901PRN / # OF OBS
         901   901   901   901   901   901   901            PRN / # OF OBS
   R18   761   761   761   761   756   756   756   756   754PRN / # OF OBS
         754   754   754   753   753   753   753            PRN / # OF OBS
G L1C                                                       SYS / PHASE SHIFT
G L1W -0.25000                                              SYS / PHASE SHIFT
G L2W  0.00000                                              SYS / PHASE SHIFT
G L2X  0.25000                                              SYS / PHASE SHIFT
R L1C                                                       SYS / PHASE SHIFT
R L1P -0.25000                                              SYS / PHASE SHIFT
R L2P -0.25000                                              SYS / PHASE SHIFT
R L2C                                                       SYS / PHASE SHIFT
  6 R03  5 R04  6 R05  1 R09 -2 R16 -1 R18 -3               GLONASS SLOT / FRQ #
                                                            GLONASS COD/PHS/BIS
    18    18  1929     7GPS                                 LEAP SECONDS
                                                            END OF HEADER
> 2024 05 06 13 46 16.0000000  0 13
R03  22836079.480   122243321.073 7      1965.749          42.250    22836078.840   122243321.096 6      1965.749          40.875    22836093.040    95078196.889 7      1528.916          45.187    22836092.000    95078193.879 7      1528.916          44.625
G02  21621753.680   113623082.192 7      3037.925          45.625    21621751.960   113623082.197 6      3037.925          39.062    21621756.040    88537476.131 6      2367.214          38.437
G03  23951723.920   125867160.606 7      6311.619          43.437    23951724.740   125867160.611 5      6311.619          30.062    23951742.840    98078370.295 5      4918.145          30.062    23951743.660    98078384.309 7      4918.145          45.375
G08  20806358.080   109338146.061 8      2847.840          49.187    20806357.000   109338146.069 8      2847.840          48.062    20806362.660    85198574.989 8      2219.096          48.750    20806363.260    85198576.989 8      2219.096          50.125
G21  20767905.340   109136079.104 8      2050.865          48.062    20767903.680   109136079.111 6      2050.865          40.625    20767907.820    85041102.216 6      1598.076          40.437
R09  20018764.700   106899082.637 7      1679.775          47.812    20018764.160   106899082.633 7      1679.775          47.437    20018773.500    83143765.193 8      1306.492          52.125    20018773.260    83143766.191 8      1306.492          52.812
G27  21791128.020   114513148.010 7      1142.930          45.062    21791126.220   114513148.004 7      1142.930          46.000    21791134.420    89231048.196 7       890.595          46.500    21791134.720    89231050.196 8       890.595          49.562
R18  23286153.980   124303073.554 5       310.131          35.562    23286150.040   124303073.595 5       310.131          34.750    23286169.940    96680223.916 6       241.213          37.312    23286169.220    96680219.925 6       241.213          39.062
G16  22702483.280   119302349.490 7      -636.624          45.062    22702481.500   119302349.501 5      -636.624          34.187    22702489.220    92962894.801 5      -496.071          34.250
G10  23248031.720   122169226.870 7       126.916          44.625    23248030.720   122169226.864 6       126.916          41.437    23248036.720    95196827.123 6        98.896          41.500    23248037.180    95196832.135 7        98.896          42.750
R16  21921706.900   117101821.676 7     -1578.258          46.250    21921707.520   117101821.679 7     -1578.258          45.500    21921722.960    91079264.839 7     -1227.534          47.312    21921723.320    91079264.833 8     -1227.534          48.500
R04  21955163.500   117568901.655 7      4923.031          44.062    21955164.900   117568901.694 7      4923.031          43.125    21955179.480    91442537.210 8      3829.024          48.062    21955178.640    91442543.211 8      3829.024          48.500
R05  23642997.380   126385372.887 7      6319.556          42.687    23642999.400   126385372.904 7      6319.556          42.437    23643022.400    98299843.263 7      4915.210          43.437    23643022.300    98299839.251 7      4915.210          43.562
> 2024 05 06 13 46 17.0000000  0 13
R03  22835712.700   122241355.522 7      1965.607          42.250    22835711.420   122241355.545 6      1965.607          40.437    22835725.520    95076668.137 7      1528.806          45.312    22835724.960    95076665.125 7      1528.806          44.687
G02  21621175.420   113620044.112 7      3038.307          45.375    21621173.740   113620044.119 6      3038.307          38.625    21621177.960    88535108.812 6      2367.512          38.250
G03  23950522.520   125860848.739 7      6312.215          42.750    23950523.460   125860848.744 5      6312.215          30.187    23950541.700    98073451.993 5      4918.609          30.062    23950542.480    98073466.002 7      4918.609          45.125
G08  20805815.960   109335297.950 8      2848.392          48.812    20805815.120   109335297.950 7      2848.392          47.812    20805820.700    85196355.690 8      2219.526          48.687    20805821.440    85196357.686 8      2219.526          50.250
G21  20767515.300   109134028.045 7      2051.366          47.687    20767513.380   109134028.047 6      2051.366          40.937    20767517.560    85039504.003 6      1598.467          40.687
R09  20018450.480   106897402.989 7      1679.657          47.687    20018449.760   106897402.982 7      1679.657          46.562    20018458.940    83142458.807 8      1306.400          52.062    20018458.440    83142459.803 8      1306.400          52.812
G27  21790910.520   114512004.782 7      1143.509          46.437    21790908.760   114512004.779 7      1143.509          46.750    21790916.800    89230157.385 7       891.046          46.937    21790917.200    89230159.386 8       891.046          49.312
R18  23286095.300   124302762.916 5       311.086          35.562    23286091.440   124302762.949 5       311.086          34.750    23286111.620    96679982.319 6       241.956          37.312    23286110.940    96679978.330 6       241.956          39.062
G16  22702604.440   119302985.833 7      -636.093          45.375    22702602.620   119302985.846 5      -636.093          34.187    22702610.220    92963390.659 5      -495.657          33.875
G10  23248007.640   122169099.766 7       127.206          44.125    23248006.540   122169099.763 6       127.206          41.250    23248012.560    95196728.093 6        99.122          41.437    23248012.980    95196733.114 7        99.122          42.750
R16  21922002.320   117103399.753 7     -1577.742          45.375    21922003.060   117103399.757 7     -1577.742          45.187    21922018.380    91080492.226 7     -1227.133          47.187    21922018.680    91080492.221 8     -1227.133          48.187
R04  21954243.800   117563978.489 7      4923.385          44.437    21954245.160   117563978.525 7      4923.385          43.125    21954260.160    91438708.091 8      3829.299          48.000    21954259.400    91438714.095 8      3829.299          48.000
R05  23641815.120   126379052.960 7      6320.317          42.437    23641817.100   126379052.980 7      6320.317          42.375    23641840.480    98294927.785 7      4915.802          43.562    23641840.060    98294923.780 7      4915.802          44.500
> 2024 05 06 13 46 19.0000000  0 13
R03  22834978.520   122237424.007 6      1965.745          40.750    22834977.120   122237424.035 6      1965.745          40.437    22834991.460    95073610.319 7      1528.913          45.750    22834990.900    95073607.316 7      1528.913          44.437
G02  21620018.880   113613966.169 7      3039.492          45.812    21620017.200   113613966.174 6      3039.492          39.062    21620021.300    88530372.781 6      2368.436          38.437
G03  23948119.760   125848222.594 7      6313.711          43.437    23948121.120   125848222.593 5      6313.711          30.187    23948138.920    98063613.494 4      4919.775          29.937    23948139.360    98063627.513 7      4919.775          44.875
G08  20804731.780   109329599.763 8      2849.687          49.187    20804730.940   109329599.765 8      2849.687          48.937    20804736.260    85191915.570 8      2220.535          49.187    20804737.100    85191917.569 8      2220.535          50.062
G21  20766734.180   109129924.241 8      2052.300          48.000    20766732.540   109129924.243 6      2052.300          40.875    20766736.760    85036306.260 6      1599.195          40.687
R09  20017821.360   106894043.591 8      1679.560          48.437    20017821.080   106894043.589 7      1679.560          47.375    20017829.640    83139845.964 8      1306.324          52.187    20017829.400    83139846.962 8      1306.324          52.187
G27  21790474.920   114509716.419 7      1144.658          44.500    21790473.340   114509716.414 7      1144.658          47.187    21790481.240    89228374.266 7       891.941          46.875    21790481.520    89228376.264 8       891.941          49.000
R18  23285978.260   124302138.690 5       312.809          35.562    23285974.420   124302138.683 5       312.809          34.750    23285994.040    96679501.815 6       243.296          37.312    23285993.620    96679500.817 6       243.296          38.062
G16  22702845.940   119304256.808 7      -634.989          45.812    22702844.400   119304256.818 5      -634.989          34.000    22702851.880    92964381.035 5      -494.797          34.000
G10  23247958.680   122168844.203 7       128.154          44.312    23247957.680   122168844.203 6       128.154          41.062    23247964.040    95196528.978 6        99.860          41.125    23247964.000    95196533.992 7        99.860          43.187
R16  21922592.780   117106554.045 7     -1576.726          44.750    21922594.080   117106554.051 7     -1576.726          45.437    21922608.840    91082945.552 7     -1226.343          47.312    21922609.280    91082945.546 7     -1226.343          47.812
R04  21952405.140   117554131.051 7      4923.986          44.625    21952406.800   117554131.088 7      4923.986          43.125    21952421.300    91431049.008 7      3829.767          47.875    21952420.580    91431055.008 8      3829.767          48.000
R05  23639449.840   126366410.102 7      6322.338          43.000    23639451.600   126366410.114 7      6322.338          42.312    23639475.720    98285094.474 7      4917.374          44.125    23639475.100    98285090.469 7      4917.374          44.437
> 2024 05 06 13 46 20.0000000  0 13
R03  22834611.060   122235458.108 6      1966.105          41.687    22834610.480   122235458.123 6      1966.105          40.750    22834624.480    95072081.284 7      1529.193          44.937    22834623.400    95072078.283 7      1529.193          45.187
G02  21619440.740   113610926.423 7      3040.134          46.250    21619438.800   113610926.428 6      3040.134          38.937    21619442.860    88528004.154 6      2368.936          38.500
G03  23946918.180   125841908.369 7      6314.757          42.687    23946919.280   125841908.374 5      6314.757          30.187    23946937.160    98058693.354 4      4920.590          29.937    23946937.480    98058707.364 7      4920.590          44.812
G08  20804189.420   109326749.802 8      2850.328          49.062    20804188.520   109326749.802 8      2850.328          48.125    20804193.940    85189694.832 8      2221.035          48.750    20804194.880    85189696.831 8      2221.035          49.375
G21  20766343.600   109127871.543 7      2053.054          47.875    20766342.040   109127871.547 6      2053.054          40.312    20766346.080    85034706.769 6      1599.783          40.312
R09  20017506.780   106892363.948 7      1679.681          47.562    20017506.500   106892363.944 7      1679.681          47.937    20017515.100    83138539.588 8      1306.419          50.375    20017514.860    83138540.586 8      1306.419          52.000
G27  21790256.800   114508571.334 7      1145.487          44.437    21790255.400   114508571.331 7      1145.487          45.812    21790263.400    89227482.002 7       892.587          45.937    21790263.580    89227484.004 8       892.587          48.312
R18  23285918.460   124301825.156 5       313.859          35.562    23285914.700   124301825.186 5       313.859          34.750    23285935.140    96679255.983 6       244.113          36.125    23285934.380    96679253.017 6       244.113          38.062
G16  22702966.960   119304891.490 7      -634.306          44.375    22702965.200   119304891.503 5      -634.306          33.625    22702972.760    92964875.599 5      -494.264          34.000
G10  23247934.340   122168715.826 7       128.704          44.500    23247933.300   122168715.823 6       128.704          40.937    23247939.760    95196428.947 6       100.289          40.687    23247939.760    95196433.968 7       100.289          43.187
R16  21922887.860   117108130.317 7     -1575.924          46.562    21922888.940   117108130.327 7     -1575.924          44.812    21922903.980    91084171.533 7     -1225.718          46.875    21922904.460    91084171.526 7     -1225.718          47.125
R04  21951485.720   117549206.873 7      4924.505          44.812    21951487.480   117549206.910 7      4924.505          43.125    21951501.700    91427219.111 7      3830.171          46.812    21951501.160    91427225.113 8      3830.171          48.562
R05  23638266.800   126360087.289 7      6323.452          43.062    23638269.480   126360087.309 7      6323.452          42.312    23638292.720    98280176.741 7      4918.240          43.687    23638292.360    98280172.735 7      4918.240          44.000
> 2024 05 06 13 46 21.0000000  0 12
R03  22834244.140   122233492.069 6      1966.148          41.687    22834243.240   122233492.090 6      1966.148          40.750    22834256.820    95070552.166 7      1529.226          44.937    22834256.480    95070549.165 7      1529.226          44.937
G02  21618862.320   113607886.085 7      3040.625          46.687    21618860.240   113607886.093 6      3040.625          38.875    21618864.280    88525635.078 6      2369.318          38.687
G03  23945716.460   125835593.401 7      6315.327          42.375    23945717.600   125835593.400 4      6315.327          29.750    23945735.540    98053772.628 4      4921.034          29.937    23945735.440    98053786.645 7      4921.034          44.187
G08  20803647.000   109323899.182 8      2850.948          49.750    20803646.220   109323899.182 8      2850.948          48.062    20803651.540    85187473.578 8      2221.518          48.625    20803652.600    85187475.580 8      2221.518          50.125
G21  20765952.760   109125818.316 8      2053.476          48.312    20765951.420   109125818.321 6      2053.476          40.562    20765955.320    85033106.862 6      1600.111          40.500
R09  20017191.840   106890684.301 7      1679.686          47.750    20017192.480   106890684.291 7      1679.686          47.937    20017200.580    83137233.194 8      1306.422          51.000    20017200.080    83137234.189 8      1306.422          52.187
G27  21790038.860   114507425.636 7      1145.986          46.500    21790037.460   114507425.631 7      1145.986          46.812    21790045.480    89226589.257 7       892.976          46.687    21790045.820    89226591.257 8       892.976          49.250
G16  22703087.320   119305525.605 7      -633.772          45.250    22703086.020   119305525.610 5      -633.772          33.625    22703093.420    92965369.712 5      -493.848          33.687
G10  23247909.340   122168587.022 7       129.091          44.562    23247908.760   122168587.019 6       129.091          40.937    23247915.460    95196328.591 6       100.591          40.812    23247915.260    95196333.606 7       100.591          43.062
R16  21923183.560   117109706.002 7     -1575.410          46.000    21923184.080   117109706.009 7     -1575.410          45.562    21923198.920    91085397.064 7     -1225.319          46.375    21923199.200    91085397.056 7     -1225.319          47.062
R04  21950565.820   117544282.366 7      4924.757          44.500    21950568.160   117544282.408 7      4924.757          43.187    21950582.040    91423388.955 7      3830.366          47.375    21950581.800    91423394.957 8      3830.366          48.687
R05  23637084.360   126353763.484 7      6324.337          43.312    23637086.300   126353763.504 7      6324.337          42.562    23637109.520    98275258.246 7      4918.929          43.250    23637109.060    98275254.245 7      4918.929          43.937
> 2024 05 06 13 46 22.0000000  0 13
R03  22833876.620   122231525.865 6      1965.886          41.562    22833876.000   122231525.883 6      1965.886          40.562    22833889.660    95069022.909 7      1529.023          45.687    22833889.140    95069019.903 7      1529.023          45.000
G02  21618283.420   113604845.114 7      3041.012          46.625    21618281.720   113604845.124 6      3041.012          39.000    21618285.680    88523265.503 6      2369.620          38.562
G03  23944514.520   125829277.563 7      6315.991          43.250    23944515.820   125829277.562 4      6315.991          29.750    23944533.580    98048851.218 4      4921.551          29.812    23944534.020    98048865.235 7      4921.551          44.312
G08  20803104.200   109321047.871 8      2851.345          49.187    20803103.640   109321047.870 8      2851.345          48.750    20803108.880    85185251.791 8      2221.827          49.125    20803110.000    85185253.792 8      2221.827          49.812
G21  20765562.000   109123764.449 8      2053.813          48.500    20765560.560   109123764.453 6      2053.813          40.500    20765564.360    85031506.460 6      1600.374          40.625
R09  20016877.420   106889004.555 8      1679.425          48.125    20016877.860   106889004.542 8      1679.425          48.750    20016886.000    83135926.735 8      1306.219          52.125    20016885.980    83135927.732 8      1306.219          52.687
G27  21789821.000   114506279.227 7      1146.394          45.625    21789819.400   114506279.229 7      1146.394          46.750    21789827.260    89225695.967 7       893.294          46.750    21789827.700    89225697.967 8       893.294          49.312
R18  23285801.380   124301195.080 5       315.395          32.062    23285797.440   124301195.070 5       315.395          34.750    23285817.140    96678764.936 6       245.307          36.125    23285815.840    96678763.971 6       245.307          38.062
G16  22703208.060   119306159.078 7      -633.487          45.562    22703206.400   119306159.086 5      -633.487          33.625    22703214.020    92965863.328 5      -493.626          33.687
G10  23247885.040   122168457.696 7       129.325          44.500    23247883.980   122168457.695 6       129.325          40.437    23247890.840    95196227.832 6       100.773          40.562    23247890.740    95196232.848 7       100.773          43.437
R16  21923478.020   117111281.011 7     -1575.015          47.312    21923479.120   117111281.020 7     -1575.015          45.187    21923493.700    91086622.060 7     -1225.012          47.187    21923494.520    91086622.053 7     -1225.012          47.500
R04  21949646.680   117539357.409 7      4924.921          44.250    21949648.020   117539357.437 7      4924.921          43.062    21949662.460    91419558.446 7      3830.494          47.500    21949662.100    91419564.447 8      3830.494          48.437
R05  23635901.000   126347438.645 7      6324.970          44.187    23635903.220   126347438.662 7      6324.970          42.875    23635926.500    98270338.937 7      4919.421          44.062    23635926.120    98270334.932 7      4919.421          44.312
> 2024 05 06 13 46 23.0000000  0 13
R03  22833509.500   122229559.628 6      1966.055          41.562    22833508.560   122229559.654 6      1966.055          40.562    22833522.420    95067493.639 7      1529.154          45.437    22833521.940    95067490.635 7      1529.154          45.437
G02  21617704.720   113601803.650 7      3041.687          46.937    21617702.860   113601803.657 6      3041.687          38.375    21617707.100    88520895.545 6      2370.146          38.500
G03  23943312.380   125822961.021 7      6316.799          43.187    23943313.780   125822961.020 4      6316.799          29.750    23943331.660    98043929.258 4      4922.181          29.812    23943331.780    98043943.285 7      4922.181          44.125
G08  20802561.720   109318196.008 8      2852.017          49.312    20802561.040   109318196.007 8      2852.017          48.625    20802566.160    85183029.574 8      2222.351          49.625    20802567.400    85183031.577 8      2222.351          50.187
G21  20765171.140   109121710.121 8      2054.389          48.625    20765169.600   109121710.123 6      2054.389          40.750    20765173.480    85029905.696 6      1600.822          40.750
R09  20016562.820   106887324.870 8      1679.535          48.250    20016563.240   106887324.860 7      1679.535          47.437    20016571.380    83134620.324 8      1306.305          52.437    20016571.180    83134621.321 8      1306.305          52.750
G27  21789602.600   114505132.284 7      1147.062          45.875    21789601.220   114505132.281 7      1147.062          47.562    21789608.760    89224802.249 7       893.814          47.000    21789609.180    89224804.254 8       893.814          49.187
R18  23285741.780   124300878.514 5       316.827          32.062    23285737.360   124300878.525 5       316.827          34.750    23285756.020    96678518.749 6       246.421          36.125    23285756.520    96678517.807 6       246.421          36.375
G16  22703328.480   119306792.050 7      -632.846          45.375    22703326.700   119306792.063 5      -632.846          33.625    22703334.400    92966356.559 5      -493.127          33.375
G10  23247860.480   122168328.043 7       129.662          44.312    23247859.180   122168328.043 6       129.662          41.062    23247866.380    95196126.806 6       101.035          41.187    23247866.400    95196131.824 7       101.035          43.812
R16  21923772.660   117112855.500 7     -1574.323          46.250    21923774.180   117112855.506 7     -1574.323          44.687    21923788.480    91087846.656 7     -1224.473          47.187    21923789.120    91087846.651 7     -1224.473          47.312
R04  21948726.760   117534432.176 7      4925.226          44.750    21948727.960   117534432.210 7      4925.226          43.437    21948742.560    91415727.726 8      3830.731          48.000    21948742.100    91415733.732 8      3830.731          48.875
R05  23634717.320   126341112.875 7      6326.139          44.187    23634720.220   126341112.903 7      6326.139          42.875    23634743.120    98265418.909 7      4920.330          44.375    23634742.960    98265414.908 7      4920.330          43.625
> 2024 05 06 13 46 24.0000000  0 13
R03  22833141.540   122227593.469 6      1966.015          41.250    22833140.300   122227593.495 6      1966.015          40.562    22833155.200    95065964.416 7      1529.123          45.187    22833154.440    95065961.413 7      1529.123          45.187
G02  21617125.920   113598761.759 7      3042.116          46.500    21617124.040   113598761.767 6      3042.116          38.937    21617128.120    88518525.255 6      2370.480          38.500
G03  23942110.280   125816643.848 7      6317.428          43.375    23942111.480   125816643.850 4      6317.428          29.750    23942129.340    98039006.812 4      4922.671          29.812    23942129.360    98039020.835 7      4922.671          44.500
G08  20802018.880   109315343.651 8      2852.525          48.687    20802018.260   109315343.656 8      2852.525          48.187    20802023.420    85180806.971 8      2222.747          48.750    20802024.380    85180808.973 8      2222.747          50.062
G21  20764780.100   109119655.358 8      2054.946          48.375    20764778.800   109119655.360 6      2054.946          40.375    20764782.460    85028304.594 6      1601.257          40.875
R09  20016248.320   106885645.300 8      1679.546          48.375    20016248.720   106885645.296 8      1679.546          48.187    20016256.920    83133314.004 8      1306.313          52.187    20016256.760    83133315.002 8      1306.313          52.750
G27  21789384.360   114503984.826 7      1147.681          46.625    21789382.900   114503984.825 7      1147.681          47.000    21789390.500    89223908.136 7       894.297          46.937    21789390.920    89223910.139 8       894.297          48.812
R18  23285681.620   124300561.187 5       317.889          32.062    23285677.800   124300561.180 5       317.889          34.750    23285696.540    96678271.929 5       247.247          35.812    23285696.840    96678270.985 6       247.247          36.375
G16  22703448.660   119307424.586 7      -632.308          45.750    22703447.040   119307424.596 5      -632.308          33.562    22703454.680    92966849.441 5      -492.708          33.375
G10  23247835.620   122168198.071 7       130.052          44.375    23247834.460   122168198.062 6       130.052          41.125    23247841.560    95196025.535 6       101.339          41.125    23247841.800    95196030.549 7       101.339          43.937
R16  21924067.360   117114429.528 7     -1573.847          45.500    21924068.900   117114429.530 7     -1573.847          44.937    21924083.060    91089070.888 7     -1224.103          46.812    21924083.700    91089070.883 7     -1224.103          47.437
R04  21947806.960   117529506.697 7      4925.622          44.750    21947807.560   117529506.720 7      4925.622          43.437    21947822.840    91411896.806 8      3831.039          48.187    21947822.200    91411902.807 8      3831.039          48.562
R05  23633533.700   126334786.315 7      6326.913          43.687    23633537.100   126334786.342 7      6326.913          43.062    23633559.500    98260498.263 7      4920.932          43.937    23633559.300    98260494.266 7      4920.932          44.187
> 2024 05 06 13 46 25.0000000  0 13
R03  22832774.160   122225627.134 6      1966.629          41.250    22832773.560   122225627.160 6      1966.629          40.375    22832787.920    95064435.038 7      1529.600          45.000    22832787.180    95064432.038 7      1529.600          45.187
G02  21616546.840   113595719.233 7      3042.920          46.062    21616545.060   113595719.243 6      3042.920          38.687    21616549.260    88516154.455 6      2371.106          38.625
G03  23940908.280   125810325.779 7      6318.676          43.312    23940909.100   125810325.782 5      6318.676          30.125    23940927.380    98034083.662 4      4923.643          29.812    23940926.580    98034097.673 7      4923.643          44.062
G08  20801475.940   109312490.592 8      2853.504          49.000    20801475.320   109312490.594 8      2853.504          48.125    20801480.620    85178583.800 8      2223.509          48.750    20801481.480    85178585.801 8      2223.509          50.250
G21  20764389.060   109117599.971 8      2055.829          48.187    20764387.640   109117599.976 6      2055.829          40.187    20764391.280    85026702.994 6      1601.945          40.312
R09  20015933.920   106883965.679 7      1679.819          47.875    20015934.240   106883965.675 7      1679.819          47.937    20015942.320    83132007.622 8      1306.526          52.062    20015942.380    83132008.620 8      1306.526          52.812
G27  21789165.960   114502836.671 7      1148.677          46.875    21789164.500   114502836.673 7      1148.677          46.375    21789172.040    89223013.464 7       895.073          46.562    21789172.360    89223015.467 8       895.073          48.812
R18  23285622.240   124300242.846 5       319.189          32.062    23285618.920   124300242.807 5       319.189          34.750    23285636.800    96678024.278 5       248.258          35.812    23285637.620    96678023.337 6       248.258          36.375
G16  22703568.820   119308056.480 7      -631.465          45.750    22703567.100   119308056.490 5      -631.465          33.562    22703574.980    92967341.827 5      -492.051          33.500
G10  23247810.920   122168067.570 7       130.898          44.000    23247809.560   122168067.567 6       130.898          41.437    23247816.840    95195923.848 6       101.999          41.375    23247817.420    95195928.866 7       101.999          43.937
R16  21924361.940   117116002.855 7     -1572.852          46.062    21924363.100   117116002.851 7     -1572.852          45.062    21924377.380    91090294.560 7     -1223.329          47.250    21924378.200    91090294.556 7     -1223.329          47.625
R04  21946886.780   117524580.805 7      4926.280          44.750    21946887.720   117524580.845 7      4926.280          43.000    21946902.580    91408065.573 7      3831.551          47.437    21946902.300    91408071.577 8      3831.551          48.375
R05  23632350.660   126328458.693 7      6328.324          44.312    23632353.320   126328458.721 7      6328.324          42.937    23632375.560    98255576.776 7      4922.030          43.750    23632375.840    98255572.776 7      4922.030          44.625
> 2024 05 06 13 46 26.0000000  0 13
R03  22832406.900   122223660.809 6      1966.428          41.125    22832406.780   122223660.843 6      1966.428          40.375    22832420.580    95062905.683 7      1529.444          45.250    22832419.900    95062902.683 7      1529.444          44.312
G02  21615967.760   113592676.207 7      3043.363          46.750    21615966.100   113592676.212 6      3043.363          38.937    21615970.180    88513783.266 6      2371.451          38.812
G03  23939705.900   125804007.030 7      6319.212          43.187    23939706.640   125804007.035 5      6319.212          30.125    23939724.500    98029159.978 5      4924.061          30.062    23939725.040    98029173.993 7      4924.061          44.000
G08  20800932.760   109309636.969 8      2854.029          49.312    20800932.340   109309636.973 8      2854.029          48.812    20800937.500    85176360.199 8      2223.919          49.187    20800938.420    85176362.204 8      2223.919          49.875
G21  20763997.940   109115544.120 8      2056.222          48.187    20763996.460   109115544.125 6      2056.222          40.812    20764000.060    85025101.032 6      1602.251          40.500
R09  20015619.460   106882286.139 8      1679.541          48.312    20015619.620   106882286.132 7      1679.541          47.812    20015627.960    83130701.310 8      1306.310          51.937    20015627.720    83130702.310 8      1306.310          52.562
G27  21788947.260   114501687.973 7      1149.097          47.125    21788946.020   114501687.975 7      1149.097          47.375    21788953.200    89222118.379 7       895.400          47.187    21788953.660    89222120.384 8       895.400          48.625
R18  23285561.740   124299923.616 5       319.505          32.062    23285560.180   124299923.579 5       319.505          34.750    23285576.500    96677775.988 5       248.504          35.812    23285577.680    96677775.045 6       248.504          36.375
G16  22703689.080   119308687.896 7      -631.088          45.062    22703687.480   119308687.904 5      -631.088          33.562    22703695.260    92967833.831 5      -491.757          33.500
G10  23247785.980   122167936.719 7       131.204          44.625    23247784.580   122167936.724 6       131.204          41.062    23247791.880    95195821.893 6       102.237          41.062    23247792.180    95195826.911 7       102.237          43.937
R16  21924656.320   117117575.642 7     -1572.530          46.750    21924656.880   117117575.648 7     -1572.530          44.500    21924671.760    91091517.842 7     -1223.079          46.875    21924672.680    91091517.839 7     -1223.079          47.250
R04  21945967.080   117519654.678 7      4926.396          44.375    21945968.500   117519654.709 7      4926.396          43.312    21945983.100    91404234.139 7      3831.641          47.562    21945982.440    91404240.145 8      3831.641          48.750
R05  23631166.700   126322130.197 7      6328.966          43.750    23631169.120   126322130.233 7      6328.966          42.750    23631191.840    98250654.623 7      4922.529          43.750    23631191.580    98250650.619 7      4922.529          44.312
> 2024 05 06 13 46 27.0000000  0 13
R03  22832039.880   122221694.562 6      1966.064          41.125    22832039.860   122221694.601 6      1966.064          40.375    22832053.400    95061376.392 7      1529.161          45.062    22832052.680    95061373.394 7      1529.161          45.562
G02  21615388.420   113589632.819 7      3043.392          46.875    21615386.980   113589632.822 6      3043.392          39.500    21615390.960    88511411.799 6      2371.474          39.125
G03  23938503.160   125797687.682 7      6319.598          43.437    23938504.280   125797687.692 5      6319.598          30.125    23938521.820    98024235.829 5      4924.362          30.062    23938522.320    98024249.843 7      4924.362          44.312
G08  20800389.740   109306782.930 8      2854.145          49.750    20800389.300   109306782.932 8      2854.145          48.625    20800394.400    85174136.275 8      2224.009          49.375    20800395.460    85174138.282 8      2224.009          50.000
G21  20763606.580   109113487.914 8      2056.284          48.437    20763605.280   109113487.916 6      2056.284          40.062    20763608.740    85023498.794 6      1602.299          40.500
R09  20015304.720   106880606.764 8      1679.226          48.562    20015305.260   106880606.759 8      1679.226          48.125    20015313.500    83129395.136 8      1306.065          52.000    20015313.180    83129396.136 8      1306.065          52.437
G27  21788728.620   114500538.841 7      1149.312          47.625    21788727.280   114500538.838 7      1149.312          46.812    21788734.600    89221222.947 7       895.568          46.625    21788734.880    89221224.950 8       895.568          49.000
R18  23285502.500   124299603.487 5       320.147          32.062    23285499.160   124299603.477 5       320.147          34.750    23285515.900    96677527.030 5       249.003          35.812    23285517.860    96677526.082 5       249.003          35.875
G16  22703809.240   119309318.921 7      -630.934          45.250    22703807.540   119309318.928 5      -630.934          33.562    22703815.400    92968325.532 5      -491.637          33.500
G10  23247760.980   122167805.635 7       131.226          44.437    23247759.560   122167805.637 6       131.226          40.750    23247767.080    95195719.745 6       102.254          41.000    23247767.260    95195724.761 7       102.254          43.937
R16  21924950.880   117119148.017 7     -1572.227          46.750    21924951.040   117119148.010 7     -1572.227          44.937    21924965.940    91092740.764 7     -1222.844          46.375    21924966.880    91092740.769 7     -1222.844          46.937
R04  21945047.200   117514728.380 7      4926.347          45.000    21945048.180   117514728.414 7      4926.347          43.312    21945062.960    91400402.588 8      3831.603          48.312    21945062.460    91400408.596 8      3831.603          49.125
R05  23629982.640   126315800.905 7      6329.597          43.750    23629985.120   126315800.930 7      6329.597          42.750    23630007.680    98245731.840 7      4923.020          43.250    23630007.760    98245727.845 7      4923.020          43.937
> 2024 05 06 13 46 28.0000000  0 13
R03  22831672.860   122219728.355 6      1966.150          41.125    22831672.160   122219728.391 6      1966.150          40.312    22831685.740    95059847.120 7      1529.228          45.375    22831685.660    95059844.124 7      1529.228          44.687
G02  21614809.400   113586588.974 7      3044.086          46.687    21614807.920   113586588.976 6      3044.086          39.500    21614811.640    88509039.978 6      2372.015          39.250
G03  23937300.640   125791367.716 7      6320.294          43.750    23937301.760   125791367.721 5      6320.294          30.125    23937319.100    98019311.194 5      4924.905          30.062    23937319.120    98019325.221 7      4924.905          44.812
G08  20799846.560   109303928.392 8      2854.712          49.562    20799846.140   109303928.394 8      2854.712          48.437    20799851.060    85171911.966 8      2224.451          49.125    20799852.380    85171913.971 8      2224.451          49.875
G21  20763215.140   109111431.295 8      2056.786          48.687    20763213.940   109111431.298 6      2056.786          40.562    20763217.320    85021896.238 6      1602.690          40.562
R09  20014990.660   106878927.535 8      1679.123          49.000    20014990.920   106878927.531 8      1679.123          48.625    20014999.080    83128089.080 8      1305.985          51.500    20014998.740    83128090.076 8      1305.985          52.125
G27  21788509.920   114499389.247 7      1149.759          46.562    21788508.640   114499389.247 7      1149.759          46.437    21788515.900    89220327.166 7       895.916          46.500    21788516.220    89220329.173 8       895.916          48.312
R18  23285442.780   124299282.583 5       320.977          32.062    23285440.440   124299282.563 5       320.977          32.625    23285454.880    96677277.449 5       249.648          35.812    23285457.900    96677276.514 5       249.648          35.875
G16  22703929.400   119309949.525 7      -630.500          45.375    22703927.660   119309949.535 5      -630.500          33.312    22703935.500    92968816.908 5      -491.299          33.500
G10  23247736.060   122167674.291 7       131.449          43.687    23247734.480   122167674.290 6       131.449          41.375    23247742.200    95195617.405 6       102.428          41.125    23247741.980    95195622.419 7       102.428          44.250
R16  21925245.320   117120719.944 7     -1571.666          45.687    21925244.900   117120719.950 7     -1571.666          45.000    21925260.020    91093963.369 7     -1222.407          47.000    21925261.200    91093963.376 7     -1222.407          47.562
R04  21944127.060   117509801.937 7      4926.430          45.125    21944128.420   117509801.968 7      4926.430          43.750    21944143.040    91396570.916 8      3831.668          48.062    21944142.100    91396576.920 8      3831.668          48.187
R05  23628798.360   126309470.798 7      6330.470          43.625    23628801.300   126309470.815 7      6330.470          42.562    23628823.220    98240808.425 7      4923.699          43.250    23628823.540    98240804.426 7      4923.699          43.687
> 2024 05 06 13 46 29.0000000  0 13
R03  22831305.240   122217762.276 6      1966.147          41.062    22831304.980   122217762.310 6      1966.147          40.312    22831318.620    95058317.943 7      1529.226          44.562    22831318.100    95058314.946 7      1529.226          44.625
G02  21614230.140   113583544.816 7      3044.568          47.250    21614228.660   113583544.818 6      3044.568          39.562    21614232.320    88506667.917 6      2372.391          39.375
G03  23936098.040   125785047.172 7      6321.056          43.750    23936098.800   125785047.180 5      6321.056          30.437    23936116.560    98014386.118 5      4925.498          30.312    23936116.780    98014400.141 7      4925.498          44.937
G08  20799303.480   109301073.444 8      2855.329          49.375    20799302.800   109301073.452 8      2855.329          48.312    20799307.840    85169687.342 8      2224.932          48.750    20799308.940    85169689.348 8      2224.932          50.125
G21  20762823.720   109109374.348 8      2057.264          48.812    20762822.500   109109374.345 6      2057.264          40.250    20762825.720    85020293.432 6      1603.063          40.687
R09  20014676.280   106877248.489 8      1679.124          48.375    20014676.320   106877248.484 8      1679.124          48.250    20014684.660    83126783.163 8      1305.985          51.937    20014684.220    83126784.161 8      1305.985          52.937
G27  21788291.000   114498239.217 7      1150.434          47.250    21788289.800   114498239.214 7      1150.434          46.687    21788296.820    89219431.047 7       896.442          46.687    21788297.280    89219433.055 8       896.442          48.250
R18  23285382.460   124298960.895 5       322.334          32.062    23285380.240   124298960.872 5       322.334          32.625    23285394.360    96677027.218 5       250.704          35.125    23285397.920    96677026.274 5       250.704          35.875
G16  22704049.300   119310579.798 7      -630.008          45.250    22704047.640   119310579.806 5      -630.008          33.625    22704055.600    92969308.032 5      -490.916          33.687
G10  23247710.980   122167542.699 7       131.905          44.000    23247709.380   122167542.696 6       131.905          41.125    23247717.260    95195514.864 6       102.783          41.187    23247717.180    95195519.880 7       102.783          44.187
R16  21925539.660   117122291.545 7     -1571.178          45.312    21925539.200   117122291.538 7     -1571.178          44.312    21925554.240    91095185.705 7     -1222.028          46.937    21925555.360    91095185.706 7     -1222.028          47.750
R04  21943207.620   117504875.295 7      4926.981          44.875    21943208.380   117504875.316 7      4926.981          43.937    21943222.840    91392739.097 8      3832.097          48.062    21943221.920    91392745.097 7      3832.097          47.875
R05  23627613.640   126303139.952 7      6331.343          43.625    23627616.580   126303139.967 7      6331.343          42.187    23627639.080    98235884.439 7      4924.378          43.375    23627639.120    98235880.433 7      4924.378          43.500
> 2024 05 06 13 46 30.0000000  0 13
R03  22830937.400   122215796.203 6      1965.872          41.062    22830938.780   122215796.239 6      1965.872          40.312    22830951.400    95056788.790 7      1529.011          44.500    22830951.020    95056785.794 7      1529.011          44.937
G02  21613650.620   113580500.188 7      3044.726          47.000    21613649.320   113580500.198 6      3044.726          39.312    21613652.920    88504295.492 6      2372.514          39.187
G03  23934894.720   125778725.982 7      6321.327          43.250    23934895.820   125778725.987 5      6321.327          30.437    23934913.800    98009460.546 5      4925.709          30.312    23934914.100    98009474.573 7      4925.709          44.375
G08  20798760.120   109298217.992 8      2855.537          49.250    20798759.380   109298217.994 8      2855.537          48.375    20798764.580    85167462.318 8      2225.094          48.500    20798765.740    85167464.323 8      2225.094          49.687
G21  20762432.140   109107316.955 8      2057.464          48.812    20762431.040   109107316.954 6      2057.464          40.125    20762434.180    85018690.279 6      1603.219          40.312
R09  20014361.680   106875569.554 8      1678.751          49.125    20014362.160   106875569.547 8      1678.751          48.500    20014370.220    83125477.325 8      1305.695          51.250    20014369.980    83125478.323 8      1305.695          50.937
G27  21788072.000   114497088.695 7      1150.620          46.625    21788071.140   114497088.697 7      1150.620          46.187    21788078.020    89218534.538 7       896.587          46.187    21788078.280    89218536.545 8       896.587          48.250
R18  23285322.400   124298638.375 5       322.769          32.125    23285322.000   124298638.352 5       322.769          32.625    23285334.360    96676776.394 5       251.043          35.125    23285337.460    96676775.431 5       251.043          35.875
G16  22704168.940   119311209.588 7      -629.716          45.875    22704167.440   119311209.595 5      -629.716          33.625    22704175.500    92969798.769 5      -490.688          33.687
G10  23247685.620   122167410.843 7       131.836          42.625    23247684.080   122167410.837 6       131.836          40.000    23247692.300    95195412.121 6       102.729          39.750    23247692.460    95195417.129 7       102.729          44.125
R16  21925833.460   117123862.636 7     -1570.937          45.125    21925833.480   117123862.634 7     -1570.937          44.437    21925847.980    91096407.658 7     -1221.840          45.937    21925849.500    91096407.665 7     -1221.840          46.750
R04  21942287.120   117499948.448 7      4926.803          44.312    21942288.080   117499948.471 7      4926.803          43.937    21942302.680    91388907.121 7      3831.958          46.937    21942301.960    91388913.119 7      3831.958          47.125
R05  23626429.680   126296808.223 7      6332.019          43.000    23626431.920   126296808.240 7      6332.019          42.187    23626454.360    98230959.768 7      4924.904          43.437    23626454.480    98230955.771 7      4924.904          42.937
> 2024 05 06 13 46 31.0000000  0 13
R03  22830570.000   122213830.363 6      1965.937          41.062    22830570.840   122213830.404 6      1965.937          39.812    22830584.260    95055259.815 7      1529.062          45.562    22830583.680    95055256.818 7      1529.062          45.375
G02  21613071.320   113577455.307 7      3045.184          46.375    21613069.840   113577455.317 6      3045.184          39.750    21613073.540    88501922.868 6      2372.871          39.750
G03  23933691.720   125772404.303 7      6322.094          42.312    23933693.020   125772404.308 5      6322.094          30.437    23933710.620    98004534.589 5      4926.307          30.312    23933711.200    98004548.614 7      4926.307          44.687
G08  20798216.580   109295362.211 8      2856.109          49.312    20798216.020   109295362.216 8      2856.109          48.812    20798221.140    85165237.042 8      2225.540          48.812    20798222.180    85165239.047 8      2225.540          50.312
G21  20762040.620   109105259.311 7      2057.989          47.875    20762039.420   109105259.314 6      2057.989          40.812    20762042.500    85017086.928 6      1603.628          40.875
R09  20014047.580   106873890.964 8      1678.600          48.312    20014048.000   106873890.954 8      1678.600          48.125    20014055.920    83124171.757 8      1305.578          51.312    20014055.460    83124172.757 8      1305.578          52.062
G27  21787853.040   114495937.861 7      1151.145          47.187    21787852.000   114495937.863 7      1151.145          46.375    21787858.920    89217637.790 7       896.996          46.187    21787859.040    89217639.799 8       896.996          48.125
R18  23285261.660   124298315.131 5       324.050          32.125    23285260.840   124298315.084 5       324.050          32.625    23285274.360    96676524.973 5       252.039          35.125    23285276.640    96676524.009 5       252.039          35.937
G16  22704288.640   119311839.162 7      -629.307          45.687    22704287.280   119311839.170 5      -629.307          33.625    22704295.280    92970289.349 5      -490.369          33.812
G10  23247660.500   122167278.805 7       132.264          42.812    23247658.860   122167278.796 6       132.264          40.187    23247667.360    95195309.242 6       103.063          39.812    23247667.040    95195314.260 7       103.063          44.312
R16  21926127.600   117125433.454 7     -1570.444          44.125    21926127.580   117125433.461 7     -1570.444          45.000    21926142.240    91097629.404 7     -1221.457          46.437    21926143.420    91097629.409 7     -1221.457          46.750
R04  21941366.760   117495021.552 7      4927.014          44.312    21941367.520   117495021.589 7      4927.014          43.625    21941382.660    91385075.114 7      3832.122          47.250    21941381.800    91385081.118 7      3832.122          47.312
R05  23625245.340   126290475.854 7      6332.917          43.187    23625247.000   126290475.877 7      6332.917          42.500    23625269.520    98226034.611 7      4925.602          43.000    23625270.060    98226030.614 7      4925.602          42.437
> 2024 05 06 13 46 32.0000000  0 13
R03  22830203.020   122211864.608 6      1965.765          39.125    22830203.800   122211864.652 6      1965.765          39.812    22830217.180    95053730.912 7      1528.928          45.812    22830216.720    95053727.920 7      1528.928          45.687
G02  21612491.800   113574409.980 7      3045.489          47.500    21612490.280   113574409.990 6      3045.489          39.625    21612493.980    88499549.892 6      2373.109          39.437
G03  23932488.420   125766082.015 7      6322.774          43.750    23932489.820   125766082.009 5      6322.774          30.437    23932507.900    97999608.151 5      4926.837          30.312    23932508.620    97999622.176 7      4926.837          44.937
G08  20797672.940   109292505.947 8      2856.498          49.000    20797672.400   109292505.949 8      2856.498          48.437    20797677.660    85163011.390 8      2225.843          49.312    20797678.500    85163013.393 8      2225.843          50.375
G21  20761649.080   109103201.261 8      2058.202          48.437    20761647.800   109103201.263 6      2058.202          40.562    20761650.860    85015483.265 6      1603.793          40.562
R09  20013733.480   106872212.510 8      1678.352          48.750    20013733.560   106872212.506 8      1678.352          48.000    20013741.420    83122866.306 8      1305.385          52.125    20013741.260    83122867.303 8      1305.385          52.750
G27  21787633.960   114494786.561 7      1151.628          47.750    21787632.840   114494786.563 7      1151.628          47.000    21787639.980    89216740.678 7       897.372          46.812    21787640.140    89216742.683 8       897.372          48.625
R18  23285201.600   124297991.137 5       324.589          32.125    23285198.220   124297991.127 5       324.589          32.625    23285214.960    96676272.999 5       252.458          35.125    23285215.720    96676272.026 5       252.458          35.937
G16  22704408.680   119312468.321 7      -628.859          44.875    22704406.900   119312468.329 5      -628.859          33.625    22704414.880    92970779.603 5      -490.020          33.812
G10  23247635.420   122167146.514 7       132.354          43.000    23247633.380   122167146.524 6       132.354          40.500    23247642.240    95195206.173 6       103.133          40.312    23247641.960    95195211.189 7       103.133          44.875
R16  21926421.500   117127003.829 7     -1570.024          44.812    21926421.580   117127003.846 7     -1570.024          44.062    21926436.300    91098850.811 7     -1221.130          46.000    21926437.360    91098850.816 7     -1221.130          47.125
R04  21940446.440   117490094.528 7      4927.194          43.562    21940447.120   117490094.554 7      4927.194          42.875    21940462.160    91381242.982 7      3832.262          46.937    21940461.520    91381248.984 7      3832.262          47.000
R05  23624060.500   126284142.726 7      6333.569          42.687    23624062.700   126284142.746 7      6333.569          42.312    23624084.580    98221108.872 7      4926.109          42.937    23624085.120    98221104.869 7      4926.109          42.437
> 2024 05 06 13 46 33.0000000  0 12
R03  22829836.420   122209898.909 6      1965.979          39.125    22829838.180   122209898.940 6      1965.979          39.812    22829849.560    95052202.039 7      1529.095          45.500    22829849.520    95052199.042 7      1529.095          45.687
G02  21611912.120   113571364.164 7      3046.202          47.375    21611910.680   113571364.174 6      3046.202          39.375    21611914.340    88497176.541 6      2373.664          39.187
G03  23931285.980   125759758.972 7      6323.616          43.125    23931286.460   125759758.964 5      6323.616          30.187    23931304.620    97994681.123 5      4927.493          30.250    23931305.380    97994695.142 7      4927.493          45.125
G08  20797129.200   109289649.163 8      2857.222          48.875    20797128.560   109289649.162 8      2857.222          48.937    20797134.120    85160785.333 8      2226.406          49.250    20797135.020    85160787.333 8      2226.406          50.500
G21  20761257.220   109101142.740 8      2058.985          48.000    20761256.080   109101142.740 6      2058.985          41.062    20761259.200    85013879.233 6      1604.404          41.437
R09  20013419.260   106870534.118 8      1678.461          49.500    20013419.500   106870534.113 8      1678.461          49.312    20013427.260    83121560.897 8      1305.470          52.187    20013427.020    83121561.893 8      1305.470          53.000
G27  21787414.880   114493634.731 7      1152.345          46.937    21787413.460   114493634.736 7      1152.345          46.750    21787420.700    89215843.152 7       897.931          46.812    21787421.340    89215845.163 7       897.931          47.937
G16  22704528.360   119313096.952 7      -628.227          45.375    22704526.780   119313096.960 5      -628.227          33.625    22704534.560    92971269.443 5      -489.527          33.687
G10  23247610.000   122167013.906 7       133.022          42.625    23247607.840   122167013.908 6       133.022          40.312    23247617.260    95195102.836 6       103.654          40.062    23247616.800    95195107.846 7       103.654          45.000
R16  21926715.120   117128573.622 7     -1569.426          44.812    21926715.040   117128573.634 7     -1569.426          44.812    21926730.460    91100071.740 7     -1220.665          46.375    21926731.480    91100071.747 7     -1220.665          47.187
R04  21939526.480   117485167.210 7      4927.646          43.812    21939526.920   117485167.246 7      4927.646          42.875    21939541.880    91377410.650 7      3832.614          46.812    21939541.440    91377416.652 7      3832.614          47.125
R05  23622875.620   126277808.663 7      6334.649          42.687    23622877.940   126277808.681 7      6334.649          42.875    23622899.860    98216182.385 7      4926.950          42.750    23622900.100    98216178.384 7      4926.950          42.062
> 2024 05 06 13 46 34.0000000  0 12
R03  22829468.760   122207933.133 6      1965.498          39.562    22829470.440   122207933.162 6      1965.498          39.562    22829482.200    95050673.104 7      1528.720          45.250    22829482.460    95050670.102 7      1528.720          46.250
G02  21611332.420   113568317.841 7      3046.319          47.562    21611330.960   113568317.849 6      3046.319          39.250    21611334.600    88494802.793 6      2373.755          38.875
G03  23930082.680   125753435.228 7      6324.067          43.500    23930082.660   125753435.225 5      6324.067          30.187    23930101.600    97989753.559 5      4927.844          30.250    23930101.980    97989767.594 7      4927.844          45.000
G08  20796585.660   109286791.745 8      2857.511          49.750    20796584.700   109286791.747 8      2857.511          48.437    20796590.540    85158558.784 8      2226.632          48.937    20796591.400    85158560.786 8      2226.632          50.875
