     3.05           OBSERVATION DATA    MIXED               RINEX VERSION / TYPE
TPS2RIN 1.0.29.3920 TPS-USER            20240511 184411 UTC PGM / RUN BY / DATE
Win64 build Feb 23, 2024 (c) Topcon Positioning Systems     COMMENT
SRC: 20240506_GUI04.tps                                     COMMENT
OPT: -S -v 3.05                                             COMMENT
Observer            Agency                                  OBSERVER / AGENCY
O0M3X53SBGM         TPS HIPER_SR        4.8 HSR Jul,08,2022 REC # / TYPE / VERS
FW: 4.8 HSR Jul,08,2022 p3                                  COMMENT
SN: HiPer SR 1212-12575                                     COMMENT
000                 TPSHIPER_SR     NONE                    ANT # / TYPE
        1.8000        0.0000        0.0000                  ANTENNA: DELTA H/E/N
DELTA H stands for **SLANT** height here!                   COMMENT
GUI04                                                       MARKER NAME
  5388884.9200 -1592070.8536  3010643.5215                  APPROX POSITION XYZ
  2024     5     6    15    34    2.0000000     GPS         TIME OF FIRST OBS
  2024     5     6    15    49    3.0000000     GPS         TIME OF LAST OBS
     1.000                                                  INTERVAL
   902 EPOCHS                                               COMMENT
G   16 C1C L1C D1C S1C C1W L1W D1W S1W C2W L2W D2W S2W C2X  SYS / # / OBS TYPES
       L2X D2X S2X                                          SYS / # / OBS TYPES
R   16 C1C L1C D1C S1C C1P L1P D1P S1P C2P L2P D2P S2P C2C  SYS / # / OBS TYPES
       L2C D2C S2C                                          SYS / # / OBS TYPES
    14                                                      # OF SATELLITES
   G02   902   902   902   902   902   902   902   902   902PRN / # OF OBS
         902   902   902     0     0     0     0            PRN / # OF OBS
   G03   902   902   902   902   902   902   902   902   902PRN / # OF OBS
         902   902   902   902   902   902   902            PRN / # OF OBS
   G04   397   397   397   397   392   392   392   392   391PRN / # OF OBS
         391   391   391   388   388   388   388            PRN / # OF OBS
   G08   902   902   902   902   902   902   902   902   902PRN / # OF OBS
         902   902   902   902   902   902   902            PRN / # OF OBS
   G14   902   902   902   902   902   902   902   902   902PRN / # OF OBS
         902   902   902   902   902   902   902            PRN / # OF OBS
   G17   174   174   174   174   170   170   170   170   170PRN / # OF OBS
         170   170   170   166   166   166   166            PRN / # OF OBS
   G21   902   902   902   902   902   902   902   902   902PRN / # OF OBS
         902   902   902     0     0     0     0            PRN / # OF OBS
   G22   832   832   832   832   830   830   830   830   830PRN / # OF OBS
         830   830   830     0     0     0     0            PRN / # OF OBS
   G27   902   902   902   902   902   902   902   902   902PRN / # OF OBS
         902   902   902   902   902   902   902            PRN / # OF OBS
   R04   902   902   902   902   902   902   902   902   902PRN / # OF OBS
         902   902   902   902   902   902   902            PRN / # OF OBS
   R05   902   902   902   902   902   902   902   902   902PRN / # OF OBS
         902   902   902   902   902   902   902            PRN / # OF OBS
   R10   768   768   768   768   763   763   763   763     0PRN / # OF OBS
           0     0     0     0     0     0     0            PRN / # OF OBS
   R11   789   789   789   789   784   784   784   784   784PRN / # OF OBS
         784   784   784   783   783   783   783            PRN / # OF OBS
   R20   902   902   902   902   902   902   902   902   902PRN / # OF OBS
         902   902   902   902   902   902   902            PRN / # OF OBS
G L1C                                                       SYS / PHASE SHIFT
G L1W -0.25000                                              SYS / PHASE SHIFT
G L2W  0.00000                                              SYS / PHASE SHIFT
G L2X  0.25000                                              SYS / PHASE SHIFT
R L1C                                                       SYS / PHASE SHIFT
R L1P -0.25000                                              SYS / PHASE SHIFT
R L2P -0.25000                                              SYS / PHASE SHIFT
R L2C                                                       SYS / PHASE SHIFT
  5 R04  6 R05  1 R10 -7 R11  0 R20  2                      GLONASS SLOT / FRQ #
                                                            GLONASS COD/PHS/BIS
    18    18  1929     7GPS                                 LEAP SECONDS
                                                            END OF HEADER
> 2024 05 06 15 34  2.0000000  0 11
G27  24348949.520   127954578.247 6      -496.931          41.562    24348948.280   127954578.252 6      -496.931          38.062    24348970.200    99704947.729 6      -387.219          38.000    24348970.620    99704947.724 7      -387.219          43.187
G02  21615309.620   113589217.180 7      2011.647          46.562    21615307.520   113589217.188 6      2011.647          40.312    21615310.120    88511080.468 6      1567.517          40.187
G03  20295125.160   106651600.230 8      3820.846          48.312    20295124.280   106651600.234 7      3820.846          43.187    20295131.680    83105169.141 7      2977.282          42.562    20295131.900    83105173.150 8      2977.282          52.687
G14  22316571.500   117274374.123 7      3680.536          45.125    22316570.340   117274374.136 5      3680.536          34.625    22316576.560    91382650.795 5      2867.951          34.687    22316576.580    91382653.803 8      2867.951          48.062
R05  19939055.640   106585677.454 8      3558.647          49.500    19939055.420   106585677.460 8      3558.647          49.687    19939064.920    82900012.925 8      2767.837          51.062    19939064.580    82900010.924 8      2767.837          50.000
G08  21494155.900   112952546.406 7       614.030          47.000    21494154.040   112952546.400 7       614.030          47.562    21494163.500    88015005.362 7       478.465          47.312    21494164.980    88015011.369 8       478.465          49.437
G21  21907580.300   115125109.444 7      1192.817          47.500    21907578.640   115125109.452 6      1192.817          38.812    21907582.640    89707889.626 6       929.467          38.625
R20  20810574.460   111283453.130 6      3049.973          37.625    20810575.720   111283453.131 6      3049.973          36.875    20810586.000    86553869.748 7      2372.201          44.187    20810586.040    86553874.750 7      2372.201          43.750
R04  21861748.580   117068667.238 7       -97.047          47.312    21861749.240   117068667.280 7       -97.047          45.937    21861759.420    91053460.676 7       -75.481          47.000    21861759.920    91053460.682 7       -75.481          47.437
R10  22004160.040   117294548.732 7       -53.039          43.750    22004160.280   117294548.754 7       -53.039          42.937
R11  22722479.180   121422041.364 7      3104.591          43.312    22722480.620   121422041.373 7      3104.591          42.500    22722491.540    94439401.398 7      2414.682          44.562    22722490.280    94439410.390 7      2414.682          44.500
> 2024 05 06 15 34  3.0000000  0 11
G27  24349043.660   127955074.974 6      -496.466          41.875    24349042.800   127955074.976 6      -496.466          38.062    24349064.760    99705334.775 6      -386.857          37.812    24349065.320    99705334.767 7      -386.857          43.437
G02  21614926.540   113587205.221 7      2012.291          45.437    21614924.760   113587205.232 6      2012.291          39.937    21614927.240    88509512.720 6      1568.019          39.437
G03  20294398.140   106647779.362 8      3820.895          48.437    20294397.060   106647779.364 7      3820.895          42.500    20294404.620    83102191.851 7      2977.321          42.312    20294404.800    83102195.862 8      2977.321          52.500
G14  22315871.100   117270693.520 7      3680.592          45.187    22315870.020   117270693.533 5      3680.592          34.437    22315876.140    91379782.807 5      2867.994          34.375    22315876.420    91379785.813 8      2867.994          48.625
R05  19938389.860   106582118.852 8      3558.539          50.687    19938389.480   106582118.862 8      3558.539          49.000    19938399.180    82897245.136 8      2767.752          50.375    19938399.040    82897243.137 8      2767.752          49.750
G08  21494038.920   112951932.182 7       614.425          47.312    21494037.160   112951932.173 7       614.425          47.187    21494046.640    88014526.750 7       478.773          47.187    21494048.100    88014532.755 8       478.773          49.375
G21  21907353.280   115123916.360 7      1193.452          47.625    21907351.640   115123916.370 6      1193.452          38.500    21907355.560    89706959.960 6       929.963          38.812
R20  20810003.840   111280402.849 6      3050.615          37.625    20810004.300   111280402.863 6      3050.615          36.875    20810015.680    86551497.332 7      2372.700          44.312    20810016.060    86551502.330 7      2372.700          43.625
R04  21861766.860   117068764.248 7       -97.001          46.312    21861767.700   117068764.285 7       -97.001          45.812    21861777.300    91053536.137 7       -75.446          46.875    21861778.140    91053536.137 7       -75.446          47.312
R10  22004169.980   117294601.574 7       -52.740          43.687    22004170.480   117294601.595 7       -52.740          42.812
R11  22721897.820   121418936.812 7      3104.311          43.312    22721899.900   121418936.816 7      3104.311          42.500    22721910.660    94436986.751 7      2414.464          44.937    22721909.460    94436995.745 7      2414.464          45.375
> 2024 05 06 15 34  4.0000000  0 11
G27  24349137.900   127955570.879 6      -495.565          41.562    24349137.120   127955570.876 6      -495.565          37.812    24349159.160    99705721.178 6      -386.155          37.500    24349159.820    99705721.170 7      -386.155          43.312
G02  21614543.520   113585192.317 7      2013.405          46.500    21614541.620   113585192.324 6      2013.405          39.750    21614544.200    88507944.233 6      1568.887          39.812
G03  20293670.860   106643958.055 8      3821.567          48.500    20293669.880   106643958.060 7      3821.567          42.125    20293677.420    83099214.226 6      2977.844          41.812    20293677.660    83099218.235 8      2977.844          51.687
G14  22315170.880   117267012.494 7      3681.197          45.500    22315169.720   117267012.506 5      3681.197          34.375    22315175.540    91376914.483 5      2868.465          34.375    22315175.940    91376917.493 7      2868.465          47.375
R05  19937724.020   106578560.085 8      3558.867          50.937    19937723.900   106578560.092 8      3558.867          49.312    19937733.340    82894477.221 8      2768.007          49.250    19937733.180    82894475.224 8      2768.007          49.250
G08  21493921.860   112951317.356 7       615.104          46.687    21493920.240   112951317.355 7       615.104          46.875    21493929.580    88014047.679 7       479.302          46.625    21493931.320    88014053.682 8       479.302          49.000
G21  21907126.100   115122722.268 8      1194.571          48.062    21907124.360   115122722.279 6      1194.571          38.312    21907128.380    89706029.512 6       930.835          38.062
R20  20809433.300   111277351.631 6      3051.753          37.312    20809433.320   111277351.635 6      3051.753          36.875    20809445.120    86549124.167 7      2373.586          43.562    20809445.320    86549129.167 7      2373.586          43.875
R04  21861785.000   117068860.921 7       -96.501          46.500    21861785.520   117068860.958 7       -96.501          46.437    21861795.440    91053611.335 7       -75.056          46.125    21861795.840    91053611.339 7       -75.056          46.500
R10  22004179.660   117294653.861 7       -52.014          43.625    22004180.040   117294653.883 7       -52.014          42.687
R11  22721316.520   121415831.962 7      3104.936          43.312    22721318.180   121415831.963 7      3104.936          42.750    22721329.180    94434571.877 7      2414.950          45.187    22721328.460    94434580.874 7      2414.950          44.625
> 2024 05 06 15 34  5.0000000  0 11
G27  24349232.360   127956066.092 6      -495.010          41.812    24349231.500   127956066.089 6      -495.010          38.125    24349253.400    99706107.044 6      -385.722          37.812    24349254.620    99706107.034 7      -385.722          43.312
G02  21614160.200   113583178.577 7      2014.064          46.187    21614158.300   113583178.582 6      2014.064          39.812    21614161.060    88506375.095 6      1569.401          39.375
G03  20292943.700   106640136.483 8      3821.551          48.812    20292942.700   106640136.490 6      3821.551          41.937    20292950.220    83096236.394 6      2977.832          41.875    20292950.620    83096240.405 8      2977.832          51.375
G14  22314470.020   117263331.189 7      3681.312          45.125    22314469.060   117263331.202 5      3681.312          34.375    22314475.060    91374045.942 5      2868.555          34.500    22314475.460    91374048.954 7      2868.555          47.437
R05  19937058.380   106575001.291 8      3558.639          50.062    19937058.300   106575001.301 8      3558.639          49.437    19937067.600    82891709.285 8      2767.830          49.375    19937067.520    82891707.291 8      2767.830          49.250
G08  21493804.840   112950702.030 7       615.391          47.312    21493803.060   112950702.030 7       615.391          46.750    21493812.440    88013568.213 7       479.526          46.375    21493814.300    88013574.216 8       479.526          49.625
G21  21906898.680   115121527.315 7      1195.280          47.812    21906897.100   115121527.323 6      1195.280          38.500    21906900.920    89705098.388 6       931.387          38.000
R20  20808862.840   111274299.577 6      3052.352          37.312    20808862.300   111274299.581 6      3052.352          36.875    20808874.240    86546750.358 7      2374.051          44.000    20808874.680    86546755.356 7      2374.051          43.750
R04  21861802.600   117068957.439 7       -96.643          47.000    21861803.860   117068957.478 7       -96.643          46.437    21861813.080    91053686.423 7       -75.167          46.687    21861814.060    91053686.430 7       -75.167          46.375
R10  22004189.800   117294705.749 7       -51.841          43.687    22004189.720   117294705.771 7       -51.841          42.687
R11  22720735.620   121412727.017 7      3105.000          42.687    22720736.640   121412727.008 7      3105.000          42.687    22720747.520    94432156.922 7      2415.000          44.125    22720747.260    94432165.921 7      2415.000          43.750
> 2024 05 06 15 34  6.0000000  0 11
G27  24349326.520   127956560.707 6      -494.406          41.437    24349325.660   127956560.701 6      -494.406          38.437    24349347.480    99706492.444 6      -385.252          38.250    24349348.940    99706492.438 7      -385.252          43.687
G02  21613777.140   113581164.114 7      2014.614          46.062    21613774.960   113581164.119 6      2014.614          39.875    21613777.720    88504805.395 6      1569.829          39.687
G03  20292216.300   106636314.703 8      3821.716          48.687    20292215.420   106636314.710 7      3821.716          42.250    20292222.940    83093258.396 7      2977.960          42.312    20292223.260    83093262.407 8      2977.960          52.812
G14  22313769.520   117259649.698 7      3681.431          45.000    22313768.480   117259649.710 5      3681.431          34.562    22313774.640    91371177.260 5      2868.648          34.375    22313774.440    91371180.272 7      2868.648          47.750
R05  19936392.620   106571442.537 8      3558.551          50.375    19936392.380   106571442.544 8      3558.551          49.437    19936401.880    82888941.375 8      2767.762          49.750    19936402.040    82888939.380 8      2767.762          50.500
G08  21493687.580   112950086.300 7       615.804          47.375    21493685.940   112950086.300 7       615.804          47.875    21493695.280    88013088.429 7       479.847          47.625    21493697.040    88013094.431 8       479.847          49.562
G21  21906671.060   115120331.574 8      1195.986          48.625    21906669.520   115120331.584 6      1195.986          38.312    21906673.360    89704166.653 6       931.937          38.437
R20  20808292.120   111271246.748 6      3053.099          37.312    20808290.520   111271246.754 6      3053.099          36.875    20808303.280    86544375.952 7      2374.633          43.500    20808303.880    86544380.954 7      2374.633          43.875
R04  21861820.840   117069053.855 7       -96.601          46.812    21861821.920   117069053.897 7       -96.601          45.687    21861830.920    91053761.424 7       -75.134          46.687    21861832.000    91053761.428 7       -75.134          46.625
R10  22004199.460   117294757.290 7       -51.442          43.687    22004199.040   117294757.304 7       -51.442          42.875
R11  22720154.700   121409622.041 7      3104.943          43.312    22720155.560   121409622.039 7      3104.943          42.687    22720166.460    94429741.947 7      2414.955          44.250    22720166.280    94429750.944 7      2414.955          43.937
> 2024 05 06 15 34  7.0000000  0 11
G27  24349420.580   127957054.727 6      -493.368          41.875    24349419.620   127957054.727 6      -493.368          38.375    24349441.700    99706877.387 6      -384.442          38.000    24349442.860    99706877.393 7      -384.442          43.750
G02  21613393.660   113579148.900 7      2015.759          46.500    21613391.620   113579148.905 6      2015.759          39.875    21613394.220    88503235.108 6      1570.721          39.687
G03  20291489.240   106632492.739 8      3822.249          49.125    20291488.000   106632492.744 7      3822.249          42.562    20291495.520    83090280.257 7      2978.376          42.000    20291495.980    83090284.268 8      2978.376          52.687
G14  22313068.680   117255968.035 7      3681.889          44.500    22313067.880   117255968.048 5      3681.889          34.562    22313073.980    91368308.445 5      2869.004          34.375    22313073.780    91368311.457 7      2869.004          47.812
R05  19935727.300   106567883.869 8      3558.853          50.562    19935726.560   106567883.870 8      3558.853          48.875    19935736.020    82886173.535 8      2767.996          50.875    19935736.340    82886171.535 8      2767.996          49.875
G08  21493570.460   112949470.200 7       616.436          47.312    21493568.680   112949470.197 7       616.436          47.125    21493578.120    88012608.361 7       480.340          47.062    21493579.740    88012614.359 8       480.340          50.125
G21  21906443.600   115119135.073 7      1197.075          47.062    21906441.920   115119135.081 6      1197.075          39.062    21906445.920    89703234.325 6       932.786          38.875
R20  20807721.300   111268193.226 6      3053.968          37.312    20807720.180   111268193.225 6      3053.968          36.562    20807732.240    86542000.996 7      2375.309          43.500    20807733.120    86542006.000 7      2375.309          43.937
R04  21861838.480   117069150.145 7       -96.027          46.937    21861839.760   117069150.190 7       -96.027          45.812    21861848.880    91053836.329 7       -74.688          45.812    21861849.740    91053836.335 7       -74.688          46.500
R10  22004208.940   117294808.527 7       -50.861          44.687    22004208.920   117294808.544 7       -50.861          42.937
R11  22719573.720   121406517.056 7      3105.111          44.000    22719575.160   121406517.071 7      3105.111          43.062    22719585.400    94427326.986 7      2415.086          44.500    22719585.160    94427335.983 7      2415.086          44.812
> 2024 05 06 15 34  8.0000000  0 11
G27  24349514.160   127957547.897 7      -492.744          42.312    24349513.600   127957547.896 6      -492.744          38.437    24349535.740    99707261.662 6      -383.956          38.437    24349536.460    99707261.656 7      -383.956          43.875
G02  21613009.820   113577132.630 7      2016.850          46.625    21613007.900   113577132.635 6      2016.850          40.125    21613010.600    88501663.996 6      1571.571          39.375
G03  20290761.800   106628670.253 8      3822.832          48.187    20290760.540   106628670.258 7      3822.832          42.312    20290768.280    83087301.708 6      2978.830          41.875    20290768.500    83087305.719 8      2978.830          52.500
G14  22312367.980   117252285.816 7      3682.560          45.125    22312367.160   117252285.826 5      3682.560          34.312    22312373.340    91365439.195 5      2869.528          33.875    22312372.980    91365442.201 7      2869.528          47.562
R05  19935061.500   106564324.952 8      3559.073          49.062    19935060.480   106564324.951 8      3559.073          50.187    19935070.340    82883405.501 8      2768.168          50.187    19935070.500    82883403.499 8      2768.168          50.625
G08  21493452.880   112948853.348 7       617.220          46.812    21493451.340   112948853.348 7       617.220          47.625    21493460.740    88012127.704 7       480.951          47.500    21493462.620    88012133.701 8       480.951          49.812
G21  21906215.540   115117937.454 7      1198.252          47.812    21906214.040   115117937.458 6      1198.252          38.562    21906218.100    89702301.123 6       933.703          38.750
R20  20807149.940   111265138.600 6      3055.082          37.312    20807147.200   111265138.604 6      3055.082          36.562    20807161.300    86539625.197 7      2376.175          44.125    20807161.720    86539630.205 7      2376.175          44.250
R04  21861856.760   117069245.988 7       -95.601          47.000    21861857.820   117069246.027 7       -95.601          45.187    21861866.940    91053910.882 7       -74.356          46.562    21861867.720    91053910.886 7       -74.356          46.312
R10  22004218.400   117294859.085 7       -50.121          44.562    22004218.440   117294859.107 7       -50.121          42.937
R11  22718992.860   121403411.698 7      3105.637          44.250    22718994.620   121403411.707 7      3105.637          43.125    22719004.460    94424911.714 7      2415.496          44.750    22719004.120    94424920.712 7      2415.496          44.625
> 2024 05 06 15 34  9.0000000  0 11
G27  24349608.120   127958040.314 7      -492.287          42.375    24349607.440   127958040.314 6      -492.287          38.250    24349629.380    99707645.354 6      -383.600          38.687    24349630.360    99707645.358 7      -383.600          44.062
G02  21612625.820   113575115.532 7      2017.330          46.625    21612623.920   113575115.536 6      2017.330          39.625    21612626.880    88500092.244 6      1571.945          39.812
G03  20290034.420   106624847.464 7      3822.799          47.937    20290033.120   106624847.466 7      3822.799          42.500    20290040.620    83084322.926 6      2978.804          41.937    20290041.160    83084326.935 8      2978.804          52.312
G14  22311667.560   117248603.348 7      3682.423          44.437    22311666.320   117248603.360 5      3682.423          34.312    22311672.560    91362569.749 5      2869.421          33.875    22311672.060    91362572.745 7      2869.421          47.500
R05  19934395.500   106560765.987 8      3558.761          49.500    19934394.640   106560765.991 8      3558.761          49.375    19934404.480    82880637.436 8      2767.925          50.000    19934404.620    82880635.432 8      2767.925          50.375
G08  21493335.560   112948236.021 7       617.355          47.187    21493333.800   112948236.023 7       617.355          47.500    21493343.260    88011646.680 7       481.056          47.187    21493345.320    88011652.677 8       481.056          50.187
G21  21905987.640   115116738.961 8      1198.836          48.062    21905985.920   115116738.974 6      1198.836          38.562    21905989.940    89701367.248 6       934.158          38.312
R20  20806578.720   111262083.115 6      3055.851          37.312    20806576.280   111262083.108 6      3055.851          36.562    20806589.600    86537248.707 7      2376.773          43.875    20806590.320    86537253.719 7      2376.773          44.187
R04  21861874.520   117069341.593 7       -95.692          47.062    21861875.640   117069341.621 7       -95.692          46.187    21861884.840    91053985.245 7       -74.427          46.562    21861885.720    91053985.251 7       -74.427          46.500
R10  22004227.440   117294909.224 7       -50.112          44.062    22004227.660   117294909.254 7       -50.112          42.937
R11  22718411.580   121400306.286 7      3105.248          44.312    22718414.260   121400306.287 7      3105.248          43.625    22718422.740    94422496.406 7      2415.193          44.750    22718422.840    94422505.400 7      2415.193          44.562
> 2024 05 06 15 34 10.0000000  0 11
G27  24349701.680   127958532.070 6      -491.461          41.687    24349700.980   127958532.064 6      -491.461          38.812    24349722.900    99708028.524 6      -382.956          38.437    24349723.860    99708028.522 7      -382.956          43.875
G02  21612241.940   113573097.611 7      2018.181          46.562    21612239.900   113573097.621 6      2018.181          39.687    21612242.800    88498519.849 6      1572.609          39.437
G03  20289306.840   106621024.405 8      3823.122          48.437    20289305.720   106621024.410 7      3823.122          42.125    20289313.040    83081343.931 6      2979.056          41.937    20289313.820    83081347.942 8      2979.056          52.375
G14  22310966.580   117244920.582 7      3682.845          43.875    22310965.420   117244920.595 5      3682.845          34.187    22310971.560    91359700.074 5      2869.750          34.187    22310971.500    91359703.064 7      2869.750          47.312
R05  19933729.660   106557206.969 8      3559.018          49.375    19933728.860   106557206.970 8      3559.018          48.937    19933738.740    82877869.327 8      2768.125          51.000    19933738.880    82877867.319 8      2768.125          50.562
G08  21493218.040   112947618.194 7       618.038          47.250    21493216.260   112947618.191 7       618.038          47.500    21493225.680    88011165.258 7       481.588          47.500    21493227.940    88011171.253 8       481.588          49.937
G21  21905759.560   115115539.625 8      1199.733          48.250    21905757.700   115115539.636 6      1199.733          38.687    21905761.700    89700432.708 6       934.857          39.187
R20  20806007.340   111259026.797 5      3056.726          35.812    20806004.340   111259026.803 6      3056.726          36.562    20806017.640    86534871.597 7      2377.454          43.750    20806018.760    86534876.605 7      2377.454          44.187
R04  21861892.380   117069436.943 7       -95.298          46.875    21861893.380   117069436.982 7       -95.298          45.812    21861902.660    91054059.425 7       -74.120          46.750    21861903.620    91054059.429 7       -74.120          46.437
R10  22004236.940   117294958.937 7       -49.566          44.312    22004237.320   117294958.967 7       -49.566          43.125
R11  22717830.480   121397200.733 7      3105.406          44.687    22717832.420   121397200.736 7      3105.406          43.687    22717841.800    94420080.990 7      2415.315          45.000    22717841.400    94420089.989 7      2415.315          45.062
> 2024 05 06 15 34 11.0000000  0 11
G27  24349794.880   127959023.156 7      -490.686          42.000    24349794.640   127959023.150 6      -490.686          38.750    24349816.500    99708411.176 6      -382.353          38.937    24349817.580    99708411.180 7      -382.353          43.812
G02  21611857.840   113571078.863 7      2019.164          46.750    21611855.860   113571078.873 6      2019.164          39.875    21611858.660    88496946.810 6      1573.374          39.500
G03  20288579.140   106617201.059 8      3823.543          48.187    20288578.060   106617201.064 6      3823.543          41.937    20288585.580    83078364.717 6      2979.384          41.937    20288586.220    83078368.726 8      2979.384          52.812
G14  22310266.200   117241237.543 7      3683.283          44.437    22310264.500   117241237.553 5      3683.283          34.312    22310270.560    91356830.186 5      2870.091          34.187    22310270.660    91356833.173 8      2870.091          48.000
R05  19933063.840   106553647.950 8      3559.080          50.375    19933063.180   106553647.962 8      3559.080          49.875    19933072.980    82875101.222 8      2768.173          50.687    19933073.020    82875099.217 8      2768.173          50.500
G08  21493100.200   112946999.900 7       618.602          47.375    21493098.580   112946999.894 8       618.602          48.062    21493108.000    88010683.477 7       482.028          47.500    21493110.500    88010689.476 8       482.028          50.312
G21  21905530.980   115114339.423 8      1200.697          48.000    21905529.360   115114339.433 6      1200.697          38.625    21905533.340    89699497.496 6       935.608          38.687
R20  20805435.580   111255969.660 5      3057.813          35.812    20805432.720   111255969.664 6      3057.813          36.562    20805446.100    86532493.830 7      2378.299          44.250    20805446.940    86532498.834 7      2378.299          43.812
R04  21861910.220   117069532.125 7       -94.931          47.562    21861911.380   117069532.161 7       -94.931          46.000    21861920.440    91054133.468 7       -73.835          46.562    21861921.320    91054133.468 7       -73.835          46.500
R10  22004245.940   117295008.250 7       -48.957          43.875    22004246.520   117295008.272 7       -48.957          42.625
R11  22717249.300   121394095.056 7      3105.811          44.625    22717250.700   121394095.060 7      3105.811          43.750    22717260.640    94417665.482 7      2415.631          44.812    22717260.440    94417674.475 7      2415.631          45.250
> 2024 05 06 15 34 12.0000000  0 11
G27  24349888.340   127959513.401 7      -489.903          42.250    24349887.980   127959513.398 6      -489.903          38.812    24349909.820    99708793.175 6      -381.743          38.687    24349910.820    99708793.179 7      -381.743          44.000
G02  21611473.520   113569059.132 7      2020.127          47.500    21611471.360   113569059.142 6      2020.127          39.625    21611474.400    88495373.006 6      1574.125          39.687
G03  20287851.520   106613377.269 8      3823.956          48.500    20287850.260   106613377.271 6      3823.956          41.937    20287857.800    83075385.155 6      2979.706          41.687    20287858.380    83075389.166 8      2979.706          52.687
G14  22309565.320   117237554.073 7      3683.640          44.187    22309563.620   117237554.081 5      3683.640          34.312    22309569.720    91353959.960 5      2870.369          34.125    22309569.820    91353962.945 8      2870.369          48.250
R05  19932398.000   106550088.756 8      3559.213          49.375    19932397.460   106550088.760 8      3559.213          49.125    19932407.280    82872332.966 8      2768.277          50.687    19932407.200    82872330.964 8      2768.277          50.062
G08  21492982.500   112946380.949 7       619.217          47.437    21492980.900   112946380.940 7       619.217          47.562    21492990.200    88010201.185 7       482.507          47.125    21492992.580    88010207.184 8       482.507          49.937
G21  21905302.480   115113138.190 7      1201.650          47.000    21905300.780   115113138.200 6      1201.650          38.937    21905304.900    89698561.484 6       936.351          38.937
R20  20804863.160   111252911.584 5      3058.282          35.812    20804861.380   111252911.586 6      3058.282          36.187    20804873.960    86530115.338 7      2378.664          43.812    20804875.140    86530120.335 7      2378.664          43.687
R04  21861927.880   117069626.985 7       -94.780          47.187    21861929.600   117069627.027 7       -94.780          46.062    21861937.860    91054207.256 7       -73.718          46.687    21861938.960    91054207.256 7       -73.718          46.250
R10  22004255.120   117295056.990 7       -48.483          43.875    22004255.520   117295057.017 7       -48.483          42.625
R11  22716668.380   121390989.131 7      3105.910          44.437    22716669.580   121390989.132 7      3105.910          43.437    22716679.400    94415249.771 7      2415.708          44.625    22716679.520    94415258.768 7      2415.708          45.187
> 2024 05 06 15 34 13.0000000  0 11
G27  24349981.460   127960002.891 7      -489.481          42.187    24349981.100   127960002.888 6      -489.481          39.062    24350002.920    99709174.580 6      -381.414          38.812    24350004.100    99709174.580 7      -381.414          44.000
G02  21611089.040   113567038.482 7      2020.885          47.437    21611086.840   113567038.489 6      2020.885          39.687    21611089.760    88493798.482 6      1574.716          39.625
G03  20287123.840   106609553.112 8      3824.040          48.625    20287122.520   106609553.114 7      3824.040          42.000    20287130.160    83072405.302 6      2979.771          41.437    20287130.780    83072409.307 8      2979.771          51.625
G14  22308864.100   117233870.228 7      3683.784          44.312    22308862.740   117233870.233 5      3683.784          34.250    22308868.840    91351089.437 5      2870.481          34.125    22308869.260    91351092.427 8      2870.481          48.375
R05  19931732.120   106546529.454 8      3559.072          49.687    19931731.520   106546529.461 8      3559.072          49.875    19931741.460    82869564.634 8      2768.167          50.062    19931741.020    82869562.633 8      2768.167          50.062
G08  21492864.620   112945761.427 7       619.520          47.125    21492863.000   112945761.419 7       619.520          47.500    21492872.460    88009718.443 7       482.743          47.250    21492874.380    88009724.441 8       482.743          50.125
G21  21905073.580   115111935.995 7      1202.422          47.312    21905072.000   115111936.006 6      1202.422          39.000    21905076.240    89697624.718 6       936.952          39.187
R20  20804291.100   111249852.490 5      3059.084          35.812    20804288.760   111249852.524 6      3059.084          36.187    20804301.720    86527736.078 7      2379.288          43.437    20804303.060    86527741.082 7      2379.288          43.312
R04  21861945.640   117069721.583 7       -94.834          47.375    21861947.440   117069721.630 7       -94.834          46.062    21861955.420    91054280.843 7       -73.760          45.812    21861956.360    91054280.845 7       -73.760          46.250
R10  22004264.320   117295105.250 7       -48.337          44.000    22004264.620   117295105.267 7       -48.337          42.625
R11  22716087.500   121387883.014 7      3105.912          45.000    22716088.780   121387883.004 7      3105.912          43.812    22716098.220    94412833.917 7      2415.709          44.125    22716098.040    94412842.914 7      2415.709          44.812
> 2024 05 06 15 34 14.0000000  0 11
G27  24350074.240   127960491.830 7      -488.877          42.125    24350074.080   127960491.827 6      -488.877          38.375    24350096.040    99709555.557 6      -380.943          38.375    24350097.200    99709555.563 7      -380.943          43.812
G02  21610704.440   113565017.174 7      2021.595          47.375    21610702.280   113565017.177 6      2021.595          39.500    21610705.160    88492223.441 6      1575.269          39.500
G03  20286396.040   106605728.807 8      3824.313          48.375    20286394.720   106605728.804 6      3824.313          41.562    20286402.380    83069425.332 6      2979.984          41.312    20286402.980    83069429.342 8      2979.984          51.375
G14  22308162.980   117230186.248 7      3684.053          45.750    22308161.860   117230186.250 5      3684.053          34.250    22308167.720    91348218.812 5      2870.691          34.187    22308168.240    91348221.814 7      2870.691          47.062
R05  19931066.520   106542970.297 8      3559.001          49.687    19931065.800   106542970.300 8      3559.001          49.562    19931075.640    82866796.413 8      2768.112          49.875    19931075.280    82866794.416 8      2768.112          49.312
G08  21492746.780   112945141.546 7       619.996          47.000    21492745.180   112945141.548 7       619.996          47.125    21492754.480    88009235.437 7       483.114          47.000    21492756.520    88009241.441 8       483.114          49.750
G21  21904844.740   115110733.094 7      1203.196          47.500    21904843.180   115110733.102 6      1203.196          38.437    21904847.280    89696687.402 6       937.555          38.312
R20  20803719.040   111246792.792 5      3059.837          35.812    20803717.780   111246792.791 6      3059.837          36.187    20803729.780    86525356.298 7      2379.873          43.062    20803730.680    86525361.296 7      2379.873          43.000
R04  21861963.220   117069816.141 7       -94.674          47.750    21861965.340   117069816.175 7       -94.674          46.250    21861972.960    91054354.392 7       -73.635          45.250    21861973.900    91054354.390 7       -73.635          45.562
R10  22004273.400   117295153.215 7       -47.876          43.375    22004273.460   117295153.223 7       -47.876          42.750
R11  22715506.020   121384776.939 7      3105.951          45.062    22715507.920   121384776.935 7      3105.951          44.062    22715516.720    94410418.087 7      2415.740          43.375    22715516.860    94410427.084 7      2415.740          43.812
> 2024 05 06 15 34 15.0000000  0 11
G27  24350167.360   127960980.131 6      -487.705          41.625    24350167.100   127960980.128 6      -487.705          38.625    24350189.140    99709936.038 6      -380.030          38.500    24350190.040    99709936.049 7      -380.030          43.812
G02  21610319.640   113562995.087 7      2022.771          46.312    21610317.560   113562995.091 6      2022.771          39.750    21610320.360    88490647.801 6      1576.185          39.437
G03  20285668.100   106601904.268 7      3824.909          47.687    20285666.940   106601904.270 7      3824.909          42.062    20285674.600    83066445.191 6      2980.449          41.437    20285674.980    83066449.198 8      2980.449          51.562
G14  22307461.860   117226502.066 7      3684.566          45.312    22307460.780   117226502.069 5      3684.566          34.312    22307466.620    91345348.031 5      2871.090          34.125    22307466.800    91345351.035 8      2871.090          48.062
R05  19930400.460   106539411.168 8      3559.420          49.750    19930400.100   106539411.172 8      3559.420          49.312    19930409.740    82864028.219 8      2768.438          48.750    19930409.680    82864026.224 8      2768.438          49.625
G08  21492628.660   112944521.268 7       620.791          47.062    21492626.960   112944521.265 7       620.791          47.375    21492636.420    88008752.110 7       483.733          47.187    21492638.180    88008758.109 8       483.733          49.750
G21  21904615.540   115109529.376 7      1204.432          47.312    21904614.180   115109529.383 6      1204.432          38.250    21904618.200    89695749.450 6       938.518          38.062
R20  20803146.440   111243732.262 5      3061.180          35.812    20803145.980   111243732.261 6      3061.180          36.187    20803156.900    86522975.896 7      2380.917          43.437    20803157.900    86522980.892 7      2380.917          42.500
R04  21861980.860   117069910.487 7       -94.009          47.125    21861982.720   117069910.529 7       -94.009          45.562    21861990.780    91054427.791 7       -73.118          45.500    21861991.500    91054427.789 7       -73.118          45.625
R10  22004282.120   117295200.833 7       -47.116          43.312    22004282.520   117295200.849 7       -47.116          42.750
R11  22714924.760   121381670.817 7      3106.399          45.750    22714927.100   121381670.818 7      3106.399          44.500    22714935.320    94408002.231 7      2416.088          43.000    22714935.460    94408011.219 7      2416.088          43.500
> 2024 05 06 15 34 16.0000000  0 11
G27  24350260.300   127961467.683 7      -487.084          42.062    24350259.920   127961467.682 6      -487.084          39.250    24350281.920    99710315.941 6      -379.546          39.000    24350282.920    99710315.945 7      -379.546          43.625
G02  21609934.600   113560972.077 7      2023.612          47.125    21609932.540   113560972.081 6      2023.612          39.812    21609935.340    88489071.442 6      1576.840          39.062
G03  20284940.460   106598079.362 8      3825.195          48.937    20284939.100   106598079.361 7      3825.195          42.062    20284946.620    83063464.761 6      2980.671          41.562    20284947.100    83063468.766 8      2980.671          52.500
G14  22306760.560   117222817.480 7      3684.903          45.062    22306759.760   117222817.482 5      3684.903          34.312    22306765.620    91342476.939 5      2871.353          34.125    22306765.680    91342479.939 8      2871.353          48.062
R05  19929734.680   106535851.915 8      3559.444          49.500    19929734.340   106535851.916 8      3559.444          50.375    19929743.920    82861259.925 8      2768.456          50.062    19929744.020    82861257.926 8      2768.456          50.000
G08  21492510.640   112943900.377 7       621.363          47.750    21492508.860   112943900.374 7       621.363          47.312    21492518.260    88008268.303 7       484.179          46.812    21492520.120    88008274.305 8       484.179          49.750
G21  21904386.460   115108324.698 7      1205.320          47.187    21904384.900   115108324.703 6      1205.320          38.625    21904388.880    89694810.747 6       939.210          38.812
R20  20802574.260   111240670.832 6      3062.093          36.000    20802572.800   111240670.809 6      3062.093          36.187    20802584.340    86520594.773 7      2381.628          43.250    20802585.500    86520599.762 7      2381.628          42.687
R04  21861998.240   117070004.488 7       -93.709          47.062    21862000.480   117070004.524 7       -93.709          46.000    21862008.200    91054500.913 7       -72.884          45.875    21862009.180    91054500.911 7       -72.884          46.125
R10  22004291.280   117295247.944 7       -46.679          43.312    22004290.920   117295247.955 7       -46.679          42.250
R11  22714343.580   121378564.486 7      3106.508          45.687    22714345.520   121378564.484 7      3106.508          44.125    22714353.740    94405586.210 7      2416.173          43.250    22714353.660    94405595.207 7      2416.173          43.500
> 2024 05 06 15 34 17.0000000  0 11
G27  24350353.300   127961954.338 6      -486.271          41.312    24350352.540   127961954.335 6      -486.271          39.312    24350374.600    99710695.137 6      -378.912          39.250    24350375.220    99710695.141 7      -378.912          43.937
G02  21609549.640   113558948.050 7      2024.428          47.312    21609547.580   113558948.057 6      2024.428          39.687    21609550.380    88487494.290 6      1577.476          39.500
G03  20284212.380   106594253.953 8      3825.591          48.125    20284211.180   106594253.958 6      3825.591          41.687    20284218.700    83060483.937 6      2980.980          41.437    20284219.260    83060487.942 8      2980.980          52.250
G14  22306059.500   117219132.420 7      3685.163          44.750    22306058.340   117219132.425 5      3685.163          34.250    22306064.200    91339605.478 5      2871.555          34.000    22306064.700    91339608.486 8      2871.555          48.375
R05  19929068.920   106532292.397 8      3559.598          50.875    19929068.420   106532292.393 8      3559.598          50.062    19929078.180    82858491.418 8      2768.576          50.937    19929078.060    82858489.418 8      2768.576          50.875
G08  21492392.380   112943278.804 7       621.881          47.312    21492390.580   112943278.804 7       621.881          47.375    21492400.060    88007783.973 7       484.583          47.500    21492401.760    88007789.972 8       484.583          49.812
G21  21904156.980   115107118.946 7      1206.211          47.250    21904155.320   115107118.956 6      1206.211          38.750    21904159.520    89693871.212 6       939.904          38.437
R20  20802001.760   111237608.313 6      3063.038          36.000    20802000.380   111237608.287 6      3063.038          36.187    20802011.720    86518212.822 7      2382.363          43.875    20802012.740    86518217.811 7      2382.363          43.062
R04  21862015.620   117070098.020 7       -93.461          47.812    21862017.420   117070098.065 7       -93.461          46.250    21862025.680    91054573.682 7       -72.692          46.312    21862026.680    91054573.677 7       -72.692          45.562
R10  22004300.040   117295294.445 7       -46.339          42.875    22004299.540   117295294.465 6       -46.339          41.812
R11  22713762.140   121375457.829 7      3106.675          45.312    22713764.220   121375457.822 7      3106.675          44.812    22713771.340    94403169.921 7      2416.303          43.250    22713772.200    94403178.920 7      2416.303          42.562
> 2024 05 06 15 34 18.0000000  0 11
G27  24350445.660   127962440.145 7      -485.441          42.625    24350445.080   127962440.140 6      -485.441          39.125    24350467.040    99711073.671 6      -378.266          38.687    24350467.760    99711073.669 7      -378.266          43.812
G02  21609163.940   113556923.003 7      2025.504          47.000    21609162.140   113556923.011 6      2025.504          39.562    21609165.000    88485916.342 6      1578.315          39.375
G03  20283484.420   106590428.098 8      3825.948          48.375    20283483.080   106590428.103 7      3825.948          42.062    20283490.620    83057502.768 7      2981.258          42.125    20283491.240    83057506.771 8      2981.258          52.125
G14  22305358.300   117215446.909 7      3685.658          44.187    22305357.040   117215446.916 5      3685.658          34.437    22305362.780    91336733.660 5      2871.941          34.000    22305363.460    91336736.665 7      2871.941          47.625
R05  19928402.880   106528732.654 8      3559.808          49.125    19928402.560   106528732.658 8      3559.808          49.812    19928412.340    82855722.752 8      2768.739          51.187    19928412.320    82855720.748 8      2768.739          50.750
G08  21492274.000   112942656.589 7       622.459          47.625    21492272.180   112942656.586 7       622.459          47.750    21492281.580    88007299.132 7       485.033          47.750    21492283.320    88007305.133 8       485.033          49.750
G21  21903927.520   115105912.159 7      1207.217          47.812    21903925.740   115105912.166 6      1207.217          38.875    21903929.840    89692930.868 6       940.689          39.250
R20  20801428.000   111234544.788 6      3063.946          36.000    20801426.840   111234544.790 6      3063.946          36.187    20801439.140    86515830.116 7      2383.069          43.937    20801440.020    86515835.108 7      2383.069          43.437
R04  21862032.920   117070191.197 7       -93.068          47.000    21862034.900   117070191.238 7       -93.068          46.187    21862043.200    91054646.158 7       -72.386          46.312    21862044.000    91054646.167 7       -72.386          45.750
R10  22004308.480   117295340.342 7       -45.763          42.312    22004307.760   117295340.363 6       -45.763          41.812
R11  22713180.780   121372350.872 7      3107.033          45.687    22713182.980   121372350.871 7      3107.033          44.500    22713189.440    94400753.391 7      2416.581          42.375    22713190.540    94400762.394 7      2416.581          42.000
> 2024 05 06 15 34 19.0000000  0 11
G27  24350538.460   127962925.277 7      -484.548          42.375    24350537.380   127962925.271 6      -484.548          39.437    24350559.460    99711451.677 6      -377.570          39.312    24350560.200    99711451.682 7      -377.570          43.875
G02  21608778.440   113554897.150 7      2026.488          47.000    21608776.660   113554897.158 6      2026.488          39.750    21608779.420    88484337.768 6      1579.081          39.875
G03  20282756.340   106586601.962 7      3826.430          47.562    20282755.020   106586601.967 7      3826.430          42.000    20282762.620    83054521.378 6      2981.634          41.437    20282763.200    83054525.381 8      2981.634          52.062
G14  22304656.600   117211761.114 7      3686.201          44.812    22304655.640   117211761.119 5      3686.201          34.437    22304661.260    91333861.624 5      2872.365          34.312    22304661.780    91333864.619 7      2872.365          47.500
R05  19927737.100   106525172.922 8      3559.938          50.750    19927736.860   106525172.926 8      3559.938          49.125    19927746.440    82852954.084 8      2768.841          48.875    19927746.240    82852952.082 8      2768.841          49.312
G08  21492155.620   112942033.873 7       623.131          46.875    21492153.680   112942033.867 7       623.131          46.875    21492163.080    88006813.907 7       485.556          46.562    21492164.780    88006819.906 8       485.556          49.937
G21  21903697.740   115104704.491 7      1208.360          47.000    21903695.960   115104704.499 6      1208.360          38.562    21903700.020    89691989.839 6       941.579          38.750
R20  20800855.260   111231480.438 6      3064.780          36.000    20800854.160   111231480.458 6      3064.780          36.187    20800866.340    86513446.753 7      2383.718          43.812    20800866.760    86513451.741 7      2383.718          43.312
R04  21862050.560   117070284.228 7       -92.750          47.312    21862052.120   117070284.267 7       -92.750          45.375    21862060.660    91054718.529 7       -72.139          46.000    21862061.400    91054718.539 7       -72.139          45.937
R10  22004317.440   117295385.819 7       -45.125          42.312    22004316.720   117295385.844 6       -45.125          41.562
R11  22712599.220   121369243.807 7      3107.385          44.687    22712600.820   121369243.813 7      3107.385          44.250    22712607.940    94398336.789 6      2416.855          41.812    22712608.580    94398345.781 6      2416.855          41.062
> 2024 05 06 15 34 20.0000000  0 11
G27  24350630.280   127963409.526 7      -483.689          43.000    24350629.560   127963409.523 6      -483.689          39.187    24350651.780    99711829.004 6      -376.900          39.375    24350652.200    99711829.010 7      -376.900          43.937
G02  21608392.900   113552870.283 7      2027.405          46.750    21608391.060   113552870.293 6      2027.405          40.062    21608393.700    88482758.403 6      1579.796          39.875
G03  20282028.120   106582775.340 7      3826.970          47.625    20282026.740   106582775.342 7      3826.970          42.062    20282034.460    83051539.604 6      2982.055          41.687    20282034.720    83051543.605 8      2982.055          52.500
G14  22303955.120   117208074.864 7      3686.568          44.562    22303954.180   117208074.869 5      3686.568          33.750    22303959.860    91330989.229 5      2872.651          34.312    22303960.540    91330992.223 8      2872.651          48.187
R05  19927071.060   106521612.981 8      3560.143          49.937    19927070.720   106521612.988 8      3560.143          49.562    19927080.420    82850185.255 8      2769.000          50.937    19927080.280    82850183.258 8      2769.000          50.750
G08  21492036.840   112941410.479 7       623.831          46.875    21492035.100   112941410.476 7       623.831          47.687    21492044.440    88006328.151 7       486.102          47.312    21492046.180    88006334.154 8       486.102          49.687
G21  21903467.700   115103495.783 7      1209.335          47.250    21903465.980   115103495.796 6      1209.335          38.812    21903469.880    89691047.999 6       942.339          39.125
R20  20800281.740   111228415.026 6      3066.158          36.000    20800281.760   111228415.027 6      3066.158          36.187    20800293.560    86511062.542 7      2384.789          43.937    20800293.320    86511067.531 7      2384.789          43.437
R04  21862068.060   117070376.882 7       -92.398          47.437    21862069.220   117070376.921 7       -92.398          45.937    21862078.220    91054790.599 7       -71.865          45.562    21862078.760    91054790.612 7       -71.865          45.687
R10  22004325.520   117295430.687 6       -44.436          41.937    22004325.160   117295430.700 6       -44.436          41.562
R11  22712017.780   121366136.420 7      3107.685          44.687    22712019.140   121366136.429 7      3107.685          43.875    22712026.820    94395919.931 6      2417.089          41.750    22712027.440    94395928.921 6      2417.089          41.062
> 2024 05 06 15 34 21.0000000  0 11
G27  24350722.280   127963893.068 7      -483.286          42.250    24350721.540   127963893.065 6      -483.286          39.125    24350743.720    99712205.776 6      -376.586          39.437    24350744.360    99712205.778 7      -376.586          43.500
G02  21608006.880   113550842.536 7      2028.037          47.437    21608005.260   113550842.551 6      2028.037          39.687    21608007.860    88481178.350 6      1580.288          39.687
G03  20281299.780   106578948.403 7      3826.940          47.562    20281298.560   106578948.405 7      3826.940          42.187    20281306.180    83048557.585 6      2982.031          41.687    20281306.520    83048561.588 8      2982.031          52.750
G14  22303253.860   117204388.296 7      3686.530          44.375    22303252.780   117204388.304 5      3686.530          33.750    22303258.440    91328116.585 5      2872.621          33.750    22303258.980    91328119.591 8      2872.621          48.437
R05  19926405.160   106518053.011 8      3559.827          50.437    19926404.780   106518053.018 8      3559.827          50.250    19926414.500    82847416.402 8      2768.755          50.875    19926414.520    82847414.407 8      2768.755          50.750
G08  21491918.060   112940786.556 7       624.082          45.875    21491916.360   112940786.550 7       624.082          47.750    21491925.820    88005841.982 7       486.298          47.437    21491927.280    88005847.981 8       486.298          49.625
G21  21903237.540   115102286.179 7      1209.874          46.625    21903236.000   115102286.187 6      1209.874          38.812    21903239.900    89690105.456 6       942.759          38.875
R20  20799708.500   111225348.787 6      3066.366          36.000    20799707.120   111225348.799 6      3066.366          36.187    20799720.140    86508677.711 7      2384.951          43.625    20799720.140    86508682.710 7      2384.951          43.250
R04  21862085.360   117070469.293 7       -92.448          47.625    21862086.540   117070469.329 7       -92.448          46.000    21862095.580    91054862.478 7       -71.904          45.937    21862096.320    91054862.495 7       -71.904          46.437
R10  22004334.200   117295475.093 6       -44.311          41.937    22004332.960   117295475.099 6       -44.311          40.937
R11  22711436.260   121363028.903 7      3107.359          44.562    22711437.040   121363028.907 7      3107.359          43.875    22711446.180    94393502.973 6      2416.835          41.750    22711446.240    94393511.961 6      2416.835          41.875
> 2024 05 06 15 34 22.0000000  0 11
G27  24350814.260   127964375.801 7      -482.379          43.187    24350813.440   127964375.798 6      -482.379          39.312    24350835.540    99712581.919 6      -375.880          39.125    24350836.220    99712581.917 7      -375.880          43.500
G02  21607620.760   113548813.835 7      2029.238          47.312    21607619.080   113548813.842 6      2029.238          40.125    21607621.840    88479597.552 6      1581.224          39.750
G03  20280571.360   106575121.031 7      3827.611          47.750    20280570.160   106575121.034 7      3827.611          42.062    20280577.900    83045575.230 6      2982.554          41.625    20280578.340    83045579.235 8      2982.554          52.312
G14  22302552.200   117200701.290 7      3687.110          44.875    22302551.140   117200701.297 5      3687.110          34.312    22302556.680    91325243.608 5      2873.073          33.750    22302557.600    91325246.620 8      2873.073          48.312
R05  19925738.980   106514492.870 8      3560.228          50.625    19925738.680   106514492.877 8      3560.228          50.312    19925748.640    82844647.418 8      2769.066          51.125    19925748.540    82844645.421 8      2769.066          51.437
G08  21491799.260   112940162.011 7       624.889          46.687    21491797.600   112940162.003 7       624.889          47.750    21491806.920    88005355.329 7       486.927          47.500    21491808.220    88005361.331 8       486.927          49.500
G21  21903007.020   115101075.540 7      1211.166          47.812    21903005.520   115101075.550 6      1211.166          38.875    21903009.600    89689162.113 6       943.766          38.937
R20  20799136.140   111222281.517 6      3067.943          36.875    20799134.180   111222281.494 6      3067.943          36.187    20799146.640    86506292.050 7      2386.178          43.937    20799147.020    86506297.050 7      2386.178          43.875
R04  21862102.660   117070561.326 7       -91.841          47.000    21862103.620   117070561.362 7       -91.841          46.062    21862113.080    91054934.074 7       -71.432          46.062    21862113.460    91054934.086 7       -71.432          46.625
R10  22004342.440   117295518.918 6       -43.544          41.125    22004341.340   117295518.937 6       -43.544          40.937
