     3.05           OBSERVATION DATA    MIXED               RINEX VERSION / TYPE
TPS2RIN 1.0.29.3920 TPS-USER            20240511 185610 UTC PGM / RUN BY / DATE
Win64 build Feb 23, 2024 (c) Topcon Positioning Systems     COMMENT
SRC: 20240508_GUI07.tps                                     COMMENT
OPT: -S -v 3.05                                             COMMENT
Observer            Agency                                  OBSERVER / AGENCY
O0M3X53SBGM         TPS HIPER_SR        4.8 HSR Jul,08,2022 REC # / TYPE / VERS
FW: 4.8 HSR Jul,08,2022 p3                                  COMMENT
SN: HiPer SR 1212-12575                                     COMMENT
000                 TPSHIPER_SR     NONE                    ANT # / TYPE
        1.8000        0.0000        0.0000                  ANTENNA: DELTA H/E/N
GUI07                                                       MARKER NAME
  5386129.8871 -1577759.5846  3021158.2749                  APPROX POSITION XYZ
  2024     5     8     8    41   25.0000000     GPS         TIME OF FIRST OBS
  2024     5     8     8    56   55.0000000     GPS         TIME OF LAST OBS
     1.000                                                  INTERVAL
   931 EPOCHS                                               COMMENT
G   16 C1C L1C D1C S1C C1W L1W D1W S1W C2W L2W D2W S2W C2X  SYS / # / OBS TYPES
       L2X D2X S2X                                          SYS / # / OBS TYPES
R   16 C1C L1C D1C S1C C1P L1P D1P S1P C2P L2P D2P S2P C2C  SYS / # / OBS TYPES
       L2C D2C S2C                                          SYS / # / OBS TYPES
    15                                                      # OF SATELLITES
   G04   884   884   884   884   882   882   882   882   882PRN / # OF OBS
         882   882   882   878   878   878   878            PRN / # OF OBS
   G16   931   931   931   931   931   931   931   931   931PRN / # OF OBS
         931   931   931     0     0     0     0            PRN / # OF OBS
   G18   931   931   931   931   931   931   931   931   931PRN / # OF OBS
         931   931   931   931   931   931   931            PRN / # OF OBS
   G25   931   931   931   931   931   931   931   931   931PRN / # OF OBS
         931   931   931   931   931   931   931            PRN / # OF OBS
   G26   931   931   931   931   931   931   931   931   931PRN / # OF OBS
         931   931   931   931   931   931   931            PRN / # OF OBS
   G27   931   931   931   931   931   931   931   931   931PRN / # OF OBS
         931   931   931   931   931   931   931            PRN / # OF OBS
   G28   931   931   931   931   931   931   931   931   931PRN / # OF OBS
         931   931   931   931   931   931   931            PRN / # OF OBS
   G29   931   931   931   931   931   931   931   931   931PRN / # OF OBS
         931   931   931   931   931   931   931            PRN / # OF OBS
   G31   931   931   931   931   931   931   931   931   931PRN / # OF OBS
         931   931   931   931   931   931   931            PRN / # OF OBS
   G32   931   931   931   931   931   931   931   931   931PRN / # OF OBS
         931   931   931   931   931   931   931            PRN / # OF OBS
   R07   769   769   769   769   769   769   769   769   769PRN / # OF OBS
         769   769   769   769   769   769   769            PRN / # OF OBS
   R09   931   931   931   931   931   931   931   931   931PRN / # OF OBS
         931   931   931   931   931   931   931            PRN / # OF OBS
   R16   931   931   931   931   931   931   931   931   931PRN / # OF OBS
         931   931   931   931   931   931   931            PRN / # OF OBS
   R18   931   931   931   931   931   931   931   931   931PRN / # OF OBS
         931   931   931   931   931   931   931            PRN / # OF OBS
   R19   931   931   931   931   931   931   931   931   931PRN / # OF OBS
         931   931   931   931   931   931   931            PRN / # OF OBS
G L1C                                                       SYS / PHASE SHIFT
G L1W -0.25000                                              SYS / PHASE SHIFT
G L2W  0.00000                                              SYS / PHASE SHIFT
G L2X  0.25000                                              SYS / PHASE SHIFT
R L1C                                                       SYS / PHASE SHIFT
R L1P -0.25000                                              SYS / PHASE SHIFT
R L2P -0.25000                                              SYS / PHASE SHIFT
R L2C                                                       SYS / PHASE SHIFT
  5 R07  5 R09 -2 R16 -1 R18 -3 R19  3                      GLONASS SLOT / FRQ #
                                                            GLONASS COD/PHS/BIS
    18    18  1929     7GPS                                 LEAP SECONDS
                                                            END OF HEADER
> 2024 05 08 08 41 25.0000000  0 14
G25  24101660.760   126655076.832 7       278.761          42.000    24101660.220   126655076.829 5       278.761          34.250    24101666.940    98692298.352 5       217.216          34.500    24101668.660    98692302.374 6       217.216          38.625
G27  23643754.080   124248769.903 6      5578.659          41.687    23643752.720   124248769.921 5      5578.659          30.437    23643757.500    96817230.139 5      4347.007          30.125    23643758.140    96817245.141 7      4347.007          44.562
R19  19486829.420   104241405.864 6      3449.430          37.312    19486828.940   104241405.873 6      3449.430          36.875    19486835.460    81076668.408 7      2682.890          47.812    19486835.920    81076670.409 7      2682.890          47.750
R07  23546346.400   126045423.663 6       800.659          38.437    23546347.480   126045423.710 6       800.659          38.250    23546357.900    98035388.993 6       622.734          41.500    23546357.800    98035387.998 7       622.734          42.875
G29  22717896.240   119383348.555 7      -285.671          43.500    22717896.060   119383348.568 7      -285.671          42.437    22717897.400    93025989.701 6      -222.601          41.812    22717898.380    93025993.698 7      -222.601          46.375
G26  21384704.080   112377374.668 7      3847.168          46.812    21384702.840   112377374.675 6      3847.168          38.750    21384707.580    87566809.177 6      2997.793          38.687    21384707.780    87566805.176 8      2997.793          48.875
R18  20705778.040   110528853.936 8       -94.211          48.562    20705780.080   110528853.940 7       -94.211          47.625    20705786.540    85966917.282 8       -73.275          49.437    20705786.700    85966917.287 8       -73.275          50.187
R09  21290062.860   113687738.360 7      5125.283          46.500    21290062.660   113687738.366 7      5125.283          45.875    21290069.000    88423824.515 8      3986.332          48.812    21290068.840    88423826.508 8      3986.332          49.312
R16  20340771.840   108656755.939 8      2524.788          48.750    20340772.020   108656755.938 8      2524.788          48.000    20340778.260    84510832.548 8      1963.724          50.562    20340778.560    84510831.543 8      1963.724          51.062
G31  20679430.440   108671139.738 7      3604.678          47.562    20679429.880   108671139.741 7      3604.678          42.312    20679430.500    84678809.580 6      2808.840          41.750    20679430.920    84678811.584 8      2808.840          50.000
G32  24331228.560   127861437.749 7      -525.099          44.875    24331231.060   127861437.754 4      -525.099          28.500    24331234.820    99632277.550 4      -409.168          28.562    24331234.460    99632334.569 6      -409.168          40.437
G16  23497837.020   123481966.920 6      4709.622          40.187    23497837.020   123481966.922 4      4709.622          25.750    23497840.020    96219727.336 4      3669.836          25.437
G18  21774917.320   114427963.578 7      3876.800          43.937    21774916.320   114427963.582 5      3876.800          32.812    21774919.620    89164653.911 5      3020.883          32.750    21774919.260    89164654.920 7      3020.883          46.062
G28  20432872.640   107375469.494 7      1732.308          47.562    20432871.820   107375469.499 7      1732.308          42.375    20432873.820    83669199.846 7      1349.851          42.000    20432874.180    83669199.844 9      1349.851          54.375
> 2024 05 08 08 41 26.0000000  0 14
G25  24101607.640   126654797.853 6       278.987          41.937    24101607.180   126654797.858 5       278.987          34.437    24101613.740    98692080.966 5       217.393          34.500    24101615.580    98692084.983 6       217.393          38.500
G27  23642692.600   124243191.144 6      5578.737          41.750    23642691.320   124243191.159 5      5578.737          30.437    23642696.140    96812883.057 5      4347.068          30.125    23642696.820    96812898.064 7      4347.068          44.562
R19  19486184.900   104237956.811 6      3448.398          37.312    19486183.440   104237956.821 6      3448.398          36.875    19486190.820    81073985.813 7      2682.087          47.625    19486190.960    81073987.813 7      2682.087          47.062
R07  23546196.400   126044623.056 6       800.441          38.437    23546198.060   126044623.106 6       800.441          37.875    23546208.440    98034766.303 6       622.565          41.500    23546208.500    98034765.296 7       622.565          43.000
G29  22717950.560   119383634.082 7      -285.432          42.625    22717950.400   119383634.090 7      -285.432          42.875    22717951.760    93026212.186 7      -222.415          42.312    22717952.520    93026216.183 7      -222.415          45.812
G26  21383972.040   112373527.273 7      3847.442          47.312    21383970.660   112373527.280 6      3847.442          38.750    21383975.440    87563811.209 6      2998.006          38.562    21383975.740    87563807.210 8      2998.006          48.687
R18  20705795.700   110528948.252 7       -94.522          46.187    20705797.680   110528948.261 7       -94.522          47.500    20705804.280    85966990.636 8       -73.517          50.062    20705804.300    85966990.641 8       -73.517          49.000
R09  21289103.040   113682612.916 7      5125.591          46.000    21289102.960   113682612.922 7      5125.591          45.687    21289109.040    88419838.061 8      3986.571          48.562    21289108.840    88419840.053 8      3986.571          48.500
R16  20340299.160   108654231.082 8      2524.782          49.562    20340299.080   108654231.078 8      2524.782          48.812    20340305.440    84508868.770 8      1963.719          50.312    20340305.840    84508867.767 8      1963.719          50.437
G31  20678744.620   108667535.233 7      3604.346          47.750    20678744.060   108667535.230 7      3604.346          42.125    20678744.540    84676000.879 6      2808.581          41.625    20678745.180    84676002.879 8      2808.581          50.437
G32  24331328.180   127861962.532 7      -524.589          44.625    24331331.120   127861962.535 4      -524.589          28.500    24331334.680    99632686.464 4      -408.771          28.562    24331334.660    99632743.475 6      -408.771          40.437
G16  23496941.440   123477257.233 6      4709.562          40.375    23496940.760   123477257.230 4      4709.562          25.750    23496944.040    96216057.453 4      3669.788          25.437
G18  21774179.560   114424086.804 7      3876.612          44.687    21774178.560   114424086.809 5      3876.612          32.812    21774181.920    89161633.050 5      3020.737          32.750    21774181.820    89161634.058 7      3020.737          45.687
G28  20432543.080   107373737.287 8      1731.989          48.125    20432542.180   107373737.287 7      1731.989          42.687    20432544.320    83667850.073 7      1349.602          42.375    20432544.660    83667850.069 9      1349.602          54.562
> 2024 05 08 08 41 27.0000000  0 14
G25  24101554.640   126654518.811 7       279.022          42.187    24101554.000   126654518.813 5       279.022          34.437    24101560.660    98691863.526 5       217.420          34.250    24101562.620    98691867.539 6       217.420          38.500
G27  23641631.460   124237612.538 6      5578.535          41.562    23641629.660   124237612.556 5      5578.535          30.437    23641634.620    96808536.091 5      4346.910          30.437    23641635.100    96808551.084 7      4346.910          44.250
R19  19485539.980   104234508.411 6      3447.847          37.187    19485539.600   104234508.426 6      3447.847          36.875    19485546.240    81071303.735 7      2681.659          47.500    19485546.320    81071305.730 8      2681.659          48.000
R07  23546046.300   126043822.814 6       800.068          38.437    23546048.220   126043822.856 6       800.068          37.875    23546059.000    98034143.888 7       622.275          42.062    23546058.660    98034142.885 7       622.275          43.125
G29  22718004.540   119383919.656 7      -285.621          43.500    22718004.720   119383919.661 7      -285.621          42.562    22718006.160    93026434.711 7      -222.562          42.250    22718007.180    93026438.704 7      -222.562          46.187
G26  21383239.800   112369679.896 7      3847.235          47.750    21383238.560   112369679.903 6      3847.235          38.687    21383243.200    87560813.250 6      2997.845          38.562    21383243.500    87560809.254 8      2997.845          48.875
R18  20705813.240   110529043.099 8       -95.174          48.500    20705815.340   110529043.100 7       -95.174          47.875    20705822.000    85967064.404 8       -74.024          49.500    20705822.400    85967064.409 8       -74.024          49.812
R09  21288143.240   113677487.384 7      5125.519          45.812    21288143.000   113677487.390 7      5125.519          45.500    21288149.300    88415851.544 8      3986.515          48.875    21288148.980    88415853.535 8      3986.515          49.625
R16  20339826.460   108651706.458 8      2524.423          49.000    20339826.720   108651706.459 8      2524.423          48.187    20339832.880    84506905.173 8      1963.440          50.500    20339833.560    84506904.168 8      1963.440          50.875
G31  20678058.820   108663931.101 8      3603.846          48.312    20678058.240   108663931.104 7      3603.846          42.250    20678058.720    84673192.464 6      2808.192          41.875    20678059.360    84673194.471 8      2808.192          50.687
G32  24331427.960   127862487.114 7      -524.473          44.812    24331430.980   127862487.119 4      -524.473          28.500    24331434.400    99633095.225 4      -408.681          28.562    24331434.560    99633152.235 6      -408.681          40.625
G16  23496045.360   123472547.392 6      4709.556          40.000    23496044.620   123472547.392 4      4709.556          25.750    23496047.920    96212387.451 4      3669.784          25.437
G18  21773441.820   114420210.458 7      3875.993          45.187    21773440.880   114420210.463 5      3875.993          32.812    21773444.180    89158612.523 5      3020.254          32.750    21773444.280    89158613.531 7      3020.254          45.812
G28  20432213.820   107372005.522 7      1731.419          47.937    20432212.580   107372005.524 7      1731.419          42.687    20432214.720    83666500.647 7      1349.158          42.437    20432215.220    83666500.647 9      1349.158          54.625
> 2024 05 08 08 41 28.0000000  0 14
G25  24101501.340   126654239.695 7       279.261          42.375    24101500.740   126654239.692 5       279.261          34.250    24101507.620    98691646.031 5       217.606          34.250    24101509.260    98691650.042 6       217.606          38.500
G27  23640569.460   124232034.076 6      5578.363          41.625    23640568.020   124232034.094 5      5578.363          30.625    23640573.160    96804189.239 5      4346.776          30.437    23640573.480    96804204.243 7      4346.776          44.187
R19  19484894.940   104231060.827 6      3447.290          37.187    19484894.380   104231060.847 6      3447.290          36.875    19484901.660    81068622.289 7      2681.226          47.437    19484901.960    81068624.286 7      2681.226          47.562
R07  23545896.780   126043022.944 6       799.825          38.687    23545898.660   126043022.980 6       799.825          37.875    23545909.760    98033521.763 6       622.086          41.812    23545909.200    98033520.753 7       622.086          42.687
G29  22718059.140   119384205.236 7      -285.514          44.312    22718059.120   119384205.241 7      -285.514          42.562    22718060.360    93026657.241 7      -222.478          42.437    22718061.180    93026661.240 7      -222.478          45.750
G26  21382507.600   112365832.487 7      3847.471          47.062    21382506.400   112365832.495 6      3847.471          38.750    21382511.000    87557815.276 6      2998.030          38.687    21382511.440    87557811.279 8      2998.030          49.062
R18  20705831.180   110529138.479 8       -95.558          48.437    20705833.520   110529138.483 7       -95.558          47.687    20705839.780    85967138.591 8       -74.323          48.875    20705840.180    85967138.598 8       -74.323          49.312
R09  21287183.280   113672361.769 7      5125.720          45.375    21287183.340   113672361.778 7      5125.720          45.375    21287189.340    88411864.957 8      3986.671          48.687    21287189.060    88411866.954 8      3986.671          49.375
R16  20339354.060   108649182.092 8      2524.273          48.812    20339353.780   108649182.094 7      2524.273          47.750    20339360.080    84504941.778 8      1963.324          50.812    20339360.440    84504940.773 8      1963.324          51.125
G31  20677372.920   108660327.364 8      3603.565          48.375    20677372.420   108660327.366 7      3603.565          42.312    20677372.960    84670384.359 6      2807.972          41.750    20677373.820    84670386.365 8      2807.972          49.812
G32  24331527.800   127863011.519 7      -524.255          45.062    24331530.700   127863011.526 4      -524.255          28.375    24331534.200    99633503.846 4      -408.511          28.562    24331534.680    99633560.859 6      -408.511          40.625
G16  23495149.080   123467837.493 6      4709.915          40.750    23495148.420   123467837.493 4      4709.915          25.750    23495151.720    96208717.400 4      3670.064          26.000
G18  21772704.280   114416334.512 7      3875.782          44.937    21772703.260   114416334.512 5      3875.782          32.937    21772706.540    89155592.304 5      3020.090          32.875    21772706.620    89155593.309 7      3020.090          45.937
G28  20431884.500   107370274.216 8      1731.125          48.125    20431883.160   107370274.219 7      1731.125          43.062    20431885.360    83665151.582 7      1348.929          42.687    20431885.620    83665151.578 9      1348.929          54.062
> 2024 05 08 08 41 29.0000000  0 14
G25  24101448.260   126653960.584 7       279.140          42.812    24101447.860   126653960.584 5       279.140          34.437    24101454.480    98691428.540 5       217.512          34.312    24101455.240    98691432.558 6       217.512          38.187
G27  23639508.000   124226455.787 6      5578.195          41.000    23639506.660   124226455.808 5      5578.195          30.625    23639511.640    96799842.525 5      4346.646          30.437    23639512.000    96799857.523 7      4346.646          44.250
R19  19484251.040   104227614.117 6      3446.167          37.187    19484250.240   104227614.135 6      3446.167          36.875    19484257.440    81065941.517 7      2680.352          47.187    19484257.520    81065943.516 7      2680.352          47.375
R07  23545747.640   126042223.480 6       799.291          38.687    23545748.420   126042223.525 6       799.291          37.875    23545761.000    98032899.964 6       621.671          41.812    23545759.940    98032898.965 7       621.671          43.062
G29  22718113.700   119384490.892 7      -285.673          44.437    22718113.400   119384490.902 7      -285.673          42.062    22718114.840    93026879.830 6      -222.602          41.437    22718115.400    93026883.831 7      -222.602          45.937
G26  21381775.340   112361985.144 7      3847.353          46.937    21381774.360   112361985.154 6      3847.353          38.812    21381779.000    87554817.350 6      2997.938          38.562    21381779.400    87554813.356 8      2997.938          48.750
R18  20705849.380   110529234.479 8       -96.320          48.937    20705851.440   110529234.480 7       -96.320          47.937    20705857.900    85967213.253 8       -74.915          48.562    20705858.140    85967213.260 8       -74.915          48.187
R09  21286223.520   113667236.109 7      5125.687          44.625    21286223.240   113667236.121 7      5125.687          45.875    21286229.560    88407878.333 8      3986.645          48.250    21286229.200    88407880.325 8      3986.645          48.375
R16  20338881.580   108646658.026 8      2523.909          48.375    20338881.580   108646658.025 8      2523.909          48.062    20338887.820    84502978.613 8      1963.040          49.687    20338888.120    84502977.608 8      1963.040          49.875
G31  20676687.200   108656724.070 7      3603.076          47.812    20676686.600   108656724.072 7      3603.076          42.000    20676687.360    84667576.597 6      2807.591          41.437    20676688.040    84667578.602 8      2807.591          50.500
G32  24331627.520   127863535.746 7      -524.107          45.187    24331630.500   127863535.753 4      -524.107          28.375    24331634.060    99633912.326 4      -408.395          28.812    24331634.240    99633969.335 6      -408.395          40.750
G16  23494252.680   123463127.583 6      4709.852          40.187    23494252.120   123463127.586 4      4709.852          25.750    23494255.400    96205047.342 4      3670.015          26.000
G18  21771966.620   114412459.060 7      3875.217          44.875    21771965.780   114412459.060 5      3875.217          32.937    21771969.080    89152572.473 5      3019.650          32.875    21771969.200    89152573.474 7      3019.650          46.000
G28  20431554.820   107368543.439 7      1730.514          47.562    20431553.820   107368543.446 7      1730.514          42.875    20431555.900    83663802.926 7      1348.452          42.187    20431556.440    83663802.928 9      1348.452          54.312
> 2024 05 08 08 41 30.0000000  0 14
G25  24101395.560   126653681.657 7       278.785          42.937    24101394.660   126653681.657 5       278.785          34.437    24101401.440    98691211.191 5       217.235          34.687    24101402.920    98691215.204 6       217.235          38.187
G27  23638446.520   124220877.898 7      5577.696          42.250    23638445.300   124220877.916 5      5577.696          30.625    23638450.200    96795496.116 5      4346.257          30.937    23638450.340    96795511.109 7      4346.257          44.187
R19  19483606.440   104224168.363 6      3445.241          37.187    19483606.620   104224168.372 6      3445.241          36.625    19483613.180    81063261.475 7      2679.632          47.687    19483613.580    81063263.472 7      2679.632          47.750
R07  23545597.740   126041424.571 6       798.759          38.687    23545599.400   126041424.610 6       798.759          37.875    23545611.720    98032278.586 6       621.257          41.750    23545611.040    98032277.585 7       621.257          43.187
G29  22718167.720   119384776.782 7      -285.876          43.625    22718167.740   119384776.797 7      -285.876          42.500    22718169.160    93027102.605 7      -222.761          42.625    22718169.940    93027106.606 7      -222.761          45.875
G26  21381043.400   112358138.027 7      3847.037          47.125    21381042.460   112358138.040 6      3847.037          38.937    21381046.920    87551819.603 6      2997.691          38.812    21381047.240    87551815.609 8      2997.691          48.625
R18  20705867.300   110529331.240 7       -97.072          47.500    20705869.440   110529331.243 7       -97.072          47.875    20705875.960    85967288.509 8       -75.501          49.437    20705876.380    85967288.514 8       -75.501          49.812
R09  21285263.980   113662110.612 7      5125.490          45.812    21285263.580   113662110.626 7      5125.490          46.687    21285269.620    88403891.847 8      3986.492          48.750    21285269.380    88403893.841 8      3986.492          49.062
R16  20338408.960   108644134.395 8      2523.504          48.500    20338409.300   108644134.386 7      2523.504          47.687    20338415.360    84501015.785 8      1962.726          50.937    20338415.740    84501014.780 8      1962.726          50.687
G31  20676001.660   108653121.375 7      3602.419          47.250    20676001.240   108653121.375 7      3602.419          42.062    20676001.820    84664769.305 6      2807.080          41.812    20676002.500    84664771.314 8      2807.080          50.687
G32  24331727.420   127864060.009 7      -524.191          45.000    24331730.480   127864060.019 4      -524.191          28.375    24331733.680    99634320.839 4      -408.460          28.812    24331733.880    99634377.854 6      -408.460          40.750
G16  23493356.620   123458417.831 6      4709.469          41.000    23493355.820   123458417.831 4      4709.469          26.062    23493359.120    96201377.404 4      3669.716          26.000
G18  21771229.620   114408584.236 7      3874.492          44.875    21771228.540   114408584.236 5      3874.492          32.375    21771231.740    89149553.132 5      3019.084          32.437    21771231.720    89149554.131 7      3019.084          46.062
G28  20431225.360   107366813.329 8      1729.878          48.062    20431224.520   107366813.336 7      1729.878          42.812    20431226.680    83662454.786 7      1347.957          42.312    20431227.240    83662454.791 9      1347.957          54.750
> 2024 05 08 08 41 31.0000000  0 14
G25  24101342.620   126653402.854 7       278.775          42.375    24101341.600   126653402.851 5       278.775          34.625    24101348.680    98690993.941 5       217.227          34.687    24101349.920    98690997.963 6       217.227          38.562
G27  23637385.000   124215300.348 7      5577.498          42.312    23637384.000   124215300.364 5      5577.498          31.000    23637388.840    96791149.975 5      4346.102          30.937    23637389.460    96791164.968 7      4346.102          44.375
R19  19482962.720   104220723.589 6      3444.284          36.937    19482962.120   104220723.618 6      3444.284          36.625    19482969.300    81060582.223 8      2678.888          48.062    19482969.620    81060584.221 7      2678.888          47.687
R07  23545448.500   126040626.279 6       798.070          38.687    23545450.480   126040626.316 6       798.070          38.062    23545462.700    98031657.689 7       620.721          42.187    23545462.040    98031656.688 7       620.721          43.437
G29  22718222.080   119385062.950 7      -286.183          43.250    22718222.260   119385062.973 7      -286.183          43.062    22718223.700    93027325.596 7      -223.000          42.000    22718224.500    93027329.598 7      -223.000          45.750
G26  21380311.380   112354291.139 7      3846.854          47.562    21380310.480   112354291.152 6      3846.854          39.312    21380314.940    87548822.034 6      2997.549          38.875    21380315.180    87548818.038 8      2997.549          49.062
R18  20705885.940   110529428.761 7       -97.806          47.812    20705887.700   110529428.759 7       -97.806          47.875    20705894.360    85967364.357 8       -76.071          49.750    20705894.720    85967364.364 8       -76.071          49.437
R09  21284303.780   113656985.330 7      5125.410          47.062    21284303.840   113656985.339 7      5125.410          46.000    21284309.860    88399905.513 8      3986.430          48.437    21284309.880    88399907.505 8      3986.430          49.437
R16  20337937.080   108641611.237 8      2523.066          48.750    20337936.880   108641611.236 8      2523.066          48.312    20337943.020    84499053.331 8      1962.384          50.625    20337943.360    84499052.326 8      1962.384          50.250
G31  20675316.420   108649519.309 8      3601.845          48.000    20675315.780   108649519.311 7      3601.845          42.000    20675316.340    84661962.502 6      2806.633          41.375    20675317.180    84661964.508 8      2806.633          50.500
G32  24331827.300   127864584.314 7      -524.253          44.875    24331830.180   127864584.327 4      -524.253          28.375    24331833.520    99634729.383 4      -408.509          28.812    24331833.520    99634786.401 6      -408.509          40.562
G16  23492460.400   123453708.190 6      4709.749          39.500    23492459.560   123453708.189 4      4709.749          26.062    23492462.980    96197707.561 4      3669.934          26.000
G18  21770492.080   114404710.069 7      3873.834          43.750    21770491.300   114404710.069 5      3873.834          32.375    21770494.460    89146534.302 5      3018.572          32.437    21770494.360    89146535.306 7      3018.572          46.000
G28  20430896.440   107365083.928 8      1729.208          48.312    20430895.400   107365083.930 7      1729.208          43.125    20430897.580    83661107.201 7      1347.435          42.625    20430897.960    83661107.204 9      1347.435          55.125
> 2024 05 08 08 41 32.0000000  0 14
G25  24101289.400   126653123.885 6       279.122          41.812    24101288.580   126653123.885 5       279.122          34.937    24101295.660    98690776.565 5       217.498          34.562    24101296.660    98690780.580 6       217.498          38.562
G27  23636323.780   124209722.837 6      5577.534          41.750    23636322.760   124209722.855 5      5577.534          31.000    23636327.460    96786803.865 5      4346.130          30.937    23636328.380    96786818.862 7      4346.130          44.562
R19  19482318.740   104217279.493 6      3443.746          36.937    19482318.420   104217279.532 6      3443.746          36.625    19482325.560    81057903.492 7      2678.469          47.562    19482325.780    81057905.492 8      2678.469          48.250
R07  23545300.120   126039828.192 6       797.984          38.687    23545300.540   126039828.233 6       797.984          38.062    23545313.860    98031036.958 7       620.654          42.000    23545312.760    98031035.957 7       620.654          43.437
G29  22718276.540   119385348.995 7      -285.852          43.812    22718276.720   119385349.010 7      -285.852          42.437    22718278.100    93027548.481 7      -222.741          42.375    22718279.380    93027552.480 7      -222.741          46.062
G26  21379579.240   112350444.127 7      3847.131          47.437    21379578.440   112350444.132 6      3847.131          39.125    21379582.820    87545824.358 6      2997.764          38.937    21379582.880    87545820.360 8      2997.764          48.937
R18  20705904.200   110529526.666 7       -98.030          46.125    20705906.180   110529526.665 7       -98.030          47.625    20705912.720    85967440.504 8       -76.245          49.500    20705912.980    85967440.509 8       -76.245          49.875
R09  21283343.580   113651859.820 7      5125.685          46.437    21283343.800   113651859.829 7      5125.685          45.937    21283349.880    88395919.003 8      3986.644          48.625    21283349.940    88395920.999 8      3986.644          49.375
R16  20337464.560   108639088.186 8      2523.055          48.187    20337464.920   108639088.184 8      2523.055          48.625    20337470.740    84497090.957 8      1962.376          50.562    20337471.160    84497089.953 8      1962.376          50.562
G31  20674630.980   108645917.491 7      3601.758          47.125    20674630.340   108645917.491 7      3601.758          42.625    20674630.920    84659155.895 6      2806.564          41.937    20674631.840    84659157.896 8      2806.564          50.625
G32  24331926.800   127865108.275 7      -523.662          44.625    24331929.820   127865108.286 4      -523.662          28.375    24331933.080    99635137.656 4      -408.049          28.812    24331933.580    99635194.672 6      -408.049          40.875
G16  23491564.060   123448998.390 6      4709.945          39.687    23491563.220   123448998.385 4      4709.945          26.062    23491566.740    96194037.584 4      3670.087          26.000
G18  21769755.100   114400836.170 7      3873.843          44.125    21769754.220   114400836.172 5      3873.843          32.687    21769757.360    89143515.679 5      3018.579          32.625    21769757.080    89143516.687 7      3018.579          45.562
G28  20430567.400   107363354.866 7      1728.923          47.937    20430566.360   107363354.871 7      1728.923          42.625    20430568.600    83659759.883 7      1347.213          42.250    20430569.020    83659759.883 9      1347.213          54.437
> 2024 05 08 08 41 33.0000000  0 14
G25  24101236.200   126652844.662 7       279.281          42.500    24101235.300   126652844.664 5       279.281          34.937    24101242.420    98690558.988 5       217.622          34.562    24101243.600    98690562.997 6       217.622          38.562
G27  23635262.240   124204145.266 6      5577.515          41.000    23635261.220   124204145.287 5      5577.515          31.000    23635266.300    96782457.714 5      4346.115          30.937    23635266.980    96782472.711 7      4346.115          44.812
R19  19481674.780   104213835.996 6      3443.161          36.937    19481674.660   104213836.008 6      3443.161          36.625    19481681.760    81055225.196 7      2678.014          47.812    19481681.960    81055227.193 7      2678.014          47.937
R07  23545151.120   126039030.262 6       797.929          38.250    23545152.100   126039030.301 6       797.929          38.062    23545165.100    98030416.350 7       620.611          42.000    23545163.980    98030415.351 7       620.611          43.500
G29  22718331.120   119385634.892 7      -285.874          43.750    22718331.220   119385634.897 6      -285.874          41.937    22718332.640    93027771.248 6      -222.759          41.562    22718333.520    93027775.247 7      -222.759          45.687
G26  21378847.340   112346596.913 7      3847.206          46.750    21378846.220   112346596.921 6      3847.206          39.250    21378850.700    87542826.529 6      2997.823          38.875    21378851.040    87542822.533 8      2997.823          49.250
R18  20705922.500   110529624.951 7       -98.648          47.125    20705924.180   110529624.949 7       -98.648          47.187    20705931.220    85967516.949 8       -76.726          49.937    20705931.220    85967516.956 8       -76.726          50.062
R09  21282383.700   113646734.066 7      5125.726          46.375    21282384.280   113646734.083 7      5125.726          45.937    21282389.880    88391932.320 8      3986.676          48.812    21282389.920    88391934.316 8      3986.676          49.500
R16  20336992.220   108636565.183 8      2522.847          48.500    20336992.380   108636565.184 8      2522.847          48.312    20336998.540    84495128.626 8      1962.214          50.625    20336998.800    84495127.625 8      1962.214          51.000
G31  20673945.620   108642315.898 7      3601.370          47.125    20673945.020   108642315.900 7      3601.370          42.562    20673945.440    84656349.456 7      2806.263          42.375    20673946.260    84656351.461 8      2806.263          50.812
G32  24332026.620   127865631.864 7      -523.425          44.375    24332029.400   127865631.871 4      -523.425          28.375    24332032.560    99635545.636 4      -407.864          28.812    24332033.180    99635602.637 6      -407.864          40.875
G16  23490667.700   123444288.297 6      4710.161          40.250    23490666.860   123444288.291 4      4710.161          26.062    23490670.460    96190367.383 4      3670.256          26.000
G18  21769017.760   114396962.520 7      3873.521          44.812    21769017.020   114396962.520 5      3873.521          32.687    21769020.140    89140497.253 5      3018.328          32.625    21769020.160    89140498.255 7      3018.328          46.062
G28  20430238.420   107361626.073 8      1728.552          48.937    20430237.480   107361626.078 7      1728.552          42.750    20430239.540    83658412.777 7      1346.924          42.250    20430239.980    83658412.773 9      1346.924          54.500
> 2024 05 08 08 41 34.0000000  0 14
G25  24101182.660   126652565.359 7       279.373          42.625    24101182.280   126652565.361 5       279.373          34.875    24101189.300    98690341.350 5       217.694          35.000    24101189.860    98690345.369 6       217.694          38.875
G27  23634201.020   124198567.816 6      5577.442          41.687    23634199.800   124198567.837 5      5577.442          30.812    23634204.900    96778111.653 5      4346.059          30.750    23634205.460    96778126.658 7      4346.059          45.375
R19  19481031.180   104210393.231 6      3442.391          36.937    19481030.980   104210393.246 6      3442.391          36.625    19481037.980    81052547.494 8      2677.416          48.000    19481038.520    81052549.498 7      2677.416          47.625
R07  23545002.280   126038232.739 6       797.459          38.250    23545003.460   126038232.778 6       797.459          38.062    23545015.860    98029796.044 6       620.246          41.875    23545014.900    98029795.043 7       620.246          43.312
G29  22718385.560   119385920.774 7      -285.789          43.812    22718385.600   119385920.784 7      -285.789          42.312    22718387.060    93027994.016 6      -222.693          41.750    22718387.900    93027998.014 7      -222.693          46.312
G26  21378114.940   112342749.686 7      3847.280          46.187    21378114.120   112342749.693 6      3847.280          39.312    21378118.760    87539828.694 6      2997.880          39.000    21378118.860    87539824.700 8      2997.880          49.000
R18  20705940.960   110529723.743 7       -98.995          47.062    20705942.980   110529723.741 7       -98.995          47.000    20705949.780    85967593.787 8       -76.996          50.000    20705949.740    85967593.792 8       -76.996          49.687
R09  21281424.040   113641608.200 7      5125.946          46.375    21281424.260   113641608.204 7      5125.946          45.812    21281430.040    88387945.533 8      3986.847          48.562    21281430.120    88387947.526 8      3986.847          49.375
R16  20336519.840   108634042.380 8      2522.647          48.875    20336520.100   108634042.378 8      2522.647          48.625    20336526.280    84493166.450 8      1962.059          50.687    20336526.720    84493165.441 8      1962.059          51.375
G31  20673260.380   108638714.653 7      3601.148          47.250    20673259.740   108638714.650 7      3601.148          42.312    20673260.300    84653543.288 6      2806.090          41.937    20673261.120    84653545.297 8      2806.090          51.125
G32  24332126.180   127866155.223 7      -523.183          44.812    24332128.960   127866155.231 4      -523.183          28.375    24332131.960    99635953.439 4      -407.675          28.125    24332132.560    99636010.447 6      -407.675          40.562
G16  23489771.200   123439578.088 6      4710.425          40.500    23489770.580   123439578.085 4      4710.425          26.062    23489774.180    96186697.098 4      3670.461          26.000
G18  21768280.840   114393089.268 7      3873.164          44.687    21768279.920   114393089.270 5      3873.164          32.812    21768283.040    89137479.138 5      3018.050          32.625    21768283.140    89137480.142 7      3018.050          46.125
G28  20429909.640   107359897.710 8      1728.216          48.437    20429908.620   107359897.715 7      1728.216          42.937    20429910.660    83657065.999 7      1346.662          42.625    20429911.120    83657065.997 9      1346.662          54.187
> 2024 05 08 08 41 35.0000000  0 14
G25  24101129.640   126652286.009 6       279.313          41.812    24101129.180   126652286.009 5       279.313          35.000    24101136.300    98690123.675 5       217.647          35.312    24101137.060    98690127.694 6       217.647          38.875
G27  23633139.560   124192990.508 6      5577.301          40.375    23633138.360   124192990.528 5      5577.301          30.812    23633143.680    96773765.700 5      4345.949          30.750    23633144.000    96773780.712 7      4345.949          44.812
R19  19480388.100   104206951.256 6      3441.438          36.937    19480387.700   104206951.268 6      3441.438          37.125    19480394.560    81049870.402 7      2676.674          47.562    19480394.860    81049872.399 7      2676.674          47.625
R07  23544853.780   126037435.534 6       797.074          38.250    23544854.300   126037435.563 6       797.074          38.062    23544867.240    98029175.994 7       619.946          42.000    23544866.040    98029174.995 7       619.946          43.500
G29  22718439.820   119386206.664 7      -285.823          44.312    22718439.860   119386206.674 7      -285.823          42.750    22718441.480    93028216.789 7      -222.719          42.250    22718442.280    93028220.792 7      -222.719          45.875
G26  21377382.960   112338902.430 7      3847.313          46.375    21377382.040   112338902.440 6      3847.313          39.187    21377386.780    87536830.838 6      2997.906          39.250    21377386.980    87536826.848 8      2997.906          48.750
R18  20705959.580   110529823.049 7       -99.592          47.562    20705961.360   110529823.047 7       -99.592          47.250    20705968.360    85967671.026 8       -77.460          50.062    20705968.620    85967671.033 8       -77.460          50.062
R09  21280464.480   113636482.233 7      5126.066          46.062    21280464.440   113636482.234 7      5126.066          45.937    21280469.920    88383958.668 8      3986.940          48.500    21280469.920    88383960.662 8      3986.940          49.187
R16  20336047.820   108631519.780 8      2522.459          49.250    20336047.760   108631519.778 8      2522.459          48.125    20336054.000    84491204.430 8      1961.913          51.000    20336054.140    84491203.423 8      1961.913          51.250
G31  20672575.020   108635113.806 7      3600.659          47.000    20672574.440   108635113.806 7      3600.659          42.125    20672575.220    84650737.439 6      2805.708          41.625    20672575.800    84650739.446 8      2805.708          51.312
G32  24332225.400   127866678.367 7      -523.024          44.875    24332228.420   127866678.369 4      -523.024          28.375    24332231.420    99636361.077 4      -407.552          28.125    24332231.740    99636418.094 6      -407.552          40.562
G16  23488875.300   123434867.823 6      4710.476          39.625    23488874.280   123434867.826 4      4710.476          26.062    23488877.840    96183026.765 4      3670.501          26.312
G18  21767543.940   114389216.420 7      3872.713          44.562    21767543.060   114389216.422 5      3872.713          32.812    21767546.240    89134461.333 5      3017.698          32.812    21767545.920    89134462.338 7      3017.698          46.125
G28  20429580.620   107358169.810 8      1727.689          49.687    20429579.800   107358169.815 7      1727.689          43.062    20429581.820    83655719.583 7      1346.251          42.375    20429582.180    83655719.581 9      1346.251          54.125
> 2024 05 08 08 41 36.0000000  0 14
G25  24101076.220   126652006.581 7       279.680          42.750    24101075.940   126652006.578 5       279.680          35.000    24101083.000    98689905.934 5       217.932          35.312    24101083.860    98689909.957 6       217.932          38.875
G27  23632078.260   124187413.383 6      5577.196          40.812    23632076.840   124187413.404 5      5577.196          30.812    23632082.220    96769419.895 5      4345.867          30.750    23632082.180    96769434.905 7      4345.867          44.625
R19  19479744.800   104203510.050 6      3441.139          37.312    19479743.880   104203510.049 6      3441.139          37.125    19479751.440    81047193.899 7      2676.441          47.562    19479751.560    81047195.894 7      2676.441          47.562
R07  23544704.600   126036638.737 6       796.739          38.250    23544705.440   126036638.778 6       796.739          37.625    23544718.420    98028556.275 7       619.686          42.312    23544717.180    98028555.286 7       619.686          42.937
G29  22718494.620   119386492.619 7      -285.775          43.187    22718494.220   119386492.632 7      -285.775          42.062    22718495.840    93028439.613 6      -222.682          41.687    22718496.560    93028443.614 7      -222.682          45.875
G26  21376650.800   112335055.229 7      3847.420          46.375    21376649.780   112335055.236 6      3847.420          39.312    21376654.600    87533833.019 6      2997.990          38.875    21376654.560    87533829.021 8      2997.990          48.625
R18  20705978.580   110529922.898 7       -99.945          47.187    20705980.020   110529922.901 7       -99.945          47.375    20705986.960    85967748.692 8       -77.735          49.187    20705987.180    85967748.697 8       -77.735          49.937
R09  21279504.360   113631356.204 7      5126.310          46.250    21279504.300   113631356.210 7      5126.310          46.312    21279510.180    88379971.767 8      3987.130          48.375    21279510.040    88379973.761 8      3987.130          49.187
R16  20335575.480   108628997.417 8      2522.453          49.375    20335575.700   108628997.413 7      2522.453          47.875    20335581.780    84489242.590 8      1961.908          50.062    20335581.940    84489241.586 8      1961.908          50.250
G31  20671889.760   108631513.360 7      3600.457          47.000    20671889.220   108631513.363 6      3600.457          41.750    20671889.960    84647931.899 6      2805.551          41.687    20671890.720    84647933.906 8      2805.551          50.562
G32  24332324.680   127867201.340 7      -522.710          44.937    24332327.820   127867201.348 4      -522.710          28.375    24332330.980    99636768.583 4      -407.307          28.125    24332331.300    99636825.597 6      -407.307          40.562
G16  23487979.300   123430157.509 6      4710.475          40.312    23487977.980   123430157.514 4      4710.475          26.062    23487981.380    96179356.394 4      3670.500          26.312
G18  21766807.140   114385344.031 7      3872.365          45.250    21766806.160   114385344.033 5      3872.365          32.812    21766809.160    89131443.891 5      3017.427          32.812    21766809.180    89131444.897 7      3017.427          46.062
G28  20429252.180   107356442.388 8      1727.470          48.625    20429251.100   107356442.395 7      1727.470          42.937    20429253.160    83654373.540 7      1346.080          42.375    20429253.460    83654373.538 9      1346.080          54.125
> 2024 05 08 08 41 37.0000000  0 14
G25  24101022.980   126651727.073 7       279.425          42.437    24101022.600   126651727.073 5       279.425          35.125    24101029.760    98689688.136 5       217.734          35.312    24101030.320    98689692.143 6       217.734          38.812
G27  23631017.040   124181836.337 6      5576.822          41.687    23631015.700   124181836.355 5      5576.822          30.812    23631021.000    96765074.147 5      4345.576          30.625    23631021.180    96765089.147 7      4345.576          44.937
R19  19479101.560   104200069.621 6      3439.784          37.312    19479101.220   104200069.625 6      3439.784          37.125    19479108.340    81044518.017 7      2675.388          47.875    19479108.300    81044520.015 8      2675.388          48.125
R07  23544555.840   126035842.236 6       796.248          39.062    23544556.700   126035842.264 6       796.248          37.625    23544569.500    98027936.762 7       619.304          42.312    23544568.020    98027935.769 7       619.304          43.625
G29  22718548.820   119386778.553 7      -286.134          43.625    22718548.740   119386778.561 7      -286.134          43.375    22718550.220    93028662.417 7      -222.961          42.187    22718550.920    93028666.420 7      -222.961          46.000
G26  21375918.660   112331207.973 7      3847.133          46.750    21375917.820   112331207.978 6      3847.133          39.312    21375922.540    87530835.159 6      2997.766          38.812    21375922.580    87530831.159 8      2997.766          48.937
R18  20705997.180   110530023.245 7      -100.725          46.375    20705998.920   110530023.246 7      -100.725          47.562    20706005.820    85967826.738 8       -78.341          50.062    20706005.840    85967826.741 8       -78.341          50.000
R09  21278543.980   113626230.074 7      5126.011          46.500    21278544.180   113626230.078 7      5126.011          46.000    21278550.340    88375984.781 8      3986.897          48.562    21278550.100    88375986.775 8      3986.897          49.187
R16  20335103.380   108626475.258 8      2521.897          49.062    20335103.460   108626475.251 8      2521.897          48.562    20335109.720    84487280.913 8      1961.475          50.437    20335109.860    84487279.906 8      1961.475          50.687
G31  20671204.740   108627913.272 7      3599.757          47.625    20671204.040   108627913.274 7      3599.757          42.000    20671204.800    84645126.638 6      2805.005          41.312    20671205.660    84645128.646 8      2805.005          51.125
G32  24332424.320   127867724.085 7      -522.849          44.500    24332427.300   127867724.087 4      -522.849          28.375    24332430.400    99637175.910 4      -407.415          28.125    24332430.700    99637232.916 6      -407.415          40.562
G16  23487082.540   123425447.074 6      4710.181          40.625    23487081.620   123425447.076 4      4710.181          26.250    23487085.220    96175685.927 4      3670.271          26.312
G18  21766070.080   114381472.008 7      3871.690          45.250    21766069.380   114381472.010 5      3871.690          33.125    21766072.240    89128426.732 5      3016.901          33.000    21766072.460    89128427.734 7      3016.901          46.125
G28  20428923.420   107354715.399 8      1726.685          48.625    20428922.400   107354715.404 7      1726.685          42.750    20428924.380    83653027.834 7      1345.469          42.562    20428924.920    83653027.834 9      1345.469          54.437
> 2024 05 08 08 41 38.0000000  0 14
G25  24100970.020   126651447.660 7       279.274          42.437    24100969.460   126651447.665 5       279.274          35.375    24100976.680    98689470.412 5       217.616          35.375    24100977.380    98689474.429 6       217.616          38.812
G27  23629955.820   124176259.607 6      5576.571          41.437    23629954.360   124176259.622 5      5576.571          30.937    23629959.840    96760728.643 5      4345.380          30.625    23629960.240    96760743.640 7      4345.380          44.812
R19  19478459.520   104196630.095 6      3438.943          37.312    19478458.300   104196630.100 6      3438.943          37.125    19478465.280    81041842.835 8      2674.733          48.000    19478465.480    81041844.832 8      2674.733          48.187
R07  23544407.640   126035046.260 6       795.484          39.062    23544407.060   126035046.283 6       795.484          37.625    23544420.820    98027317.669 7       618.710          42.062    23544419.820    98027316.681 7       618.710          43.812
G29  22718603.340   119387064.643 7      -286.148          44.000    22718603.240   119387064.653 7      -286.148          42.625    22718604.820    93028885.342 7      -222.973          42.125    22718605.660    93028889.339 7      -222.973          45.875
G26  21375186.820   112327360.869 7      3847.007          46.437    21375185.820   112327360.876 6      3847.007          38.812    21375190.420    87527837.418 6      2997.668          38.937    21375190.580    87527833.420 8      2997.668          48.812
R18  20706015.960   110530124.330 8      -101.492          48.187    20706017.740   110530124.331 7      -101.492          47.375    20706024.760    85967905.355 8       -78.938          50.375    20706024.620    85967905.358 8       -78.938          49.812
R09  21277584.300   113621104.016 7      5126.024          45.625    21277584.240   113621104.025 7      5126.024          46.250    21277590.180    88371997.847 8      3986.908          48.750    21277590.300    88371999.845 8      3986.908          49.312
R16  20334631.340   108623953.502 8      2521.519          49.250    20334631.340   108623953.498 8      2521.519          48.562    20334637.620    84485319.545 8      1961.182          51.000    20334637.800    84485318.538 8      1961.182          51.125
G31  20670519.780   108624313.717 7      3599.266          47.750    20670519.240   108624313.720 6      3599.266          41.500    20670520.040    84642321.794 6      2804.623          41.062    20670520.700    84642323.802 8      2804.623          50.875
G32  24332523.880   127868246.743 7      -522.723          44.250    24332526.940   127868246.748 4      -522.723          28.312    24332529.860    99637583.168 4      -407.317          28.125    24332530.140    99637640.191 6      -407.317          40.312
G16  23486186.080   123420736.699 6      4710.195          40.812    23486185.240   123420736.699 4      4710.195          26.250    23486188.900    96172015.505 4      3670.282          26.312
G18  21765333.380   114377600.568 7      3871.163          45.375    21765332.540   114377600.571 5      3871.163          33.125    21765335.380    89125410.026 5      3016.491          33.000    21765335.660    89125411.025 7      3016.491          45.687
G28  20428595.120   107352989.023 8      1726.056          48.562    20428593.980   107352989.030 7      1726.056          42.562    20428595.980    83651682.606 7      1344.979          42.562    20428596.420    83651682.604 9      1344.979          54.187
> 2024 05 08 08 41 39.0000000  0 14
G25  24100917.080   126651168.324 7       279.110          42.125    24100916.420   126651168.328 5       279.110          35.375    24100923.680    98689252.743 5       217.488          35.375    24100924.720    98689256.756 6       217.488          39.000
G27  23628894.960   124170683.113 6      5576.326          41.250    23628893.080   124170683.134 5      5576.326          30.937    23628898.680    96756383.327 5      4345.189          30.625    23628899.140    96756398.331 7      4345.189          44.750
R19  19477816.240   104193191.469 6      3438.090          37.312    19477814.980   104193191.467 6      3438.090          37.125    19477822.680    81039168.343 7      2674.070          47.812    19477822.760    81039170.341 7      2674.070          47.875
R07  23544259.380   126034250.659 6       795.373          39.062    23544258.940   126034250.682 6       795.373          37.625    23544272.220    98026698.862 6       618.624          41.625    23544271.140    98026697.871 7       618.624          43.125
G29  22718657.740   119387350.869 7      -286.341          43.625    22718657.580   119387350.884 7      -286.341          42.562    22718659.240    93029108.381 6      -223.122          41.750    22718660.140    93029112.390 7      -223.122          46.125
G26  21374454.800   112323513.862 7      3846.940          46.500    21374453.760   112323513.867 6      3846.940          39.312    21374458.380    87524839.753 6      2997.616          38.937    21374458.560    87524835.761 8      2997.616          49.187
R18  20706034.920   110530226.031 8      -102.026          48.125    20706036.700   110530226.032 7      -102.026          47.375    20706043.940    85967984.456 8       -79.353          49.750    20706043.840    85967984.459 8       -79.353          49.250
R09  21276624.100   113615977.984 7      5125.913          45.812    21276624.160   113615977.993 7      5125.913          46.562    21276630.140    88368010.942 8      3986.821          48.437    21276630.200    88368012.938 8      3986.821          49.312
R16  20334159.300   108621432.075 8      2521.214          49.062    20334159.580   108621432.079 8      2521.214          48.562    20334165.860    84483358.439 8      1960.945          51.125    20334166.280    84483357.432 8      1960.945          50.625
G31  20669834.940   108620714.662 7      3598.865          47.875    20669834.440   108620714.656 6      3598.865          41.937    20669835.020    84639517.331 6      2804.310          41.687    20669835.720    84639519.340 8      2804.310          50.750
G32  24332623.020   127868769.317 7      -522.484          44.375    24332626.320   127868769.322 4      -522.484          28.312    24332629.200    99637990.364 4      -407.130          28.312    24332629.820    99638047.393 6      -407.130          40.312
G16  23485289.540   123416026.356 6      4710.205          40.625    23485288.860   123416026.356 4      4710.205          26.250    23485292.440    96168345.108 4      3670.290          26.312
G18  21764596.860   114373729.646 7      3870.618          44.875    21764596.020   114373729.648 5      3870.618          32.750    21764598.800    89122393.727 5      3016.066          32.500    21764599.040    89122394.731 7      3016.066          45.437
G28  20428266.500   107351263.216 8      1725.502          48.562    20428265.460   107351263.221 7      1725.502          42.625    20428267.500    83650337.826 7      1344.547          42.250    20428268.020    83650337.824 9      1344.547          54.125
> 2024 05 08 08 41 40.0000000  0 14
G25  24100863.680   126650888.966 7       279.235          42.062    24100863.240   126650888.973 5       279.235          34.812    24100870.540    98689035.061 5       217.586          35.000    24100871.500    98689039.072 6       217.586          39.000
G27  23627833.540   124165106.895 7      5575.987          42.312    23627832.040   124165106.911 5      5575.987          30.937    23627837.520    96752038.222 5      4344.925          31.000    23627838.220    96752053.222 7      4344.925          44.750
R19  19477173.700   104189753.724 6      3437.154          37.875    19477172.320   104189753.734 6      3437.154          37.437    19477179.960    81036494.549 8      2673.342          48.250    19477180.080    81036496.548 8      2673.342          48.375
R07  23544110.740   126033455.545 6       794.867          39.062    23544109.540   126033455.589 6       794.867          37.625    23544124.000    98026080.463 6       618.230          41.625    23544122.520    98026079.472 7       618.230          43.375
