     3.05           OBSERVATION DATA    MIXED               RINEX VERSION / TYPE
TPS2RIN 1.0.29.3920 TPS-USER            20240511 185808 UTC PGM / RUN BY / DATE
Win64 build Feb 23, 2024 (c) Topcon Positioning Systems     COMMENT
SRC: 20240508_GUI08.tps                                     COMMENT
OPT: -S -v 3.05                                             COMMENT
Observer            Agency                                  OBSERVER / AGENCY
O0M3X53SBGM         TPS HIPER_SR        4.8 HSR Jul,08,2022 REC # / TYPE / VERS
FW: 4.8 HSR Jul,08,2022 p3                                  COMMENT
SN: HiPer SR 1212-12575                                     COMMENT
000                 TPSHIPER_SR     NONE                    ANT # / TYPE
        1.8000        0.0000        0.0000                  ANTENNA: DELTA H/E/N
GUI08                                                       MARKER NAME
  5386769.5054 -1579293.3873  3019313.8244                  APPROX POSITION XYZ
  2024     5     8     9    12   52.0000000     GPS         TIME OF FIRST OBS
  2024     5     8     9    27   52.0000000     GPS         TIME OF LAST OBS
     1.000                                                  INTERVAL
   901 EPOCHS                                               COMMENT
G   16 C1C L1C D1C S1C C1W L1W D1W S1W C2W L2W D2W S2W C2X  SYS / # / OBS TYPES
       L2X D2X S2X                                          SYS / # / OBS TYPES
R   16 C1C L1C D1C S1C C1P L1P D1P S1P C2P L2P D2P S2P C2C  SYS / # / OBS TYPES
       L2C D2C S2C                                          SYS / # / OBS TYPES
    13                                                      # OF SATELLITES
   G04   901   901   901   901   901   901   901   901   901PRN / # OF OBS
         901   901   901   901   901   901   901            PRN / # OF OBS
   G16   901   901   901   901   901   901   901   901   901PRN / # OF OBS
         901   901   901     0     0     0     0            PRN / # OF OBS
   G18   901   901   901   901   901   901   901   901   901PRN / # OF OBS
         901   901   901   901   901   901   901            PRN / # OF OBS
   G25   233   233   233   233   233   233   233   233   233PRN / # OF OBS
         233   233   233   233   233   233   233            PRN / # OF OBS
   G26   901   901   901   901   901   901   901   901   901PRN / # OF OBS
         901   901   901   901   901   901   901            PRN / # OF OBS
   G27   901   901   901   901   901   901   901   901   901PRN / # OF OBS
         901   901   901   901   901   901   901            PRN / # OF OBS
   G28   901   901   901   901   901   901   901   901   901PRN / # OF OBS
         901   901   901   901   901   901   901            PRN / # OF OBS
   G29   901   901   901   901   901   901   901   901   901PRN / # OF OBS
         901   901   901   901   901   901   901            PRN / # OF OBS
   G31   901   901   901   901   901   901   901   901   901PRN / # OF OBS
         901   901   901   901   901   901   901            PRN / # OF OBS
   R09   901   901   901   901   901   901   901   901   901PRN / # OF OBS
         901   901   901   901   901   901   901            PRN / # OF OBS
   R10   901   901   901   901   901   901   901   901     0PRN / # OF OBS
           0     0     0     0     0     0     0            PRN / # OF OBS
   R16   901   901   901   901   901   901   901   901   901PRN / # OF OBS
         901   901   901   901   901   901   901            PRN / # OF OBS
   R18   901   901   901   901   901   901   901   901   901PRN / # OF OBS
         901   901   901   901   901   901   901            PRN / # OF OBS
G L1C                                                       SYS / PHASE SHIFT
G L1W -0.25000                                              SYS / PHASE SHIFT
G L2W  0.00000                                              SYS / PHASE SHIFT
G L2X  0.25000                                              SYS / PHASE SHIFT
R L1C                                                       SYS / PHASE SHIFT
R L1P -0.25000                                              SYS / PHASE SHIFT
R L2P -0.25000                                              SYS / PHASE SHIFT
R L2C                                                       SYS / PHASE SHIFT
  4 R09 -2 R10 -7 R16 -1 R18 -3                             GLONASS SLOT / FRQ #
                                                            GLONASS COD/PHS/BIS
    18    18  1929     7GPS                                 LEAP SECONDS
                                                            END OF HEADER
> 2024 05 08 09 12 52.0000000  0 13
G27  22630594.720   118924578.706 7      5012.818          43.875    22630593.520   118924578.711 5      5012.818          34.625    22630598.860    92668519.779 5      3906.092          34.187    22630599.280    92668522.781 7      3906.092          47.687
R18  21824471.220   116500509.149 7     -1075.492          44.625    21824472.260   116500509.142 7     -1075.492          45.125    21824479.820    90611536.659 7      -836.494          47.250    21824479.760    90611538.664 7      -836.494          47.125
G29  23749308.240   124803453.203 6      -425.893          39.687    23749307.160   124803453.208 5      -425.893          34.312    23749310.340    97249458.978 5      -331.865          34.375    23749311.520    97249457.977 6      -331.865          39.375
R10  23497453.400   125254649.996 6      5885.010          38.562    23497450.920   125254650.015 6      5885.010          37.437
G28  20898622.400   109823002.994 7       664.794          46.687    20898621.920   109823002.999 6       664.794          39.375    20898623.500    85576367.818 6       518.021          39.062    20898624.020    85576369.817 8       518.021          51.687
G04  24502382.220   128760885.594 6      3213.063          36.812    24502381.320   128760885.599 3      3213.063          21.500    24502388.500   100333164.538 3      2503.686          21.875    24502389.020   100333187.539 6      2503.686          41.375
G18  21473407.140   112843514.352 7      2755.187          46.000    21473406.060   112843514.362 6      2755.187          38.187    21473408.180    87930023.525 6      2146.899          38.187    21473408.820    87930019.527 8      2146.899          49.937
G31  20463146.440   107534558.848 8      2552.944          48.687    20463145.780   107534558.856 8      2552.944          49.375    20463145.880    83793159.907 8      1989.307          49.875    20463146.480    83793164.905 8      1989.307          50.875
G16  22716717.880   119377155.527 7      4616.116          42.937    22716716.160   119377155.532 5      4616.116          30.562    22716720.000    93021168.265 5      3596.974          30.687
G26  20944209.040   110062559.732 8      3571.638          48.812    20944208.160   110062559.737 8      3571.638          48.062    20944212.500    85763051.667 8      2783.095          48.062    20944212.900    85763050.666 8      2783.095          48.625
G25  24919473.380   130952713.509 5       145.374          34.187    24919473.700   130952713.506 4       145.374          25.625    24919483.860   102041105.403 4       113.278          25.187    24919485.500   102041115.372 6       113.278          37.875
R16  20476407.500   109381289.207 8      1736.222          48.625    20476407.340   109381289.208 7      1736.222          47.500    20476415.080    85074369.036 8      1350.395          50.250    20476415.140    85074371.037 8      1350.395          50.375
R09  20407742.740   108976208.323 7      4877.537          47.125    20407743.660   108976208.326 7      4877.537          47.562    20407748.880    84759298.896 8      3793.640          51.125    20407748.960    84759299.887 8      3793.640          52.125
> 2024 05 08 09 12 53.0000000  0 13
G27  22629640.980   118919566.128 7      5012.450          43.625    22629639.720   118919566.130 5      5012.450          34.625    22629644.840    92664613.870 5      3905.805          34.250    22629645.760    92664616.877 7      3905.805          47.625
R18  21824672.840   116501584.858 7     -1075.903          44.812    21824673.700   116501584.864 7     -1075.903          44.312    21824681.100    90612373.332 7      -836.814          46.937    21824681.420    90612375.338 7      -836.814          47.812
G29  23749388.940   124803879.150 6      -425.750          40.000    23749388.280   124803879.153 5      -425.750          35.125    23749391.400    97249790.877 5      -331.753          34.937    23749391.960    97249789.870 6      -331.753          39.437
R10  23496349.180   125248765.126 6      5884.872          38.562    23496348.400   125248765.164 6      5884.872          37.125
G28  20898496.040   109822338.663 7       664.126          46.250    20898495.500   109822338.671 6       664.126          39.562    20898496.900    85575850.162 6       517.501          39.250    20898497.560    85575852.158 8       517.501          51.687
G04  24501771.180   128757672.779 6      3212.499          36.625    24501769.780   128757672.783 3      3212.499          21.500    24501777.160   100330661.044 3      2503.246          21.875    24501777.660   100330684.055 6      2503.246          41.250
G18  21472883.120   112840759.612 7      2754.489          46.000    21472881.780   112840759.623 6      2754.489          38.312    21472883.960    87927876.973 6      2146.355          38.062    21472884.640    87927872.972 8      2146.355          50.312
G31  20462660.860   107532006.338 7      2552.301          47.812    20462660.040   107532006.343 8      2552.301          48.937    20462660.140    83791170.939 8      1988.806          49.500    20462660.780    83791175.934 8      1988.806          50.875
G16  22715839.540   119372539.546 6      4615.990          41.750    22715837.780   119372539.551 5      4615.990          30.562    22715841.640    93017571.399 5      3596.875          30.437
G26  20943529.440   110058988.210 7      3571.441          47.312    20943528.500   110058988.215 7      3571.441          47.937    20943532.820    85760268.661 8      2782.941          48.437    20943533.080    85760267.662 8      2782.941          48.562
G25  24919446.180   130952568.060 5       145.840          34.875    24919446.000   130952568.049 4       145.840          25.625    24919456.320   102040992.054 4       113.641          25.187    24919457.980   102041002.013 6       113.641          38.687
R16  20476082.600   109379553.343 8      1735.676          48.500    20476082.440   109379553.338 7      1735.676          47.375    20476090.020    85073018.913 8      1349.970          50.250    20476090.120    85073020.914 8      1349.970          49.875
R09  20406829.580   108971330.994 8      4877.249          48.125    20406830.020   108971331.003 7      4877.249          47.187    20406835.540    84755505.424 8      3793.416          50.875    20406835.500    84755506.420 8      3793.416          52.062
> 2024 05 08 09 12 54.0000000  0 13
G27  22628687.040   118914553.822 7      5012.160          43.750    22628685.840   118914553.824 5      5012.160          34.312    22628691.080    92660708.177 5      3905.580          34.250    22628692.000    92660711.183 7      3905.580          47.812
R18  21824874.220   116502660.898 7     -1076.232          43.687    21824875.480   116502660.904 7     -1076.232          44.875    21824882.720    90613210.244 7      -837.069          47.000    21824883.120    90613212.246 7      -837.069          47.687
G29  23749470.120   124804305.087 6      -425.891          39.062    23749469.300   124804305.089 5      -425.891          35.125    23749472.360    97250122.771 5      -331.863          34.687    23749473.160    97250121.766 6      -331.863          39.437
R10  23495245.120   125242880.100 6      5884.919          38.187    23495244.120   125242880.111 6      5884.919          37.125
G28  20898369.760   109821674.831 7       663.459          46.625    20898369.200   109821674.836 6       663.459          39.562    20898370.600    85575332.886 6       516.981          39.437    20898371.140    85575334.887 8       516.981          51.437
G04  24501159.480   128754460.465 6      3211.983          36.062    24501158.540   128754460.467 3      3211.983          21.500    24501165.840   100328157.942 3      2502.844          21.875    24501165.920   100328180.945 6      2502.844          41.312
G18  21472359.020   112838005.448 7      2753.824          46.187    21472357.660   112838005.456 6      2753.824          38.125    21472359.720    87925730.869 6      2145.837          38.125    21472360.660    87925726.868 8      2145.837          50.500
G31  20462175.260   107529454.383 8      2551.584          48.375    20462174.420   107529454.388 8      2551.584          50.062    20462174.580    83789182.402 8      1988.247          50.437    20462175.280    83789187.402 8      1988.247          51.000
G16  22714960.760   119367923.578 7      4615.931          42.312    22714959.320   119367923.580 5      4615.931          30.750    22714963.220    93013974.540 5      3596.829          30.437
G26  20942849.720   110055416.838 8      3571.228          48.437    20942848.800   110055416.846 8      3571.228          48.562    20942853.280    85757485.778 8      2782.775          48.687    20942853.460    85757484.779 8      2782.775          48.937
G25  24919418.500   130952422.750 5       145.231          34.875    24919418.360   130952422.737 4       145.231          25.625    24919428.760   102040878.813 4       113.167          26.750    24919429.840   102040888.793 6       113.167          38.687
R16  20475757.800   109377817.884 7      1735.147          46.875    20475757.380   109377817.882 8      1735.147          48.187    20475765.220    85071669.116 8      1349.559          50.375    20475765.400    85071671.115 8      1349.559          50.125
R09  20405916.180   108966453.860 8      4877.014          48.250    20405916.600   108966453.869 7      4877.014          47.625    20405922.040    84751712.098 8      3793.233          51.375    20405922.320    84751713.093 8      3793.233          51.312
> 2024 05 08 09 12 55.0000000  0 13
G27  22627733.460   118909541.987 7      5011.319          43.937    22627732.220   118909541.989 5      5011.319          34.312    22627737.440    92656802.855 5      3904.924          34.000    22627738.320    92656805.867 7      3904.924          47.625
R18  21825075.800   116503737.439 7     -1076.954          44.750    21825077.020   116503737.448 7     -1076.954          44.750    21825084.740    90614047.554 7      -837.631          47.187    21825084.620    90614049.554 7      -837.631          47.750
G29  23749551.320   124804731.120 6      -426.105          40.125    23749550.360   124804731.125 5      -426.105          34.750    23749553.540    97250454.747 5      -332.030          34.687    23749554.600    97250453.746 6      -332.030          39.437
R10  23494140.380   125236995.012 6      5885.011          38.187    23494140.320   125236995.010 6      5885.011          37.125
G28  20898243.640   109821011.630 7       662.653          46.750    20898242.960   109821011.637 6       662.653          39.187    20898244.460    85574816.106 6       516.353          38.812    20898244.920    85574818.109 8       516.353          52.000
G04  24500548.420   128751248.792 6      3211.140          36.062    24500547.360   128751248.794 3      3211.140          21.500    24500554.820   100325655.340 3      2502.187          21.875    24500554.740   100325678.357 6      2502.187          41.312
G18  21471834.820   112835252.025 7      2752.958          45.812    21471833.600   112835252.030 6      2752.958          38.875    21471835.840    87923585.344 6      2145.162          38.750    21471836.700    87923581.340 8      2145.162          50.000
G31  20461689.840   107526903.118 8      2550.754          49.062    20461689.040   107526903.123 8      2550.754          49.625    20461689.040    83787194.403 8      1987.600          49.687    20461689.820    83787199.401 8      1987.600          50.562
G16  22714082.340   119363307.778 7      4615.475          42.875    22714081.000   119363307.781 5      4615.475          30.750    22714084.680    93010377.817 5      3596.474          30.437
G26  20942170.300   110051845.763 8      3570.650          48.562    20942169.340   110051845.768 8      3570.650          48.125    20942173.720    85754703.122 8      2782.325          48.375    20942173.780    85754702.123 8      2782.325          48.812
G25  24919391.160   130952277.554 5       144.944          35.062    24919390.840   130952277.545 4       144.944          27.312    24919401.240   102040765.667 4       112.943          26.750    24919402.080   102040775.656 6       112.943          38.687
R16  20475433.060   109376083.018 8      1734.408          48.375    20475432.780   109376083.019 7      1734.408          47.500    20475440.380    85070319.774 8      1348.984          50.375    20475440.480    85070321.775 8      1348.984          49.750
R09  20405002.760   108961577.060 7      4876.354          47.875    20405003.320   108961577.066 7      4876.354          47.437    20405008.860    84747919.033 8      3792.720          51.062    20405009.100    84747920.026 8      3792.720          51.500
> 2024 05 08 09 12 56.0000000  0 13
G27  22626779.880   118904530.483 7      5011.255          43.375    22626778.380   118904530.488 5      5011.255          34.500    22626783.820    92652897.791 5      3904.874          34.000    22626784.660    92652900.803 7      3904.874          47.562
R18  21825277.600   116504814.405 7     -1077.166          44.875    21825278.940   116504814.408 7     -1077.166          44.562    21825286.380    90614885.183 7      -837.796          47.437    21825286.400    90614887.183 7      -837.796          47.375
G29  23749632.660   124805157.246 6      -426.123          40.687    23749631.560   124805157.253 5      -426.123          34.750    23749634.680    97250786.791 5      -332.044          34.687    23749635.420    97250785.782 6      -332.044          39.437
R10  23493036.060   125231109.879 6      5885.125          38.187    23493036.260   125231109.869 6      5885.125          37.125
G28  20898117.540   109820348.991 7       662.373          46.687    20898116.960   109820349.001 6       662.373          39.187    20898118.600    85574299.768 6       516.135          38.562    20898118.740    85574301.766 8       516.135          51.937
G04  24499938.060   128748037.700 6      3210.891          37.187    24499936.220   128748037.705 3      3210.891          21.500    24499943.900   100323153.190 3      2501.993          21.875    24499943.640   100323176.195 6      2501.993          41.062
G18  21471311.140   112832499.285 7      2752.381          46.187    21471309.860   112832499.295 6      2752.381          38.750    21471312.040    87921440.356 6      2144.713          38.250    21471312.920    87921436.356 8      2144.713          50.562
G31  20461204.580   107524352.490 8      2550.343          49.250    20461203.560   107524352.489 8      2550.343          49.875    20461203.680    83785206.896 8      1987.280          49.750    20461204.400    83785211.894 8      1987.280          50.812
G16  22713203.900   119358692.063 7      4615.761          43.250    22713202.700   119358692.065 5      4615.761          30.750    22713206.400    93006781.158 5      3596.697          30.562
G26  20941490.880   110048274.872 8      3570.845          48.625    20941489.820   110048274.874 8      3570.845          48.875    20941494.100    85751920.607 8      2782.476          49.000    20941494.360    85751919.606 8      2782.476          48.375
G25  24919363.320   130952132.538 5       144.859          35.062    24919363.240   130952132.535 4       144.859          27.312    24919373.700   102040652.660 4       112.877          26.750    24919374.640   102040662.647 6       112.877          39.000
R16  20475108.260   109374348.671 7      1734.121          47.125    20475107.960   109374348.672 8      1734.121          48.125    20475115.680    85068970.837 8      1348.761          50.437    20475115.820    85068972.840 8      1348.761          50.562
R09  20404089.620   108956700.540 7      4876.406          47.812    20404090.260   108956700.544 7      4876.406          47.562    20404095.620    84744126.182 8      3792.760          51.437    20404095.640    84744127.178 8      3792.760          51.375
> 2024 05 08 09 12 57.0000000  0 13
G27  22625826.080   118899519.294 7      5010.987          43.687    22625824.820   118899519.302 5      5010.987          34.750    22625830.320    92648992.973 5      3904.665          34.625    22625830.800    92648995.977 7      3904.665          47.437
R18  21825479.480   116505891.734 7     -1077.569          45.250    21825480.820   116505891.735 7     -1077.569          44.937    21825488.120    90615723.098 7      -838.109          47.437    21825488.280    90615725.098 7      -838.109          47.687
G29  23749713.340   124805583.324 6      -426.173          40.562    23749712.720   124805583.334 5      -426.173          34.750    23749715.900    97251118.798 5      -332.083          34.687    23749716.340    97251117.803 6      -332.083          39.437
R10  23491931.980   125225224.522 6      5885.429          38.187    23491931.520   125225224.525 6      5885.429          37.125
G28  20897991.440   109819686.906 7       661.683          46.437    20897990.880   109819686.917 6       661.683          39.125    20897992.640    85573783.854 6       515.597          38.812    20897992.840    85573785.856 8       515.597          51.937
G04  24499326.820   128744827.149 6      3210.254          37.187    24499325.360   128744827.154 3      3210.254          21.500    24499332.780   100320651.464 3      2501.497          21.875    24499332.760   100320674.465 6      2501.497          41.062
G18  21470787.500   112829747.152 7      2751.731          46.312    21470786.280   112829747.165 6      2751.731          38.500    21470788.320    87919295.841 6      2144.206          38.375    21470789.360    87919291.835 8      2144.206          50.687
G31  20460719.220   107521802.447 8      2549.639          49.000    20460718.340   107521802.452 8      2549.639          49.937    20460718.380    83783219.852 8      1986.732          50.062    20460719.240    83783224.852 8      1986.732          50.937
G16  22712325.880   119354076.410 7      4615.564          43.250    22712324.380   119354076.415 5      4615.564          30.625    22712328.020    93003184.547 5      3596.544          30.562
G26  20940811.160   110044704.173 8      3570.492          49.312    20940810.240   110044704.180 8      3570.492          48.500    20940814.780    85749138.248 8      2782.202          48.625    20940815.000    85749137.247 8      2782.202          48.687
G25  24919336.460   130951987.544 5       144.920          34.812    24919335.740   130951987.541 4       144.920          27.312    24919346.200   102040539.669 4       112.924          26.750    24919346.340   102040549.663 6       112.924          39.000
R16  20474783.740   109372614.809 7      1733.534          47.562    20474783.420   109372614.810 7      1733.534          47.812    20474791.340    85067622.276 8      1348.304          50.375    20474791.380    85067624.277 8      1348.304          50.312
R09  20403176.640   108951824.250 7      4876.166          47.437    20403177.060   108951824.248 7      4876.166          47.562    20403182.400    84740333.506 8      3792.573          50.437    20403182.440    84740334.499 8      3792.573          51.500
> 2024 05 08 09 12 58.0000000  0 13
G27  22624872.960   118894508.439 7      5010.853          43.875    22624871.380   118894508.442 5      5010.853          34.750    22624876.540    92645088.411 5      3904.561          34.312    22624876.980    92645091.419 7      3904.561          47.687
R18  21825681.520   116506969.399 7     -1077.785          44.937    21825682.340   116506969.408 7     -1077.785          44.375    21825690.120    90616561.280 7      -838.278          47.125    21825690.180    90616563.282 7      -838.278          47.500
G29  23749794.460   124806009.429 6      -425.931          40.000    23749793.840   124806009.434 5      -425.931          34.687    23749797.000    97251450.826 5      -331.894          34.875    23749797.480    97251449.821 6      -331.894          39.625
R10  23490828.020   125219339.074 6      5885.718          38.187    23490827.600   125219339.061 6      5885.718          37.062
G28  20897865.560   109819025.319 7       661.400          46.062    20897864.960   109819025.331 6       661.400          38.812    20897866.600    85573268.333 6       515.377          38.437    20897867.200    85573270.333 8       515.377          51.500
G04  24498715.960   128741617.105 6      3209.847          36.937    24498714.580   128741617.113 3      3209.847          21.000    24498721.740   100318150.128 3      2501.179          21.875    24498721.660   100318173.151 6      2501.179          41.000
G18  21470263.680   112826995.652 7      2751.337          46.312    21470262.660   112826995.657 6      2751.337          38.625    21470264.560    87917151.805 6      2143.899          38.500    21470265.620    87917147.803 8      2143.899          50.687
G31  20460234.180   107519252.985 8      2549.212          49.562    20460233.220   107519252.990 8      2549.212          49.812    20460233.300    83781233.258 8      1986.399          49.812    20460234.100    83781238.256 8      1986.399          50.812
G16  22711447.840   119349460.805 7      4615.717          43.125    22711446.180   119349460.812 5      4615.717          30.625    22711449.820    92999587.974 5      3596.662          30.562
G26  20940131.760   110041133.641 8      3570.514          48.875    20940130.760   110041133.651 7      3570.514          47.937    20940135.100    85746356.020 8      2782.219          48.375    20940135.540    85746355.021 8      2782.219          48.125
G25  24919308.640   130951842.684 5       144.855          34.812    24919308.000   130951842.681 4       144.855          27.312    24919318.640   102040426.783 4       112.874          26.750    24919319.000   102040436.750 6       112.874          39.312
R16  20474459.140   109370881.402 7      1733.237          47.375    20474458.920   109370881.403 7      1733.237          47.937    20474466.760    85066274.070 8      1348.073          49.937    20474466.900    85066276.073 8      1348.073          50.937
R09  20402263.400   108946948.165 8      4876.055          48.750    20402263.920   108946948.164 7      4876.055          47.437    20402269.200    84736541.002 8      3792.487          51.125    20402269.520    84736541.995 8      3792.487          51.375
> 2024 05 08 09 12 59.0000000  0 13
G27  22623919.520   118889497.902 7      5010.278          43.562    22623917.820   118889497.905 5      5010.278          34.937    22623923.160    92641184.096 5      3904.112          34.312    22623923.540    92641187.108 7      3904.112          47.750
R18  21825883.520   116508047.424 7     -1078.239          44.562    21825884.660   116508047.425 7     -1078.239          44.437    21825891.940    90617399.736 7      -838.630          47.500    21825891.960    90617401.738 7      -838.630          47.187
G29  23749875.900   124806435.504 6      -425.991          40.625    23749874.820   124806435.509 5      -425.991          34.750    23749878.000    97251782.833 5      -331.941          34.687    23749879.080    97251781.842 6      -331.941          39.625
R10  23489724.660   125213453.461 6      5885.670          38.187    23489723.880   125213453.456 6      5885.670          37.062
G28  20897739.800   109818364.246 7       660.869          46.062    20897739.200   109818364.250 6       660.869          39.437    20897740.800    85572753.209 6       514.962          39.000    20897741.160    85572755.210 8       514.962          51.500
G04  24498105.100   128738407.587 6      3209.214          36.937    24498103.740   128738407.597 3      3209.214          21.000    24498110.880   100315649.210 3      2500.686          21.875    24498110.760   100315672.232 6      2500.686          40.750
G18  21469740.120   112824244.746 7      2750.595          47.062    21469739.160   112824244.749 6      2750.595          38.375    21469741.160    87915008.244 6      2143.321          38.250    21469742.140    87915004.246 8      2143.321          50.500
G31  20459749.100   107516704.088 8      2548.562          49.125    20459748.160   107516704.090 8      2548.562          49.500    20459748.340    83779247.105 8      1985.893          49.937    20459749.200    83779252.103 8      1985.893          51.062
G16  22710569.360   119344845.218 7      4615.591          42.375    22710567.780   119344845.228 5      4615.591          30.625    22710571.420    92995991.411 5      3596.564          31.000
G26  20939452.260   110037563.252 8      3570.291          48.187    20939451.320   110037563.262 8      3570.291          48.125    20939455.720    85743573.894 8      2782.045          48.000    20939456.220    85743572.893 8      2782.045          48.625
G25  24919281.020   130951697.818 5       144.874          34.812    24919280.380   130951697.818 4       144.874          27.312    24919291.120   102040313.894 4       112.889          28.062    24919291.660   102040323.871 6       112.889          39.312
R16  20474134.720   109369148.440 7      1732.725          46.625    20474134.440   109369148.439 7      1732.725          47.125    20474142.220    85064926.209 8      1347.675          49.937    20474142.240    85064928.210 8      1347.675          50.500
R09  20401350.720   108942072.273 7      4875.718          47.687    20401350.660   108942072.271 7      4875.718          47.437    20401356.200    84732748.641 8      3792.225          51.000    20401356.220    84732749.634 8      3792.225          51.812
> 2024 05 08 09 13  0.0000000  0 13
G27  22622965.900   118884487.872 7      5009.599          44.125    22622964.400   118884487.875 5      5009.599          34.687    22622969.580    92637280.181 5      3903.584          34.500    22622970.080    92637283.182 7      3903.584          47.562
R18  21826085.540   116509126.045 7     -1079.058          44.687    21826086.620   116509126.043 7     -1079.058          44.562    21826094.100    90618238.656 7      -839.267          47.187    21826094.180    90618240.659 7      -839.267          47.312
G29  23749956.920   124806861.814 6      -426.507          39.562    23749955.980   124806861.819 5      -426.507          34.750    23749959.100    97252115.018 5      -332.343          34.687    23749960.240    97252114.007 6      -332.343          39.562
R10  23488620.720   125207567.899 6      5885.451          38.187    23488619.540   125207567.892 6      5885.451          37.062
G28  20897614.220   109817703.914 7       659.880          47.375    20897613.600   109817703.924 6       659.880          39.250    20897615.040    85572238.663 6       514.192          38.875    20897615.620    85572240.663 8       514.192          51.250
G04  24497494.100   128735198.800 6      3208.314          37.375    24497492.980   128735198.810 3      3208.314          21.000    24497500.260   100313148.858 3      2499.985          21.875    24497500.980   100313171.863 6      2499.985          40.750
G18  21469217.220   112821494.668 7      2749.587          47.000    21469215.760   112821494.673 6      2749.587          38.625    21469217.880    87912865.324 6      2142.535          38.562    21469218.820    87912861.325 8      2142.535          50.500
G31  20459264.060   107514155.976 8      2547.628          49.625    20459263.240   107514155.984 8      2547.628          49.625    20459263.460    83777261.563 8      1985.165          49.375    20459264.080    83777266.561 8      1985.165          50.750
G16  22709691.140   119340229.899 7      4615.189          42.812    22709689.560   119340229.903 5      4615.189          30.937    22709693.160    92992395.056 5      3596.251          31.000
G26  20938773.160   110033993.246 8      3569.659          48.500    20938771.900   110033993.254 7      3569.659          47.812    20938776.400    85740792.072 8      2781.552          48.125    20938776.680    85740791.071 8      2781.552          48.687
G25  24919252.960   130951553.247 5       144.320          35.437    24919252.980   130951553.249 4       144.320          28.562    24919263.640   102040201.237 4       112.457          28.062    24919264.340   102040211.229 6       112.457          39.312
R16  20473810.380   109367416.144 8      1731.867          48.000    20473810.140   109367416.145 7      1731.867          47.375    20473817.940    85063578.867 8      1347.008          49.812    20473818.220    85063580.871 8      1347.008          50.187
R09  20400437.680   108937196.797 8      4875.126          48.125    20400437.900   108937196.795 7      4875.126          47.562    20400443.140    84728956.606 8      3791.765          51.125    20400443.280    84728957.598 8      3791.765          51.125
> 2024 05 08 09 13  1.0000000  0 13
G27  22622012.500   118879478.234 7      5009.749          43.375    22622010.980   118879478.236 5      5009.749          34.687    22622016.360    92633376.568 5      3903.701          34.250    22622016.960    92633379.570 7      3903.701          47.187
R18  21826287.820   116510205.103 7     -1078.929          44.312    21826288.540   116510205.099 7     -1078.929          44.562    21826296.200    90619077.922 7      -839.167          47.562    21826296.420    90619079.922 7      -839.167          47.187
G29  23750037.780   124807288.218 6      -426.214          40.750    23750037.080   124807288.225 5      -426.214          34.875    23750040.260    97252447.279 5      -332.115          34.687    23750041.200    97252446.263 6      -332.115          39.562
R10  23487516.360   125201682.307 6      5885.842          38.187    23487515.660   125201682.311 6      5885.842          37.062
G28  20897488.740   109817044.186 7       659.703          47.375    20897488.120   109817044.193 6       659.703          39.125    20897489.620    85571724.589 6       514.054          38.437    20897490.060    85571726.590 8       514.054          51.937
G04  24496883.600   128731990.637 6      3207.937          37.375    24496882.460   128731990.650 3      3207.937          21.000    24496889.760   100310648.992 3      2499.691          20.437    24496890.820   100310671.999 6      2499.691          40.875
G18  21468693.900   112818745.297 7      2749.300          47.437    21468692.580   112818745.304 6      2749.300          38.437    21468694.600    87910722.961 6      2142.312          37.937    21468695.560    87910718.962 8      2142.312          50.500
G31  20458779.360   107511608.548 8      2547.390          49.187    20458778.420   107511608.553 8      2547.390          49.375    20458778.640    83775276.552 8      1984.979          49.625    20458779.580    83775281.550 8      1984.979          51.000
G16  22708812.740   119335614.724 7      4615.334          42.250    22708811.340   119335614.729 5      4615.334          30.937    22708814.880    92988798.818 5      3596.364          30.750
G26  20938093.660   110030423.477 8      3569.903          49.062    20938092.740   110030423.485 7      3569.903          47.875    20938097.080    85738010.433 8      2781.743          48.125    20938097.420    85738009.430 8      2781.743          48.625
G25  24919224.920   130951408.860 5       144.589          35.437    24919225.560   130951408.862 4       144.589          28.562    24919236.140   102040088.721 4       112.666          28.062    24919236.840   102040098.697 6       112.666          39.125
R16  20473486.540   109365684.441 8      1731.683          48.062    20473485.900   109365684.444 7      1731.683          47.625    20473493.780    85062231.987 8      1346.864          50.000    20473494.020    85062233.986 8      1346.864          50.437
R09  20399524.660   108932321.623 8      4875.322          48.937    20399524.860   108932321.624 7      4875.322          47.562    20399530.240    84725164.804 8      3791.917          51.250    20399530.260    84725165.795 8      3791.917          51.375
> 2024 05 08 09 13  2.0000000  0 13
G27  22621058.920   118874468.900 7      5009.054          43.875    22621057.780   118874468.900 5      5009.054          34.250    22621063.040    92629473.187 5      3903.159          34.250    22621063.600    92629476.193 7      3903.159          47.437
R18  21826489.820   116511284.520 7     -1079.714          44.562    21826491.020   116511284.512 7     -1079.714          44.437    21826498.620    90619917.462 7      -839.777          47.312    21826498.440    90619919.462 7      -839.777          47.250
G29  23750118.840   124807714.567 6      -426.545          40.625    23750118.340   124807714.572 5      -426.545          34.562    23750121.460    97252779.497 5      -332.373          34.500    23750122.620    97252778.494 6      -332.373          39.500
R10  23486412.900   125195796.535 6      5885.588          38.187    23486410.820   125195796.538 6      5885.588          37.062
G28  20897363.560   109816384.968 7       658.817          46.562    20897362.800   109816384.973 6       658.817          39.812    20897364.140    85571210.911 6       513.364          39.562    20897364.660    85571212.911 8       513.364          51.500
G04  24496272.820   128728782.924 6      3207.338          36.812    24496272.200   128728782.934 3      3207.338          21.000    24496279.500   100308149.475 3      2499.225          20.437    24496280.760   100308172.490 6      2499.225          40.875
G18  21468170.860   112815996.529 7      2748.357          47.625    21468169.540   112815996.537 6      2748.357          38.437    21468171.520    87908581.064 6      2141.577          38.187    21468172.500    87908577.060 8      2141.577          50.312
G31  20458294.740   107509061.663 8      2546.426          49.250    20458293.800   107509061.668 8      2546.426          49.250    20458294.020    83773291.971 8      1984.228          49.500    20458295.040    83773296.965 8      1984.228          50.687
G16  22707934.540   119330999.544 7      4615.098          43.250    22707933.140   119330999.549 5      4615.098          30.937    22707936.720    92985202.574 5      3596.181          30.750
G26  20937414.320   110026853.852 8      3569.446          48.125    20937413.380   110026853.860 7      3569.446          47.937    20937417.700    85735228.912 8      2781.387          48.000    20937418.060    85735227.911 8      2781.387          48.375
G25  24919198.460   130951264.483 6       144.459          36.625    24919198.260   130951264.480 4       144.459          28.562    24919208.860   102039976.210 4       112.565          28.062    24919209.440   102039986.193 6       112.565          39.125
R16  20473162.120   109363953.183 7      1730.865          47.750    20473161.940   109363953.187 7      1730.865          47.687    20473169.720    85060885.454 8      1346.229          50.437    20473169.660    85060887.457 8      1346.229          50.562
R09  20398611.720   108927446.630 7      4874.765          47.937    20398612.060   108927446.631 8      4874.765          48.125    20398617.260    84721373.145 8      3791.484          51.375    20398617.280    84721374.137 8      3791.484          51.625
> 2024 05 08 09 13  3.0000000  0 13
G27  22620106.000   118869460.126 7      5008.720          43.000    22620104.600   118869460.126 5      5008.720          34.875    22620109.860    92625570.249 5      3902.899          34.375    22620110.740    92625573.250 7      3902.899          47.500
R18  21826691.880   116512364.504 7     -1080.059          43.625    21826693.340   116512364.500 7     -1080.059          44.125    21826700.740    90620757.448 7      -840.046          46.750    21826700.500    90620759.445 7      -840.046          46.937
G29  23750200.700   124808141.158 6      -426.454          39.875    23750199.580   124808141.162 5      -426.454          34.562    23750202.620    97253111.901 5      -332.302          34.500    23750203.420    97253110.904 6      -332.302          39.500
R10  23485308.000   125189910.839 6      5885.868          38.250    23485306.880   125189910.850 6      5885.868          37.187
G28  20897238.020   109815726.491 7       658.356          46.125    20897237.480   109815726.499 6       658.356          39.000    20897238.760    85570697.808 6       513.004          38.750    20897239.340    85570699.810 8       513.004          51.750
G04  24495662.680   128725576.023 6      3206.633          36.812    24495661.900   128725576.033 3      3206.633          21.000    24495669.020   100305650.589 3      2498.675          20.437    24495669.500   100305673.608 6      2498.675          41.125
G18  21467647.940   112813248.611 8      2747.718          48.000    21467646.520   112813248.618 6      2747.718          38.062    21467648.640    87906439.829 6      2141.079          37.875    21467649.540    87906435.826 8      2141.079          50.000
G31  20457810.180   107506515.601 8      2545.887          49.625    20457809.300   107506515.598 8      2545.887          49.187    20457809.460    83771308.018 8      1983.808          49.687    20457810.460    83771313.018 8      1983.808          49.750
G16  22707056.500   119326384.664 7      4614.948          42.375    22707055.180   119326384.674 5      4614.948          30.937    22707058.480    92981606.568 5      3596.063          30.750
G26  20936735.220   110023284.648 8      3569.182          48.250    20936734.220   110023284.658 8      3569.182          48.125    20936738.540    85732447.713 7      2781.181          47.750    20936738.940    85732446.714 8      2781.181          49.000
G25  24919171.180   130951120.440 6       144.097          36.312    24919170.780   130951120.444 4       144.097          28.562    24919181.480   102039863.964 4       112.284          28.625    24919181.780   102039873.962 6       112.284          38.937
R16  20472838.220   109362222.623 7      1730.456          47.750    20472837.800   109362222.630 8      1730.456          48.250    20472845.720    85059539.462 8      1345.910          49.312    20472845.820    85059541.466 8      1345.910          49.687
R09  20397698.700   108922572.102 8      4874.593          48.437    20397699.080   108922572.101 7      4874.593          47.812    20397704.540    84717581.844 8      3791.350          49.750    20397704.520    84717582.835 8      3791.350          50.687
> 2024 05 08 09 13  4.0000000  0 13
G27  22619153.020   118864451.444 7      5008.632          42.875    22619151.460   118864451.449 5      5008.632          34.875    22619156.780    92621667.384 5      3902.830          34.500    22619157.520    92621670.385 7      3902.830          47.812
R18  21826894.400   116513444.654 7     -1080.286          45.000    21826895.660   116513444.644 7     -1080.286          44.250    21826902.980    90621597.556 7      -840.223          47.562    21826903.100    90621599.554 7      -840.223          47.625
G29  23750281.720   124808567.554 6      -426.385          40.500    23750280.820   124808567.561 5      -426.385          34.437    23750283.700    97253444.156 5      -332.248          34.312    23750284.500    97253443.146 6      -332.248          39.500
R10  23484204.140   125184024.853 6      5886.026          38.250    23484202.660   125184024.862 6      5886.026          37.187
G28  20897112.960   109815068.343 7       657.994          46.250    20897112.080   109815068.347 6       657.994          39.437    20897113.680    85570184.963 6       512.723          38.937    20897114.080    85570186.963 8       512.723          51.562
G04  24495052.660   128722369.406 6      3206.395          36.000    24495051.720   128722369.408 3      3206.395          21.000    24495058.920   100303151.926 3      2498.490          20.437    24495059.360   100303174.949 6      2498.490          40.875
G18  21467125.160   112810501.108 7      2747.258          47.750    21467123.700   112810501.118 6      2747.258          38.562    21467125.820    87904298.915 6      2140.721          38.375    21467126.620    87904294.915 8      2140.721          50.562
G31  20457325.860   107503969.904 8      2545.496          49.750    20457324.900   107503969.904 8      2545.496          49.875    20457325.040    83769324.358 8      1983.503          49.687    20457325.820    83769329.358 8      1983.503          51.000
G16  22706178.580   119321769.597 7      4615.207          42.500    22706176.880   119321769.605 5      4615.207          30.937    22706180.160    92978010.410 5      3596.265          30.812
G26  20936055.980   110019715.396 8      3569.253          48.000    20936055.060   110019715.399 8      3569.253          48.062    20936059.300    85729666.474 8      2781.236          48.625    20936059.760    85729665.473 8      2781.236          48.437
G25  24919143.960   130950976.278 6       144.094          36.312    24919143.440   130950976.288 4       144.094          28.937    24919154.180   102039751.622 4       112.281          28.625    24919154.180   102039761.622 6       112.281          38.937
R16  20472514.360   109360492.322 7      1730.137          47.687    20472514.180   109360492.326 7      1730.137          47.312    20472521.660    85058193.666 8      1345.662          50.187    20472521.880    85058195.670 8      1345.662          50.625
R09  20396785.840   108917697.580 8      4874.498          48.437    20396786.100   108917697.583 7      4874.498          47.625    20396791.660    84713790.552 8      3791.276          51.062    20396791.640    84713791.548 8      3791.276          51.625
> 2024 05 08 09 13  5.0000000  0 13
G27  22618199.800   118859443.109 7      5008.443          42.625    22618198.380   118859443.111 5      5008.443          34.750    22618203.660    92617764.783 5      3902.683          34.500    22618204.460    92617767.782 7      3902.683          47.187
R18  21827096.660   116514525.167 7     -1080.486          44.125    21827098.020   116514525.163 7     -1080.486          44.437    21827105.540    90622437.955 7      -840.378          47.375    21827105.540    90622439.953 7      -840.378          47.437
G29  23750362.940   124808993.966 6      -426.203          39.875    23750362.060   124808993.971 5      -426.203          35.000    23750365.000    97253776.414 5      -332.106          34.750    23750365.440    97253775.401 6      -332.106          39.500
R10  23483100.060   125178138.691 6      5886.702          38.250    23483099.220   125178138.681 6      5886.702          37.187
G28  20896988.080   109814410.727 7       657.605          46.625    20896987.040   109814410.737 6       657.605          39.062    20896988.420    85569672.539 6       512.419          38.812    20896988.900    85569674.542 8       512.419          51.562
G04  24494442.500   128719163.377 6      3205.791          36.000    24494441.440   128719163.382 3      3205.791          21.000    24494448.800   100300653.722 3      2498.019          20.437    24494449.280   100300676.747 6      2498.019          40.875
G18  21466602.220   112807754.248 7      2746.748          47.625    21466601.160   112807754.256 6      2746.748          38.437    21466603.040    87902158.505 6      2140.323          38.187    21466603.860    87902154.505 8      2140.323          49.937
G31  20456841.540   107501424.825 8      2544.949          49.437    20456840.540   107501424.830 8      2544.949          49.937    20456840.700    83767341.182 8      1983.077          49.875    20456841.520    83767346.182 8      1983.077          51.375
G16  22705300.060   119317154.628 7      4615.214          43.125    22705298.660   119317154.635 5      4615.214          31.187    22705301.980    92974414.332 5      3596.271          30.812
G26  20935376.880   110016146.339 7      3569.149          47.375    20935375.780   110016146.347 8      3569.149          48.062    20935380.140    85726885.393 8      2781.155          48.250    20935380.520    85726884.394 8      2781.155          48.750
G25  24919116.420   130950832.140 6       144.502          36.625    24919116.020   130950832.148 4       144.502          28.937    24919126.660   102039639.297 4       112.599          28.625    24919126.800   102039649.272 6       112.599          38.937
R16  20472190.480   109358762.480 8      1729.820          48.312    20472190.320   109358762.487 7      1729.820          47.875    20472197.840    85056848.236 8      1345.416          50.000    20472197.960    85056850.241 8      1345.416          50.375
R09  20395872.860   108912823.316 8      4874.292          48.562    20395873.320   108912823.317 7      4874.292          47.500    20395878.920    84709999.458 8      3791.116          51.500    20395879.000    84710000.452 8      3791.116          51.312
> 2024 05 08 09 13  6.0000000  0 13
G27  22617246.560   118854435.179 7      5007.684          43.750    22617245.460   118854435.183 5      5007.684          34.875    22617250.820    92613862.499 5      3902.092          34.375    22617251.460    92613865.507 7      3902.092          47.500
R18  21827298.940   116515606.123 7     -1081.228          44.500    21827300.700   116515606.119 7     -1081.228          44.500    21827308.120    90623278.697 7      -840.955          47.125    21827307.960    90623280.701 7      -840.955          47.562
G29  23750443.900   124809420.464 6      -426.585          40.562    23750443.220   124809420.464 5      -426.585          35.000    23750446.180    97254108.747 5      -332.404          34.750    23750447.180    97254107.744 6      -332.404          39.687
R10  23481995.680   125172252.540 6      5885.988          38.250    23481995.040   125172252.556 6      5885.988          37.187
G28  20896862.920   109813753.735 7       656.713          46.812    20896862.020   109813753.742 6       656.713          39.687    20896863.260    85569160.593 6       511.724          39.062    20896863.880    85569162.594 8       511.724          51.562
G04  24493833.140   128715957.892 5      3205.133          35.312    24493831.540   128715957.899 3      3205.133          19.562    24493838.900   100298155.947 3      2497.506          20.437    24493839.720   100298178.977 6      2497.506          40.937
G18  21466079.960   112805008.093 7      2745.739          47.500    21466078.440   112805008.098 6      2745.739          38.437    21466080.560    87900018.644 6      2139.537          38.250    21466081.180    87900014.643 8      2139.537          50.312
G31  20456357.420   107498880.397 8      2544.050          49.250    20456356.340   107498880.402 8      2544.050          49.250    20456356.480    83765358.513 8      1982.376          49.375    20456357.240    83765363.511 8      1982.376          51.250
G16  22704421.980   119312539.779 7      4614.669          43.000    22704420.520   119312539.789 5      4614.669          31.187    22704423.780    92970818.348 5      3595.846          30.812
G26  20934697.860   110012577.521 7      3568.647          47.687    20934696.620   110012577.526 7      3568.647          47.625    20934701.000    85724104.494 8      2780.764          48.125    20934701.360    85724103.495 7      2780.764          47.812
G25  24919089.520   130950688.218 6       143.905          36.625    24919088.780   130950688.220 4       143.905          28.937    24919099.500   102039527.135 4       112.134          28.625    24919099.380   102039537.131 6       112.134          39.187
R16  20471866.760   109357033.191 7      1728.985          47.562    20471866.340   109357033.198 7      1728.985          47.875    20471874.100    85055503.238 8      1344.766          50.125    20471874.360    85055505.239 8      1344.766          49.937
R09  20394960.180   108907949.370 7      4873.730          47.875    20394960.700   108907949.366 7      4873.730          47.562    20394966.180    84706208.605 8      3790.679          51.062    20394965.940    84706209.599 8      3790.679          51.437
> 2024 05 08 09 13  7.0000000  0 13
G27  22616293.920   118849427.626 7      5007.539          42.875    22616292.640   118849427.631 5      5007.539          34.875    22616297.840    92609960.515 5      3901.978          34.375    22616298.540    92609963.522 7      3901.978          47.312
R18  21827502.160   116516687.538 7     -1081.428          44.187    21827503.020   116516687.534 7     -1081.428          44.562    21827510.500    90624119.791 7      -841.110          47.000    21827510.660    90624121.793 7      -841.110          47.250
G29  23750525.160   124809847.037 6      -426.479          40.687    23750524.420   124809847.036 5      -426.479          34.750    23750527.300    97254441.139 5      -332.322          34.562    23750528.280    97254440.126 6      -332.322          39.687
R10  23480891.420   125166366.269 6      5886.546          38.312    23480890.620   125166366.280 6      5886.546          37.687
G28  20896737.920   109813097.334 7       656.326          46.750    20896737.240   109813097.339 6       656.326          39.187    20896738.300    85568649.112 6       511.423          39.187    20896738.780    85568651.112 8       511.423          51.562
G04  24493222.640   128712753.059 5      3204.693          35.312    24493221.580   128712753.071 3      3204.693          19.562    24493229.080   100295658.681 3      2497.164          20.437    24493229.860   100295681.704 6      2497.164          41.187
G18  21465557.440   112802262.620 7      2745.369          47.437    21465556.040   112802262.628 6      2745.369          38.750    21465558.140    87897879.317 6      2139.249          38.687    21465558.740    87897875.314 8      2139.249          50.312
G31  20455873.300   107496336.632 8      2543.659          49.125    20455872.320   107496336.639 8      2543.659          49.625    20455872.480    83763376.360 8      1982.072          49.812    20455873.240    83763381.358 8      1982.072          50.875
G16  22703543.860   119307925.038 7      4614.869          43.625    22703542.360   119307925.046 5      4614.869          31.187    22703545.580    92967222.448 5      3596.002          30.937
G26  20934018.820   110009008.960 7      3568.555          47.187    20934017.600   110009008.963 8      3568.555          48.000    20934021.940    85721323.795 7      2780.692          47.687    20934022.160    85721322.796 8      2780.692          48.687
G25  24919062.260   130950544.425 6       143.820          36.062    24919061.380   130950544.429 4       143.820          28.937    24919072.120   102039415.089 4       112.067          29.000    24919072.200   102039425.088 6       112.067          39.187
R16  20471543.340   109355304.485 7      1728.659          47.875    20471542.920   109355304.489 8      1728.659          48.312    20471550.420    85054158.680 8      1344.513          49.875    20471550.860    85054160.683 8      1344.513          49.625
R09  20394047.300   108903075.731 7      4873.679          47.750    20394047.880   108903075.727 7      4873.679          47.687    20394053.580    84702417.999 8      3790.640          51.375    20394053.420    84702418.993 8      3790.640          51.812
> 2024 05 08 09 13  8.0000000  0 13
G27  22615341.140   118844420.531 7      5006.860          43.625    22615339.740   118844420.534 5      5006.860          34.625    22615345.020    92606058.884 5      3901.450          34.375    22615345.600    92606061.884 7      3901.450          47.125
R18  21827705.060   116517769.439 7     -1082.109          44.437    21827705.760   116517769.435 7     -1082.109          44.250    21827712.980    90624961.267 7      -841.641          46.875    21827713.060    90624963.269 7      -841.641          46.937
G29  23750606.220   124810273.690 6      -426.666          40.500    23750605.640   124810273.693 5      -426.666          34.937    23750608.540    97254773.594 5      -332.467          35.000    23750609.440    97254772.595 6      -332.467          39.687
R10  23479787.020   125160480.032 6      5886.111          38.312    23479785.600   125160480.046 6      5886.111          37.687
G28  20896613.120   109812441.574 7       655.459          47.125    20896612.440   109812441.581 6       655.459          39.625    20896613.640    85568138.132 6       510.747          39.125    20896614.060    85568140.132 8       510.747          51.312
G04  24492612.940   128709548.856 5      3203.967          35.937    24492611.900   128709548.863 3      3203.967          19.562    24492619.200   100293161.897 3      2496.598          20.437    24492619.900   100293184.915 6      2496.598          41.187
G18  21465035.140   112799517.902 7      2744.381          47.750    21465033.920   112799517.907 6      2744.381          38.062    21465035.860    87895740.573 6      2138.478          38.000    21465036.340    87895736.575 8      2138.478          50.250
G31  20455389.280   107493793.570 8      2542.733          49.437    20455388.460   107493793.575 8      2542.733          50.000    20455388.580    83761394.754 8      1981.351          49.750    20455389.400    83761399.754 8      1981.351          51.000
G16  22702665.660   119303310.484 7      4614.467          43.000    22702664.220   119303310.489 5      4614.467          31.000    22702667.360    92963626.689 5      3595.688          30.937
G26  20933339.580   110005440.655 8      3568.156          48.000    20933338.620   110005440.662 8      3568.156          48.062    20933342.960    85718543.301 8      2780.381          48.500    20933343.100    85718542.300 8      2780.381          48.625
G25  24919034.520   130950400.820 6       143.543          36.062    24919034.160   130950400.825 4       143.543          29.000    24919044.760   102039303.181 4       111.852          29.000    24919045.220   102039313.170 6       111.852          39.312
R16  20471219.660   109353576.358 7      1727.924          47.687    20471219.320   109353576.362 7      1727.924          47.625    20471226.920    85052814.583 8      1343.941          50.062    20471227.160    85052816.584 8      1343.941          50.000
R09  20393134.840   108898202.396 7      4873.143          47.937    20393135.260   108898202.400 8      4873.143          48.062    20393140.860    84698627.634 8      3790.223          51.687    20393140.920    84698628.628 8      3790.223          50.937
> 2024 05 08 09 13  9.0000000  0 13
G27  22614388.440   118839413.683 7      5006.642          43.875    22614386.880   118839413.691 5      5006.642          34.812    22614392.220    92602157.446 5      3901.279          35.000    22614393.000    92602160.450 7      3901.279          47.312
R18  21827908.100   116518851.631 7     -1082.294          43.625    21827908.240   116518851.624 7     -1082.294          44.062    21827915.800    90625802.968 7      -841.785          46.875    21827915.860    90625804.972 7      -841.785          47.625
