     3.05           OBSERVATION DATA    MIXED               RINEX VERSION / TYPE
TPS2RIN 1.0.29.3920 TPS-USER            20240511 183234 UTC PGM / RUN BY / DATE
Win64 build Feb 23, 2024 (c) Topcon Positioning Systems     COMMENT
SRC: 20240506_GUI00.tps                                     COMMENT
OPT: -S -v 3.05                                             COMMENT
Observer            Agency                                  OBSERVER / AGENCY
O0M3X53SBGM         TPS HIPER_SR        4.8 HSR Jul,08,2022 REC # / TYPE / VERS
FW: 4.8 HSR Jul,08,2022 p3                                  COMMENT
SN: HiPer SR 1212-12575                                     COMMENT
000                 TPSHIPER_SR     NONE                    ANT # / TYPE
        1.8000        0.0000        0.0000                  ANTENNA: DELTA H/E/N
DELTA H stands for **SLANT** height here!                   COMMENT
GUI00                                                       MARKER NAME
  5390610.3112 -1590267.5204  3006806.9236                  APPROX POSITION XYZ
  2024     5     6    11    55   21.0000000     GPS         TIME OF FIRST OBS
  2024     5     6    12    10   23.0000000     GPS         TIME OF LAST OBS
     1.000                                                  INTERVAL
   903 EPOCHS                                               COMMENT
G   16 C1C L1C D1C S1C C1W L1W D1W S1W C2W L2W D2W S2W C2X  SYS / # / OBS TYPES
       L2X D2X S2X                                          SYS / # / OBS TYPES
R   16 C1C L1C D1C S1C C1P L1P D1P S1P C2P L2P D2P S2P C2C  SYS / # / OBS TYPES
       L2C D2C S2C                                          SYS / # / OBS TYPES
    14                                                      # OF SATELLITES
   G02    40    40    40    40    40    40    40    40    40PRN / # OF OBS
          40    40    40     0     0     0     0            PRN / # OF OBS
   G08   903   903   903   903   903   903   903   903   903PRN / # OF OBS
         903   903   903   903   903   903   903            PRN / # OF OBS
   G10   903   903   903   903   903   903   903   903   903PRN / # OF OBS
         903   903   903   903   903   903   903            PRN / # OF OBS
   G16   903   903   903   903   903   903   903   903   903PRN / # OF OBS
         903   903   903     0     0     0     0            PRN / # OF OBS
   G18   265   265   265   265   265   265   265   265   265PRN / # OF OBS
         265   265   265   265   265   265   265            PRN / # OF OBS
   G21   903   903   903   903   903   903   903   903   903PRN / # OF OBS
         903   903   903     0     0     0     0            PRN / # OF OBS
   G23   903   903   903   903   903   903   903   903   903PRN / # OF OBS
         903   903   903   903   903   903   903            PRN / # OF OBS
   G26   903   903   903   903   903   903   903   903   903PRN / # OF OBS
         903   903   903   903   903   903   903            PRN / # OF OBS
   G27   903   903   903   903   903   903   903   903   903PRN / # OF OBS
         903   903   903   903   903   903   903            PRN / # OF OBS
   R09   903   903   903   903   903   903   903   903   903PRN / # OF OBS
         903   903   903   903   903   903   903            PRN / # OF OBS
   R15   903   903   903   903   903   903   903   903   903PRN / # OF OBS
         903   903   903   903   903   903   903            PRN / # OF OBS
   R16   903   903   903   903   903   903   903   903   903PRN / # OF OBS
         903   903   903   903   903   903   903            PRN / # OF OBS
   R17   903   903   903   903   903   903   903   903   903PRN / # OF OBS
         903   903   903   903   903   903   903            PRN / # OF OBS
   R18   903   903   903   903   903   903   903   903   903PRN / # OF OBS
         903   903   903   903   903   903   903            PRN / # OF OBS
G L1C                                                       SYS / PHASE SHIFT
G L1W -0.25000                                              SYS / PHASE SHIFT
G L2W  0.00000                                              SYS / PHASE SHIFT
G L2X  0.25000                                              SYS / PHASE SHIFT
R L1C                                                       SYS / PHASE SHIFT
R L1P -0.25000                                              SYS / PHASE SHIFT
R L2P -0.25000                                              SYS / PHASE SHIFT
R L2C                                                       SYS / PHASE SHIFT
  5 R09 -2 R15  0 R16 -1 R17  4 R18 -3                      GLONASS SLOT / FRQ #
                                                            GLONASS COD/PHS/BIS
    18    18  1929     7GPS                                 LEAP SECONDS
                                                            END OF HEADER
> 2024 05 06 11 55 21.0000000  0 13
G08  21784379.100   114477681.074 7      3944.098          46.312    21784378.120   114477681.074 6      3944.098          36.187    21784383.780    89203407.806 5      3073.323          35.812    21784384.840    89203411.823 7      3073.323          47.562
G21  21832139.420   114728678.925 7      5187.187          44.437    21832137.720   114728678.928 5      5187.187          32.500    21832144.080    89398980.857 5      4041.964          32.437
G27  20725830.100   108914963.930 7      2458.054          47.750    20725828.760   108914963.933 8      2458.054          48.812    20725834.400    84868823.033 8      1915.367          48.937    20725834.900    84868823.035 8      1915.367          50.312
R16  19070106.060   101869078.158 8      3153.300          48.625    19070106.180   101869078.159 7      3153.300          47.937    19070114.140    79231540.551 8      2452.566          51.062    19070114.240    79231539.546 8      2452.566          51.687
G16  20313796.820   106749718.925 7      2431.626          46.187    20313795.760   106749718.938 6      2431.626          40.375    20313798.200    83181604.230 6      1894.773          39.875
R18  20133948.120   107476372.089 7       511.934          47.625    20133947.860   107476372.084 7       511.934          47.187    20133955.120    83592767.258 8       398.171          49.687    20133954.900    83592768.265 8       398.171          49.687
G26  21495647.540   112960377.607 7       419.248          46.875    21495646.480   112960377.612 7       419.248          46.562    21495653.580    88021099.065 7       326.686          47.062    21495653.540    88021102.069 8       326.686          49.000
R15  20822781.260   111270620.642 7      -687.585          47.375    20822781.020   111270620.635 7      -687.585          45.875    20822791.700    86543853.548 8      -534.789          48.687    20822791.400    86543855.552 8      -534.789          48.562
G18  25127902.080   132048007.787 6      -783.919          36.250    25127902.240   132048007.792 3      -783.919          21.187    25127909.120   102894579.793 3      -610.846          21.937    25127909.900   102894583.786 7      -610.846          42.250
G10  22344127.440   117419180.015 7      3873.012          46.312    22344126.880   117419180.020 7      3873.012          45.500    22344133.920    91495494.599 7      3017.932          45.562    22344134.380    91495493.611 7      3017.932          47.187
G23  23009029.920   120913265.284 7      2022.527          42.875    23009029.620   120913265.287 5      2022.527          32.937    23009034.900    94218147.363 5      1575.995          33.000    23009035.340    94218149.364 7      1575.995          47.562
R09  22136577.700   118208050.439 7      6464.717          42.937    22136577.800   118208050.435 7      6464.717          42.625    22136585.180    91939658.960 7      5028.113          44.937    22136585.300    91939659.953 7      5028.113          45.750
R17  23291004.200   124634863.406 6      -712.686          40.750    23291004.180   124634863.412 6      -712.686          40.437    23291015.560    96938274.476 7      -554.311          42.625    23291016.260    96938272.474 7      -554.311          43.937
> 2024 05 06 11 55 22.0000000  0 13
G08  21783628.580   114473736.996 7      3944.105          46.437    21783627.540   114473736.996 6      3944.105          36.062    21783633.420    89200334.503 5      3073.329          35.750    21783634.360    89200338.516 8      3073.329          48.062
G21  21831152.300   114723491.940 7      5186.789          44.375    21831150.660   114723491.945 5      5186.789          32.250    21831156.840    89394939.060 5      4041.654          32.562
G27  20725362.300   108912506.056 7      2457.868          47.687    20725361.100   108912506.060 8      2457.868          48.125    20725366.640    84866907.812 8      1915.222          48.562    20725367.120    84866907.810 8      1915.222          50.375
R16  19069515.900   101865925.338 8      3152.516          48.750    19069515.980   101865925.339 7      3152.516          47.312    19069523.900    79229088.362 8      2451.957          51.312    19069524.100    79229087.359 8      2451.957          51.562
G16  20313334.320   106747287.646 7      2431.154          46.625    20313333.040   106747287.651 6      2431.154          40.000    20313335.620    83179709.725 6      1894.406          39.625
R18  20133852.200   107475860.355 7       511.722          47.687    20133851.840   107475860.348 7       511.722          47.875    20133859.320    83592369.247 8       398.006          49.500    20133859.120    83592370.250 8       398.006          49.812
G26  21495567.780   112959958.615 7       418.954          46.625    21495566.880   112959958.620 7       418.954          46.625    21495573.780    88020772.582 7       326.458          46.687    21495573.940    88020775.581 8       326.458          48.312
R15  20822910.320   111271308.454 7      -687.949          46.875    20822909.820   111271308.444 7      -687.949          45.937    20822920.360    86544388.516 8      -535.071          48.750    20822920.380    86544390.516 8      -535.071          48.750
G18  25128052.260   132048791.694 6      -783.987          36.062    25128051.320   132048791.699 3      -783.987          21.187    25128058.320   102895190.632 3      -610.899          20.875    25128059.160   102895194.647 6      -610.899          41.875
G10  22343390.680   117415307.256 7      3872.589          46.562    22343390.040   117415307.264 7      3872.589          45.187    22343396.920    91492476.873 7      3017.602          45.312    22343397.640    91492475.883 7      3017.602          47.187
G23  23008645.120   120911243.149 7      2021.970          42.937    23008644.820   120911243.154 5      2021.970          32.937    23008649.960    94216571.680 5      1575.561          33.187    23008650.380    94216573.674 7      1575.561          47.875
R09  22135367.140   118201585.850 7      6464.592          43.312    22135367.160   118201585.848 7      6464.592          42.625    22135374.760    91934630.956 7      5028.016          45.312    22135374.960    91934631.949 7      5028.016          45.312
R17  23291137.460   124635576.167 6      -712.549          40.750    23291137.620   124635576.195 6      -712.549          40.437    23291148.640    96938828.862 7      -554.204          43.000    23291149.660    96938826.861 7      -554.204          43.187
> 2024 05 06 11 55 23.0000000  0 13
G08  21782878.140   114469792.874 7      3944.216          46.812    21782877.020   114469792.874 5      3944.216          35.875    21782882.920    89197261.167 5      3073.415          35.625    21782883.640    89197265.176 8      3073.415          48.062
G21  21830165.540   114718305.251 7      5186.545          44.625    21830163.620   114718305.256 5      5186.545          32.250    21830169.880    89390897.495 5      4041.464          32.562
G27  20724894.580   108910048.173 7      2457.853          47.312    20724893.500   108910048.178 8      2457.853          48.375    20724899.000    84864992.581 8      1915.210          48.375    20724899.540    84864992.581 8      1915.210          50.500
R16  19068926.020   101862773.181 8      3151.847          49.125    19068925.780   101862773.176 8      3151.847          48.375    19068933.820    79226636.679 8      2451.437          51.125    19068934.000    79226635.677 8      2451.437          51.562
G16  20312871.760   106744856.628 7      2430.967          45.875    20312870.460   106744856.632 6      2430.967          40.375    20312873.000    83177815.424 6      1894.260          39.625
R18  20133756.280   107475348.728 7       511.511          47.750    20133756.160   107475348.723 8       511.511          48.000    20133763.440    83591971.316 8       397.842          49.875    20133763.340    83591972.318 8       397.842          49.187
G26  21495487.960   112959539.846 7       418.792          47.687    21495487.040   112959539.846 7       418.792          46.625    21495494.080    88020446.260 7       326.332          46.937    21495494.160    88020449.260 8       326.332          48.312
R15  20823038.880   111271996.596 7      -688.287          47.125    20823038.640   111271996.592 7      -688.287          46.937    20823049.180    86544923.736 8      -535.334          48.500    20823049.020    86544925.748 8      -535.334          48.500
G18  25128201.580   132049575.432 6      -783.709          36.062    25128200.680   132049575.437 3      -783.709          21.187    25128207.560   102895801.335 3      -610.682          20.875    25128207.980   102895805.344 6      -610.682          41.875
G10  22342653.720   117411434.799 7      3872.289          46.437    22342653.060   117411434.804 7      3872.289          45.687    22342660.040    91489459.381 7      3017.368          45.875    22342660.380    91489458.392 7      3017.368          47.125
G23  23008260.380   120909221.427 7      2021.562          44.312    23008260.120   120909221.426 5      2021.562          33.437    23008265.320    94214996.313 5      1575.243          33.187    23008265.780    94214998.314 7      1575.243          47.812
R09  22134156.680   118195121.417 7      6464.363          43.312    22134156.800   118195121.400 7      6464.363          42.562    22134164.180    91929603.062 7      5027.838          45.562    22134164.260    91929604.056 7      5027.838          46.312
R17  23291270.720   124636288.626 6      -712.271          40.562    23291271.360   124636288.641 6      -712.271          40.250    23291281.960    96939382.985 7      -553.989          42.562    23291282.280    96939380.983 7      -553.989          42.812
> 2024 05 06 11 55 24.0000000  0 13
G08  21782127.560   114465848.707 7      3944.057          46.437    21782126.500   114465848.702 5      3944.057          35.875    21782132.320    89194187.790 5      3073.291          35.625    21782132.900    89194191.801 8      3073.291          48.250
G21  21829178.640   114713118.841 7      5186.158          44.437    21829176.780   114713118.846 5      5186.158          32.000    21829182.940    89386856.149 5      4041.162          32.125
G27  20724426.940   108907590.256 7      2457.895          47.875    20724425.640   108907590.256 8      2457.895          48.875    20724431.280    84863077.319 8      1915.243          49.250    20724431.780    84863077.322 8      1915.243          50.750
R16  19068336.020   101859621.661 8      3151.116          48.437    19068335.800   101859621.657 8      3151.116          48.125    19068343.760    79224185.502 8      2450.868          51.000    19068344.080    79224184.501 8      2450.868          51.625
G16  20312409.420   106742425.906 7      2430.435          46.062    20312407.900   106742425.918 6      2430.435          40.187    20312410.500    83175921.364 6      1893.845          39.625
R18  20133660.340   107474837.189 8       511.346          48.312    20133660.240   107474837.184 8       511.346          48.062    20133667.600    83591573.455 8       397.713          49.937    20133667.680    83591574.454 8       397.713          49.687
G26  21495408.260   112959121.299 7       418.323          47.437    21495407.320   112959121.301 7       418.323          46.937    21495414.480    88020120.121 7       325.966          46.812    21495414.780    88020123.127 8       325.966          48.812
R15  20823167.860   111272685.091 7      -688.806          47.375    20823167.520   111272685.087 7      -688.806          46.500    20823178.080    86545459.232 8      -535.738          49.187    20823177.920    86545461.240 8      -535.738          49.062
G18  25128350.600   132050359.008 6      -783.916          36.562    25128349.820   132050359.013 3      -783.916          21.187    25128356.520   102896411.915 3      -610.843          20.875    25128356.860   102896415.922 6      -610.843          41.500
G10  22341916.800   117407562.629 7      3871.960          46.625    22341916.220   117407562.629 7      3871.960          45.562    22341923.340    91486442.103 7      3017.112          45.625    22341923.460    91486441.113 7      3017.112          47.187
G23  23007875.760   120907200.101 7      2021.055          44.250    23007875.500   120907200.103 5      2021.055          33.437    23007880.620    94213421.259 5      1574.848          33.187    23007881.080    94213423.259 7      1574.848          47.937
R09  22132946.160   118188657.065 7      6464.144          43.500    22132945.900   118188657.069 7      6464.144          42.750    22132954.080    91924575.251 7      5027.667          45.187    22132953.900    91924576.251 7      5027.667          45.937
R17  23291403.520   124637000.759 6      -712.139          40.562    23291403.720   124637000.776 6      -712.139          40.250    23291414.900    96939936.859 7      -553.886          42.812    23291415.140    96939934.856 7      -553.886          42.437
> 2024 05 06 11 55 25.0000000  0 13
G08  21781376.740   114461904.435 7      3944.685          44.875    21781375.980   114461904.432 5      3944.685          35.312    21781381.580    89191114.336 5      3073.781          35.250    21781382.580    89191118.349 7      3073.781          47.875
G21  21828191.920   114707932.681 7      5186.389          42.625    21828189.880   114707932.683 5      5186.389          32.000    21828196.100    89382814.995 5      4041.342          32.125
G27  20723959.160   108905132.319 7      2458.341          47.750    20723957.900   108905132.321 8      2458.341          48.625    20723963.520    84861162.051 8      1915.590          48.937    20723964.340    84861162.054 8      1915.590          50.437
R16  19067745.880   101856470.802 7      3150.880          47.812    19067746.020   101856470.806 7      3150.880          47.687    19067753.920    79221734.844 8      2450.684          51.062    19067754.380    79221733.841 8      2450.684          51.125
G16  20311946.980   106739995.436 7      2430.703          47.000    20311945.320   106739995.444 6      2430.703          40.437    20311948.100    83174027.491 6      1894.054          39.750
R18  20133564.700   107474325.724 7       511.731          47.687    20133564.440   107474325.717 7       511.731          47.500    20133571.860    83591175.651 8       398.013          49.937    20133571.900    83591176.651 8       398.013          49.937
G26  21495328.780   112958702.924 7       418.565          47.125    21495327.760   112958702.929 7       418.565          46.875    21495334.860    88019794.119 7       326.155          46.437    21495335.360    88019797.125 8       326.155          48.437
R15  20823296.920   111273373.915 7      -688.635          47.250    20823296.280   111273373.914 7      -688.635          46.687    20823307.120    86545994.982 8      -535.605          48.812    20823306.640    86545996.992 8      -535.605          49.125
G18  25128499.280   132051142.300 6      -782.884          36.562    25128498.780   132051142.305 3      -782.884          21.187    25128505.560   102897022.275 3      -610.040          20.875    25128505.300   102897026.288 6      -610.040          41.500
G10  22341180.160   117403690.722 7      3872.166          45.875    22341179.340   117403690.721 7      3872.166          45.500    22341186.580    91483425.043 7      3017.272          45.625    22341186.720    91483424.054 7      3017.272          47.062
G23  23007491.320   120905179.159 7      2021.157          44.562    23007490.980   120905179.164 5      2021.157          33.500    23007496.060    94211846.505 5      1574.928          33.187    23007496.360    94211848.503 7      1574.928          47.687
R09  22131735.560   118182192.836 7      6464.570          42.937    22131735.300   118182192.837 7      6464.570          42.750    22131743.400    91919547.526 7      5027.999          45.812    22131743.160    91919548.517 7      5027.999          46.000
R17  23291536.800   124637712.562 6      -711.348          41.812    23291536.760   124637712.580 6      -711.348          40.625    23291547.820    96940490.491 7      -553.271          42.375    23291547.900    96940488.487 7      -553.271          42.687
> 2024 05 06 11 55 26.0000000  0 13
G08  21780626.200   114457960.043 7      3944.513          45.812    21780625.380   114457960.037 5      3944.513          35.812    21780630.900    89188040.787 5      3073.647          35.750    21780631.900    89188044.802 8      3073.647          48.062
G21  21827204.980   114702746.728 7      5185.912          44.250    21827203.000   114702746.731 5      5185.912          32.000    21827209.440    89378774.003 5      4040.971          32.125
G27  20723491.620   108902674.265 8      2458.193          48.187    20723490.120   108902674.273 8      2458.193          48.500    20723495.760    84859246.689 8      1915.475          49.062    20723496.620    84859246.691 8      1915.475          50.625
R16  19067156.180   101853320.546 8      3149.960          48.437    19067156.280   101853320.539 7      3149.960          47.875    19067164.220    79219284.639 8      2449.969          51.000    19067164.460    79219283.632 8      2449.969          51.437
G16  20311484.220   106737565.148 7      2430.296          47.062    20311482.880   106737565.155 6      2430.296          40.250    20311485.520    83172133.764 6      1893.738          39.437
R18  20133468.760   107473814.247 8       511.527          48.875    20133468.680   107473814.240 8       511.527          48.312    20133476.040    83590777.835 8       397.854          49.937    20133476.140    83590778.837 8       397.854          50.312
G26  21495249.200   112958284.658 7       418.245          46.687    21495248.100   112958284.662 7       418.245          46.625    21495255.240    88019468.195 7       325.905          46.625    21495255.800    88019471.197 8       325.905          49.000
R15  20823425.760   111274063.041 7      -689.272          47.125    20823424.820   111274063.045 7      -689.272          46.750    20823436.080    86546530.973 8      -536.101          49.062    20823435.720    86546532.987 8      -536.101          48.875
G18  25128648.160   132051925.340 5      -782.673          35.812    25128647.840   132051925.345 3      -782.673          21.187    25128654.720   102897632.438 3      -609.875          20.875    25128654.200   102897636.445 6      -609.875          41.250
G10  22340443.080   117399819.030 7      3871.694          46.312    22340442.740   117399819.029 7      3871.694          45.687    22340449.720    91480408.144 7      3016.904          45.062    22340449.940    91480407.149 7      3016.904          47.000
G23  23007106.780   120903158.545 7      2020.500          45.312    23007106.440   120903158.550 5      2020.500          33.500    23007111.620    94210272.004 5      1574.416          33.375    23007111.900    94210274.005 7      1574.416          47.875
R09  22130524.920   118175728.612 7      6464.177          43.312    22130524.680   118175728.618 7      6464.177          42.500    22130532.960    91914519.804 7      5027.694          45.625    22130532.820    91914520.802 7      5027.694          46.187
R17  23291669.840   124638423.970 6      -711.182          41.812    23291669.880   124638423.979 6      -711.182          40.625    23291680.700    96941043.797 7      -553.141          42.750    23291680.820    96941041.791 7      -553.141          42.750
> 2024 05 06 11 55 27.0000000  0 13
G08  21779875.600   114454015.552 7      3944.478          47.000    21779874.820   114454015.549 5      3944.478          35.812    21779880.320    89184967.162 5      3073.619          35.687    21779881.320    89184971.182 8      3073.619          48.187
G21  21826218.340   114697561.023 7      5185.496          44.187    21826216.100   114697561.027 5      5185.496          32.000    21826222.580    89374733.208 5      4040.646          32.062
G27  20723023.780   108900216.178 7      2458.106          47.562    20723022.380   108900216.185 8      2458.106          48.937    20723027.960    84857331.302 8      1915.407          49.125    20723028.920    84857331.305 8      1915.407          50.500
R16  19066566.560   101850170.915 8      3149.285          48.625    19066566.480   101850170.911 7      3149.285          47.750    19066574.760    79216834.926 8      2449.444          51.312    19066574.740    79216833.921 8      2449.444          51.375
G16  20311021.700   106735135.133 7      2429.871          46.687    20311020.500   106735135.137 6      2429.871          40.187    20311023.200    83170240.246 6      1893.406          39.812
R18  20133373.000   107473302.852 8       511.296          48.062    20133372.880   107473302.845 7       511.296          47.625    20133380.420    83590380.084 8       397.675          50.562    20133380.360    83590381.087 8       397.675          50.250
G26  21495169.740   112957866.575 7       417.925          47.937    21495168.540   112957866.580 7       417.925          47.250    21495175.680    88019142.419 7       325.656          47.000    21495176.120    88019145.422 8       325.656          48.875
R15  20823554.780   111274752.501 7      -689.674          47.125    20823553.980   111274752.494 7      -689.674          46.125    20823565.320    86547067.207 8      -536.413          49.187    20823564.980    86547069.219 8      -536.413          48.812
G18  25128797.220   132052708.227 5      -782.821          35.812    25128796.900   132052708.232 3      -782.821          21.187    25128803.600   102898242.478 3      -609.990          20.875    25128802.740   102898246.483 6      -609.990          41.250
G10  22339706.520   117395947.598 7      3871.226          46.312    22339705.980   117395947.605 7      3871.226          45.500    22339712.920    91477391.452 7      3016.540          45.875    22339712.860    91477390.461 7      3016.540          46.812
G23  23006722.320   120901138.307 7      2019.993          45.062    23006722.120   120901138.312 5      2019.993          33.500    23006727.220    94208697.791 5      1574.021          33.375    23006727.220    94208699.790 7      1574.021          47.437
R09  22129314.520   118169264.452 7      6464.053          43.312    22129314.540   118169264.447 7      6464.053          42.187    22129322.500    91909492.124 7      5027.597          45.437    22129322.460    91909493.122 7      5027.597          46.250
R17  23291802.500   124639135.040 6      -710.920          41.000    23291802.340   124639135.044 6      -710.920          40.625    23291814.160    96941596.848 7      -552.938          42.562    23291814.060    96941594.846 7      -552.938          42.875
> 2024 05 06 11 55 28.0000000  0 13
G08  21779124.740   114450070.915 7      3944.595          46.125    21779124.020   114450070.910 5      3944.595          35.250    21779129.860    89181893.427 5      3073.711          35.125    21779130.600    89181897.441 8      3073.711          48.187
G21  21825231.560   114692375.514 7      5185.269          45.062    21825229.320   114692375.521 5      5185.269          32.000    21825235.800    89370692.568 5      4040.470          32.062
G27  20722556.020   108897757.972 7      2458.278          47.062    20722554.500   108897757.974 8      2458.278          49.250    20722560.240    84855415.813 8      1915.541          49.062    20722560.840    84855415.818 8      1915.541          50.187
R16  19065976.940   101847021.869 8      3148.676          48.937    19065977.140   101847021.873 7      3148.676          47.750    19065985.100    79214385.680 8      2448.970          51.000    19065985.340    79214384.678 8      2448.970          51.187
G16  20310559.260   106732705.304 7      2429.536          46.875    20310558.200   106732705.314 6      2429.536          40.312    20310560.780    83168346.875 6      1893.145          39.562
R18  20133277.220   107472791.430 8       511.260          48.812    20133277.280   107472791.426 7       511.260          47.500    20133284.540    83589982.316 8       397.647          50.000    20133284.800    83589983.317 8       397.647          50.312
G26  21495090.220   112957448.605 7       417.752          46.625    21495089.060   112957448.610 7       417.752          46.375    21495096.140    88018816.728 7       325.521          47.187    21495096.540    88018819.730 8       325.521          49.312
R15  20823683.860   111275442.180 7      -689.902          47.312    20823683.060   111275442.170 7      -689.902          46.375    20823694.600    86547603.624 8      -536.591          48.812    20823693.960    86547605.626 8      -536.591          49.687
G18  25128945.600   132053490.799 5      -782.598          35.812    25128945.780   132053490.807 3      -782.598          20.187    25128952.460   102898852.276 3      -609.816          20.875    25128951.900   102898856.273 6      -609.816          40.937
G10  22338969.860   117392076.350 7      3871.072          46.312    22338969.360   117392076.355 7      3871.072          45.687    22338976.220    91474374.903 7      3016.419          45.437    22338976.200    91474373.908 7      3016.419          47.250
G23  23006337.720   120899118.364 7      2019.670          44.875    23006337.880   120899118.371 5      2019.670          33.437    23006342.620    94207123.815 5      1573.769          33.250    23006342.840    94207125.820 7      1573.769          47.750
R09  22128104.200   118162800.251 7      6464.085          43.000    22128103.780   118162800.255 7      6464.085          42.187    22128111.820    91904464.425 7      5027.621          45.125    22128111.620    91904465.425 7      5027.621          46.312
R17  23291935.300   124639845.682 6      -710.480          41.000    23291935.080   124639845.695 6      -710.480          40.375    23291946.500    96942149.584 7      -552.596          42.562    23291946.760    96942147.578 7      -552.596          42.875
> 2024 05 06 11 55 29.0000000  0 13
G08  21778374.100   114446126.239 7      3944.972          44.937    21778373.380   114446126.230 5      3944.972          35.250    21778379.140    89178819.657 5      3074.004          35.125    21778379.920    89178823.673 8      3074.004          48.125
G21  21824244.940   114687190.302 7      5185.294          44.062    21824242.500   114687190.304 5      5185.294          32.000    21824249.120    89366652.150 5      4040.489          32.062
G27  20722088.280   108895299.787 8      2458.414          48.062    20722086.820   108895299.792 8      2458.414          49.062    20722092.420    84853500.355 8      1915.647          48.875    20722092.940    84853500.359 8      1915.647          50.750
R16  19065388.040   101843873.537 8      3148.162          48.875    19065387.900   101843873.538 7      3148.162          47.937    19065395.840    79211936.979 8      2448.571          51.062    19065395.900    79211935.976 8      2448.571          51.562
G16  20310096.900   106730275.746 7      2429.682          46.500    20310095.900   106730275.754 6      2429.682          40.375    20310098.540    83166453.715 6      1893.258          39.750
R18  20133181.720   107472280.110 8       511.507          48.062    20133181.360   107472280.106 7       511.507          47.812    20133188.700    83589584.622 8       397.839          50.062    20133188.820    83589585.622 8       397.839          50.250
G26  21495010.580   112957030.864 7       417.733          47.312    21495009.640   112957030.869 7       417.733          47.250    21495016.640    88018491.217 7       325.506          47.062    21495017.080    88018494.219 8       325.506          48.937
R15  20823812.940   111276132.219 7      -690.000          47.437    20823812.260   111276132.220 7      -690.000          46.687    20823823.600    86548140.326 8      -536.667          48.625    20823823.080    86548142.332 8      -536.667          48.875
G18  25129094.580   132054273.211 5      -782.195          35.812    25129094.640   132054273.213 3      -782.195          20.187    25129101.340   102899461.944 3      -609.503          20.875    25129100.900   102899465.955 6      -609.503          40.937
G10  22338233.260   117388205.422 7      3871.070          46.187    22338232.740   117388205.424 7      3871.070          46.062    22338239.680    91471358.598 7      3016.418          45.812    22338239.580    91471357.603 7      3016.418          47.250
G23  23005953.620   120897098.864 7      2019.477          44.312    23005953.580   120897098.872 5      2019.477          33.437    23005958.420    94205550.181 5      1573.618          33.250    23005958.780    94205552.180 7      1573.618          47.500
R09  22126893.140   118156336.217 7      6464.164          43.312    22126893.220   118156336.221 7      6464.164          42.562    22126901.000    91899436.849 7      5027.683          45.000    22126901.060    91899437.849 7      5027.683          46.125
R17  23292068.260   124640556.049 6      -710.001          41.000    23292068.040   124640556.067 6      -710.001          40.375    23292079.060    96942702.094 7      -552.223          42.562    23292079.460    96942700.086 7      -552.223          42.625
> 2024 05 06 11 55 30.0000000  0 13
G08  21777623.320   114442181.446 7      3944.729          45.000    21777622.640   114442181.438 5      3944.729          35.437    21777628.600    89175745.795 5      3073.815          35.312    21777629.080    89175749.813 8      3073.815          48.187
G21  21823258.460   114682005.308 7      5184.774          43.687    21823255.760   114682005.313 5      5184.774          31.750    21823262.420    89362611.903 5      4040.083          31.937
G27  20721620.420   108892841.521 7      2458.209          47.375    20721619.040   108892841.523 8      2458.209          48.687    20721624.680    84851584.821 8      1915.488          48.750    20721625.100    84851584.825 8      1915.488          50.062
R16  19064798.980   101840725.783 7      3147.295          47.562    19064798.420   101840725.782 8      3147.295          48.062    19064806.500    79209488.725 8      2447.896          51.125    19064806.720    79209487.722 8      2447.896          51.562
G16  20309634.660   106727846.432 7      2429.120          46.750    20309633.500   106727846.443 6      2429.120          40.562    20309636.260    83164560.752 6      1892.821          40.062
R18  20133085.700   107471768.843 8       511.131          48.750    20133085.680   107471768.836 8       511.131          48.000    20133093.060    83589186.974 8       397.546          50.062    20133093.200    83589187.974 8       397.546          50.562
G26  21494931.160   112956613.270 7       417.362          46.500    21494930.080   112956613.272 7       417.362          46.500    21494937.220    88018165.815 7       325.217          47.000    21494937.600    88018168.819 8       325.217          48.875
R15  20823942.300   111276822.569 7      -690.572          47.062    20823941.620   111276822.567 7      -690.572          46.750    20823952.560    86548677.254 8      -537.112          49.312    20823952.340    86548679.258 8      -537.112          49.062
G18  25129243.620   132055055.352 5      -782.101          35.812    25129243.440   132055055.354 3      -782.101          20.187    25129250.140   102900071.404 3      -609.429          20.875    25129249.900   102900075.397 6      -609.429          40.937
G10  22337496.680   117384334.729 7      3870.536          46.187    22337496.240   117384334.728 7      3870.536          45.812    22337503.100    91468342.477 7      3016.002          45.625    22337503.040    91468341.485 7      3016.002          47.312
G23  23005569.320   120895079.703 7      2018.812          44.125    23005569.180   120895079.711 5      2018.812          33.312    23005574.280    94203976.811 5      1573.100          33.000    23005574.580    94203978.810 7      1573.100          47.437
R09  22125682.900   118149872.228 7      6463.872          42.687    22125682.940   118149872.229 7      6463.872          42.875    22125690.400    91894409.306 7      5027.456          45.375    22125690.800    91894410.306 7      5027.456          46.125
R17  23292200.940   124641265.988 6      -709.818          40.937    23292200.700   124641266.003 6      -709.818          40.375    23292211.780    96943254.270 7      -552.080          42.750    23292212.120    96943252.264 7      -552.080          42.562
> 2024 05 06 11 55 31.0000000  0 13
G08  21776872.600   114438236.754 7      3944.580          46.125    21776872.100   114438236.751 5      3944.580          35.562    21776877.960    89172672.013 5      3073.699          35.375    21776878.880    89172676.028 8      3073.699          48.062
G21  21822271.520   114676820.753 7      5184.317          43.875    21822269.020   114676820.758 5      5184.317          31.750    21822275.780    89358572.002 5      4039.727          31.937
G27  20721152.760   108890383.394 8      2457.954          48.375    20721151.280   108890383.399 8      2457.954          49.000    20721156.900    84849669.403 8      1915.289          49.250    20721157.220    84849669.402 8      1915.289          49.812
R16  19064209.840   101837578.831 8      3146.462          49.125    19064209.520   101837578.822 8      3146.462          48.125    19064217.380    79207041.089 8      2447.248          50.875    19064217.480    79207040.088 8      2447.248          51.437
G16  20309172.580   106725417.555 7      2428.695          46.937    20309171.220   106725417.565 6      2428.695          40.250    20309174.020    83162668.120 6      1892.490          39.750
R18  20132989.920   107471257.817 7       510.820          47.562    20132989.680   107471257.809 7       510.820          47.437    20132997.400    83588789.509 8       397.304          50.187    20132997.520    83588790.509 8       397.304          49.937
G26  21494851.700   112956196.031 7       416.958          47.375    21494850.700   112956196.035 7       416.958          47.000    21494857.760    88017840.694 7       324.903          47.000    21494858.300    88017843.696 8       324.903          48.312
R15  20824071.360   111277513.423 8      -691.161          48.312    20824071.300   111277513.430 7      -691.161          46.625    20824081.800    86549214.589 8      -537.570          48.812    20824081.720    86549216.587 8      -537.570          49.375
G18  25129392.780   132055837.464 5      -782.105          35.812    25129392.260   132055837.461 3      -782.105          20.187    25129398.800   102900680.840 3      -609.433          20.875    25129398.440   102900684.847 6      -609.433          41.000
G10  22336760.160   117380464.476 7      3870.025          46.687    22336759.820   117380464.484 7      3870.025          45.437    22336766.600    91465326.709 7      3015.604          45.687    22336766.720    91465325.714 7      3015.604          47.562
G23  23005185.220   120893061.081 7      2018.388          44.250    23005185.200   120893061.086 5      2018.388          33.312    23005190.100    94202403.859 5      1572.770          33.000    23005190.840    94202405.857 7      1572.770          47.312
R09  22124472.480   118143408.511 7      6463.548          43.062    22124472.220   118143408.520 7      6463.548          42.875    22124479.900    91889381.981 7      5027.204          45.687    22124480.120    91889382.985 7      5027.204          45.875
R17  23292333.720   124641975.779 6      -709.608          40.937    23292333.560   124641975.791 6      -709.608          40.500    23292344.820    96943806.322 7      -551.917          42.687    23292344.940    96943804.314 7      -551.917          42.625
> 2024 05 06 11 55 32.0000000  0 13
G08  21776121.900   114434291.896 7      3944.972          45.062    21776121.320   114434291.893 5      3944.972          35.375    21776127.180    89169598.102 5      3074.004          35.312    21776128.120    89169602.119 8      3074.004          48.312
G21  21821284.780   114671636.377 7      5184.365          43.812    21821282.560   114671636.382 5      5184.365          31.687    21821289.100    89354532.239 5      4039.765          31.937
G27  20720685.020   108887925.128 7      2458.431          47.312    20720683.400   108887925.130 8      2458.431          48.500    20720689.100    84847753.873 8      1915.660          48.562    20720689.480    84847753.874 8      1915.660          50.437
R16  19063620.800   101834432.384 8      3146.285          48.625    19063620.400   101834432.380 7      3146.285          47.937    19063628.380    79204593.861 8      2447.111          52.000    19063628.260    79204592.860 8      2447.111          51.562
G16  20308710.460   106722988.862 7      2428.716          46.250    20308709.200   106722988.867 6      2428.716          39.875    20308711.820    83160775.631 6      1892.506          39.312
R18  20132894.200   107470746.753 7       511.229          47.937    20132894.040   107470746.751 7       511.229          47.812    20132901.620    83588392.021 8       397.622          50.062    20132901.580    83588393.025 8       397.622          50.000
G26  21494772.440   112955778.875 7       417.234          47.437    21494771.380   112955778.880 7       417.234          46.937    21494778.400    88017515.640 7       325.117          47.375    21494778.860    88017518.637 8       325.117          48.750
R15  20824200.980   111278204.542 7      -691.055          47.187    20824200.780   111278204.535 7      -691.055          46.875    20824211.120    86549752.118 8      -537.487          48.750    20824210.800    86549754.120 8      -537.487          48.750
G18  25129541.380   132056619.292 5      -781.647          35.875    25129540.980   132056619.287 3      -781.647          20.187    25129547.760   102901290.055 3      -609.076          20.000    25129547.140   102901294.070 6      -609.076          41.000
G10  22336023.720   117376594.413 7      3870.064          46.500    22336023.240   117376594.424 7      3870.064          45.625    22336030.140    91462311.079 7      3015.635          45.437    22336030.140    91462310.087 7      3015.635          47.562
G23  23004801.280   120891042.777 7      2018.299          44.250    23004801.020   120891042.785 5      2018.299          33.375    23004805.940    94200831.159 5      1572.701          33.375    23004806.500    94200833.161 7      1572.701          47.625
R09  22123261.620   118136944.810 7      6463.839          43.062    22123261.700   118136944.819 7      6463.839          42.312    22123269.380    91884354.667 7      5027.430          44.875    22123269.720    91884355.671 7      5027.430          45.750
R17  23292466.360   124642685.183 6      -709.096          40.187    23292465.740   124642685.195 6      -709.096          40.500    23292477.500    96944358.084 7      -551.519          42.250    23292477.120    96944356.083 7      -551.519          42.625
> 2024 05 06 11 55 33.0000000  0 13
G08  21775371.200   114430347.007 7      3944.813          45.250    21775370.760   114430347.004 5      3944.813          35.375    21775376.460    89166524.170 5      3073.880          35.312    21775377.480    89166528.188 8      3073.880          48.500
G21  21820298.340   114666452.314 7      5183.811          43.312    21820296.100   114666452.324 5      5183.811          31.687    21820302.620    89350492.721 5      4039.333          31.812
G27  20720217.400   108885466.896 7      2458.186          47.687    20720215.680   108885466.901 8      2458.186          49.062    20720221.320    84845838.372 8      1915.470          48.750    20720221.700    84845838.372 8      1915.470          49.875
R16  19063031.980   101831286.664 7      3145.351          47.812    19063031.460   101831286.665 8      3145.351          48.187    19063039.540    79202147.195 8      2446.384          51.375    19063039.440    79202146.197 8      2446.384          51.187
G16  20308248.140   106720560.481 7      2428.193          47.000    20308247.100   106720560.491 6      2428.193          40.687    20308249.600    83158883.389 6      1892.098          39.750
R18  20132798.460   107470235.825 8       510.904          48.125    20132798.260   107470235.823 7       510.904          47.937    20132805.980    83587994.635 8       397.370          50.250    20132805.960    83587995.641 8       397.370          50.562
G26  21494692.720   112955361.965 7       416.945          47.250    21494692.040   112955361.969 7       416.945          47.187    21494698.960    88017190.776 7       324.892          46.750    21494699.700    88017193.770 8       324.892          48.750
R15  20824330.120   111278896.046 7      -691.708          47.875    20824330.140   111278896.050 7      -691.708          46.375    20824340.320    86550289.960 8      -537.995          48.875    20824340.500    86550291.962 8      -537.995          48.437
G18  25129689.700   132057400.966 5      -781.424          35.875    25129689.620   132057400.958 3      -781.424          20.187    25129696.420   102901899.153 3      -608.902          20.000    25129696.780   102901903.148 6      -608.902          41.187
G10  22335287.280   117372724.676 7      3869.540          46.312    22335286.860   117372724.681 7      3869.540          46.062    22335293.740    91459295.704 7      3015.226          45.500    22335293.800    91459294.711 7      3015.226          47.562
G23  23004417.120   120889024.920 7      2017.708          44.375    23004416.960   120889024.922 5      2017.708          33.375    23004422.020    94199258.802 5      1572.240          33.375    23004422.400    94199260.803 7      1572.240          47.687
R09  22122051.120   118130481.248 7      6463.502          43.187    22122051.040   118130481.252 7      6463.502          42.437    22122059.180    91879327.452 7      5027.168          45.375    22122059.460    91879328.458 7      5027.168          45.875
R17  23292598.340   124643394.294 6      -709.007          40.187    23292598.300   124643394.315 6      -709.007          40.500    23292610.040    96944909.622 7      -551.450          42.687    23292609.860    96944907.616 7      -551.450          42.562
> 2024 05 06 11 55 34.0000000  0 13
G08  21774620.520   114426401.936 7      3945.150          45.187    21774619.960   114426401.933 5      3945.150          35.187    21774625.640    89163450.096 5      3074.143          34.937    21774626.660    89163454.103 8      3074.143          48.250
G21  21819311.980   114661268.408 7      5183.753          44.000    21819309.640   114661268.415 5      5183.753          31.687    21819316.180    89346453.324 5      4039.288          31.812
G27  20719749.320   108883008.519 8      2458.353          48.062    20719747.840   108883008.522 8      2458.353          48.500    20719753.460    84843922.758 8      1915.600          48.812    20719753.860    84843922.758 8      1915.600          50.187
R16  19062442.920   101828141.501 8      3144.776          48.875    19062442.680   101828141.500 8      3144.776          48.125    19062450.800    79199700.958 8      2445.937          51.062    19062450.760    79199699.959 8      2445.937          51.437
G16  20307786.380   106718132.237 7      2428.109          46.687    20307784.920   106718132.244 6      2428.109          40.250    20307787.580    83156991.254 6      1892.033          39.750
R18  20132702.440   107469724.830 8       510.966          48.125    20132702.600   107469724.828 7       510.966          47.875    20132710.180    83587597.195 8       397.418          50.500    20132710.220    83587598.203 8       397.418          50.437
G26  21494613.780   112954945.164 7       416.680          47.000    21494612.760   112954945.169 7       416.680          46.937    21494619.800    88016865.993 7       324.686          47.062    21494620.260    88016868.992 8       324.686          48.687
R15  20824459.700   111279587.764 7      -691.877          47.187    20824459.700   111279587.762 7      -691.877          46.937    20824469.760    86550827.957 8      -538.126          49.062    20824469.760    86550829.961 8      -538.126          49.125
G18  25129838.640   132058182.319 5      -781.180          35.875    25129838.240   132058182.308 3      -781.180          20.187    25129845.040   102902507.998 3      -608.712          20.000    25129845.360   102902511.996 6      -608.712          41.187
G10  22334550.960   117368855.097 7      3869.416          46.500    22334550.620   117368855.099 7      3869.416          45.562    22334557.480    91456280.451 7      3015.129          45.562    22334557.620    91456279.462 7      3015.129          47.500
G23  23004033.240   120887007.328 7      2017.375          44.562    23004033.000   120887007.330 5      2017.375          33.500    23004038.180    94197686.657 5      1571.981          33.562    23004038.480    94197688.661 7      1571.981          47.625
R09  22120840.600   118124017.644 7      6463.412          43.062    22120840.940   118124017.655 7      6463.412          42.437    22120848.540    91874300.219 7      5027.098          45.250    22120848.920    91874301.222 7      5027.098          46.125
R17  23292730.780   124644102.992 6      -708.525          40.187    23292730.880   124644102.993 6      -708.525          40.125    23292742.880    96945460.818 7      -551.075          42.687    23292742.180    96945458.817 7      -551.075          42.750
> 2024 05 06 11 55 35.0000000  0 13
G08  21773869.740   114422456.952 7      3944.775          45.250    21773869.200   114422456.952 5      3944.775          35.187    21773874.760    89160376.086 5      3073.850          34.875    21773876.100    89160380.097 8      3073.850          48.187
G21  21818325.240   114656084.912 7      5183.149          44.187    21818323.260   114656084.919 5      5183.149          31.625    21818329.780    89342414.244 5      4038.817          31.687
G27  20719281.420   108880550.251 7      2458.064          47.687    20719280.180   108880550.258 8      2458.064          48.812    20719285.560    84842007.228 8      1915.374          49.187    20719285.780    84842007.230 8      1915.374          49.625
R16  19061854.240   101824997.148 8      3143.827          48.437    19061854.080   101824997.146 7      3143.827          47.125    19061862.080    79197255.352 8      2445.199          51.062    19061862.260    79197254.358 8      2445.199          51.437
G16  20307324.560   106715704.434 7      2427.410          46.437    20307323.000   106715704.444 6      2427.410          40.125    20307325.660    83155099.466 6      1891.489          39.437
R18  20132606.860   107469214.076 8       510.477          48.375    20132607.020   107469214.071 7       510.477          47.750    20132614.560    83587199.935 8       397.038          50.437    20132614.520    83587200.943 8       397.038          50.250
G26  21494534.480   112954528.671 7       416.239          47.250    21494533.460   112954528.678 7       416.239          46.812    21494540.620    88016541.455 7       324.342          46.625    21494541.020    88016544.454 8       324.342          48.437
R15  20824589.280   111280279.951 7      -692.566          47.187    20824588.920   111280279.950 7      -692.566          46.562    20824599.120    86551366.321 8      -538.663          48.375    20824599.220    86551368.329 7      -538.663          47.812
G18  25129988.160   132058963.608 5      -781.396          35.687    25129986.860   132058963.600 3      -781.396          20.187    25129993.760   102903116.799 3      -608.880          20.000    25129993.680   102903120.812 6      -608.880          41.375
G10  22333814.660   117364985.951 7      3868.728          46.125    22333814.280   117364985.961 7      3868.728          45.062    22333821.160    91453265.540 7      3014.593          45.125    22333821.540    91453264.550 7      3014.593          46.687
G23  23003649.500   120884990.277 7      2016.671          43.500    23003649.200   120884990.279 5      2016.671          33.500    23003654.320    94196114.929 5      1571.432          33.562    23003654.320    94196116.933 7      1571.432          46.875
R09  22119630.300   118117554.271 7      6463.199          42.875    22119630.440   118117554.278 7      6463.199          42.500    22119638.420    91869273.153 7      5026.932          45.187    22119638.540    91869274.155 7      5026.932          45.937
R17  23292862.980   124644811.413 6      -708.277          40.375    23292862.720   124644811.423 6      -708.277          40.125    23292875.120    96946011.823 7      -550.882          42.812    23292874.860    96946009.822 7      -550.882          42.937
> 2024 05 06 11 55 36.0000000  0 13
G08  21773119.400   114418511.839 7      3945.182          46.687    21773118.440   114418511.839 5      3945.182          35.437    21773124.160    89157301.976 5      3074.168          35.437    21773125.340    89157305.994 8      3074.168          48.375
G21  21817338.860   114650901.639 7      5183.195          44.375    21817336.680   114650901.644 5      5183.195          31.625    21817343.540    89338375.341 5      4038.853          31.687
G27  20718813.760   108878091.906 7      2458.395          47.750    20718812.260   108878091.913 8      2458.395          48.937    20718817.800    84840091.639 8      1915.632          49.375    20718818.000    84840091.641 8      1915.632          50.250
R16  19061266.100   101821853.391 8      3143.434          48.500    19061265.540   101821853.394 8      3143.434          48.125    19061273.400    79194810.220 8      2444.893          51.312    19061273.400    79194809.221 8      2444.893          51.375
G16  20306862.560   106713276.820 7      2427.461          46.937    20306861.060   106713276.831 6      2427.461          40.375    20306863.620    83153207.821 6      1891.528          39.937
R18  20132510.980   107468703.330 8       510.680          48.500    20132511.440   107468703.336 8       510.680          48.125    20132518.920    83586802.705 8       397.195          49.750    20132519.280    83586803.710 8       397.195          50.437
G26  21494455.140   112954112.354 7       416.201          46.750    21494454.220   112954112.353 7       416.201          46.937    21494461.300    88016217.045 7       324.313          46.625    21494461.720    88016220.049 8       324.313          48.625
R15  20824719.060   111280972.425 7      -692.701          47.125    20824718.300   111280972.423 7      -692.701          46.250    20824728.940    86551904.915 8      -538.768          48.562    20824729.000    86551906.926 8      -538.768          48.312
G18  25130136.200   132059744.670 5      -780.923          35.687    25130135.660   132059744.659 3      -780.923          20.187    25130142.220   102903725.420 3      -608.511          20.000    25130142.360   102903729.425 6      -608.511          41.375
G10  22333078.640   117361117.012 7      3868.770          46.250    22333078.060   117361117.020 7      3868.770          45.312    22333084.800    91450250.789 7      3014.626          45.250    22333085.220    91450249.799 7      3014.626          46.750
G23  23003265.620   120882973.557 7      2016.497          44.125    23003265.360   120882973.560 5      2016.497          33.000    23003270.680    94194543.465 5      1571.297          33.000    23003271.020    94194545.476 7      1571.297          47.312
R09  22118420.220   118111090.950 7      6463.268          43.000    22118420.580   118111090.956 7      6463.268          42.625    22118427.800    91864246.136 7      5026.986          45.375    22118427.860    91864247.142 7      5026.986          45.875
R17  23292995.280   124645519.514 6      -707.957          40.375    23292995.120   124645519.520 6      -707.957          40.125    23293007.780    96946562.570 7      -550.633          43.187    23293006.940    96946560.562 7      -550.633          42.750
> 2024 05 06 11 55 37.0000000  0 13
G08  21772368.520   114414566.750 7      3944.981          45.500    21772367.700   114414566.750 5      3944.981          35.437    21772373.560    89154227.887 5      3074.011          35.437    21772374.860    89154231.890 8      3074.011          48.312
G21  21816352.640   114645718.723 7      5182.579          44.437    21816350.460   114645718.728 5      5182.579          31.625    21816357.220    89334336.716 5      4038.374          31.687
G27  20718345.880   108875633.616 8      2458.212          48.000    20718344.460   108875633.629 8      2458.212          48.687    20718350.000    84838176.090 8      1915.490          48.750    20718350.280    84838176.094 8      1915.490          50.562
R16  19060677.680   101818710.373 8      3142.628          48.437    19060677.340   101818710.369 8      3142.628          48.187    19060685.100    79192365.644 8      2444.266          50.875    19060685.140    79192364.648 8      2444.266          51.375
G16  20306400.560   106710849.575 7      2426.982          46.687    20306399.180   106710849.582 6      2426.982          40.687    20306401.660    83151316.461 6      1891.155          40.375
R18  20132415.820   107468192.773 7       510.302          47.125    20132415.780   107468192.776 7       510.302          47.937    20132423.220    83586405.605 8       396.901          50.187    20132423.160    83586406.608 8       396.901          50.625
G26  21494375.800   112953696.286 7       415.740          46.687    21494375.100   112953696.294 7       415.740          46.875    21494382.140    88015892.847 7       323.953          46.687    21494382.420    88015895.849 8       323.953          48.437
R15  20824848.720   111281665.313 7      -693.199          47.062    20824847.740   111281665.306 7      -693.199          46.375    20824858.680    86552443.818 8      -539.155          48.687    20824858.620    86552445.830 8      -539.155          49.125
G18  25130284.920   132060525.578 6      -780.833          36.125    25130284.240   132060525.573 3      -780.833          20.187    25130290.800   102904333.922 3      -608.441          20.000    25130290.700   102904337.938 6      -608.441          41.437
G10  22332342.620   117357248.447 7      3868.260          45.625    22332341.780   117357248.452 7      3868.260          45.312    22332348.620    91447236.329 7      3014.228          45.375    22332348.740    91447235.332 7      3014.228          46.875
G23  23002882.040   120880957.329 7      2015.845          43.687    23002881.580   120880957.331 5      2015.845          33.000    23002886.940    94192972.384 5      1570.788          33.000    23002887.420    94192974.393 7      1570.788          47.437
