     3.05           OBSERVATION DATA    MIXED               RINEX VERSION / TYPE
TPS2RIN 1.0.29.3920 TPS-USER            20240511 185459 UTC PGM / RUN BY / DATE
Win64 build Feb 23, 2024 (c) Topcon Positioning Systems     COMMENT
SRC: 20240506_GUI06.tps                                     COMMENT
OPT: -S -v 3.05                                             COMMENT
Observer            Agency                                  OBSERVER / AGENCY
O0M3X53SBGM         TPS HIPER_SR        4.8 HSR Jul,08,2022 REC # / TYPE / VERS
FW: 4.8 HSR Jul,08,2022 p3                                  COMMENT
SN: HiPer SR 1212-12575                                     COMMENT
000                 TPSHIPER_SR     NONE                    ANT # / TYPE
        1.8000        0.0000        0.0000                  ANTENNA: DELTA H/E/N
DELTA H stands for **SLANT** height here!                   COMMENT
GUI06                                                       MARKER NAME
  5389245.1125 -1591663.5577  3009607.8191                  APPROX POSITION XYZ
  2024     5     6    16    42   44.0000000     GPS         TIME OF FIRST OBS
  2024     5     6    16    58   29.0000000     GPS         TIME OF LAST OBS
     1.000                                                  INTERVAL
   946 EPOCHS                                               COMMENT
G   16 C1C L1C D1C S1C C1W L1W D1W S1W C2W L2W D2W S2W C2X  SYS / # / OBS TYPES
       L2X D2X S2X                                          SYS / # / OBS TYPES
R   16 C1C L1C D1C S1C C1P L1P D1P S1P C2P L2P D2P S2P C2C  SYS / # / OBS TYPES
       L2C D2C S2C                                          SYS / # / OBS TYPES
    11                                                      # OF SATELLITES
   G02   946   946   946   946   946   946   946   946   946PRN / # OF OBS
         946   946   946     0     0     0     0            PRN / # OF OBS
   G03   946   946   946   946   946   946   946   946   946PRN / # OF OBS
         946   946   946   946   946   946   946            PRN / # OF OBS
   G04   946   946   946   946   946   946   946   946   946PRN / # OF OBS
         946   946   946   946   946   946   946            PRN / # OF OBS
   G08   946   946   946   946   946   946   946   946   946PRN / # OF OBS
         946   946   946   946   946   946   946            PRN / # OF OBS
   G09   332   332   332   332   328   328   328   328   328PRN / # OF OBS
         328   328   328   323   323   323   323            PRN / # OF OBS
   G14   946   946   946   946   946   946   946   946   946PRN / # OF OBS
         946   946   946   946   946   946   946            PRN / # OF OBS
   G17   946   946   946   946   946   946   946   946   946PRN / # OF OBS
         946   946   946   946   946   946   946            PRN / # OF OBS
   G21   946   946   946   946   946   946   946   946   946PRN / # OF OBS
         946   946   946     0     0     0     0            PRN / # OF OBS
   R05   946   946   946   946   946   946   946   946   946PRN / # OF OBS
         946   946   946   946   946   946   946            PRN / # OF OBS
   R06   946   946   946   946   946   946   946   946     0PRN / # OF OBS
           0     0     0     0     0     0     0            PRN / # OF OBS
   R21   946   946   946   946   946   946   946   946   946PRN / # OF OBS
         946   946   946   946   946   946   946            PRN / # OF OBS
G L1C                                                       SYS / PHASE SHIFT
G L1W -0.25000                                              SYS / PHASE SHIFT
G L2W  0.00000                                              SYS / PHASE SHIFT
G L2X  0.25000                                              SYS / PHASE SHIFT
R L1C                                                       SYS / PHASE SHIFT
R L1P -0.25000                                              SYS / PHASE SHIFT
R L2P -0.25000                                              SYS / PHASE SHIFT
R L2C                                                       SYS / PHASE SHIFT
  3 R05  1 R06 -4 R21  4                                    GLONASS SLOT / FRQ #
                                                            GLONASS COD/PHS/BIS
    18    18  1929     7GPS                                 LEAP SECONDS
                                                            END OF HEADER
> 2024 05 06 16 42 44.0000000  0 10
G02  22148228.200   116389654.106 7      1835.817          47.500    22148226.020   116389654.116 6      1835.817          38.062    22148229.720    90693283.079 6      1430.507          37.875
G08  23606402.260   124052476.151 7      -647.420          44.312    23606401.720   124052476.148 6      -647.420          39.937    23606421.240    96664338.070 6      -504.483          39.875    23606422.120    96664341.065 7      -504.483          44.500
G21  23016122.580   120950422.224 7      1189.584          44.750    23016120.180   120950422.237 5      1189.584          32.750    23016126.780    94247188.550 5       926.949          32.875
R06  19964430.540   106534022.909 6      4982.447          37.625    19964430.080   106534022.913 6      4982.447          36.687
G17  22195526.880   116638292.065 7      5082.969          45.187    22195524.320   116638292.065 5      5082.969          35.625    22195528.720    90886982.490 5      3960.755          35.375    22195529.660    90886990.478 7      3960.755          45.687
G03  20261489.960   106474864.014 8      1599.866          49.562    20261489.540   106474864.019 8      1599.866          50.250    20261495.080    82967417.924 8      1246.649          50.875    20261495.520    82967445.921 8      1246.649          51.000
G04  22044889.060   115846685.743 7      5072.148          44.625    22044887.860   115846685.755 5      5072.148          35.500    22044898.660    90270184.686 5      3952.323          35.062    22044898.920    90270194.692 8      3952.323          49.437
R05  20630185.000   110280161.594 8        97.576          50.500    20630185.980   110280161.600 8        97.576          48.562    20630194.220    85773498.860 8        75.893          50.000    20630193.780    85773496.854 8        75.893          50.250
G14  22430694.440   117874149.953 7      1341.188          46.125    22430693.280   117874149.966 5      1341.188          34.187    22430701.940    91849954.521 5      1045.081          33.687    22430702.520    91850018.515 7      1045.081          47.750
R21  21618192.180   115683325.036 7      4963.556          46.875    21618192.660   115683325.056 7      4963.556          45.812    21618203.040    89975956.338 8      3860.544          48.500    21618202.860    89975956.346 8      3860.544          48.312
> 2024 05 06 16 42 45.0000000  0 10
G02  22147878.840   116387818.369 7      1835.929          46.062    22147876.500   116387818.380 6      1835.929          38.250    22147880.300    90691852.629 6      1430.594          38.250
G08  23606525.660   124053123.716 7      -647.464          43.437    23606525.140   124053123.715 6      -647.464          40.125    23606544.560    96664842.641 6      -504.518          40.000    23606545.240    96664845.637 7      -504.518          45.000
G21  23015896.360   120949232.628 7      1189.809          44.937    23015893.900   120949232.641 5      1189.809          33.062    23015900.600    94246261.591 5       927.124          33.000
R06  19963497.060   106529040.712 6      4982.100          37.625    19963497.240   106529040.708 6      4982.100          36.687
G17  22194559.680   116633209.174 7      5082.934          44.250    22194556.940   116633209.174 5      5082.934          35.625    22194561.900    90883021.802 5      3960.728          35.312    22194562.740    90883029.798 7      3960.728          45.500
G03  20261185.540   106473264.284 8      1599.681          48.937    20261185.180   106473264.289 8      1599.681          50.312    20261190.600    82966171.383 8      1246.505          50.687    20261191.220    82966199.384 8      1246.505          51.125
G04  22043923.860   115841613.816 7      5071.983          44.625    22043922.660   115841613.832 5      5071.983          35.500    22043933.440    90266232.542 5      3952.195          35.437    22043933.920    90266242.554 8      3952.195          49.812
R05  20630166.920   110280064.433 8        97.064          49.750    20630167.580   110280064.439 8        97.064          48.625    20630176.120    85773423.288 8        75.494          50.000    20630175.800    85773421.284 8        75.494          50.500
G14  22430439.140   117872809.083 7      1340.872          45.375    22430438.200   117872809.093 5      1340.872          34.187    22430446.740    91848909.685 5      1044.835          33.687    22430447.900    91848973.685 7      1044.835          47.812
R21  21617264.820   115678361.537 7      4963.700          46.937    21617265.360   115678361.546 7      4963.700          46.062    21617275.220    89972095.834 8      3860.656          48.625    21617275.140    89972095.838 7      3860.656          47.875
> 2024 05 06 16 42 46.0000000  0 10
G02  22147529.640   116385982.426 7      1835.868          46.312    22147527.340   116385982.430 6      1835.868          38.062    22147530.920    90690422.018 6      1430.547          37.812
G08  23606649.040   124053771.197 7      -647.640          44.500    23606648.560   124053771.202 6      -647.640          40.375    23606667.800    96665347.153 6      -504.654          40.312    23606668.360    96665350.142 7      -504.654          44.562
G21  23015670.060   120948042.799 7      1189.693          44.750    23015667.680   120948042.812 5      1189.693          33.062    23015674.040    94245334.449 5       927.034          33.000
R06  19962563.800   106524058.967 6      4981.329          37.625    19962563.640   106524058.975 6      4981.329          37.062
G17  22193592.720   116628126.215 7      5082.829          45.312    22193589.520   116628126.212 5      5082.829          35.375    22193594.880    90879061.059 5      3960.646          35.250    22193595.480    90879069.054 7      3960.646          46.312
G03  20260881.240   106471664.717 8      1599.295          49.000    20260880.700   106471664.725 8      1599.295          50.562    20260886.260    82964924.969 8      1246.204          50.812    20260886.880    82964952.968 8      1246.204          50.937
G04  22042958.960   115836541.932 7      5071.708          44.750    22042957.520   115836541.945 5      5071.708          35.500    22042968.420    90262280.434 5      3951.980          35.250    22042968.740    90262290.444 8      3951.980          49.812
R05  20630148.780   110279967.635 8        96.358          50.000    20630149.520   110279967.644 8        96.358          49.062    20630158.120    85773348.001 8        74.945          50.312    20630157.640    85773346.000 8        74.945          50.812
G14  22430183.960   117871468.387 7      1340.473          45.125    22430183.020   117871468.397 5      1340.473          34.000    22430191.760    91847864.983 5      1044.524          33.812    22430192.260    91847928.991 8      1044.524          48.062
R21  21616337.120   115673397.767 7      4963.680          46.812    21616337.420   115673397.777 7      4963.680          46.062    21616347.640    89968235.128 8      3860.640          49.375    21616347.840    89968235.129 8      3860.640          48.687
> 2024 05 06 16 42 47.0000000  0 10
G02  22147180.380   116384146.626 7      1835.597          46.375    22147178.060   116384146.634 6      1835.597          37.687    22147181.580    90688991.523 6      1430.335          38.000
G08  23606772.160   124054418.969 7      -648.071          43.625    23606771.940   124054418.977 6      -648.071          40.375    23606791.060    96665851.892 6      -504.990          39.937    23606792.080    96665854.878 7      -504.990          44.562
G21  23015443.340   120946853.054 7      1189.590          45.437    23015441.000   120946853.064 5      1189.590          32.875    23015447.640    94244407.377 5       926.953          33.000
R06  19961630.540   106519078.035 6      4980.318          38.812    19961629.600   106519078.043 6      4980.318          37.062
G17  22192625.480   116623043.563 7      5082.348          43.875    22192622.660   116623043.557 5      5082.348          35.812    22192627.780    90875100.555 5      3960.271          35.250    22192628.100    90875108.554 7      3960.271          46.375
G03  20260577.000   106470065.662 8      1598.697          49.812    20260576.500   106470065.667 8      1598.697          50.250    20260581.920    82963678.955 8      1245.738          51.125    20260582.840    82963706.953 8      1245.738          51.500
G04  22041993.720   115831470.437 7      5071.131          44.937    22041992.600   115831470.447 5      5071.131          35.312    22042003.380    90258328.626 5      3951.531          35.250    22042003.540    90258338.640 8      3951.531          49.687
R05  20630130.660   110279871.567 8        95.576          49.437    20630131.500   110279871.576 8        95.576          48.812    20630140.020    85773273.283 8        74.337          49.875    20630139.480    85773271.282 8        74.337          50.062
G14  22429928.880   117870128.266 7      1339.655          45.250    22429928.040   117870128.274 5      1339.655          34.125    22429936.760    91846820.729 5      1043.887          33.812    22429937.000    91846884.735 7      1043.887          47.937
R21  21615409.660   115668434.072 7      4963.546          45.187    21615410.080   115668434.093 7      4963.546          46.250    21615420.000    89964374.487 8      3860.536          48.625    21615419.920    89964374.488 8      3860.536          48.312
> 2024 05 06 16 42 48.0000000  0 10
G02  22146831.000   116382311.034 7      1835.549          46.625    22146828.800   116382311.039 6      1835.549          37.937    22146832.280    90687561.191 6      1430.298          38.062
G08  23606895.640   124055067.067 7      -648.283          43.750    23606895.340   124055067.070 6      -648.283          40.312    23606914.480    96666356.875 6      -505.156          40.375    23606915.400    96666359.861 7      -505.156          44.750
G21  23015216.900   120945663.479 7      1189.523          45.312    23015214.540   120945663.489 5      1189.523          32.875    23015221.360    94243480.431 5       926.901          32.875
R06  19960696.340   106514097.927 6      4979.813          38.812    19960697.380   106514097.923 6      4979.813          37.062
G17  22191658.220   116617961.218 7      5082.217          44.875    22191655.620   116617961.210 6      5082.217          36.562    22191660.800    90871140.293 6      3960.169          36.062    22191661.180    90871148.292 7      3960.169          46.562
G03  20260272.800   106468467.181 8      1598.230          49.875    20260272.420   106468467.180 8      1598.230          51.000    20260277.720    82962433.380 8      1245.374          51.187    20260278.440    82962461.381 8      1245.374          51.250
G04  22041028.740   115826399.377 7      5070.870          44.062    22041027.540   115826399.390 5      5070.870          35.625    22041038.220    90254377.163 5      3951.328          35.250    22041038.680    90254387.179 8      3951.328          49.562
R05  20630112.800   110279776.333 8        94.811          50.125    20630113.780   110279776.345 8        94.811          49.000    20630122.260    85773199.217 8        73.742          49.875    20630121.600    85773197.211 8        73.742          49.687
G14  22429674.240   117868788.721 7      1339.225          45.750    22429673.120   117868788.731 5      1339.225          34.125    22429681.800    91845776.927 5      1043.552          33.812    22429681.900    91845840.930 7      1043.552          47.937
R21  21614482.420   115663470.495 7      4963.569          46.875    21614482.320   115663470.516 7      4963.569          46.437    21614492.280    89960513.934 8      3860.554          49.062    21614492.520    89960513.936 8      3860.554          48.375
> 2024 05 06 16 42 49.0000000  0 10
G02  22146481.580   116380475.479 7      1835.535          46.937    22146479.540   116380475.484 6      1835.535          38.125    22146482.880    90686130.885 6      1430.287          38.062
G08  23607019.020   124055715.305 7      -648.394          44.187    23607018.760   124055715.307 6      -648.394          39.687    23607037.820    96666861.969 6      -505.242          39.875    23607038.900    96666864.964 7      -505.242          44.500
G21  23014990.720   120944473.899 7      1189.606          43.937    23014987.980   120944473.910 5      1189.606          32.500    23014994.920    94242553.486 5       926.965          32.875
R06  19959764.040   106509118.497 6      4979.066          38.812    19959763.360   106509118.514 6      4979.066          37.062
G17  22190691.000   116612879.071 7      5082.009          45.250    22190688.960   116612879.063 6      5082.009          36.750    22190693.860    90867180.182 6      3960.007          36.250    22190694.260    90867188.173 7      3960.007          46.687
G03  20259968.900   106466869.069 8      1597.874          49.687    20259968.260   106466869.074 8      1597.874          50.187    20259973.640    82961188.105 8      1245.096          50.875    20259974.360    82961216.112 8      1245.096          51.187
G04  22040064.060   115821328.610 7      5070.617          44.750    22040062.680   115821328.617 5      5070.617          35.687    22040073.260    90250425.922 5      3951.130          35.562    22040073.340    90250435.938 8      3951.130          49.250
R05  20630095.280   110279681.756 8        94.196          49.500    20630096.000   110279681.763 8        94.196          49.250    20630104.540    85773125.653 8        73.264          49.937    20630103.940    85773123.647 8        73.264          49.750
G14  22429419.440   117867449.612 7      1338.750          45.000    22429418.280   117867449.619 5      1338.750          34.000    22429426.700    91844733.459 5      1043.182          33.812    22429426.940    91844797.460 7      1043.182          47.375
R21  21613554.280   115658506.830 7      4963.649          46.312    21613554.360   115658506.842 7      4963.649          46.062    21613564.900    89956653.303 8      3860.616          48.812    21613565.100    89956653.303 8      3860.616          48.625
> 2024 05 06 16 42 50.0000000  0 10
G02  22146132.500   116378640.106 7      1835.417          47.375    22146130.220   116378640.113 6      1835.417          37.812    22146133.720    90684700.721 6      1430.195          37.812
G08  23607142.640   124056363.863 7      -648.583          44.250    23607142.280   124056363.865 6      -648.583          40.250    23607161.380    96667367.318 6      -505.389          40.312    23607162.320    96667370.312 7      -505.389          44.125
G21  23014764.500   120943284.488 7      1189.477          44.562    23014761.580   120943284.501 5      1189.477          32.500    23014768.780    94241626.672 5       926.865          32.750
R06  19958831.140   106504139.916 6      4978.311          39.375    19958830.660   106504139.925 6      4978.311          37.062
G17  22189724.000   116607797.220 7      5081.727          45.500    22189722.320   116607797.210 6      5081.727          37.437    22189726.940    90863220.304 6      3959.788          36.812    22189727.600    90863228.302 7      3959.788          47.125
G03  20259664.960   106465271.512 8      1597.431          49.437    20259664.240   106465271.517 8      1597.431          50.625    20259669.660    82959943.255 8      1244.751          50.750    20259670.220    82959971.258 8      1244.751          51.562
G04  22039098.880   115816258.268 7      5070.230          45.500    22039097.840   115816258.275 5      5070.230          35.875    22039108.480    90246475.014 5      3950.828          35.500    22039108.440    90246485.026 8      3950.828          49.437
R05  20630077.540   110279587.979 8        93.495          50.062    20630078.360   110279587.986 8        93.495          49.000    20630086.980    85773052.713 8        72.719          50.312    20630086.420    85773050.705 8        72.719          49.750
G14  22429164.800   117866111.062 7      1338.338          44.937    22429163.480   117866111.075 5      1338.338          34.000    22429172.060    91843690.434 5      1042.861          33.812    22429172.240    91843754.436 7      1042.861          47.062
R21  21612626.960   115653543.253 7      4963.578          46.500    21612626.760   115653543.268 7      4963.578          45.187    21612637.460    89952792.741 8      3860.561          48.875    21612637.260    89952792.741 8      3860.561          48.375
> 2024 05 06 16 42 51.0000000  0 10
G02  22145783.120   116376804.750 7      1835.349          47.562    22145781.000   116376804.758 6      1835.349          38.125    22145784.340    90683270.574 6      1430.142          38.062
G08  23607266.160   124057012.555 7      -648.804          44.187    23607265.580   124057012.557 6      -648.804          40.625    23607284.860    96667872.768 6      -505.561          40.500    23607285.740    96667875.764 7      -505.561          44.750
G21  23014538.320   120942095.016 7      1189.488          44.062    23014535.140   120942095.023 5      1189.488          32.937    23014542.300    94240699.806 5       926.873          32.750
R06  19957898.280   106499161.975 6      4977.356          39.375    19957897.340   106499161.992 6      4977.356          37.937
G17  22188757.220   116602715.509 7      5081.628          46.000    22188755.760   116602715.498 6      5081.628          37.500    22188759.880    90859260.538 6      3959.710          37.312    22188760.720    90859268.531 7      3959.710          47.062
G03  20259360.820   106463674.320 8      1596.958          49.687    20259360.380   106463674.328 8      1596.958          50.625    20259365.620    82958698.690 8      1244.383          50.937    20259366.540    82958726.691 8      1244.383          51.437
G04  22038134.180   115811188.175 7      5069.940          44.562    22038133.000   115811188.177 5      5069.940          35.875    22038143.560    90242524.299 5      3950.602          35.500    22038143.660    90242534.309 8      3950.602          49.250
R05  20630060.080   110279494.824 8        92.848          48.937    20630060.980   110279494.826 8        92.848          49.250    20630069.420    85772980.251 8        72.215          50.187    20630068.780    85772978.239 8        72.215          50.062
G14  22428909.960   117864772.936 7      1337.843          44.875    22428908.760   117864772.946 5      1337.843          33.562    22428917.180    91842647.736 5      1042.475          33.500    22428917.560    91842711.730 7      1042.475          46.937
R21  21611699.380   115648579.601 7      4963.669          46.000    21611698.860   115648579.611 7      4963.669          45.187    21611710.060    89948932.125 8      3860.632          48.375    21611709.820    89948932.123 8      3860.632          48.062
> 2024 05 06 16 42 52.0000000  0 10
G02  22145433.940   116374969.582 7      1835.178          47.250    22145431.700   116374969.587 6      1835.178          37.812    22145435.020    90681840.575 6      1430.009          37.750
G08  23607389.700   124057661.552 7      -648.953          44.000    23607388.980   124057661.557 6      -648.953          40.000    23607408.300    96668378.459 6      -505.678          40.187    23607409.200    96668381.459 7      -505.678          44.500
G21  23014312.060   120940905.704 7      1189.375          44.125    23014308.760   120940905.706 5      1189.375          32.937    23014315.780    94239773.066 5       926.786          32.687
R06  19956965.240   106494184.813 6      4976.916          39.375    19956964.200   106494184.816 6      4976.916          37.937
G17  22187790.180   116597634.139 7      5081.326          46.500    22187789.420   116597634.123 6      5081.326          38.562    22187793.000    90855301.033 6      3959.474          38.375    22187793.860    90855309.020 7      3959.474          47.812
G03  20259057.080   106462077.685 8      1596.477          50.187    20259056.620   106462077.690 8      1596.477          50.500    20259061.840    82957454.561 8      1244.008          50.437    20259062.460    82957482.562 8      1244.008          50.812
G04  22037169.580   115806118.516 7      5069.486          45.187    22037168.220   115806118.521 5      5069.486          35.500    22037178.740    90238573.928 5      3950.249          35.312    22037179.180    90238583.938 8      3950.249          49.500
R05  20630042.940   110279402.482 8        92.037          49.500    20630043.400   110279402.484 8        92.037          48.500    20630051.960    85772908.434 8        71.584          49.375    20630051.500    85772906.418 8        71.584          49.187
G14  22428655.800   117863435.387 7      1337.357          44.625    22428654.200   117863435.398 5      1337.357          33.250    22428662.700    91841605.484 5      1042.096          33.500    22428662.900    91841669.476 7      1042.096          47.062
R21  21610771.860   115643616.105 7      4963.566          45.625    21610771.440   115643616.111 7      4963.566          45.500    21610782.520    89945071.630 8      3860.551          48.437    21610782.200    89945071.626 8      3860.551          48.000
> 2024 05 06 16 42 53.0000000  0 10
G02  22145084.660   116373134.466 8      1835.239          48.000    22145082.440   116373134.476 6      1835.239          37.687    22145085.840    90680410.616 6      1430.056          38.000
G08  23607513.160   124058310.775 7      -649.264          43.312    23607512.240   124058310.769 6      -649.264          39.625    23607531.660    96668884.319 6      -505.920          39.312    23607532.360    96668887.316 7      -505.920          44.437
G21  23014086.120   120939716.400 7      1189.353          43.875    23014082.380   120939716.408 5      1189.353          32.937    23014089.620    94238846.340 5       926.768          32.687
R06  19956032.520   106489208.374 6      4976.271          39.375    19956031.220   106489208.383 6      4976.271          37.937
G17  22186823.240   116592552.951 7      5081.235          47.312    22186823.100   116592552.932 6      5081.235          38.625    22186826.220    90851341.671 6      3959.404          38.687    22186827.000    90851349.663 7      3959.404          47.312
G03  20258753.300   106460481.458 8      1596.197          49.937    20258752.860   106460481.463 8      1596.197          49.500    20258758.040    82956210.745 8      1243.790          49.750    20258758.520    82956238.746 8      1243.790          50.375
G04  22036204.900   115801049.152 7      5069.341          44.500    22036203.600   115801049.162 5      5069.341          35.250    22036213.980    90234623.790 5      3950.136          35.187    22036214.700    90234633.794 8      3950.136          48.437
R05  20630025.680   110279310.792 8        91.520          48.562    20630026.180   110279310.791 7        91.520          47.937    20630034.780    85772837.121 8        71.182          48.437    20630034.200    85772835.105 8        71.182          49.125
G14  22428401.080   117862098.280 7      1337.064          44.625    22428399.700   117862098.293 5      1337.064          33.250    22428408.380    91840563.582 5      1041.868          33.125    22428408.760    91840627.577 7      1041.868          46.937
R21  21609844.300   115638652.560 7      4963.753          45.062    21609844.000   115638652.564 7      4963.753          45.062    21609855.020    89941211.097 7      3860.697          47.250    21609854.640    89941211.091 7      3860.697          47.562
> 2024 05 06 16 42 54.0000000  0 10
G02  22144735.520   116371299.299 7      1835.052          47.375    22144733.220   116371299.310 6      1835.052          37.750    22144736.740    90678980.615 6      1429.911          37.687
G08  23607636.700   124058960.019 7      -649.488          42.312    23607635.720   124058960.016 6      -649.488          39.312    23607655.180    96669390.201 6      -506.094          39.187    23607656.120    96669393.200 7      -506.094          44.312
G21  23013859.620   120938526.986 7      1189.318          43.187    23013856.160   120938526.991 5      1189.318          32.562    23013863.320    94237919.519 5       926.741          32.687
R06  19955100.320   106484232.527 6      4975.387          38.812    19955099.060   106484232.523 6      4975.387          37.937
G17  22185856.320   116587471.842 7      5080.931          47.687    22185856.620   116587471.823 6      5080.931          39.375    22185859.500    90847382.365 6      3959.167          39.375    22185860.400    90847390.348 7      3959.167          47.937
G03  20258449.480   106458885.535 8      1595.569          49.250    20258449.220   106458885.545 8      1595.569          50.437    20258454.340    82954967.173 8      1243.300          50.625    20258454.640    82954995.174 8      1243.300          51.375
G04  22035240.140   115795979.979 7      5068.957          44.500    22035239.040   115795979.989 5      5068.957          35.500    22035249.280    90230673.793 5      3949.837          35.187    22035249.980    90230683.787 8      3949.837          49.125
R05  20630008.700   110279219.629 8        90.793          49.437    20630008.820   110279219.622 8        90.793          48.437    20630017.600    85772766.208 8        70.617          49.312    20630017.300    85772764.196 8        70.617          49.812
G14  22428146.700   117860761.518 7      1336.458          44.187    22428145.380   117860761.530 5      1336.458          33.187    22428153.920    91839521.943 5      1041.396          33.125    22428154.420    91839585.941 7      1041.396          46.812
R21  21608917.160   115633688.862 7      4963.647          45.062    21608916.180   115633688.880 7      4963.647          44.812    21608927.620    89937350.454 8      3860.614          48.625    21608926.880    89937350.448 8      3860.614          48.375
> 2024 05 06 16 42 55.0000000  0 10
G02  22144386.460   116369464.291 7      1834.964          47.437    22144383.920   116369464.298 6      1834.964          37.562    22144387.520    90677550.736 6      1429.842          38.000
G08  23607760.400   124059609.565 7      -649.699          42.937    23607759.080   124059609.567 6      -649.699          39.625    23607778.940    96669896.320 6      -506.259          39.250    23607779.740    96669899.317 7      -506.259          44.375
G21  23013633.140   120937337.695 7      1189.232          44.000    23013629.720   120937337.700 5      1189.232          32.562    23013637.060    94236992.797 5       926.675          32.687
R06  19954168.180   106479257.452 6      4974.748          38.812    19954166.440   106479257.439 6      4974.748          37.937
G17  22184889.540   116582391.037 8      5080.611          48.312    22184890.060   116582391.021 6      5080.611          39.500    22184892.960    90843423.303 6      3958.917          39.000    22184893.860    90843431.292 8      3958.917          48.437
G03  20258145.820   106457290.148 8      1595.119          50.562    20258145.680   106457290.153 8      1595.119          50.187    20258150.680    82953724.015 8      1242.949          50.500    20258151.120    82953752.011 8      1242.949          50.625
G04  22034275.640   115790911.216 7      5068.597          45.312    22034274.380   115790911.226 5      5068.597          35.687    22034284.680    90226724.114 5      3949.556          35.312    22034285.280    90226734.124 8      3949.556          48.875
R05  20629991.680   110279129.222 8        90.036          49.062    20629991.660   110279129.210 8        90.036          48.500    20630000.500    85772695.894 8        70.028          49.312    20630000.340    85772693.882 8        70.028          49.187
G14  22427892.500   117859425.314 7      1335.946          44.125    22427891.040   117859425.322 5      1335.946          33.187    22427899.600    91838480.740 5      1040.997          33.062    22427899.780    91838544.740 7      1040.997          47.125
R21  21607989.660   115628725.226 7      4963.629          43.625    21607989.280   115628725.244 7      4963.629          45.312    21607999.960    89933489.846 8      3860.600          48.687    21607999.580    89933489.842 8      3860.600          48.125
> 2024 05 06 16 42 56.0000000  0 10
G02  22144037.160   116367629.385 7      1834.810          47.187    22144034.680   116367629.390 6      1834.810          38.312    22144038.460    90676120.937 6      1429.722          38.562
G08  23607883.620   124060259.318 7      -649.937          42.375    23607882.540   124060259.318 6      -649.937          39.250    23607902.720    96670402.599 6      -506.445          39.062    23607903.320    96670405.596 7      -506.445          44.562
G21  23013406.800   120936148.420 7      1189.241          43.812    23013403.400   120936148.425 5      1189.241          32.750    23013410.920    94236066.094 5       926.682          32.750
R06  19953235.880   106474283.073 6      4974.085          38.812    19953234.580   106474283.084 6      4974.085          37.437
G17  22183922.700   116577310.432 8      5080.480          48.187    22183923.560   116577310.416 6      5080.480          39.625    22183926.360    90839464.390 6      3958.816          40.062    22183927.040    90839472.383 8      3958.816          48.312
G03  20257842.460   106455695.179 8      1594.725          50.062    20257842.260   106455695.187 8      1594.725          49.937    20257847.160    82952481.182 8      1242.643          50.500    20257847.820    82952509.178 8      1242.643          50.937
G04  22033311.040   115785842.795 7      5068.160          44.312    22033309.920   115785842.805 5      5068.160          35.687    22033320.260    90222774.705 5      3949.215          35.125    22033320.500    90222784.711 8      3949.215          49.375
R05  20629974.980   110279039.443 8        89.405          49.000    20629974.600   110279039.436 8        89.405          48.125    20629983.480    85772626.074 8        69.537          49.375    20629983.740    85772624.064 8        69.537          49.562
G14  22427638.160   117858089.576 7      1335.534          43.750    22427636.860   117858089.587 5      1335.534          33.562    22427645.360    91837439.905 5      1040.676          33.437    22427645.560    91837503.901 7      1040.676          46.625
R21  21607061.540   115623761.577 7      4963.664          45.750    21607061.640   115623761.592 7      4963.664          45.500    21607072.500    89929629.230 8      3860.628          48.937    21607071.680    89929629.226 8      3860.628          48.937
> 2024 05 06 16 42 57.0000000  0 10
G02  22143687.960   116365794.471 7      1834.985          46.437    22143685.380   116365794.479 6      1834.985          37.562    22143689.180    90674691.134 6      1429.859          37.625
G08  23608007.140   124060909.211 7      -649.860          42.375    23608006.060   124060909.213 6      -649.860          39.500    23608026.360    96670908.978 6      -506.384          39.250    23608027.020    96670911.984 7      -506.384          44.062
G21  23013180.720   120934959.138 7      1189.358          42.750    23013177.100   120934959.142 5      1189.358          32.750    23013184.600    94235139.376 5       926.772          32.750
R06  19952303.380   106469309.398 6      4973.396          38.812    19952301.840   106469309.409 6      4973.396          37.437
G17  22182955.940   116572229.982 8      5080.492          48.562    22182957.120   116572229.968 6      5080.492          41.125    22182959.860    90835505.602 6      3958.825          40.500    22182960.260    90835513.593 8      3958.825          48.625
G03  20257538.960   106454100.591 8      1594.514          50.562    20257538.800   106454100.596 8      1594.514          50.437    20257543.620    82951238.646 8      1242.478          50.687    20257544.220    82951266.644 8      1242.478          50.812
G04  22032346.860   115780774.571 7      5068.315          44.687    22032345.400   115780774.581 5      5068.315          35.062    22032355.760    90218825.454 5      3949.337          35.250    22032356.040    90218835.464 8      3949.337          49.375
R05  20629958.240   110278950.298 8        88.945          48.687    20629957.860   110278950.286 7        88.945          47.750    20629966.780    85772556.734 8        69.179          49.000    20629966.960    85772554.729 8        69.179          48.937
G14  22427384.060   117856754.251 7      1335.230          43.750    22427382.880   117856754.256 5      1335.230          33.687    22427391.300    91836399.387 5      1040.439          33.437    22427391.560    91836463.390 7      1040.439          46.562
R21  21606134.460   115618797.842 7      4963.824          45.312    21606133.960   115618797.863 7      4963.824          45.437    21606144.960    89925768.551 8      3860.752          48.812    21606144.020    89925768.552 8      3860.752          48.625
> 2024 05 06 16 42 58.0000000  0 10
G02  22143338.860   116363959.641 7      1834.788          46.937    22143336.280   116363959.649 6      1834.788          38.125    22143340.020    90673261.394 6      1429.705          38.125
G08  23608130.780   124061559.309 7      -650.266          42.312    23608129.680   124061559.306 6      -650.266          39.812    23608150.260    96671415.527 6      -506.701          39.500    23608150.820    96671418.535 7      -506.701          44.125
G21  23012954.280   120933769.860 7      1189.265          42.875    23012950.780   120933769.867 5      1189.265          32.500    23012958.260    94234212.664 5       926.700          32.750
R06  19951371.080   106464336.409 6      4972.628          38.375    19951369.680   106464336.412 6      4972.628          37.437
G17  22181989.280   116567149.747 8      5080.101          49.187    22181990.680   116567149.734 6      5080.101          41.062    22181993.200    90831546.979 6      3958.520          41.375    22181993.520    90831554.975 8      3958.520          48.812
G03  20257235.600   106452506.432 8      1593.972          50.125    20257235.460   106452506.439 8      1593.972          50.187    20257240.180    82949996.447 8      1242.056          50.812    20257241.040    82950024.444 8      1242.056          50.812
G04  22031382.240   115775706.735 7      5067.720          45.187    22031381.000   115775706.745 5      5067.720          35.062    22031391.500    90214876.504 5      3948.872          35.250    22031391.540    90214886.507 8      3948.872          48.687
R05  20629941.780   110278861.844 8        88.118          48.250    20629941.180   110278861.832 8        88.118          48.125    20629950.160    85772487.937 8        68.536          49.250    20629950.520    85772485.932 8        68.536          49.062
G14  22427129.980   117855419.398 7      1334.635          44.312    22427129.000   117855419.408 5      1334.635          33.687    22427137.520    91835359.244 5      1039.975          33.437    22427137.600    91835423.243 7      1039.975          47.187
R21  21605206.420   115613834.105 7      4963.676          45.312    21605206.840   115613834.136 7      4963.676          45.812    21605217.140    89921907.881 8      3860.637          49.062    21605216.780    89921907.877 8      3860.637          48.437
> 2024 05 06 16 42 59.0000000  0 10
G02  22142989.820   116362124.977 7      1834.573          46.750    22142987.060   116362124.985 6      1834.573          38.062    22142990.860    90671831.780 6      1429.537          39.000
G08  23608254.720   124062209.693 6      -650.558          41.875    23608253.060   124062209.685 6      -650.558          39.437    23608274.120    96671922.292 6      -506.928          39.125    23608274.420    96671925.306 7      -506.928          44.562
G21  23012728.140   120932580.698 7      1189.088          43.250    23012724.700   120932580.705 5      1189.088          32.500    23012731.780    94233286.046 5       926.562          32.625
R06  19950439.020   106459364.239 6      4971.725          38.375    19950437.580   106459364.256 6      4971.725          37.437
G17  22181022.660   116562069.799 8      5079.793          48.687    22181024.240   116562069.788 6      5079.793          41.875    22181026.640    90827588.582 6      3958.281          41.312    22181026.820    90827596.582 8      3958.281          49.187
G03  20256932.420   106450912.813 8      1593.340          49.750    20256932.140   106450912.816 8      1593.340          50.250    20256936.900    82948754.665 8      1241.563          51.062    20256937.760    82948782.663 8      1241.563          50.437
G04  22030417.860   115770639.273 7      5067.298          44.875    22030416.620   115770639.286 5      5067.298          35.375    22030427.180    90210927.842 5      3948.544          35.187    22030427.360    90210937.846 8      3948.544          48.875
R05  20629925.540   110278774.172 7        87.273          47.937    20629924.600   110278774.157 7        87.273          47.500    20629933.880    85772419.745 8        67.879          49.375    20629933.920    85772417.742 8        67.879          49.125
G14  22426876.320   117854085.100 7      1334.060          44.750    22426875.380   117854085.108 5      1334.060          34.062    22426883.680    91834319.527 5      1039.527          33.437    22426883.460    91834383.526 7      1039.527          47.062
R21  21604279.000   115608870.493 7      4963.421          45.125    21604279.160   115608870.521 7      4963.421          45.687    21604289.540    89918047.292 8      3860.439          49.000    21604288.880    89918047.288 8      3860.439          48.000
> 2024 05 06 16 43  0.0000000  0 10
G02  22142640.640   116360290.378 7      1834.483          47.312    22142637.940   116360290.389 6      1834.483          38.062    22142641.700    90670402.226 6      1429.467          37.812
G08  23608378.460   124062860.240 7      -650.626          43.125    23608376.980   124062860.237 6      -650.626          39.125    23608397.900    96672429.187 6      -506.981          39.062    23608397.400    96672432.207 7      -506.981          44.187
G21  23012501.380   120931391.573 7      1189.049          43.937    23012498.220   120931391.580 5      1189.049          32.625    23012505.400    94232359.451 5       926.531          32.625
R06  19949507.940   106454392.773 6      4971.207          38.375    19949506.920   106454392.763 6      4971.207          37.187
G17  22180055.980   116556990.058 8      5079.577          49.375    22180057.820   116556990.047 6      5079.577          41.812    22180060.260    90823630.345 6      3958.112          41.375    22180060.300    90823638.342 8      3958.112          49.375
G03  20256629.200   106449319.589 8      1592.964          50.187    20256629.020   106449319.591 8      1592.964          49.937    20256633.620    82947513.191 8      1241.270          50.500    20256634.500    82947541.188 8      1241.270          51.312
G04  22029453.720   115765572.126 7      5067.009          44.312    22029452.260   115765572.142 5      5067.009          35.375    22029462.840    90206979.426 5      3948.318          35.062    22029462.960    90206989.434 8      3948.318          48.937
R05  20629909.040   110278687.159 8        86.596          49.062    20629908.300   110278687.152 7        86.596          47.312    20629917.620    85772352.071 8        67.352          48.937    20629917.340    85772350.068 8        67.352          48.750
G14  22426622.260   117852751.254 7      1333.631          44.062    22426621.360   117852751.264 5      1333.631          34.375    22426629.880    91833280.171 5      1039.193          34.187    22426629.900    91833344.171 7      1039.193          47.125
R21  21603351.600   115603906.817 7      4963.548          46.000    21603351.280   115603906.843 7      4963.548          45.562    21603361.780    89914186.658 8      3860.537          48.625    21603361.160    89914186.656 7      3860.537          47.812
> 2024 05 06 16 43  1.0000000  0 10
G02  22142291.840   116358455.825 7      1834.773          46.875    22142288.780   116358455.829 6      1834.773          38.000    22142292.620    90668972.700 6      1429.693          37.937
G08  23608502.720   124063510.998 7      -650.673          42.375    23608500.800   124063511.003 6      -650.673          39.500    23608521.900    96672936.252 6      -507.018          38.625    23608521.740    96672939.264 7      -507.018          44.062
G21  23012275.180   120930202.421 7      1189.379          43.812    23012272.160   120930202.429 5      1189.379          32.625    23012279.120    94231432.841 5       926.789          32.562
R06  19948576.600   106449422.033 6      4970.429          38.375    19948575.420   106449422.034 6      4970.429          37.187
G17  22179089.500   116551910.496 8      5079.666          48.937    22179091.340   116551910.491 7      5079.666          42.375    22179093.620    90819672.251 7      3958.182          42.187    22179093.700    90819680.252 8      3958.182          49.625
G03  20256325.960   106447726.783 8      1592.815          50.000    20256325.860   106447726.787 8      1592.815          50.437    20256330.500    82946272.050 8      1241.154          50.750    20256331.280    82946300.044 8      1241.154          50.937
G04  22028489.660   115760505.284 7      5066.948          44.500    22028487.980   115760505.292 5      5066.948          35.250    22028498.660    90203031.245 5      3948.271          35.062    22028498.580    90203041.251 8      3948.271          48.875
R05  20629893.020   110278600.820 8        86.197          48.750    20629892.240   110278600.811 7        86.197          47.375    20629901.600    85772284.921 8        67.042          49.500    20629901.180    85772282.913 8        67.042          48.875
G14  22426368.720   117851417.881 7      1333.328          43.875    22426367.620   117851417.893 5      1333.328          34.375    22426376.060    91832241.177 5      1038.957          34.187    22426376.240    91832305.169 7      1038.957          47.375
R21  21602424.340   115598943.074 7      4964.009          46.187    21602423.860   115598943.089 7      4964.009          45.250    21602433.640    89910325.962 7      3860.896          47.875    21602433.280    89910325.961 7      3860.896          47.250
> 2024 05 06 16 43  2.0000000  0 10
G02  22141942.580   116356621.334 7      1834.562          46.312    22141939.720   116356621.336 6      1834.562          37.937    22141943.460    90667543.226 6      1429.528          38.125
G08  23608626.500   124064161.923 7      -650.950          42.375    23608624.740   124064161.933 6      -650.950          39.312    23608645.740    96673443.446 6      -507.234          39.062    23608645.380    96673446.456 7      -507.234          44.187
G21  23012048.840   120929013.283 7      1189.338          43.562    23012045.980   120929013.293 5      1189.338          32.562    23012052.660    94230506.242 5       926.757          32.562
R06  19947645.020   106444451.937 6      4969.805          38.500    19947644.480   106444451.929 6      4969.805          37.187
G17  22178122.900   116546831.116 8      5079.413          49.437    22178124.920   116546831.110 7      5079.413          42.250    22178126.980    90815714.292 7      3957.984          42.437    22178127.220    90815722.295 8      3957.984          49.250
G03  20256023.020   106446134.386 8      1592.237          50.250    20256022.860   106446134.391 8      1592.237          50.437    20256027.400    82945031.223 8      1240.704          50.312    20256028.240    82945059.218 8      1240.704          50.062
G04  22027525.560   115755438.726 7      5066.551          44.187    22027523.880   115755438.736 5      5066.551          35.375    22027534.440    90199083.290 5      3947.962          35.375    22027534.400    90199093.296 8      3947.962          48.687
R05  20629876.940   110278515.120 8        85.512          48.937    20629876.380   110278515.116 7        85.512          47.625    20629885.480    85772218.267 8        66.509          49.312    20629885.080    85772216.261 8        66.509          48.437
G14  22426115.400   117850084.917 7      1332.810          43.312    22426114.040   117850084.927 5      1332.810          34.000    22426122.640    91831202.498 5      1038.554          34.125    22426122.480    91831266.502 7      1038.554          47.375
R21  21601496.400   115593979.281 7      4963.927          46.000    21601495.900   115593979.295 7      4963.927          45.750    21601506.240    89906465.238 7      3860.832          47.750    21601505.700    89906465.230 7      3860.832          46.687
> 2024 05 06 16 43  3.0000000  0 10
G02  22141593.360   116354786.788 7      1834.665          46.375    22141590.700   116354786.795 6      1834.665          38.062    22141594.480    90666113.712 6      1429.609          37.812
G08  23608750.540   124064812.896 7      -650.826          42.437    23608748.680   124064812.895 6      -650.826          39.000    23608769.760    96673950.663 6      -507.137          38.562    23608769.300    96673953.679 7      -507.137          44.187
G21  23011822.560   120927824.079 7      1189.358          42.937    23011819.660   120927824.089 5      1189.358          32.562    23011826.200    94229579.586 5       926.772          32.437
R06  19946713.560   106439482.435 6      4969.308          38.500    19946712.400   106439482.414 6      4969.308          37.187
G17  22177156.180   116541751.832 8      5079.310          49.875    22177158.560   116541751.829 7      5079.310          42.250    22177160.460    90811756.409 7      3957.904          42.187    22177160.760    90811764.418 8      3957.904          49.062
G03  20255720.100   106444542.302 8      1591.983          50.187    20255719.900   106444542.302 8      1591.983          49.750    20255724.400    82943790.634 8      1240.506          49.937    20255725.020    82943818.631 8      1240.506          49.687
G04  22026561.480   115750372.370 7      5066.369          45.062    22026559.780   115750372.380 5      5066.369          35.500    22026570.400    90195135.491 5      3947.820          35.000    22026570.180    90195145.492 8      3947.820          48.250
R05  20629861.060   110278429.994 8        84.921          49.437    20629860.360   110278429.988 7        84.921          47.687    20629869.780    85772152.054 8        66.050          48.187    20629869.400    85772150.048 8        66.050          48.312
G14  22425861.420   117848752.306 7      1332.550          44.125    22425860.100   117848752.319 5      1332.550          34.000    22425869.060    91830164.097 5      1038.350          34.125    22425869.320    91830228.096 7      1038.350          47.187
R21  21600568.860   115589015.383 7      4964.016          45.875    21600568.400   115589015.397 7      4964.016          45.812    21600578.360    89902604.429 7      3860.902          47.875    21600578.100    89902604.429 7      3860.902          46.562
> 2024 05 06 16 43  4.0000000  0 10
G02  22141244.340   116352952.334 7      1834.509          46.375    22141241.660   116352952.344 6      1834.509          38.000    22141245.400    90664684.269 6      1429.487          37.750
G08  23608874.580   124065464.121 7      -651.266          42.187    23608872.760   124065464.126 6      -651.266          39.500    23608893.660    96674458.089 6      -507.480          39.625    23608893.320    96674461.096 7      -507.480          44.000
G21  23011596.280   120926634.906 7      1189.249          45.437    23011593.360   120926634.911 5      1189.249          32.500    23011600.240    94228652.954 5       926.688          32.437
R06  19945782.520   106434513.667 6      4968.386          38.500    19945780.760   106434513.657 6      4968.386          37.187
G17  22176189.760   116536672.764 8      5079.037          50.187    22176192.200   116536672.764 7      5079.037          43.062    22176193.860    90807798.697 7      3957.692          42.437    22176194.220    90807806.705 8      3957.692          49.375
G03  20255417.240   106442950.660 8      1591.435          50.375    20255417.000   106442950.662 8      1591.435          50.375    20255421.540    82942550.397 8      1240.079          50.500    20255422.380    82942578.396 8      1240.079          50.000
G04  22025597.240   115745306.350 7      5065.864          44.062    22025595.920   115745306.357 5      5065.864          35.500    22025606.280    90191187.951 5      3947.426          35.000    22025606.420    90191197.953 8      3947.426          48.562
R05  20629845.280   110278345.529 8        84.164          49.312    20629844.780   110278345.527 7        84.164          47.562    20629854.000    85772086.363 8        65.461          49.312    20629853.460    85772084.359 8        65.461          49.312
G14  22425607.780   117847420.189 7      1331.921          43.375    22425606.560   117847420.201 5      1331.921          33.750    22425615.620    91829126.080 5      1037.860          33.562    22425616.080    91829190.084 7      1037.860          47.875
R21  21599641.040   115584051.514 7      4963.855          45.875    21599640.400   115584051.521 7      4963.855          45.312    21599650.700    89898743.644 8      3860.776          48.062    21599650.100    89898743.646 7      3860.776          46.812
> 2024 05 06 16 43  5.0000000  0 10
G02  22140895.280   116351117.922 7      1834.396          46.562    22140892.580   116351117.921 6      1834.396          38.437    22140896.260    90663254.845 6      1429.399          37.875
G08  23608998.580   124066115.469 7      -651.425          42.250    23608996.760   124066115.474 6      -651.425          40.000    23609017.560    96674965.604 6      -507.604          39.687    23609017.380    96674968.608 7      -507.604          43.875
G21  23011370.040   120925445.705 7      1189.146          44.750    23011367.160   120925445.710 5      1189.146          32.500    23011373.940    94227726.301 5       926.608          32.437
R06  19944851.700   106429545.536 6      4967.941          38.500    19944849.640   106429545.502 6      4967.941          36.875
G17  22175223.280   116531593.859 8      5078.776          50.000    22175225.580   116531593.864 7      5078.776          42.500    22175227.320    90803841.113 7      3957.488          42.375    22175227.520    90803849.119 8      3957.488          49.187
G03  20255114.300   106441359.393 8      1591.037          49.625    20255114.380   106441359.403 8      1591.037          50.312    20255118.680    82941310.455 8      1239.769          50.812    20255119.360    82941338.456 8      1239.769          51.125
G04  22024633.160   115740240.582 7      5065.604          45.125    22024631.680   115740240.595 5      5065.604          35.437    22024642.240    90187240.612 5      3947.224          35.437    22024642.440    90187250.616 8      3947.224          48.812
R05  20629829.460   110278261.670 8        83.517          48.812    20629828.920   110278261.669 7        83.517          47.750    20629838.320    85772021.139 8        64.958          49.437    20629837.700    85772019.138 8        64.958          49.687
G14  22425354.500   117846088.479 7      1331.503          43.437    22425353.100   117846088.491 5      1331.503          33.750    22425362.260    91828088.379 5      1037.535          33.812    22425362.600    91828152.380 8      1037.535          48.312
R21  21598713.620   115579087.541 7      4963.913          46.375    21598712.880   115579087.553 7      4963.913          45.312    21598722.840    89894882.780 8      3860.821          48.062    21598722.660    89894882.783 7      3860.821          47.312
> 2024 05 06 16 43  6.0000000  0 10
G02  22140546.160   116349283.541 7      1834.316          45.500    22140543.400   116349283.541 6      1834.316          38.250    22140547.100    90661825.458 6      1429.337          38.250
G08  23609122.540   124066766.983 7      -651.558          42.000    23609120.860   124066766.986 6      -651.558          39.625    23609141.620    96675473.257 6      -507.708          39.312    23609141.220    96675476.259 7      -507.708          44.375
G21  23011143.540   120924256.514 7      1189.042          44.375    23011141.000   120924256.516 5      1189.042          33.062    23011147.520    94226799.655 5       926.527          33.000
R06  19943919.960   106424578.110 6      4967.022          38.312    19943918.880   106424578.106 6      4967.022          36.875
G17  22174256.880   116526515.130 8      5078.595          49.937    22174259.160   116526515.135 7      5078.595          42.000    22174260.740    90799883.664 7      3957.347          42.000    22174260.920    90799891.670 8      3957.347          49.312
G03  20254811.540   106439768.546 8      1590.586          50.375    20254811.560   106439768.554 8      1590.586          50.312    20254815.880    82940070.837 8      1239.418          50.750    20254816.580    82940098.837 8      1239.418          50.375
G04  22023669.100   115735175.125 7      5065.245          45.000    22023667.840   115735175.138 5      5065.245          35.625    22023678.380    90183293.512 5      3946.945          35.312    22023678.640    90183303.514 8      3946.945          48.875
R05  20629813.760   110278178.466 8        82.820          48.437    20629813.420   110278178.468 8        82.820          48.000    20629822.720    85771956.429 8        64.416          49.000    20629822.100    85771954.430 8        64.416          48.937
G14  22425101.200   117844757.223 7      1330.916          42.937    22425099.780   117844757.238 5      1330.916          33.750    22425108.980    91827051.033 5      1037.077          33.812    22425109.120    91827115.034 8      1037.077          48.125
R21  21597786.140   115574123.496 7      4964.003          45.312    21597784.880   115574123.503 7      4964.003          45.625    21597795.300    89891021.854 7      3860.891          47.937    21597795.040    89891021.858 7      3860.891          47.250
> 2024 05 06 16 43  7.0000000  0 10
G02  22140197.140   116347449.313 7      1834.192          45.500    22140194.500   116347449.315 6      1834.192          37.937    22140198.120    90660396.191 6      1429.241          38.062
G08  23609246.380   124067418.794 7      -651.916          42.687    23609244.880   124067418.794 6      -651.916          40.000    23609265.700    96675981.137 6      -507.986          39.375    23609265.440    96675984.141 7      -507.986          44.562
G21  23010917.500   120923067.410 7      1189.083          44.375    23010914.700   120923067.412 5      1189.083          33.062    23010921.160    94225873.078 5       926.558          33.000
R06  19942989.880   106419611.463 6      4966.328          38.312    19942987.980   106419611.461 6      4966.328          36.875
G17  22173290.520   116521436.695 8      5078.362          49.812    22173292.560   116521436.700 7      5078.362          42.750    22173294.260    90795926.442 7      3957.165          42.437    22173294.520    90795934.448 8      3957.165          49.312
