     3.05           OBSERVATION DATA    MIXED               RINEX VERSION / TYPE
TPS2RIN 1.0.29.3920 TPS-USER            20240511 184524 UTC PGM / RUN BY / DATE
Win64 build Feb 23, 2024 (c) Topcon Positioning Systems     COMMENT
SRC: 20240506_GUI05.tps                                     COMMENT
OPT: -S -v 3.05                                             COMMENT
Observer            Agency                                  OBSERVER / AGENCY
O0M3X53SBGM         TPS HIPER_SR        4.8 HSR Jul,08,2022 REC # / TYPE / VERS
FW: 4.8 HSR Jul,08,2022 p3                                  COMMENT
SN: HiPer SR 1212-12575                                     COMMENT
000                 TPSHIPER_SR     NONE                    ANT # / TYPE
        1.8000        0.0000        0.0000                  ANTENNA: DELTA H/E/N
DELTA H stands for **SLANT** height here!                   COMMENT
GUI05                                                       MARKER NAME
  5389049.3025 -1591389.9789  3010353.2461                  APPROX POSITION XYZ
  2024     5     6    16     6   46.0000000     GPS         TIME OF FIRST OBS
  2024     5     6    16    22   37.0000000     GPS         TIME OF LAST OBS
     1.000                                                  INTERVAL
   952 EPOCHS                                               COMMENT
G   16 C1C L1C D1C S1C C1W L1W D1W S1W C2W L2W D2W S2W C2X  SYS / # / OBS TYPES
       L2X D2X S2X                                          SYS / # / OBS TYPES
R   16 C1C L1C D1C S1C C1P L1P D1P S1P C2P L2P D2P S2P C2C  SYS / # / OBS TYPES
       L2C D2C S2C                                          SYS / # / OBS TYPES
    15                                                      # OF SATELLITES
   G02   952   952   952   952   952   952   952   952   952PRN / # OF OBS
         952   952   952     0     0     0     0            PRN / # OF OBS
   G03   952   952   952   952   952   952   952   952   952PRN / # OF OBS
         952   952   952   952   952   952   952            PRN / # OF OBS
   G04   952   952   952   952   952   952   952   952   952PRN / # OF OBS
         952   952   952   952   952   952   952            PRN / # OF OBS
   G08   952   952   952   952   952   952   952   952   952PRN / # OF OBS
         952   952   952   952   952   952   952            PRN / # OF OBS
   G09   484   484   484   484   484   484   484   484   484PRN / # OF OBS
         484   484   484   484   484   484   484            PRN / # OF OBS
   G14   952   952   952   952   952   952   952   952   952PRN / # OF OBS
         952   952   952   952   952   952   952            PRN / # OF OBS
   G17   952   952   952   952   952   952   952   952   952PRN / # OF OBS
         952   952   952   952   952   952   952            PRN / # OF OBS
   G21   952   952   952   952   952   952   952   952   952PRN / # OF OBS
         952   952   952     0     0     0     0            PRN / # OF OBS
   G22   952   952   952   952   952   952   952   952   952PRN / # OF OBS
         952   952   952     0     0     0     0            PRN / # OF OBS
   G27    48    48    48    48    48    48    48    48    48PRN / # OF OBS
          48    48    48    48    48    48    48            PRN / # OF OBS
   R04   900   900   900   900   895   895   895   895   895PRN / # OF OBS
         895   895   895   894   894   894   894            PRN / # OF OBS
   R05   952   952   952   952   952   952   952   952   952PRN / # OF OBS
         952   952   952   952   952   952   952            PRN / # OF OBS
   R11   917   917   917   917   917   917   917   917   917PRN / # OF OBS
         917   917   917   917   917   917   917            PRN / # OF OBS
   R20   952   952   952   952   952   952   952   952   952PRN / # OF OBS
         952   952   952   952   952   952   952            PRN / # OF OBS
   R21   766   766   766   766   760   760   760   760   760PRN / # OF OBS
         760   760   760   759   759   759   759            PRN / # OF OBS
G L1C                                                       SYS / PHASE SHIFT
G L1W -0.25000                                              SYS / PHASE SHIFT
G L2W  0.00000                                              SYS / PHASE SHIFT
G L2X  0.25000                                              SYS / PHASE SHIFT
R L1C                                                       SYS / PHASE SHIFT
R L1P -0.25000                                              SYS / PHASE SHIFT
R L2P -0.25000                                              SYS / PHASE SHIFT
R L2C                                                       SYS / PHASE SHIFT
  5 R04  6 R05  1 R11  0 R20  2 R21  4                      GLONASS SLOT / FRQ #
                                                            GLONASS COD/PHS/BIS
    18    18  1929     7GPS                                 LEAP SECONDS
                                                            END OF HEADER
> 2024 05 06 16 06 46.0000000  0 13
G02  21741193.120   114250729.358 7      2014.565          47.812    21741191.340   114250729.363 6      2014.565          39.062    21741193.820    89026544.683 6      1569.791          38.937
G03  19945853.520   104816175.563 8      2753.994          48.812    19945852.620   104816175.565 8      2753.994          48.312    19945859.180    81674973.075 8      2145.969          48.687    19945859.500    81674977.073 8      2145.969          50.187
G14  22025702.880   115745834.132 7      2574.797          45.937    22025701.880   115745834.144 5      2574.797          35.500    22025708.340    90191579.603 5      2006.335          35.187    22025708.840    90191582.609 8      2006.335          48.000
R05  19815020.420   105922649.178 8      1885.436          49.125    19815019.620   105922649.174 8      1885.436          48.812    19815029.560    82384328.950 8      1466.451          48.187    19815029.200    82384326.952 8      1466.451          48.250
G08  22262493.200   116990134.047 7       -11.189          45.500    22262491.960   116990134.047 7       -11.189          43.500    22262503.960    91161166.746 7        -8.719          43.062    22262505.800    91161172.755 7        -8.719          45.625
G21  22324328.620   117315117.890 7      1275.591          46.625    22324327.180   117315117.897 6      1275.591          36.437    22324331.340    91414387.883 6       993.967          36.625
R04  22974217.700   123025873.341 7     -1091.056          42.250    22974217.620   123025873.377 6     -1091.056          41.625    22974229.560    95686854.150 7      -848.599          46.062    22974229.460    95686851.158 7      -848.599          46.687
G17  23161904.820   121716643.399 7      5410.599          43.437    23161904.320   121716643.398 5      5410.599          34.375    23161909.620    94844148.648 5      4216.052          34.062    23161910.140    94844152.653 7      4216.052          45.625
G04  23048115.080   121118687.359 7      5571.147          43.875    23048114.380   121118687.369 5      5571.147          31.562    23048131.620    94378253.519 5      4341.154          31.250    23048133.200    94378277.539 7      4341.154          44.937
R11  22719195.240   121404461.280 7      1725.795          45.562    22719194.980   121404461.279 7      1725.795          44.437    22719207.080    94425755.544 7      1342.285          43.562    22719206.860    94425755.537 7      1342.285          43.750
G22  23459024.080   123278007.083 6      3902.072          39.125    23459022.200   123278007.090 4      3902.072          28.875    23459029.460    96060808.899 4      3040.576          28.750
R20  20578722.840   110043676.429 6      2967.113          37.312    20578723.700   110043676.457 6      2967.113          37.625    20578734.440    85589575.848 7      2307.754          43.562    20578735.080    85589579.852 7      2307.754          43.625
G27  25456558.120   133775132.353 5      -705.444          34.562    25456556.980   133775132.358 5      -705.444          30.437    25456584.120   104240338.956 5      -549.697          30.500    25456583.880   104240468.955 6      -549.697          40.187
> 2024 05 06 16 06 47.0000000  0 13
G02  21740809.660   114248714.725 7      2014.542          47.875    21740808.100   114248714.730 6      2014.542          39.562    21740810.220    89024974.839 6      1569.773          39.375
G03  19945329.340   104813421.688 8      2753.540          48.625    19945328.600   104813421.692 8      2753.540          49.625    19945335.200    81672827.202 8      2145.616          50.187    19945335.560    81672831.201 8      2145.616          50.937
G14  22025213.000   115743259.437 7      2574.226          45.750    22025211.800   115743259.453 5      2574.226          35.437    22025218.320    90189573.346 5      2005.890          35.312    22025218.700    90189576.352 8      2005.890          49.312
R05  19814667.700   105920763.979 8      1884.643          48.687    19814666.940   105920763.975 8      1884.643          48.562    19814676.860    82382862.684 8      1465.833          50.437    19814676.580    82382860.684 8      1465.833          50.312
G08  22262495.080   116990145.332 7       -11.566          45.375    22262494.100   116990145.329 7       -11.566          44.000    22262506.040    91161175.531 7        -9.012          44.000    22262507.980    91161181.538 7        -9.012          47.312
G21  22324085.720   117313842.193 7      1275.648          46.937    22324084.400   117313842.198 6      1275.648          37.062    22324088.500    91413393.830 6       994.011          37.000
R04  22974420.940   123026964.445 7     -1091.398          42.500    22974421.740   123026964.479 6     -1091.398          41.625    22974433.280    95687702.782 7      -848.865          46.625    22974433.140    95687699.779 7      -848.865          47.750
G17  23160875.180   121711232.714 7      5410.603          43.937    23160874.760   121711232.714 5      5410.603          34.375    23160879.900    94839932.539 5      4216.054          34.000    23160880.380    94839936.542 7      4216.054          46.250
G04  23047054.720   121113116.157 7      5571.071          43.750    23047054.300   121113116.161 5      5571.071          31.562    23047071.460    94373912.341 5      4341.094          31.562    23047073.020    94373936.361 7      4341.094          46.000
R11  22718871.880   121402735.742 7      1725.100          44.625    22718872.440   121402735.735 7      1725.100          44.312    22718884.160    94424413.453 7      1341.744          43.750    22718883.600    94424413.449 7      1341.744          44.187
G22  23458281.420   123274105.261 6      3901.453          39.312    23458279.560   123274105.271 4      3901.453          29.062    23458286.920    96057768.516 4      3040.093          28.750
R20  20578168.160   110040709.255 6      2967.096          37.312    20578168.660   110040709.289 6      2967.096          37.625    20578179.380    85587268.050 7      2307.741          43.812    20578180.400    85587272.052 7      2307.741          43.875
G27  25456692.780   133775837.752 5      -705.819          34.562    25456691.140   133775837.767 5      -705.819          30.437    25456718.420   104240888.630 5      -549.989          30.000    25456718.300   104241018.625 6      -549.989          39.875
> 2024 05 06 16 06 48.0000000  0 13
G02  21740426.120   114246700.002 7      2014.652          47.250    21740424.640   114246700.007 6      2014.652          39.250    21740426.880    89023404.925 6      1569.858          38.937
G03  19944805.300   104810668.267 7      2753.104          47.875    19944804.680   104810668.272 8      2753.104          49.000    19944811.220    81670681.680 8      2145.276          49.375    19944811.680    81670685.674 8      2145.276          51.062
G14  22024723.080   115740685.206 7      2573.919          45.062    22024721.900   115740685.221 5      2573.919          35.500    22024728.500    90187567.449 5      2005.651          35.000    22024728.920    90187570.461 8      2005.651          49.125
R05  19814315.220   105918879.549 8      1883.926          49.062    19814314.560   105918879.553 8      1883.926          48.687    19814324.480    82381397.020 8      1465.276          49.812    19814324.100    82381395.023 8      1465.276          50.125
G08  22262497.480   116990156.822 7       -11.742          44.500    22262496.120   116990156.822 7       -11.742          43.750    22262508.240    91161184.472 7        -9.150          43.750    22262510.280    91161190.478 7        -9.150          47.187
G21  22323843.120   117312566.357 7      1275.834          46.437    22323841.520   117312566.362 6      1275.834          36.125    22323845.740    91412399.672 6       994.157          36.125
R04  22974625.000   123028055.809 7     -1091.588          42.500    22974625.620   123028055.848 7     -1091.588          42.000    22974637.100    95688551.625 7      -849.013          46.250    22974637.040    95688548.624 7      -849.013          47.000
G17  23159845.800   121705821.956 7      5410.644          42.750    23159845.020   121705821.956 5      5410.644          34.375    23159850.080    94835716.370 5      4216.087          34.125    23159851.060    94835720.375 7      4216.087          46.250
G04  23045994.200   121107544.899 7      5571.210          43.437    23045993.940   121107544.904 5      5571.210          31.437    23046011.280    94369571.124 5      4341.203          31.562    23046012.760    94369595.141 7      4341.203          46.062
R11  22718549.200   121401010.756 7      1724.610          45.625    22718550.180   121401010.749 7      1724.610          44.250    22718561.320    94423071.787 7      1341.363          43.812    22718561.100    94423071.784 7      1341.363          44.000
G22  23457539.040   123270203.775 6      3901.113          39.062    23457537.200   123270203.785 4      3901.113          29.062    23457544.620    96054728.402 4      3039.829          28.750
R20  20577612.600   110037742.095 6      2967.057          37.625    20577614.020   110037742.128 6      2967.057          37.625    20577624.640    85584960.255 7      2307.711          43.750    20577625.620    85584964.252 7      2307.711          44.062
G27  25456827.040   133776543.088 5      -705.471          34.562    25456825.340   133776543.103 5      -705.471          30.437    25456852.600   104241438.255 5      -549.718          30.000    25456852.820   104241568.254 6      -549.718          39.875
> 2024 05 06 16 06 49.0000000  0 13
G02  21740042.800   114244685.300 7      2014.527          47.750    21740041.220   114244685.310 6      2014.527          39.625    21740043.600    89021835.029 6      1569.761          39.375
G03  19944281.740   104807915.385 8      2752.456          49.000    19944280.860   104807915.390 8      2752.456          50.562    19944287.320    81668536.577 8      2144.771          50.375    19944287.920    81668540.576 8      2144.771          51.875
G14  22024233.280   115738111.568 7      2573.223          45.250    22024232.100   115738111.581 5      2573.223          35.312    22024238.760    90185562.015 5      2005.109          35.250    22024239.320    90185565.017 8      2005.109          49.562
R05  19813962.780   105916996.015 8      1882.947          48.437    19813962.140   105916996.011 8      1882.947          48.687    19813972.040    82379932.045 8      1464.515          50.437    19813971.940    82379930.048 8      1464.515          50.375
G08  22262499.700   116990168.609 7       -12.159          45.187    22262498.500   116990168.609 7       -12.159          44.125    22262510.360    91161193.649 7        -9.475          44.187    22262512.340    91161199.652 7        -9.475          47.000
G21  22323600.440   117311290.511 7      1275.719          46.937    22323598.820   117311290.521 6      1275.719          36.625    22323603.140    91411405.504 6       994.066          36.687
R04  22974828.900   123029147.598 7     -1092.115          42.437    22974829.560   123029147.637 7     -1092.115          42.000    22974840.840    95689400.793 7      -849.423          46.312    22974840.880    95689397.790 7      -849.423          47.437
G17  23158816.200   121700411.222 7      5410.560          43.875    23158815.300   121700411.227 5      5410.560          34.375    23158820.380    94831500.220 5      4216.021          34.125    23158821.160    94831504.216 7      4216.021          46.625
G04  23044934.120   121101973.737 7      5570.944          43.937    23044933.960   121101973.742 5      5570.944          31.437    23044950.820    94365229.979 5      4340.995          31.562    23044952.680    94365253.991 7      4340.995          45.937
R11  22718226.500   121399286.375 7      1723.923          45.187    22718227.020   121399286.376 7      1723.923          44.937    22718238.300    94421730.601 7      1340.829          44.312    22718238.420    94421730.598 7      1340.829          44.375
G22  23456796.560   123266302.734 6      3900.756          39.062    23456794.940   123266302.747 4      3900.756          29.062    23456802.240    96051688.632 4      3039.550          28.750
R20  20577058.180   110034775.057 6      2966.792          37.625    20577059.240   110034775.093 6      2966.792          37.625    20577069.960    85582652.559 7      2307.505          44.125    20577070.640    85582656.548 7      2307.505          44.000
G27  25456961.480   133777248.479 5      -705.206          33.875    25456959.620   133777248.484 4      -705.206          29.937    25456986.820   104241987.911 5      -549.511          30.000    25456986.200   104242117.904 6      -549.511          39.875
> 2024 05 06 16 06 50.0000000  0 13
G02  21739659.420   114242670.667 7      2014.584          47.375    21739657.720   114242670.672 6      2014.584          39.875    21739660.280    89020265.183 6      1569.806          39.562
G03  19943758.040   104805163.095 8      2751.962          48.875    19943757.080   104805163.102 8      2751.962          50.437    19943763.560    81666391.939 8      2144.386          50.812    19943764.320    81666395.936 8      2144.386          51.687
G14  22023743.860   115735538.571 7      2572.619          45.437    22023742.340   115735538.576 5      2572.619          35.312    22023749.300    90183557.070 5      2004.638          34.812    22023749.760    90183560.074 8      2004.638          50.062
R05  19813610.340   105915113.387 8      1882.152          49.187    19813610.140   105915113.383 8      1882.152          48.500    19813619.900    82378467.779 8      1463.896          51.062    19813619.740    82378465.776 8      1463.896          51.125
G08  22262502.060   116990180.730 7       -12.285          44.875    22262500.800   116990180.732 7       -12.285          43.937    22262512.720    91161203.087 7        -9.572          44.000    22262514.840    91161209.095 7        -9.572          47.500
G21  22323357.600   117310014.704 7      1275.725          46.500    22323356.080   117310014.716 6      1275.725          36.750    22323360.400    91410411.370 6       994.071          36.812
R04  22975032.720   123030239.840 7     -1092.467          43.500    22975033.960   123030239.885 7     -1092.467          42.187    22975044.840    95690250.318 7      -849.696          47.250    22975044.780    95690247.313 8      -849.696          48.000
G17  23157786.460   121695000.582 7      5410.502          43.687    23157785.740   121695000.587 5      5410.502          34.687    23157790.820    94827284.139 5      4215.976          34.437    23157791.480    94827288.136 7      4215.976          46.812
G04  23043874.320   121096402.663 7      5570.992          43.625    23043873.980   121096402.668 5      5570.992          31.437    23043890.780    94360888.901 5      4341.032          31.375    23043892.680    94360912.920 7      4341.032          46.375
R11  22717904.020   121397562.717 7      1723.313          45.125    22717903.880   121397562.729 7      1723.313          44.562    22717915.860    94420389.993 7      1340.355          44.125    22717915.820    94420389.998 7      1340.355          44.187
G22  23456054.480   123262402.263 6      3900.342          39.750    23456052.740   123262402.275 4      3900.342          29.062    23456059.880    96048649.301 4      3039.227          28.750
R20  20576503.080   110031808.190 6      2966.749          37.625    20576504.840   110031808.205 6      2966.749          37.562    20576514.900    85580344.979 7      2307.471          44.750    20576515.800    85580348.964 7      2307.471          43.687
G27  25457095.480   133777954.086 5      -705.485          33.875    25457093.900   133777954.083 4      -705.485          29.937    25457121.020   104242537.738 5      -549.729          30.000    25457120.740   104242667.731 6      -549.729          39.875
> 2024 05 06 16 06 51.0000000  0 13
G02  21739276.020   114240656.075 7      2014.572          47.875    21739274.460   114240656.080 6      2014.572          39.437    21739276.900    89018695.374 6      1569.796          39.562
G03  19943234.380   104802411.382 8      2751.390          49.375    19943233.480   104802411.387 8      2751.390          50.875    19943239.940    81664247.747 8      2143.940          51.000    19943240.720    81664251.746 8      2143.940          52.062
G14  22023254.240   115732966.158 7      2572.012          45.000    22023252.940   115732966.165 5      2572.012          35.125    22023259.720    90181552.592 5      2004.165          35.062    22023260.420    90181555.602 8      2004.165          49.812
R05  19813258.560   105913231.636 8      1881.309          48.937    19813257.960   105913231.634 8      1881.309          48.937    19813267.920    82377004.201 8      1463.240          51.250    19813267.920    82377002.197 8      1463.240          51.500
G08  22262504.340   116990193.229 7       -12.740          44.937    22262503.100   116990193.232 7       -12.740          44.500    22262515.200    91161212.817 7        -9.927          44.125    22262516.960    91161218.818 7        -9.927          47.750
G21  22323114.760   117308738.889 7      1275.831          46.875    22323113.260   117308738.896 6      1275.831          36.375    22323117.480    91409417.223 6       994.154          36.562
R04  22975236.360   123031332.465 7     -1092.762          43.500    22975237.780   123031332.515 7     -1092.762          42.187    22975248.640    95691100.144 7      -849.926          47.000    22975248.800    95691097.141 7      -849.926          47.875
G17  23156756.600   121689589.977 7      5410.605          43.812    23156756.140   121689589.976 5      5410.605          34.812    23156761.280    94823068.083 5      4216.056          34.500    23156761.920    94823072.079 7      4216.056          46.437
G04  23042814.000   121090831.693 7      5570.911          42.875    23042813.900   121090831.698 5      5570.911          31.375    23042830.780    94356547.908 5      4340.970          31.375    23042832.520    94356571.930 7      4340.970          46.375
R11  22717581.620   121395839.803 7      1722.590          44.937    22717580.860   121395839.798 7      1722.590          44.125    22717593.240    94419049.930 7      1339.792          44.187    22717593.440    94419049.928 7      1339.792          44.125
G22  23455312.100   123258502.288 6      3899.570          39.625    23455310.740   123258502.303 4      3899.570          29.062    23455317.780    96045610.358 4      3038.626          28.875
R20  20575948.020   110028841.439 6      2966.762          37.625    20575949.420   110028841.438 6      2966.762          37.562    20575960.320    85578037.495 7      2307.481          44.312    20575961.180    85578041.484 7      2307.481          44.625
G27  25457229.240   133778659.806 5      -706.029          33.875    25457228.060   133778659.800 4      -706.029          29.937    25457255.480   104243087.656 4      -550.152          29.687    25457255.700   104243217.675 6      -550.152          39.875
> 2024 05 06 16 06 52.0000000  0 13
G02  21738892.640   114238641.613 7      2014.323          47.000    21738891.080   114238641.615 6      2014.323          39.437    21738893.560    89017125.658 6      1569.603          39.187
G03  19942710.800   104799660.284 8      2750.791          49.437    19942709.960   104799660.292 8      2750.791          50.187    19942716.420    81662104.041 8      2143.474          50.750    19942717.100    81662108.038 8      2143.474          51.812
G14  22022765.100   115730394.406 7      2571.388          45.250    22022763.760   115730394.417 5      2571.388          35.750    22022770.300    90179548.628 5      2003.679          35.062    22022770.960    90179551.634 8      2003.679          49.625
R05  19812906.960   105911350.831 8      1880.318          49.562    19812906.240   105911350.824 8      1880.318          49.312    19812916.160    82375541.350 8      1462.469          51.562    19812915.800    82375539.351 8      1462.469          51.687
G08  22262506.760   116990206.075 7       -13.009          44.500    22262505.660   116990206.078 7       -13.009          44.187    22262517.580    91161222.820 7       -10.137          43.875    22262519.280    91161228.822 7       -10.137          47.375
G21  22322871.980   117307463.142 7      1275.709          46.062    22322870.420   117307463.152 6      1275.709          36.437    22322874.740    91408423.137 6       994.059          36.437
R04  22975440.480   123032425.583 7     -1093.468          44.062    22975442.400   123032425.627 7     -1093.468          42.687    22975452.860    95691950.342 7      -850.475          46.812    22975453.020    95691947.340 7      -850.475          47.375
G17  23155727.200   121684179.500 7      5410.389          44.187    23155726.580   121684179.494 5      5410.389          34.812    23155731.720    94818852.129 5      4215.888          34.500    23155732.140    94818856.127 7      4215.888          46.812
G04  23041753.700   121085260.872 7      5570.794          42.687    23041753.580   121085260.876 5      5570.794          31.375    23041770.880    94352207.022 5      4340.878          31.375    23041772.480    94352231.047 7      4340.878          46.500
R11  22717258.940   121394117.612 7      1721.872          44.937    22717258.640   121394117.610 7      1721.872          43.875    22717270.980    94417710.444 7      1339.234          44.062    22717270.960    94417710.447 7      1339.234          44.000
G22  23454570.500   123254602.852 6      3899.240          39.250    23454568.640   123254602.862 4      3899.240          29.062    23454575.900    96042571.832 4      3038.369          28.875
R20  20575393.540   110025874.917 6      2966.569          37.625    20575394.680   110025874.895 6      2966.569          37.562    20575405.400    85575730.184 7      2307.331          44.312    20575406.620    85575734.181 7      2307.331          44.625
G27  25457363.100   133779365.573 5      -705.873          34.375    25457362.460   133779365.570 4      -705.873          29.937    25457389.620   104243637.617 4      -550.031          29.687    25457389.700   104243767.638 6      -550.031          39.875
> 2024 05 06 16 06 53.0000000  0 13
G02  21738509.360   114236627.121 7      2014.463          46.625    21738507.800   114236627.131 6      2014.463          39.687    21738510.380    89015555.927 6      1569.711          39.812
G03  19942187.440   104796909.712 8      2750.430          49.562    19942186.580   104796909.717 8      2750.430          50.562    19942193.020    81659960.738 8      2143.192          50.937    19942193.580    81659964.734 8      2143.192          51.437
G14  22022275.720   115727823.231 7      2570.838          45.375    22022274.460   115727823.241 5      2570.838          35.375    22022281.100    90177545.116 5      2003.251          35.250    22022281.820    90177548.110 8      2003.251          49.500
R05  19812555.200   105909470.868 8      1879.533          49.437    19812554.760   105909470.866 8      1879.533          49.187    19812564.440    82374079.163 8      1461.859          51.375    19812564.200    82374077.162 8      1461.859          50.375
G08  22262509.420   116990219.231 7       -13.325          44.937    22262508.080   116990219.239 7       -13.325          44.375    22262520.040    91161233.068 7       -10.383          43.937    22262522.100    91161239.071 7       -10.383          47.437
G21  22322629.180   117306187.372 7      1275.745          45.687    22322627.540   117306187.382 6      1275.745          36.625    22322631.880    91407429.030 6       994.087          36.687
R04  22975644.940   123033519.011 7     -1093.590          44.000    22975646.400   123033519.061 7     -1093.590          42.687    22975657.240    95692800.793 7      -850.570          47.000    22975656.980    95692797.788 7      -850.570          47.375
G17  23154697.940   121678769.031 7      5410.389          43.312    23154696.960   121678769.031 5      5410.389          35.250    23154702.020    94814636.181 5      4215.887          34.937    23154702.680    94814640.184 7      4215.887          46.750
G04  23040693.700   121079690.119 7      5570.775          43.250    23040693.580   121079690.126 5      5570.775          31.375    23040710.720    94347866.201 5      4340.863          31.687    23040712.320    94347890.217 7      4340.863          46.187
R11  22716936.840   121392396.076 7      1721.171          45.562    22716937.100   121392396.069 7      1721.171          44.312    22716949.220    94416371.472 7      1338.689          43.937    22716948.780    94416371.470 7      1338.689          44.562
G22  23453828.380   123250703.868 6      3898.759          39.437    23453826.640   123250703.881 4      3898.759          29.062    23453833.880    96039533.663 4      3037.994          28.875
R20  20574839.600   110022908.465 6      2966.369          38.062    20574839.700   110022908.453 6      2966.369          37.562    20574850.760    85573422.954 7      2307.176          44.437    20574851.920    85573426.953 7      2307.176          44.312
G27  25457498.000   133780071.435 5      -705.626          34.375    25457496.980   133780071.429 4      -705.626          29.875    25457523.800   104244187.647 4      -549.838          29.687    25457523.820   104244317.664 6      -549.838          39.875
> 2024 05 06 16 06 54.0000000  0 13
G02  21738126.020   114234612.774 7      2014.307          47.000    21738124.520   114234612.782 6      2014.307          39.500    21738127.000    89013986.304 6      1569.590          39.875
G03  19941664.180   104794159.818 8      2749.548          48.750    19941663.300   104794159.822 8      2749.548          50.625    19941669.740    81657817.963 8      2142.505          51.125    19941670.460    81657821.958 8      2142.505          51.687
G14  22021786.500   115725252.709 7      2570.201          45.000    22021785.100   115725252.716 5      2570.201          35.312    22021791.980    90175542.106 5      2002.754          35.250    22021792.640    90175545.106 8      2002.754          49.750
R05  19812203.840   105907591.899 8      1878.504          49.625    19812203.280   105907591.900 8      1878.504          49.000    19812212.960    82372617.743 8      1461.058          51.500    19812212.900    82372615.741 8      1461.058          51.375
G08  22262512.000   116990232.794 7       -13.860          44.437    22262510.760   116990232.799 7       -13.860          44.562    22262522.660    91161243.624 7       -10.800          44.375    22262524.260    91161249.629 7       -10.800          47.375
G21  22322386.280   117304911.678 7      1275.642          46.562    22322384.840   117304911.686 6      1275.642          36.812    22322389.140    91406434.972 6       994.007          36.937
R04  22975849.360   123034612.959 7     -1094.174          44.000    22975850.780   123034613.014 7     -1094.174          42.687    22975861.160    95693651.643 7      -851.024          46.625    22975861.000    95693648.636 7      -851.024          47.500
G17  23153668.280   121673358.662 7      5410.360          43.250    23153667.380   121673358.662 5      5410.360          34.937    23153672.580    94810420.313 5      4215.865          34.937    23153672.960    94810424.318 7      4215.865          46.687
G04  23039633.560   121074119.521 7      5570.518          43.562    23039633.480   121074119.526 5      5570.518          31.687    23039650.700    94343525.494 5      4340.664          31.687    23039652.260    94343549.512 7      4340.664          46.312
R11  22716615.040   121390675.296 7      1720.363          45.187    22716615.480   121390675.289 7      1720.363          44.375    22716627.200    94415033.069 7      1338.060          44.687    22716626.760    94415033.075 7      1338.060          44.125
G22  23453086.240   123246805.438 6      3898.125          38.687    23453084.700   123246805.451 4      3898.125          29.062    23453092.020    96036495.927 4      3037.500          28.875
R20  20574283.880   110019942.248 6      2966.043          38.062    20574286.120   110019942.236 6      2966.043          37.437    20574295.860    85571115.886 7      2306.922          44.562    20574297.420    85571119.892 7      2306.922          44.375
G27  25457631.940   133780777.491 5      -705.793          34.375    25457631.300   133780777.482 4      -705.793          29.875    25457658.260   104244737.824 4      -549.968          29.687    25457658.380   104244867.844 6      -549.968          39.937
> 2024 05 06 16 06 55.0000000  0 13
G02  21737742.660   114232598.340 7      2014.412          46.312    21737741.100   114232598.348 6      2014.412          39.750    21737743.540    89012416.613 6      1569.671          39.500
G03  19941141.080   104791410.333 8      2749.154          48.312    19941140.060   104791410.338 8      2749.154          49.937    19941146.500    81655675.512 8      2142.198          50.500    19941147.200    81655679.508 8      2142.198          51.562
G14  22021297.320   115722682.673 7      2569.609          45.125    22021295.980   115722682.689 5      2569.609          35.250    22021302.980    90173539.483 5      2002.293          35.062    22021303.400    90173542.487 8      2002.293          50.250
R05  19811852.360   105905713.721 8      1877.640          48.250    19811851.820   105905713.717 7      1877.640          47.875    19811861.580    82371156.936 8      1460.386          51.187    19811861.860    82371154.936 8      1460.386          50.875
G08  22262514.660   116990246.557 7       -14.111          45.062    22262513.280   116990246.565 7       -14.111          44.437    22262525.200    91161254.344 7       -10.996          44.187    22262527.280    91161260.342 7       -10.996          47.312
G21  22322143.480   117303635.845 7      1275.812          47.125    22322142.120   117303635.850 6      1275.812          36.750    22322146.320    91405440.817 6       994.139          36.750
R04  22976053.420   123035707.174 7     -1094.454          43.375    22976054.920   123035707.227 7     -1094.454          42.500    22976065.880    95694502.699 7      -851.242          46.437    22976065.420    95694499.699 7      -851.242          47.187
G17  23152638.620   121667948.259 7      5410.270          43.500    23152637.940   121667948.261 5      5410.270          34.937    23152642.960    94806204.416 5      4215.795          34.687    23152643.600    94806208.421 7      4215.795          46.500
G04  23038573.540   121068548.894 7      5570.528          43.312    23038573.400   121068548.905 5      5570.528          31.687    23038590.400    94339184.770 5      4340.671          31.687    23038592.140    94339208.795 7      4340.671          45.750
R11  22716292.560   121388955.040 7      1719.844          45.500    22716293.420   121388955.035 7      1719.844          44.312    22716305.600    94413695.085 7      1337.656          45.062    22716304.460    94413695.084 7      1337.656          45.000
G22  23452344.700   123242907.371 6      3897.909          38.687    23452342.720   123242907.387 4      3897.909          29.062    23452350.360    96033458.475 4      3037.331          28.250
R20  20573729.880   110016976.018 6      2965.983          38.062    20573730.820   110016976.006 6      2965.983          37.437    20573741.440    85568808.818 7      2306.875          44.312    20573742.420    85568812.815 7      2306.875          43.937
G27  25457765.720   133781483.602 5      -706.410          34.125    25457765.420   133781483.599 4      -706.410          29.875    25457792.520   104245288.055 4      -550.449          29.750    25457792.020   104245418.081 6      -550.449          39.937
> 2024 05 06 16 06 56.0000000  0 13
G02  21737359.280   114230583.873 7      2014.607          46.875    21737357.780   114230583.877 6      2014.607          39.562    21737360.200    89010846.898 6      1569.824          39.312
G03  19940617.780   104788661.329 8      2748.965          48.750    19940617.060   104788661.337 8      2748.965          50.437    19940623.400    81653533.435 8      2142.050          50.625    19940624.060    81653537.436 8      2142.050          51.250
G14  22020808.400   115720113.148 7      2569.462          45.062    22020806.980   115720113.163 5      2569.462          35.062    22020814.020    90171537.251 5      2002.178          34.875    22020814.660    90171540.249 8      2002.178          49.562
R05  19811501.240   105903836.305 8      1877.201          50.187    19811500.620   105903836.301 8      1877.201          49.312    19811510.380    82369696.725 8      1460.045          50.562    19811510.080    82369694.724 8      1460.045          50.500
G08  22262517.420   116990260.546 7       -13.927          45.062    22262516.100   116990260.546 7       -13.927          44.125    22262527.860    91161265.226 7       -10.852          44.187    22262530.320    91161271.230 7       -10.852          46.875
G21  22321900.960   117302359.938 7      1276.092          47.000    22321899.380   117302359.943 6      1276.092          36.437    22321903.520    91404446.604 6       994.358          36.687
R04  22976257.740   123036801.700 7     -1094.430          43.875    22976258.840   123036801.744 7     -1094.430          42.500    22976270.100    95695353.995 7      -851.223          46.812    22976269.620    95695350.992 7      -851.223          47.187
G17  23151609.000   121662537.777 7      5410.710          43.500    23151608.220   121662537.782 5      5410.710          34.437    23151613.400    94801988.458 5      4216.138          34.312    23151613.880    94801992.463 7      4216.138          46.375
G04  23037513.740   121062978.263 7      5570.861          44.000    23037513.260   121062978.267 5      5570.861          31.437    23037530.340    94334844.036 5      4340.931          31.375    23037531.780    94334868.051 7      4340.931          45.937
R11  22715971.160   121387235.395 7      1719.512          44.937    22715971.560   121387235.391 7      1719.512          44.437    22715983.800    94412357.584 7      1337.398          45.000    22715982.880    94412357.587 7      1337.398          44.625
G22  23451602.980   123239009.738 6      3897.576          37.500    23451601.020   123239009.756 4      3897.576          28.375    23451608.500    96030421.364 4      3037.072          28.250
R20  20573175.160   110014009.812 6      2966.218          38.062    20573176.080   110014009.819 6      2966.218          37.437    20573186.700    85566501.783 7      2307.058          44.437    20573187.760    85566505.783 7      2307.058          43.937
G27  25457900.980   133782189.587 5      -705.703          34.125    25457899.740   133782189.579 4      -705.703          29.875    25457926.800   104245838.184 4      -549.899          29.750    25457926.200   104245968.224 6      -549.899          39.937
> 2024 05 06 16 06 57.0000000  0 13
G02  21736976.060   114228569.223 7      2014.608          47.000    21736974.320   114228569.226 6      2014.608          39.937    21736976.920    89009277.041 6      1569.825          39.437
G03  19940094.780   104785912.686 8      2748.360          49.062    19940093.940   104785912.691 8      2748.360          50.187    19940100.320    81651391.635 8      2141.579          50.687    19940100.920    81651395.633 8      2141.579          50.500
G14  22020319.540   115717544.005 7      2568.847          44.687    22020318.080   115717544.016 5      2568.847          35.562    22020325.240    90169535.320 5      2001.699          35.437    22020325.900    90169538.316 8      2001.699          49.125
R05  19811150.300   105901959.544 8      1876.318          49.812    19811149.540   105901959.545 8      1876.318          49.187    19811159.240    82368237.028 8      1459.359          50.625    19811159.000    82368235.027 8      1459.359          50.562
G08  22262520.100   116990274.648 7       -14.278          45.250    22262518.860   116990274.650 7       -14.278          44.000    22262530.580    91161276.207 7       -11.126          43.500    22262532.980    91161282.208 7       -11.126          47.000
G21  22321657.800   117301083.816 7      1276.102          47.312    22321656.380   117301083.815 6      1276.102          36.375    22321660.820    91403452.216 6       994.365          36.687
R04  22976462.540   123037896.435 7     -1095.017          43.875    22976463.560   123037896.485 7     -1095.017          42.687    22976474.220    95696205.456 7      -851.680          45.937    22976473.920    95696202.457 7      -851.680          45.625
G17  23150579.300   121657127.169 7      5410.487          43.750    23150578.780   121657127.168 5      5410.487          34.437    23150583.760    94797772.404 5      4215.964          34.312    23150584.280    94797776.405 7      4215.964          46.250
G04  23036453.380   121057407.515 7      5570.686          43.562    23036453.200   121057407.517 5      5570.686          31.437    23036470.360    94330503.209 5      4340.795          31.375    23036471.660    94330527.227 7      4340.795          45.687
R11  22715649.280   121385516.210 7      1718.864          44.562    22715649.460   121385516.212 7      1718.864          44.375    22715661.920    94411020.440 7      1336.894          45.187    22715661.580    94411020.439 7      1336.894          45.250
G22  23450860.780   123235112.341 6      3897.246          39.000    23450859.380   123235112.353 4      3897.246          28.375    23450866.800    96027384.429 4      3036.815          28.250
R20  20572620.320   110011043.478 6      2966.389          38.000    20572620.860   110011043.506 6      2966.389          37.437    20572632.120    85564194.657 7      2307.191          43.812    20572632.960    85564198.655 7      2307.191          44.375
G27  25458035.700   133782895.546 5      -706.017          34.937    25458034.000   133782895.537 5      -706.017          30.062    25458060.980   104246388.296 4      -550.143          29.750    25458060.460   104246518.321 6      -550.143          39.500
> 2024 05 06 16 06 58.0000000  0 13
G02  21736592.740   114226554.545 7      2014.656          47.250    21736590.960   114226554.550 6      2014.656          38.687    21736593.380    89007707.164 6      1569.862          38.750
G03  19939571.980   104783164.544 8      2747.826          49.000    19939571.040   104783164.544 7      2747.826          46.562    19939577.360    81649250.225 7      2141.163          46.125    19939578.200    81649254.226 8      2141.163          48.375
G14  22019830.820   115714975.389 7      2568.387          44.125    22019829.140   115714975.402 5      2568.387          35.312    22019836.340    90167533.797 5      2001.341          35.437    22019836.760    90167536.792 7      2001.341          47.125
R05  19810799.500   105900083.622 8      1875.446          48.937    19810798.800   105900083.623 8      1875.446          48.500    19810808.240    82366777.978 7      1458.680          46.437    19810808.040    82366775.979 7      1458.680          46.375
G08  22262522.880   116990289.015 7       -14.486          45.250    22262521.520   116990289.018 7       -14.486          43.000    22262533.400    91161287.396 7       -11.288          42.500    22262535.360    91161293.401 7       -11.288          45.687
G21  22321415.020   117299807.659 7      1276.060          47.000    22321413.660   117299807.661 6      1276.060          36.562    22321417.960    91402457.807 6       994.332          36.250
R04  22976666.700   123038991.469 7     -1095.201          43.687    22976668.140   123038991.506 7     -1095.201          42.687    22976679.020    95697057.143 7      -851.823          44.250    22976678.180    95697054.149 7      -851.823          44.437
G17  23149549.860   121651716.516 7      5410.576          43.437    23149549.240   121651716.510 5      5410.576          34.500    23149554.240    94793556.313 5      4216.033          34.250    23149554.520    94793560.318 7      4216.033          45.125
G04  23035393.480   121051836.778 7      5570.674          44.062    23035393.080   121051836.780 5      5570.674          31.437    23035410.480    94326162.395 5      4340.785          31.375    23035411.700    94326186.428 7      4340.785          44.875
R11  22715327.560   121383797.656 7      1718.189          44.937    22715328.340   121383797.657 7      1718.189          44.312    22715340.500    94409683.779 7      1336.369          44.125    22715340.160    94409683.786 7      1336.369          43.562
G22  23450119.180   123231215.388 6      3896.731          39.125    23450117.860   123231215.403 4      3896.731          28.375    23450125.420    96024347.846 4      3036.414          28.250
R20  20572065.300   110008077.312 6      2966.180          38.000    20572066.480   110008077.334 6      2966.180          37.437    20572077.320    85561887.625 7      2307.029          42.875    20572078.560    85561891.622 7      2307.029          42.562
G27  25458169.440   133783601.502 5      -705.881          34.937    25458168.120   133783601.496 5      -705.881          30.062    25458195.180   104246938.406 4      -550.037          29.750    25458194.760   104247068.425 6      -550.037          39.500
> 2024 05 06 16 06 59.0000000  0 13
G02  21736209.260   114224539.927 7      2014.293          47.562    21736207.620   114224539.932 6      2014.293          39.250    21736210.080    89006137.330 6      1569.579          39.250
G03  19939048.940   104780416.946 8      2747.127          48.750    19939048.140   104780416.948 8      2747.127          50.250    19939054.500    81647109.244 8      2140.619          50.125    19939055.380    81647113.243 8      2140.619          51.312
G14  22019342.140   115712407.392 7      2567.439          44.250    22019340.540   115712407.408 5      2567.439          35.500    22019347.740    90165532.761 5      2000.602          34.750    22019348.140    90165535.756 8      2000.602          50.000
R05  19810448.580   105898208.590 8      1874.348          49.625    19810447.820   105898208.588 8      1874.348          49.250    19810457.600    82365319.622 8      1457.827          49.937    19810457.180    82365317.618 8      1457.827          49.687
G08  22262525.760   116990303.709 7       -15.078          45.375    22262524.240   116990303.716 7       -15.078          43.812    22262536.160    91161298.841 7       -11.749          43.500    22262538.120    91161304.846 7       -11.749          46.562
G21  22321172.240   117298531.476 7      1275.933          46.687    22321170.700   117298531.481 6      1275.933          36.125    22321174.980    91401463.381 6       994.233          36.437
R04  22976871.540   123040086.900 7     -1095.868          43.687    22976872.160   123040086.937 7     -1095.868          42.562    22976883.460    95697909.143 7      -852.342          45.687    22976882.480    95697906.155 7      -852.342          46.062
G17  23148520.380   121646305.905 7      5410.334          43.312    23148519.780   121646305.905 5      5410.334          34.000    23148524.500    94789340.259 5      4215.845          33.750    23148525.060    94789344.262 7      4215.845          46.250
G04  23034333.420   121046266.133 7      5570.342          43.750    23034332.980   121046266.138 5      5570.342          30.875    23034350.260    94321821.659 5      4340.526          31.187    23034351.640    94321845.686 7      4340.526          46.125
R11  22715006.500   121382079.751 7      1717.378          45.500    22715006.700   121382079.755 7      1717.378          44.312    22715018.560    94408347.630 7      1335.739          45.125    22715018.460    94408347.635 7      1335.739          44.937
G22  23449377.720   123227318.926 6      3895.983          39.750    23449376.620   123227318.939 4      3895.983          28.375    23449383.980    96021311.640 4      3035.831          28.562
R20  20571511.360   110005111.269 6      2965.678          38.000    20571511.880   110005111.270 6      2965.678          37.375    20571522.680    85559580.690 7      2306.638          44.000    20571523.860    85559584.693 7      2306.638          44.750
G27  25458304.660   133784307.548 5      -706.228          34.937    25458302.580   133784307.547 5      -706.228          30.062    25458329.480   104247488.588 4      -550.307          29.437    25458329.440   104247618.611 6      -550.307          39.062
> 2024 05 06 16 07  0.0000000  0 13
G02  21735826.000   114222525.496 7      2014.775          47.125    21735824.340   114222525.504 6      2014.775          39.250    21735826.720    89004567.646 6      1569.954          39.312
G03  19938526.240   104777670.110 8      2746.836          48.625    19938525.440   104777670.112 8      2746.836          50.562    19938531.860    81644968.852 8      2140.392          50.750    19938532.620    81644972.849 8      2140.392          51.375
G14  22018853.460   115709840.147 7      2567.206          43.812    22018852.100   115709840.160 5      2567.206          35.250    22018859.300    90163532.310 5      2000.421          35.125    22018859.760    90163535.310 8      2000.421          49.875
R05  19810098.120   105896334.646 8      1873.802          50.062    19810097.300   105896334.647 8      1873.802          48.937    19810106.980    82363862.112 8      1457.401          50.687    19810106.740    82363860.108 8      1457.401          50.750
G08  22262528.500   116990318.919 7       -15.137          45.187    22262527.320   116990318.927 7       -15.137          44.000    22262538.940    91161310.681 7       -11.795          43.750    22262540.980    91161316.686 7       -11.795          47.000
G21  22320929.320   117297255.488 7      1276.300          46.500    22320927.840   117297255.496 6      1276.300          36.437    22320932.260    91400469.100 6       994.520          36.437
R04  22977076.280   123041182.920 7     -1095.992          43.750    22977076.980   123041182.951 7     -1095.992          42.562    22977087.960    95698761.599 7      -852.438          46.125    22977087.180    95698758.606 7      -852.438          46.500
G17  23147490.700   121640895.536 7      5410.676          43.312    23147490.240   121640895.535 5      5410.676          34.000    23147494.920    94785124.391 5      4216.111          33.750    23147495.420    94785128.384 7      4216.111          46.062
G04  23033273.360   121040695.772 7      5570.576          43.062    23033272.980   121040695.782 5      5570.576          30.875    23033290.180    94317481.138 5      4340.709          31.187    23033291.440    94317505.163 7      4340.709          45.500
R11  22714685.520   121380362.717 7      1716.930          45.437    22714685.580   121380362.721 7      1716.930          44.625    22714697.380    94407012.147 7      1335.390          45.437    22714697.440    94407012.148 7      1335.390          45.187
G22  23448636.720   123223423.129 6      3895.884          39.375    23448635.500   123223423.142 4      3895.884          28.875    23448642.440    96018275.957 4      3035.754          28.562
R20  20570956.520   110002145.490 6      2965.977          38.000    20570957.360   110002145.510 6      2965.977          37.375    20570968.240    85557273.990 7      2306.871          44.375    20570969.000    85557277.996 7      2306.871          44.750
G27  25458439.080   133785013.927 5      -706.215          34.500    25458437.060   133785013.926 5      -706.215          30.062    25458464.000   104248039.023 4      -550.297          29.437    25458463.480   104248169.049 6      -550.297          39.062
> 2024 05 06 16 07  1.0000000  0 13
G02  21735442.640   114220510.978 7      2014.510          46.750    21735441.000   114220510.981 6      2014.510          39.625    21735443.480    89002997.887 6      1569.748          39.625
G03  19938003.580   104774923.668 8      2746.227          48.687    19938002.800   104774923.673 8      2746.227          50.312    19938009.100    81642828.770 8      2139.917          51.062    19938009.660    81642832.769 8      2139.917          51.375
G14  22018365.120   115707273.333 7      2566.616          43.625    22018363.600   115707273.351 5      2566.616          35.250    22018370.960    90161532.193 5      1999.961          35.437    22018371.180    90161535.190 8      1999.961          49.687
R05  19809747.560   105894461.415 8      1872.844          49.812    19809746.900   105894461.419 8      1872.844          48.437    19809756.500    82362405.159 8      1456.656          51.250    19809756.500    82362403.158 8      1456.656          51.375
G08  22262531.200   116990334.269 7       -15.488          44.625    22262530.240   116990334.274 7       -15.488          44.562    22262541.920    91161322.634 7       -12.069          44.500    22262544.020    91161328.635 7       -12.069          47.187
G21  22320686.600   117295979.324 7      1276.253          46.312    22320685.000   117295979.329 6      1276.253          36.750    22320689.500    91399474.684 6       994.483          36.937
R04  22977281.160   123042279.160 7     -1096.453          43.500    22977281.840   123042279.199 7     -1096.453          42.500    22977292.800    95699614.236 7      -852.797          45.937    22977292.080    95699611.245 7      -852.797          46.375
G17  23146461.160   121635485.056 7      5410.372          43.750    23146460.800   121635485.056 5      5410.372          34.500    23146465.440    94780908.435 5      4215.874          34.187    23146466.020    94780912.434 7      4215.874          46.562
G04  23032213.400   121035125.303 7      5570.537          44.000    23032212.940   121035125.308 5      5570.537          30.875    23032230.080    94313140.534 5      4340.678          31.187    23032231.680    94313164.554 7      4340.678          45.875
R11  22714364.220   121378646.169 7      1716.214          44.875    22714364.560   121378646.173 7      1716.214          44.187    22714375.900    94405677.052 7      1334.833          44.812    22714375.980    94405677.053 7      1334.833          45.125
G22  23447895.720   123219527.663 6      3895.251          40.750    23447894.460   123219527.676 4      3895.251          28.875    23447901.260    96015240.531 4      3035.260          28.562
R20  20570402.140   109999179.707 6      2965.877          37.500    20570402.580   109999179.711 6      2965.877          37.375    20570413.680    85554967.247 7      2306.793          44.750    20570414.400    85554971.252 7      2306.793          44.625
G27  25458573.680   133785720.193 5      -706.534          34.500    25458571.540   133785720.193 4      -706.534          29.437    25458598.340   104248589.369 4      -550.546          29.437    25458597.920   104248719.411 6      -550.546          39.062
> 2024 05 06 16 07  2.0000000  0 13
G02  21735059.200   114218496.550 7      2014.341          47.187    21735057.640   114218496.555 6      2014.341          39.562    21735060.180    89001428.203 6      1569.616          39.375
G03  19937481.000   104772177.868 8      2745.459          48.562    19937480.340   104772177.875 8      2745.459          50.562    19937486.580    81640689.189 8      2139.319          51.187    19937487.380    81640693.186 8      2139.319          51.125
G14  22017876.520   115704707.223 7      2565.689          43.375    22017875.160   115704707.236 5      2565.689          35.937    22017882.540    90159532.622 5      1999.238          35.562    22017882.920    90159535.618 8      1999.238          49.437
R05  19809397.440   105892589.149 8      1871.741          49.500    19809396.620   105892589.153 8      1871.741          48.812    19809406.240    82360948.950 8      1455.799          51.250    19809406.240    82360946.949 8      1455.799          51.062
G08  22262534.380   116990350.026 7       -15.973          45.062    22262533.220   116990350.029 7       -15.973          44.187    22262545.060    91161334.898 7       -12.447          43.875    22262546.960    91161340.903 7       -12.447          46.937
G21  22320443.760   117294703.241 7      1276.030          46.125    22320442.240   117294703.251 6      1276.030          36.562    22320446.560    91398480.336 6       994.309          36.875
R04  22977485.700   123043375.905 7     -1097.061          43.500    22977486.300   123043375.947 7     -1097.061          42.500    22977497.580    95700467.262 7      -853.270          45.437    22977497.200    95700464.272 7      -853.270          46.812
G17  23145432.040   121630074.664 7      5410.286          43.437    23145431.220   121630074.663 5      5410.286          34.500    23145435.840    94776692.549 5      4215.808          34.187    23145436.260    94776696.556 7      4215.808          46.250
G04  23031153.400   121029555.042 7      5570.041          44.187    23031152.880   121029555.046 5      5570.041          31.375    23031170.020    94308800.091 5      4340.292          31.375    23031171.260    94308824.113 7      4340.292          45.437
R11  22714043.300   121376930.402 7      1715.394          45.125    22714043.360   121376930.403 7      1715.394          44.562    22714054.680    94404342.566 7      1334.196          45.250    22714055.000    94404342.569 7      1334.196          45.562
G22  23447154.900   123215632.757 6      3894.530          40.000    23447153.500   123215632.770 4      3894.530          28.875    23447160.040    96012205.539 4      3034.699          28.562
R20  20569846.860   109996214.137 6      2965.372          37.500    20569847.720   109996214.141 6      2965.372          37.375    20569859.200    85552660.696 7      2306.400          44.437    20569860.000    85552664.698 7      2306.400          44.437
G27  25458706.960   133786426.633 5      -706.534          34.500    25458706.200   133786426.630 4      -706.534          29.437    25458732.820   104249139.846 4      -550.546          29.500    25458731.740   104249269.875 6      -550.546          39.125
> 2024 05 06 16 07  3.0000000  0 13
G02  21734675.820   114216482.069 7      2014.390          47.250    21734674.380   114216482.076 6      2014.390          40.000    21734676.820    88999858.479 6      1569.655          39.875
