     3.05           OBSERVATION DATA    MIXED               RINEX VERSION / TYPE
TPS2RIN 1.0.29.3920 TPS-USER            20240511 190524 UTC PGM / RUN BY / DATE
Win64 build Feb 23, 2024 (c) Topcon Positioning Systems     COMMENT
SRC: 20240508_GUI09.tps                                     COMMENT
OPT: -S -v 3.05                                             COMMENT
Observer            Agency                                  OBSERVER / AGENCY
O0M3X53SBGM         TPS HIPER_SR        4.8 HSR Jul,08,2022 REC # / TYPE / VERS
FW: 4.8 HSR Jul,08,2022 p3                                  COMMENT
SN: HiPer SR 1212-12575                                     COMMENT
000                 TPSHIPER_SR     NONE                    ANT # / TYPE
        1.8000        0.0000        0.0000                  ANTENNA: DELTA H/E/N
GUI09                                                       MARKER NAME
  5387646.4894 -1580362.4966  3016922.4883                  APPROX POSITION XYZ
  2024     5     8     9    43   14.0000000     GPS         TIME OF FIRST OBS
  2024     5     8     9    58   15.0000000     GPS         TIME OF LAST OBS
     1.000                                                  INTERVAL
   902 EPOCHS                                               COMMENT
G   16 C1C L1C D1C S1C C1W L1W D1W S1W C2W L2W D2W S2W C2X  SYS / # / OBS TYPES
       L2X D2X S2X                                          SYS / # / OBS TYPES
R   16 C1C L1C D1C S1C C1P L1P D1P S1P C2P L2P D2P S2P C2C  SYS / # / OBS TYPES
       L2C D2C S2C                                          SYS / # / OBS TYPES
    15                                                      # OF SATELLITES
   G04   159   159   159   159   159   159   159   159   159PRN / # OF OBS
         159   159   159   159   159   159   159            PRN / # OF OBS
   G10   318   318   318   318   318   318   318   318   318PRN / # OF OBS
         318   318   318   318   318   318   318            PRN / # OF OBS
   G16   902   902   902   902   902   902   902   902   902PRN / # OF OBS
         902   902   902     0     0     0     0            PRN / # OF OBS
   G18   902   902   902   902   902   902   902   902   902PRN / # OF OBS
         902   902   902   902   902   902   902            PRN / # OF OBS
   G23   902   902   902   902   902   902   902   902   902PRN / # OF OBS
         902   902   902   902   902   902   902            PRN / # OF OBS
   G26   902   902   902   902   902   902   902   902   902PRN / # OF OBS
         902   902   902   902   902   902   902            PRN / # OF OBS
   G27   902   902   902   902   902   902   902   902   902PRN / # OF OBS
         902   902   902   902   902   902   902            PRN / # OF OBS
   G28   902   902   902   902   902   902   902   902   902PRN / # OF OBS
         902   902   902   902   902   902   902            PRN / # OF OBS
   G29   902   902   902   902   902   902   902   902   902PRN / # OF OBS
         902   902   902   902   902   902   902            PRN / # OF OBS
   G31   902   902   902   902   902   902   902   902   902PRN / # OF OBS
         902   902   902   902   902   902   902            PRN / # OF OBS
   R09   902   902   902   902   902   902   902   902   902PRN / # OF OBS
         902   902   902   902   902   902   902            PRN / # OF OBS
   R10   902   902   902   902   902   902   902   902     0PRN / # OF OBS
           0     0     0     0     0     0     0            PRN / # OF OBS
   R16   902   902   902   902   902   902   902   902   902PRN / # OF OBS
         902   902   902   902   902   902   902            PRN / # OF OBS
   R18   902   902   902   902   902   902   902   902   902PRN / # OF OBS
         902   902   902   902   902   902   902            PRN / # OF OBS
   R20   902   902   902   902   902   902   902   902   902PRN / # OF OBS
         902   902   902   902   902   902   902            PRN / # OF OBS
G L1C                                                       SYS / PHASE SHIFT
G L1W -0.25000                                              SYS / PHASE SHIFT
G L2W  0.00000                                              SYS / PHASE SHIFT
G L2X  0.25000                                              SYS / PHASE SHIFT
R L1C                                                       SYS / PHASE SHIFT
R L1P -0.25000                                              SYS / PHASE SHIFT
R L2P -0.25000                                              SYS / PHASE SHIFT
R L2C                                                       SYS / PHASE SHIFT
  5 R09 -2 R10 -7 R16 -1 R18 -3 R20  2                      GLONASS SLOT / FRQ #
                                                            GLONASS COD/PHS/BIS
    18    18  1929     7GPS                                 LEAP SECONDS
                                                            END OF HEADER
> 2024 05 08 09 43 14.0000000  0 14
G28  21734324.160   114214636.051 7      -254.400          44.937    21734322.980   114214636.064 5      -254.400          35.500    21734325.360    88998428.807 5      -198.233          35.375    21734325.980    88998431.807 7      -198.233          47.937
G04  24465609.760   128567652.998 6      2216.614          36.812    24465608.160   128567653.016 2      2216.614          17.062    24465615.260   100182590.758 2      1727.231          17.562    24465614.940   100182602.775 6      1727.231          37.125
R10  22371664.300   119253560.718 6      5944.121          40.812    22371662.980   119253560.732 6      5944.121          40.250
R18  23192396.820   123802596.650 6     -1561.224          41.062    23192396.640   123802596.656 6     -1561.224          41.812    23192408.460    96290950.984 7     -1214.286          46.750    23192407.860    96290947.983 7     -1214.286          46.437
G31  20676745.660   108657028.155 7      1415.880          47.937    20676744.820   108657028.160 8      1415.880          48.812    20676745.940    84667819.044 8      1103.283          49.000    20676746.520    84667818.045 8      1103.283          51.187
R20  20259179.560   108334936.258 6      5184.136          37.000    20259178.560   108334936.292 6      5184.136          37.125    20259188.240    84260542.512 7      4032.105          44.937    20259189.500    84260545.522 7      4032.105          44.312
G18  21629972.040   113666266.106 7      1552.419          46.562    21629971.160   113666266.116 6      1552.419          38.437    21629973.820    88571116.501 6      1209.677          38.187    21629974.040    88571125.506 8      1209.677          50.812
G29  24803084.800   130341083.583 6      -412.682          38.687    24803083.680   130341083.585 5      -412.682          33.375    24803090.140   101564475.384 5      -321.571          33.375    24803090.540   101564473.378 6      -321.571          39.625
G27  21908495.420   115129925.364 7      4341.980          44.312    21908493.880   115129925.366 6      4341.980          37.000    21908499.520    89711640.477 6      3383.361          36.500    21908502.280    89711655.482 8      3383.361          48.562
R16  20950544.980   111914048.754 7       755.452          47.375    20950544.660   111914048.752 7       755.452          46.625    20950553.760    87044296.375 8       587.574          49.000    20950553.480    87044297.373 8       587.574          49.687
G23  24835070.240   130509180.013 6      4681.819          40.875    24835069.840   130509180.015 4      4681.819          26.375    24835079.680   101695485.689 4      3648.170          26.375    24835080.240   101695501.743 7      3648.170          42.937
G16  22049598.000   115871417.301 7      4426.139          46.187    22049596.780   115871417.308 5      4426.139          34.500    22049599.320    90289408.550 5      3448.939          34.375
R09  19747826.900   105452299.401 7      4219.461          47.625    19747825.300   105452299.404 7      4219.461          47.375    19747830.860    82018463.700 8      3281.803          51.625    19747830.960    82018467.697 8      3281.803          51.562
G26  20681363.800   108681302.635 7      3129.119          46.812    20681362.820   108681302.638 7      3129.119          47.562    20681367.500    84686751.690 7      2438.274          47.875    20681367.700    84686751.686 8      2438.274          48.875
> 2024 05 08 09 43 15.0000000  0 14
G28  21734372.220   114214890.642 7      -254.748          44.125    21734371.340   114214890.652 5      -254.748          35.000    21734373.880    88998627.186 5      -198.505          35.375    21734374.540    88998630.189 8      -198.505          48.187
G04  24465187.460   128565436.639 6      2216.160          38.000    24465186.540   128565436.655 2      2216.160          17.062    24465193.480   100180863.728 2      1726.878          17.562    24465193.260   100180875.726 6      1726.878          37.125
R10  22370548.940   119247616.767 6      5943.925          40.812    22370547.580   119247616.781 6      5943.925          40.125
R18  23192689.680   123804157.947 6     -1561.398          41.062    23192689.340   123804157.958 6     -1561.398          41.812    23192700.840    96292165.322 7     -1214.420          46.937    23192700.480    96292162.325 7     -1214.420          46.687
G31  20676476.520   108655612.630 7      1415.223          47.687    20676475.480   108655612.635 8      1415.223          48.125    20676476.540    84666716.038 8      1102.771          48.625    20676477.240    84666715.039 8      1102.771          50.500
R20  20258209.540   108329752.476 6      5183.384          36.187    20258210.020   108329752.490 6      5183.384          37.125    20258218.900    84256510.669 7      4031.521          44.625    20258219.800    84256513.674 7      4031.521          44.687
G18  21629676.920   113664713.991 7      1551.832          46.250    21629675.680   113664713.996 6      1551.832          39.125    21629678.560    88569907.053 6      1209.220          39.000    21629678.660    88569916.058 8      1209.220          50.812
G29  24803163.420   130341496.221 6      -412.670          39.062    24803162.020   130341496.221 5      -412.670          33.375    24803168.700   101564796.913 5      -321.561          33.375    24803169.220   101564794.917 6      -321.561          39.687
G27  21907669.460   115125583.588 7      4341.571          43.625    21907667.680   115125583.588 6      4341.571          36.687    21907673.440    89708257.273 6      3383.042          36.812    21907676.460    89708272.276 8      3383.042          48.812
R16  20950403.680   111913293.602 7       754.794          47.687    20950403.360   111913293.608 7       754.794          46.812    20950412.460    87043709.037 8       587.062          49.125    20950412.620    87043710.041 8       587.062          49.500
G23  24834178.920   130504498.141 6      4682.010          40.375    24834178.900   130504498.141 4      4682.010          26.375    24834188.520   101691837.486 4      3648.320          26.375    24834189.220   101691853.505 7      3648.320          42.562
G16  22048755.540   115866991.231 7      4425.984          45.437    22048754.420   115866991.236 5      4425.984          34.500    22048757.020    90285959.661 5      3448.819          34.312
R09  19747037.120   105448080.273 7      4218.873          47.812    19747035.240   105448080.272 7      4218.873          46.625    19747040.900    82015182.157 8      3281.345          51.937    19747040.740    82015186.149 8      3281.345          52.125
G26  20680768.480   108678173.630 7      3128.852          47.375    20680767.380   108678173.640 7      3128.852          47.625    20680772.080    84684313.508 7      2438.067          47.500    20680772.420    84684313.508 8      2438.067          48.937
> 2024 05 08 09 43 16.0000000  0 14
G28  21734420.580   114215145.493 7      -255.011          45.437    21734419.840   114215145.498 5      -255.011          35.000    21734422.380    88998825.769 5      -198.710          35.000    21734422.960    88998828.766 7      -198.710          47.750
G04  24464765.540   128563220.580 6      2215.850          38.000    24464764.880   128563220.590 2      2215.850          17.062    24464771.640   100179136.929 2      1726.637          17.562    24464771.260   100179148.937 6      1726.637          37.125
R10  22369434.040   119241672.619 6      5944.223          41.125    22369432.540   119241672.631 6      5944.223          40.125
R18  23192982.140   123805719.166 7     -1561.231          42.000    23192981.460   123805719.180 7     -1561.231          42.000    23192993.360    96293379.608 7     -1214.291          46.625    23192992.920    96293376.609 7     -1214.291          46.750
G31  20676207.040   108654197.507 8      1414.909          48.187    20676206.140   108654197.506 8      1414.909          48.875    20676207.340    84665613.340 8      1102.527          48.562    20676208.000    84665612.341 8      1102.527          51.250
R20  20257240.080   108324569.142 6      5183.210          36.187    20257240.320   108324569.154 6      5183.210          37.125    20257249.520    84252479.187 7      4031.385          44.687    20257250.760    84252482.194 7      4031.385          44.250
G18  21629381.700   113663162.300 7      1551.508          46.562    21629380.340   113663162.303 6      1551.508          39.000    21629383.240    88568697.943 6      1208.967          39.000    21629383.700    88568706.950 8      1208.967          51.312
G29  24803242.100   130341908.587 6      -412.254          38.687    24803240.500   130341908.592 5      -412.254          33.312    24803247.180   101565118.228 5      -321.237          33.250    24803247.640   101565116.234 6      -321.237          39.687
G27  21906843.180   115121241.951 7      4341.560          44.250    21906841.440   115121241.953 6      4341.560          36.812    21906847.080    89704874.183 6      3383.034          36.687    21906849.880    89704889.191 8      3383.034          48.750
R16  20950262.560   111912538.787 7       754.622          47.875    20950262.160   111912538.796 7       754.622          47.625    20950271.180    87043121.956 8       586.928          49.187    20950270.980    87043122.958 8       586.928          49.437
G23  24833288.080   130499816.144 6      4682.111          41.312    24833287.860   130499816.143 4      4682.111          26.375    24833297.680   101688189.187 4      3648.398          26.375    24833298.060   101688205.191 7      3648.398          42.250
G16  22047913.160   115862565.080 7      4426.154          45.625    22047912.060   115862565.085 5      4426.154          34.250    22047914.760    90282510.712 5      3448.951          34.312
R09  19746246.820   105443861.386 8      4218.683          48.437    19746245.240   105443861.387 7      4218.683          47.625    19746250.780    82011900.802 8      3281.198          52.062    19746250.820    82011904.799 8      3281.198          51.750
G26  20680172.980   108675044.716 7      3128.798          47.000    20680171.960   108675044.721 8      3128.798          48.000    20680176.660    84681875.391 7      2438.024          47.812    20680176.940    84681875.392 8      2438.024          48.750
> 2024 05 08 09 43 17.0000000  0 14
G28  21734469.360   114215400.782 7      -255.604          44.812    21734468.440   114215400.790 5      -255.604          35.250    21734470.820    88999024.694 5      -199.172          35.062    21734471.420    88999027.689 8      -199.172          48.687
G04  24464344.320   128561005.057 6      2215.271          37.812    24464343.520   128561005.073 2      2215.271          17.062    24464349.880   100177410.555 2      1726.185          17.562    24464350.040   100177422.545 6      1726.185          36.875
R10  22368319.500   119235728.594 6      5943.862          41.125    22368317.700   119235728.592 6      5943.862          40.125
R18  23193274.280   123807280.586 6     -1561.592          40.875    23193274.340   123807280.584 7     -1561.592          42.000    23193285.880    96294594.033 7     -1214.572          47.062    23193285.340    96294591.032 7     -1214.572          46.750
G31  20675937.780   108652783.017 8      1414.089          48.750    20675937.000   108652783.024 8      1414.089          49.125    20675938.100    84664511.144 8      1101.887          48.937    20675938.800    84664510.143 8      1101.887          51.125
R20  20256270.240   108319386.600 6      5182.099          36.187    20256270.840   108319386.607 6      5182.099          37.125    20256280.780    84248448.323 7      4030.521          44.562    20256281.440    84248451.324 7      4030.521          44.375
G18  21629086.540   113661611.277 7      1550.605          46.437    21629085.320   113661611.284 6      1550.605          39.187    21629087.980    88567489.358 6      1208.264          38.562    21629088.360    88567498.364 8      1208.264          51.062
G29  24803320.920   130342320.957 6      -412.584          38.250    24803318.840   130342320.962 5      -412.584          33.312    24803325.600   101565439.554 5      -321.494          33.250    24803325.680   101565437.556 6      -321.494          39.187
G27  21906017.160   115116900.743 7      4340.906          44.000    21906015.420   115116900.748 6      4340.906          36.562    21906021.040    89701491.423 6      3382.524          36.437    21906023.900    89701506.429 8      3382.524          48.750
R16  20950121.380   111911784.578 8       753.830          48.000    20950121.020   111911784.584 7       753.830          47.312    20950129.940    87042535.345 8       586.312          49.562    20950129.780    87042536.345 8       586.312          49.812
G23  24832397.420   130495134.175 6      4681.709          41.000    24832396.840   130495134.172 4      4681.709          26.375    24832406.820   101684540.910 4      3648.085          26.375    24832407.440   101684556.947 7      3648.085          43.187
G16  22047071.000   115858139.072 7      4425.857          46.625    22047069.900   115858139.079 5      4425.857          34.250    22047072.480    90279061.876 5      3448.720          34.187
R09  19745456.820   105439642.985 8      4218.027          48.437    19745455.300   105439642.981 8      4218.027          48.125    19745460.800    82008619.818 8      3280.687          51.812    19745460.940    82008623.812 8      3280.687          52.375
G26  20679577.480   108671916.094 7      3128.382          47.000    20679576.560   108671916.101 8      3128.382          48.000    20679581.300    84679437.504 8      2437.700          48.062    20679581.380    84679437.504 8      2437.700          48.812
> 2024 05 08 09 43 18.0000000  0 14
G28  21734518.060   114215656.571 7      -256.105          45.375    21734517.080   114215656.579 5      -256.105          35.187    21734519.560    88999224.005 5      -199.563          35.062    21734519.940    88999227.007 7      -199.563          47.750
G04  24463923.060   128558790.149 6      2214.469          37.937    24463922.260   128558790.159 2      2214.469          17.062    24463928.520   100175684.655 2      1725.560          17.562    24463928.700   100175696.632 6      1725.560          36.875
R10  22367204.340   119229784.662 6      5943.759          41.187    22367203.180   119229784.658 6      5943.759          40.437
R18  23193566.860   123808842.163 6     -1561.720          40.875    23193567.220   123808842.161 7     -1561.720          42.187    23193578.280    96295808.580 7     -1214.671          46.875    23193577.760    96295805.583 7     -1214.671          46.875
G31  20675668.660   108651369.215 8      1413.435          48.250    20675668.040   108651369.215 8      1413.435          49.125    20675669.060    84663409.474 8      1101.378          49.125    20675669.500    84663408.475 8      1101.378          51.125
R20  20255301.180   108314204.799 6      5181.374          36.187    20255302.380   108314204.819 6      5181.374          37.125    20255311.700    84244418.037 7      4029.958          44.500    20255312.640    84244421.040 7      4029.958          44.875
G18  21628791.420   113660060.960 7      1549.944          46.562    21628790.140   113660060.970 6      1549.944          39.187    21628793.000    88566281.318 6      1207.749          38.812    21628793.480    88566290.323 8      1207.749          51.625
G29  24803399.380   130342733.315 6      -412.405          39.312    24803397.180   130342733.319 5      -412.405          32.750    24803404.080   101565760.859 5      -321.355          32.750    24803404.060   101565758.859 6      -321.355          39.187
G27  21905191.140   115112559.949 7      4340.520          45.187    21905189.300   115112559.954 6      4340.520          37.125    21905194.960    89698108.993 6      3382.224          36.437    21905198.120    89698123.999 8      3382.224          48.812
R16  20949980.060   111911030.975 7       753.249          47.937    20949979.920   111911030.976 7       753.249          47.250    20949989.100    87041949.203 8       585.861          49.187    20949988.680    87041950.205 8       585.861          50.062
G23  24831506.200   130490452.291 6      4681.792          40.687    24831505.940   130490452.293 4      4681.792          26.375    24831515.780   101680892.696 4      3648.150          26.375    24831515.820   101680908.752 7      3648.150          43.187
G16  22046228.660   115853713.270 7      4425.643          44.562    22046227.820   115853713.272 5      4425.643          34.000    22046230.260    90275613.202 5      3448.553          34.187
R09  19744667.000   105435425.129 8      4217.492          48.250    19744665.600   105435425.132 7      4217.492          47.437    19744671.060    82005339.269 8      3280.272          51.937    19744671.020    82005343.265 8      3280.272          52.812
G26  20678982.400   108668787.826 7      3128.064          47.187    20678981.240   108668787.834 7      3128.064          47.750    20678985.920    84676999.895 7      2437.452          47.687    20678986.200    84676999.895 8      2437.452          48.500
> 2024 05 08 09 43 19.0000000  0 14
G28  21734566.960   114215912.886 7      -256.369          44.562    21734565.820   114215912.896 5      -256.369          35.250    21734568.340    88999423.735 5      -199.768          35.375    21734568.740    88999426.737 8      -199.768          48.062
G04  24463501.940   128556575.819 6      2214.107          37.937    24463500.540   128556575.829 2      2214.107          17.062    24463507.200   100173959.197 2      1725.278          17.562    24463507.440   100173971.189 6      1725.278          36.875
R10  22366089.780   119223840.848 6      5944.078          41.187    22366087.680   119223840.840 6      5944.078          40.437
R18  23193860.020   123810403.959 6     -1561.731          41.812    23193859.940   123810403.965 7     -1561.731          42.375    23193871.060    96297023.319 7     -1214.680          46.375    23193870.220    96297020.320 7     -1214.680          46.875
G31  20675399.860   108649956.107 8      1413.018          48.000    20675399.060   108649956.109 8      1413.018          48.687    20675400.200    84662308.355 8      1101.053          49.125    20675400.900    84662307.354 8      1101.053          51.062
R20  20254332.380   108309023.818 6      5180.722          36.187    20254333.020   108309023.857 6      5180.722          37.000    20254342.520    84240388.402 7      4029.450          44.437    20254343.820    84240391.405 7      4029.450          44.750
G18  21628496.440   113658511.384 7      1549.421          46.375    21628495.340   113658511.394 6      1549.421          39.250    21628498.060    88565073.857 6      1207.341          38.937    21628498.580    88565082.857 8      1207.341          51.625
G29  24803477.320   130343145.732 6      -412.316          38.562    24803475.840   130343145.737 5      -412.316          32.750    24803482.360   101566082.228 5      -321.286          32.750    24803483.320   101566080.232 6      -321.286          39.000
G27  21904365.060   115108219.624 7      4340.312          44.125    21904363.360   115108219.626 6      4340.312          36.812    21904369.200    89694726.921 6      3382.061          36.937    21904371.900    89694741.919 8      3382.061          49.312
R16  20949839.120   111910277.992 7       752.874          47.875    20949838.920   111910277.991 7       752.874          47.625    20949848.000    87041363.543 8       585.569          49.187    20949847.740    87041364.545 8       585.569          49.875
G23  24830615.680   130485770.580 6      4681.719          40.687    24830615.160   130485770.584 4      4681.719          26.375    24830624.940   101677244.616 4      3648.092          26.312    24830623.980   101677260.633 6      3648.092          41.875
G16  22045386.620   115849287.682 7      4425.694          44.687    22045385.580   115849287.681 5      4425.694          34.187    22045387.960    90272164.689 5      3448.592          34.125
R09  19743877.380   105431207.833 8      4217.214          48.125    19743875.680   105431207.829 8      4217.214          48.062    19743881.360    82002059.146 8      3280.055          51.812    19743881.340    82002063.138 8      3280.055          52.812
G26  20678387.080   108665659.940 7      3127.904          46.312    20678386.080   108665659.947 7      3127.904          47.875    20678390.840    84674562.581 7      2437.328          47.937    20678391.000    84674562.583 8      2437.328          48.875
> 2024 05 08 09 43 20.0000000  0 14
G28  21734615.940   114216169.555 7      -256.857          45.312    21734614.780   114216169.567 5      -256.857          35.312    21734617.300    88999623.735 5      -200.149          34.750    21734617.660    88999626.728 7      -200.149          47.812
G04  24463080.340   128554361.894 6      2213.761          37.625    24463079.640   128554361.904 2      2213.761          17.187    24463085.900   100172234.062 2      1725.009          17.562    24463086.360   100172246.048 6      1725.009          36.875
R10  22364974.560   119217896.998 6      5943.880          41.312    22364972.500   119217897.007 6      5943.880          40.312
R18  23194152.880   123811965.821 6     -1561.877          41.187    23194152.580   123811965.819 7     -1561.877          42.375    23194163.340    96298238.090 7     -1214.794          46.375    23194163.120    96298235.089 7     -1214.794          46.875
G31  20675131.180   108648543.522 8      1412.299          48.875    20675130.440   108648543.527 8      1412.299          49.312    20675131.380    84661207.638 8      1100.493          48.687    20675132.100    84661206.639 8      1100.493          50.875
R20  20253363.660   108303843.498 6      5179.905          36.375    20253364.320   108303843.536 6      5179.905          37.000    20253374.060    84236359.270 7      4028.815          44.687    20253375.120    84236362.272 7      4028.815          44.562
G18  21628201.800   113656962.349 7      1548.725          47.312    21628200.600   113656962.357 6      1548.725          39.250    21628203.360    88563866.813 6      1206.799          38.875    21628203.820    88563875.817 8      1206.799          51.062
G29  24803555.760   130343558.027 6      -412.429          39.125    24803554.100   130343558.034 5      -412.429          33.062    24803560.820   101566403.490 5      -321.373          33.000    24803561.460   101566401.494 6      -321.373          39.000
G27  21903539.040   115103879.579 7      4339.860          44.687    21903537.520   115103879.582 6      4339.860          36.437    21903543.220    89691345.066 6      3381.709          36.375    21903546.040    89691360.068 8      3381.709          48.312
R16  20949698.380   111909525.461 7       752.261          47.875    20949698.140   111909525.464 7       752.261          47.250    20949707.120    87040778.243 8       585.092          49.250    20949706.920    87040779.247 8       585.092          49.875
G23  24829724.680   130481088.766 6      4681.735          40.062    24829724.260   130481088.771 4      4681.735          26.375    24829733.880   101673596.455 4      3648.105          26.312    24829733.180   101673612.481 7      3648.105          42.000
G16  22044544.060   115844862.125 7      4425.516          45.812    22044543.320   115844862.124 5      4425.516          34.187    22044545.780    90268716.205 5      3448.454          34.125
R09  19743087.600   105426990.903 8      4216.698          48.062    19743085.780   105426990.899 7      4216.698          47.437    19743091.620    81998779.316 8      3279.654          51.625    19743091.640    81998783.308 8      3279.654          52.250
G26  20677791.840   108662532.232 7      3127.624          47.375    20677790.840   108662532.237 7      3127.624          47.937    20677795.580    84672125.406 7      2437.110          47.437    20677795.720    84672125.406 8      2437.110          48.312
> 2024 05 08 09 43 21.0000000  0 14
G28  21734664.900   114216426.673 7      -257.480          44.312    21734663.620   114216426.680 5      -257.480          35.312    21734666.160    88999824.075 5      -200.634          35.562    21734666.560    88999827.074 7      -200.634          47.625
G04  24462659.440   128552148.533 6      2212.861          38.062    24462658.480   128552148.546 2      2212.861          17.187    24462664.640   100170509.361 2      1724.307          17.562    24462664.980   100170521.349 6      1724.307          36.937
R10  22363859.100   119211953.216 6      5943.569          41.312    22363857.680   119211953.224 6      5943.569          40.312
R18  23194444.940   123813527.852 6     -1562.348          41.187    23194445.180   123813527.855 7     -1562.348          42.437    23194456.100    96299453.003 7     -1215.159          46.437    23194455.460    96299450.002 7     -1215.159          46.562
G31  20674862.320   108647131.578 8      1411.469          48.437    20674861.660   108647131.580 8      1411.469          49.000    20674862.760    84660107.416 8      1099.846          49.187    20674863.580    84660106.419 8      1099.846          50.375
R20  20252395.580   108298663.918 6      5179.020          36.375    20252396.060   108298663.927 6      5179.020          37.000    20252405.120    84232330.681 7      4028.127          44.250    20252406.780    84232333.683 7      4028.127          45.312
G18  21627907.100   113655413.961 7      1547.891          46.625    21627905.860   113655413.973 6      1547.891          38.875    21627908.860    88562660.276 6      1206.149          38.687    21627909.340    88562669.281 8      1206.149          50.875
G29  24803634.300   130343970.242 6      -412.367          39.062    24803632.540   130343970.244 5      -412.367          33.062    24803639.020   101566724.686 5      -321.325          33.000    24803639.740   101566722.690 6      -321.325          39.000
G27  21902713.340   115099539.916 7      4339.228          44.000    21902711.700   115099539.923 6      4339.228          36.250    21902717.400    89687963.517 6      3381.217          36.000    21902720.180    89687978.514 8      3381.217          48.500
R16  20949557.480   111908773.516 8       751.480          48.062    20949557.260   111908773.520 7       751.480          47.812    20949566.440    87040193.392 8       584.485          48.875    20949566.100    87040194.394 8       584.485          49.375
G23  24828833.740   130476406.997 6      4681.494          39.750    24828833.240   130476407.002 4      4681.494          26.375    24828843.120   101669948.328 4      3647.917          26.312    24828843.220   101669964.372 7      3647.917          42.562
G16  22043702.240   115840436.694 7      4425.257          45.375    22043701.100   115840436.699 5      4425.257          34.187    22043703.840    90265267.823 5      3448.252          34.312
R09  19742298.120   105422774.467 8      4216.001          48.562    19742296.480   105422774.468 7      4216.001          47.625    19742302.060    81995499.867 8      3279.112          52.187    19742302.000    81995503.858 8      3279.112          51.937
G26  20677196.920   108659404.837 7      3127.025          47.312    20677195.760   108659404.842 7      3127.025          47.437    20677200.420    84669688.473 7      2436.643          47.250    20677200.760    84669688.471 7      2436.643          47.875
> 2024 05 08 09 43 22.0000000  0 14
G28  21734713.820   114216684.283 7      -257.915          44.875    21734712.700   114216684.290 5      -257.915          35.375    21734715.140    89000024.807 5      -200.972          35.562    21734715.500    89000027.807 7      -200.972          47.875
G04  24462237.920   128549935.703 6      2212.555          38.062    24462237.340   128549935.711 2      2212.555          17.187    24462243.560   100168785.078 2      1724.068          17.187    24462244.180   100168797.075 6      1724.068          36.937
R10  22362744.040   119206009.521 6      5943.661          41.312    22362742.660   119206009.527 6      5943.661          40.312
R18  23194737.760   123815090.032 7     -1562.216          42.437    23194737.840   123815090.041 7     -1562.216          42.187    23194748.680    96300668.038 7     -1215.057          46.375    23194748.260    96300665.037 7     -1215.057          46.875
G31  20674593.820   108645720.288 8      1410.934          48.625    20674593.060   108645720.291 8      1410.934          48.375    20674594.160    84659007.711 8      1099.429          48.000    20674595.060    84659006.712 8      1099.429          50.750
R20  20251427.220   108293485.109 6      5178.349          36.375    20251427.000   108293485.118 6      5178.349          37.000    20251436.840    84228302.721 7      4027.604          44.625    20251437.740    84228305.722 7      4027.604          44.250
G18  21627612.740   113653866.284 7      1547.226          46.812    21627611.360   113653866.300 6      1547.226          39.312    21627614.360    88561454.297 6      1205.631          39.062    21627614.740    88561463.299 8      1205.631          50.562
G29  24803712.320   130344382.505 6      -412.281          40.000    24803711.060   130344382.502 5      -412.281          32.750    24803717.500   101567045.916 5      -321.258          32.750    24803717.860   101567043.910 6      -321.258          39.000
G27  21901887.580   115095200.665 7      4339.098          45.375    21901886.000   115095200.665 6      4339.098          36.937    21901891.740    89684582.282 6      3381.115          36.250    21901894.420    89684597.288 8      3381.115          48.625
R16  20949417.040   111908022.219 8       750.971          48.500    20949416.560   111908022.217 7       750.971          46.687    20949425.780    87039609.045 8       584.088          49.500    20949425.560    87039610.045 8       584.088          49.625
G23  24827943.100   130471725.352 6      4681.514          39.500    24827942.380   130471725.356 4      4681.514          26.375    24827952.140   101666300.297 4      3647.933          26.312    24827952.100   101666316.332 7      3647.933          42.500
G16  22042860.120   115836011.470 7      4425.089          45.937    22042859.200   115836011.473 5      4425.089          34.062    22042861.600    90261819.602 5      3448.121          34.000
R09  19741508.860   105418558.555 8      4215.623          48.562    19741506.660   105418558.556 7      4215.623          47.562    19741512.540    81992220.824 8      3278.818          51.250    19741512.340    81992224.816 8      3278.818          50.312
G26  20676601.840   108656277.773 7      3126.809          47.437    20676600.660   108656277.778 7      3126.809          47.250    20676605.420    84667251.803 7      2436.475          47.125    20676605.700    84667251.800 8      2436.475          48.875
> 2024 05 08 09 43 23.0000000  0 14
G28  21734762.960   114216942.384 7      -258.138          45.500    21734761.820   114216942.396 5      -258.138          35.625    21734764.120    89000225.925 5      -201.147          35.312    21734764.740    89000228.927 8      -201.147          48.125
G04  24461817.040   128547723.462 6      2212.395          37.812    24461815.920   128547723.467 2      2212.395          17.187    24461822.660   100167061.258 2      1723.944          17.187    24461822.340   100167073.258 6      1723.944          36.937
R10  22361629.080   119200065.933 6      5943.779          41.312    22361627.680   119200065.949 6      5943.779          40.250
R18  23195030.820   123816652.413 6     -1562.083          41.875    23195030.400   123816652.408 7     -1562.083          42.187    23195041.480    96301883.207 7     -1214.953          46.125    23195040.960    96301880.208 7     -1214.953          46.187
G31  20674325.340   108644309.666 8      1410.586          48.875    20674324.620   108644309.674 8      1410.586          49.062    20674325.680    84657908.529 8      1099.158          48.750    20674326.560    84657907.530 8      1099.158          50.437
R20  20250458.820   108288307.040 6      5178.059          36.375    20250458.480   108288307.065 6      5178.059          37.000    20250468.380    84224275.348 7      4027.380          44.312    20250469.480    84224278.351 7      4027.380          44.687
G18  21627318.360   113652319.297 7      1546.898          47.375    21627316.960   113652319.307 6      1546.898          38.812    21627319.940    88560248.850 6      1205.375          38.625    21627320.340    88560257.846 8      1205.375          50.625
G29  24803790.760   130344794.760 6      -412.056          39.000    24803789.580   130344794.759 5      -412.056          32.750    24803795.860   101567367.149 5      -321.083          32.750    24803796.320   101567365.145 6      -321.083          39.000
G27  21901062.220   115090861.879 7      4338.826          43.875    21901060.320   115090861.879 6      4338.826          36.812    21901066.060    89681201.410 6      3380.903          36.562    21901068.860    89681216.410 8      3380.903          48.625
R16  20949276.440   111907271.546 7       750.631          47.562    20949276.320   111907271.542 7       750.631          47.750    20949285.420    87039025.180 8       583.824          48.937    20949285.120    87039026.182 8       583.824          48.500
G23  24827052.140   130467043.759 6      4681.767          40.875    24827051.520   130467043.766 4      4681.767          26.437    24827061.360   101662652.306 4      3648.130          26.312    24827059.960   101662668.311 7      3648.130          42.500
G16  22042018.260   115831586.428 7      4425.160          45.875    22042017.140   115831586.433 5      4425.160          34.062    22042019.560    90258371.517 5      3448.176          34.000
R09  19740719.060   105414343.195 8      4215.323          48.000    19740717.320   105414343.190 8      4215.323          48.062    19740723.120    81988942.211 8      3278.585          51.312    19740723.020    81988946.203 8      3278.585          51.375
G26  20676006.920   108653151.053 7      3126.722          46.937    20676005.660   108653151.058 8      3126.722          48.125    20676010.440    84664815.394 7      2436.406          47.937    20676010.480    84664815.392 8      2436.406          48.687
> 2024 05 08 09 43 24.0000000  0 14
G28  21734812.200   114217200.611 7      -258.655          45.687    21734810.960   114217200.616 5      -258.655          35.125    21734813.380    89000427.137 5      -201.550          35.125    21734813.760    89000430.135 7      -201.550          47.937
G04  24461395.680   128545511.479 6      2211.490          38.000    24461395.100   128545511.489 2      2211.490          17.187    24461401.300   100165337.633 2      1723.239          17.187    24461401.200   100165349.620 6      1723.239          36.937
R10  22360513.720   119194122.081 6      5943.563          41.312    22360513.160   119194122.095 6      5943.563          40.250
R18  23195323.400   123818214.627 6     -1562.534          41.562    23195323.100   123818214.626 7     -1562.534          42.500    23195334.260    96303098.263 7     -1215.304          46.687    23195333.700    96303095.262 7     -1215.304          46.875
G31  20674056.980   108642899.364 8      1409.812          48.937    20674056.220   108642899.369 8      1409.812          49.000    20674057.300    84656809.589 8      1098.555          49.312    20674058.100    84656808.592 8      1098.555          50.687
R20  20249490.060   108283129.487 6      5176.896          37.000    20249491.080   108283129.499 6      5176.896          37.437    20249500.300    84220248.356 7      4026.475          44.500    20249501.260    84220251.355 7      4026.475          45.187
G18  21627023.900   113650772.653 7      1546.096          47.250    21627022.720   113650772.660 6      1546.096          39.437    21627025.660    88559043.671 6      1204.750          39.062    21627025.900    88559052.671 8      1204.750          51.250
G29  24803869.640   130345206.678 6      -412.260          39.500    24803868.180   130345206.678 5      -412.260          33.062    24803874.200   101567688.121 5      -321.241          33.000    24803874.960   101567686.131 6      -321.241          39.125
G27  21900236.160   115086523.151 7      4338.203          44.062    21900234.700   115086523.145 6      4338.203          36.625    21900240.480    89677820.585 6      3380.418          36.312    21900242.960    89677835.591 8      3380.418          48.750
R16  20949136.040   111906521.117 7       749.865          47.187    20949135.780   111906521.115 7       749.865          47.250    20949144.900    87038441.519 8       583.228          49.625    20949144.640    87038442.519 8       583.228          49.500
G23  24826160.640   130462361.927 7      4681.425          42.312    24826160.620   130462361.937 4      4681.425          26.437    24826170.440   101659004.134 4      3647.864          26.312    24826169.620   101659020.161 6      3647.864          40.750
G16  22041176.260   115827161.187 7      4425.031          45.562    22041174.960   115827161.191 5      4425.031          34.062    22041177.360    90254923.277 5      3448.076          33.750
R09  19739929.380   105410127.973 8      4214.765          48.125    19739927.900   105410127.969 7      4214.765          47.625    19739933.640    81985663.704 8      3278.151          51.875    19739933.640    81985667.698 8      3278.151          52.312
G26  20675411.780   108650024.302 7      3126.370          47.500    20675410.720   108650024.301 8      3126.370          48.125    20675415.360    84662378.963 7      2436.133          47.812    20675415.620    84662378.965 8      2436.133          48.625
> 2024 05 08 09 43 25.0000000  0 14
G28  21734861.540   114217459.450 7      -259.104          44.500    21734860.240   114217459.458 5      -259.104          34.937    21734862.640    89000628.824 5      -201.899          35.000    21734862.980    89000631.824 8      -201.899          48.500
G04  24460974.900   128543300.123 6      2211.103          38.000    24460974.580   128543300.130 2      2211.103          17.187    24460980.740   100163614.498 2      1722.938          17.187    24460979.680   100163626.498 6      1722.938          36.375
R10  22359398.760   119188178.413 6      5943.752          41.375    22359397.460   119188178.427 6      5943.752          40.375
R18  23195616.260   123819777.128 6     -1562.623          41.562    23195615.860   123819777.140 7     -1562.623          42.375    23195626.920    96304313.547 7     -1215.374          46.312    23195626.680    96304310.544 7     -1215.374          47.187
G31  20673788.820   108641489.827 8      1409.332          48.500    20673788.060   108641489.835 8      1409.332          49.750    20673789.160    84655711.248 8      1098.181          49.312    20673789.920    84655710.251 8      1098.181          50.687
R20  20248521.540   108277952.757 6      5176.428          37.000    20248522.880   108277952.764 6      5176.428          37.437    20248532.440    84216222.005 7      4026.110          44.375    20248533.220    84216225.006 7      4026.110          44.750
G18  21626729.600   113649226.798 7      1545.603          45.687    21626728.460   113649226.802 6      1545.603          39.250    21626731.440    88557839.108 6      1204.366          38.937    21626731.620    88557848.105 8      1204.366          51.687
G29  24803948.100   130345618.665 6      -411.982          40.000    24803946.680   130345618.675 5      -411.982          33.062    24803952.380   101568009.149 5      -321.025          33.000    24803953.100   101568007.160 6      -321.025          39.125
G27  21899410.740   115082184.925 7      4338.079          44.437    21899409.160   115082184.922 6      4338.079          36.750    21899414.880    89674440.149 6      3380.322          36.437    21899417.480    89674455.153 8      3380.322          49.250
R16  20948995.440   111905771.389 8       749.513          48.187    20948995.300   111905771.385 7       749.513          47.500    20949004.680    87037858.387 8       582.955          49.250    20949004.300    87037859.387 8       582.955          49.812
G23  24825269.820   130457680.247 6      4681.791          40.437    24825269.840   130457680.249 4      4681.791          26.437    24825279.520   101655356.074 4      3648.149          26.312    24825279.260   101655372.103 7      3648.149          42.500
G16  22040334.160   115822736.263 7      4424.938          45.250    22040332.880   115822736.262 5      4424.938          34.062    22040335.380    90251475.280 5      3448.004          33.750
R09  19739140.260   105405913.404 8      4214.421          48.500    19739138.680   105405913.397 7      4214.421          47.437    19739144.360    81982385.699 8      3277.883          51.750    19739144.600    81982389.693 8      3277.883          52.750
G26  20674816.860   108646897.992 8      3126.264          48.437    20674815.740   108646897.991 8      3126.264          48.187    20674820.420    84659942.875 8      2436.050          48.312    20674820.620    84659942.873 8      2436.050          48.500
> 2024 05 08 09 43 26.0000000  0 14
G28  21734910.860   114217718.710 7      -259.620          44.625    21734909.560   114217718.718 5      -259.620          35.625    21734911.960    89000830.842 5      -202.301          35.312    21734912.260    89000833.836 8      -202.301          48.000
G04  24460554.580   128541089.319 6      2210.289          37.937    24460553.700   128541089.332 2      2210.289          17.187    24460560.140   100161891.792 2      1722.303          17.187    24460559.640   100161903.784 6      1722.303          36.375
R10  22358284.320   119182234.838 6      5943.322          41.375    22358281.860   119182234.847 6      5943.322          40.375
R18  23195909.020   123821339.799 7     -1562.911          42.250    23195908.880   123821339.798 7     -1562.911          42.375    23195919.600    96305528.946 7     -1215.598          46.125    23195919.320    96305525.943 7     -1215.598          46.625
G31  20673520.820   108640080.910 8      1408.490          48.875    20673519.980   108640080.912 8      1408.490          48.875    20673520.980    84654613.387 8      1097.525          48.375    20673521.760    84654612.390 8      1097.525          51.187
R20  20247553.800   108272776.752 6      5175.487          37.000    20247554.780   108272776.775 6      5175.487          37.437    20247564.400    84212196.234 7      4025.379          44.687    20247565.200    84212199.235 7      4025.379          44.812
G18  21626435.560   113647681.591 7      1544.761          46.000    21626434.500   113647681.601 6      1544.761          39.375    21626437.420    88556635.047 6      1203.710          38.937    21626437.760    88556644.046 8      1203.710          50.875
G29  24804026.320   130346030.623 6      -411.951          39.375    24804025.140   130346030.628 5      -411.951          33.187    24804030.860   101568330.148 5      -321.000          33.062    24804032.500   101568328.147 6      -321.000          39.125
G27  21898585.020   115077847.090 7      4337.490          44.875    21898583.820   115077847.087 6      4337.490          36.812    21898589.320    89671060.018 6      3379.862          36.875    21898592.040    89671075.020 8      3379.862          48.937
R16  20948855.300   111905022.188 7       748.793          47.437    20948855.080   111905022.192 7       748.793          47.187    20948864.520    87037275.679 8       582.395          49.062    20948864.060    87037276.681 8       582.395          49.062
G23  24824379.200   130452998.631 6      4681.457          40.562    24824378.960   130452998.630 4      4681.457          26.437    24824388.620   101651708.065 4      3647.888          26.312    24824388.900   101651724.092 7      3647.888          42.062
G16  22039492.200   115818311.441 7      4424.597          45.687    22039490.920   115818311.449 5      4424.597          34.437    22039493.620    90248027.373 5      3447.738          34.500
R09  19738350.940   105401699.275 8      4213.706          48.125    19738349.320   105401699.278 8      4213.706          48.562    19738355.320    81979108.053 8      3277.327          51.375    19738355.160    81979112.049 8      3277.327          51.187
G26  20674222.040   108643771.981 8      3125.702          48.125    20674220.840   108643771.981 8      3125.702          48.000    20674225.680    84657507.023 7      2435.612          47.687    20674226.100    84657507.023 8      2435.612          48.562
> 2024 05 08 09 43 27.0000000  0 14
G28  21734959.980   114217978.474 7      -260.196          44.437    21734958.840   114217978.485 5      -260.196          35.625    21734961.340    89001033.256 5      -202.750          35.312    21734961.900    89001036.254 7      -202.750          47.812
G04  24460134.160   128538879.040 6      2209.996          37.187    24460132.980   128538879.048 2      2209.996          17.187    24460139.520   100160169.493 2      1722.075          17.187    24460140.100   100160181.475 6      1722.075          36.375
R10  22357169.300   119176291.317 6      5943.287          41.250    22357167.620   119176291.336 6      5943.287          40.375
R18  23196201.900   123822902.647 7     -1563.072          42.125    23196201.600   123822902.650 7     -1563.072          42.500    23196212.320    96306744.494 7     -1215.723          46.687    23196212.080    96306741.493 7     -1215.723          46.375
G31  20673252.880   108638672.671 8      1407.764          48.937    20673251.980   108638672.676 8      1407.764          49.000    20673253.000    84653516.059 8      1096.959          48.875    20673253.680    84653515.062 8      1096.959          51.375
R20  20246586.220   108267601.536 6      5174.807          37.000    20246586.920   108267601.551 6      5174.807          37.437    20246596.780    84208171.064 7      4024.850          44.562    20246597.300    84208174.065 7      4024.850          44.812
G18  21626141.620   113646137.089 7      1544.109          47.062    21626140.620   113646137.096 6      1544.109          39.437    21626143.500    88555431.539 6      1203.202          38.937    21626143.800    88555440.535 8      1203.202          51.250
G29  24804104.800   130346442.623 6      -412.129          39.562    24804103.620   130346442.631 5      -412.129          33.187    24804109.460   101568651.184 5      -321.139          33.062    24804111.180   101568649.188 6      -321.139          38.875
G27  21897759.780   115073509.692 7      4336.990          44.312    21897758.560   115073509.689 6      4336.990          37.562    21897763.920    89667680.229 6      3379.473          36.875    21897766.840    89667695.237 8      3379.473          48.937
R16  20948715.140   111904273.626 8       748.122          48.312    20948714.940   111904273.627 7       748.122          47.687    20948724.580    87036693.460 8       581.873          49.687    20948724.020    87036694.456 8       581.873          49.625
G23  24823488.360   130448317.119 6      4681.433          40.125    24823488.060   130448317.122 4      4681.433          26.437    24823497.740   101648060.144 4      3647.870          26.312    24823497.540   101648076.151 7      3647.870          42.062
G16  22038649.960   115813886.843 7      4424.315          45.125    22038649.100   115813886.848 5      4424.315          34.750    22038651.640    90244579.637 5      3447.518          34.750
R09  19737562.100   105397485.690 7      4213.128          47.187    19737560.260   105397485.691 7      4213.128          47.562    19737566.300    81975830.819 8      3276.877          51.750    19737566.320    81975834.813 8      3276.877          52.375
G26  20673626.980   108640646.299 8      3125.409          48.375    20673626.080   108640646.307 8      3125.409          48.250    20673630.840    84655071.430 8      2435.384          48.312    20673631.040    84655071.427 8      2435.384          48.812
> 2024 05 08 09 43 28.0000000  0 14
G28  21735009.480   114218238.675 7      -260.259          44.812    21735008.440   114218238.682 5      -260.259          35.187    21735010.840    89001236.008 5      -202.799          35.062    21735011.480    89001238.999 8      -202.799          48.250
G04  24459714.120   128536669.322 6      2209.388          37.187    24459712.380   128536669.337 2      2209.388          17.187    24459719.300   100158447.634 2      1721.601          17.187    24459719.600   100158459.665 6      1721.601          36.375
R10  22356054.040   119170347.867 6      5943.472          41.250    22356052.980   119170347.873 6      5943.472          39.937
R18  23196494.980   123824465.628 7     -1562.956          42.562    23196494.520   123824465.637 7     -1562.956          42.562    23196505.180    96307960.148 7     -1215.633          47.187    23196504.680    96307957.145 7     -1215.633          46.500
G31  20672985.020   108637265.039 7      1407.438          47.812    20672984.060   108637265.044 8      1407.438          49.312    20672985.220    84652419.199 8      1096.705          49.312    20672985.720    84652418.204 8      1096.705          50.750
R20  20245619.100   108262427.034 6      5174.407          37.000    20245619.740   108262427.060 6      5174.407          37.437    20245628.740    84204146.461 7      4024.538          44.312    20245629.720    84204149.463 7      4024.538          45.312
G18  21625847.920   113644593.236 7      1543.648          46.562    21625846.920   113644593.246 6      1543.648          38.937    21625849.620    88554228.538 6      1202.842          38.750    21625849.980    88554237.537 8      1202.842          51.562
G29  24804183.100   130346854.558 6      -411.769          40.125    24804182.120   130346854.570 5      -411.769          33.250    24804187.840   101568972.170 5      -320.859          33.062    24804188.960   101568970.176 6      -320.859          38.875
G27  21896934.400   115069172.658 7      4336.914          45.062    21896933.340   115069172.655 6      4336.914          37.187    21896938.720    89664300.725 6      3379.414          36.437    21896941.400    89664315.732 8      3379.414          49.000
R16  20948575.160   111903525.597 7       747.925          47.625    20948574.800   111903525.596 7       747.925          47.312    20948584.520    87036111.656 8       581.719          49.437    20948584.120    87036112.654 8       581.719          50.000
G23  24822597.520   130443635.618 6      4681.654          40.937    24822597.120   130443635.621 4      4681.654          26.437    24822607.040   101644412.230 4      3648.042          26.312    24822607.180   101644428.259 7      3648.042          42.375
G16  22037808.080   115809462.337 7      4424.556          46.875    22037807.140   115809462.342 5      4424.556          34.750    22037809.580    90241131.972 5      3447.706          34.750
R09  19736773.240   105393272.589 8      4213.014          48.625    19736771.520   105393272.585 8      4213.014          48.187    19736777.220    81972553.958 8      3276.789          51.875    19736777.260    81972557.950 8      3276.789          52.437
G26  20673032.420   108637520.920 7      3125.325          47.562    20673031.300   108637520.927 8      3125.325          48.062    20673036.100    84652636.070 8      2435.318          48.125    20673036.460    84652636.064 8      2435.318          48.687
> 2024 05 08 09 43 29.0000000  0 14
G28  21735059.000   114218499.243 7      -260.880          44.812    21735058.080   114218499.253 5      -260.880          35.312    21735060.480    89001439.046 5      -203.283          35.187    21735061.100    89001442.048 8      -203.283          48.250
G04  24459293.420   128534460.055 6      2208.899          37.062    24459291.860   128534460.073 2      2208.899          17.187    24459298.620   100156726.130 2      1721.220          17.187    24459297.800   100156738.117 6      1721.220          36.187
R10  22354939.200   119164404.338 6      5943.501          41.000    22354937.180   119164404.346 6      5943.501          39.937
R18  23196787.320   123826028.654 7     -1563.122          42.562    23196787.120   123826028.660 7     -1563.122          42.562    23196797.920    96309175.831 7     -1215.762          46.375    23196797.400    96309172.828 7     -1215.762          46.187
G31  20672717.240   108635857.935 8      1406.743          48.062    20672716.200   108635857.940 8      1406.743          48.687    20672717.440    84651322.756 8      1096.163          48.750    20672717.840    84651321.759 8      1096.163          51.187
R20  20244651.160   108257253.200 6      5173.392          37.375    20244651.600   108257253.239 6      5173.392          37.187    20244661.120    84200122.377 7      4023.750          44.875    20244661.980    84200125.378 7      4023.750          44.687
G18  21625554.140   113643049.937 7      1542.948          47.500    21625553.340   113643049.947 6      1542.948          39.187    21625555.800    88553025.970 6      1202.297          39.312    21625556.300    88553034.966 8      1202.297          50.750
G29  24804261.420   130347266.379 6      -411.920          40.437    24804260.540   130347266.392 5      -411.920          33.250    24804266.200   101569293.066 5      -320.976          33.062    24804266.980   101569291.066 6      -320.976          38.937
G27  21896109.040   115064835.919 7      4336.507          45.000    21896108.060   115064835.916 6      4336.507          36.875    21896113.540    89660921.449 6      3379.097          36.937    21896116.320    89660936.453 8      3379.097          48.937
R16  20948435.120   111902778.084 7       747.163          47.500    20948434.740   111902778.088 7       747.163          47.500    20948444.540    87035530.259 8       581.127          49.375    20948444.000    87035531.259 8       581.127          49.562
G23  24821706.300   130438954.099 7      4681.409          42.000    24821706.360   130438954.101 4      4681.409          26.500    24821716.200   101640764.303 4      3647.851          26.312    24821716.360   101640780.340 7      3647.851          43.187
G16  22036966.260   115805037.908 7      4424.285          45.312    22036965.340   115805037.913 5      4424.285          34.500    22036967.640    90237684.368 5      3447.494          34.375
