     3.05           OBSERVATION DATA    MIXED               RINEX VERSION / TYPE
TPS2RIN 1.0.29.3920 TPS-USER            20240511 183535 UTC PGM / RUN BY / DATE
Win64 build Feb 23, 2024 (c) Topcon Positioning Systems     COMMENT
SRC: 20240506_GUI01.tps                                     COMMENT
OPT: -S -v 3.05                                             COMMENT
Observer            Agency                                  OBSERVER / AGENCY
O0M3X53SBGM         TPS HIPER_SR        4.8 HSR Jul,08,2022 REC # / TYPE / VERS
FW: 4.8 HSR Jul,08,2022 p3                                  COMMENT
SN: HiPer SR 1212-12575                                     COMMENT
000                 TPSHIPER_SR     NONE                    ANT # / TYPE
        1.8000        0.0000        0.0000                  ANTENNA: DELTA H/E/N
DELTA H stands for **SLANT** height here!                   COMMENT
GUI01                                                       MARKER NAME
  5389939.9337 -1590422.4309  3008228.3204                  APPROX POSITION XYZ
  2024     5     6    12    43   53.0000000     GPS         TIME OF FIRST OBS
  2024     5     6    12    58   56.0000000     GPS         TIME OF LAST OBS
     1.000                                                  INTERVAL
   904 EPOCHS                                               COMMENT
G   16 C1C L1C D1C S1C C1W L1W D1W S1W C2W L2W D2W S2W C2X  SYS / # / OBS TYPES
       L2X D2X S2X                                          SYS / # / OBS TYPES
R   16 C1C L1C D1C S1C C1P L1P D1P S1P C2P L2P D2P S2P C2C  SYS / # / OBS TYPES
       L2C D2C S2C                                          SYS / # / OBS TYPES
    16                                                      # OF SATELLITES
   G02   904   904   904   904   904   904   904   904   904PRN / # OF OBS
         904   904   904     0     0     0     0            PRN / # OF OBS
   G07   292   292   292   292   289   289   289   289   289PRN / # OF OBS
         289   289   289   285   285   285   285            PRN / # OF OBS
   G08   904   904   904   904   904   904   904   904   904PRN / # OF OBS
         904   904   904   904   904   904   904            PRN / # OF OBS
   G10   904   904   904   904   904   904   904   904   904PRN / # OF OBS
         904   904   904   904   904   904   904            PRN / # OF OBS
   G16   904   904   904   904   904   904   904   904   904PRN / # OF OBS
         904   904   904     0     0     0     0            PRN / # OF OBS
   G21   904   904   904   904   904   904   904   904   904PRN / # OF OBS
         904   904   904     0     0     0     0            PRN / # OF OBS
   G23   904   904   904   904   904   904   904   904   904PRN / # OF OBS
         904   904   904   904   904   904   904            PRN / # OF OBS
   G26   904   904   904   904   904   904   904   904   904PRN / # OF OBS
         904   904   904   904   904   904   904            PRN / # OF OBS
   G27   904   904   904   904   904   904   904   904   904PRN / # OF OBS
         904   904   904   904   904   904   904            PRN / # OF OBS
   R03   904   904   904   904   904   904   904   904   904PRN / # OF OBS
         904   904   904   904   904   904   904            PRN / # OF OBS
   R04   904   904   904   904   904   904   904   904   904PRN / # OF OBS
         904   904   904   904   904   904   904            PRN / # OF OBS
   R09   904   904   904   904   904   904   904   904   904PRN / # OF OBS
         904   904   904   904   904   904   904            PRN / # OF OBS
   R15   904   904   904   904   904   904   904   904   904PRN / # OF OBS
         904   904   904   904   904   904   904            PRN / # OF OBS
   R16   904   904   904   904   904   904   904   904   904PRN / # OF OBS
         904   904   904   904   904   904   904            PRN / # OF OBS
   R18   904   904   904   904   904   904   904   904   904PRN / # OF OBS
         904   904   904   904   904   904   904            PRN / # OF OBS
   R19   620   620   620   620   615   615   615   615   615PRN / # OF OBS
         615   615   615   614   614   614   614            PRN / # OF OBS
G L1C                                                       SYS / PHASE SHIFT
G L1W -0.25000                                              SYS / PHASE SHIFT
G L2W  0.00000                                              SYS / PHASE SHIFT
G L2X  0.25000                                              SYS / PHASE SHIFT
R L1C                                                       SYS / PHASE SHIFT
R L1P -0.25000                                              SYS / PHASE SHIFT
R L2P -0.25000                                              SYS / PHASE SHIFT
R L2C                                                       SYS / PHASE SHIFT
  7 R03  5 R04  6 R09 -2 R15  0 R16 -1 R18 -3 R19  3        GLONASS SLOT / FRQ #
                                                            GLONASS COD/PHS/BIS
    18    18  1929     7GPS                                 LEAP SECONDS
                                                            END OF HEADER
> 2024 05 06 12 43 53.0000000  0 14
G02  22331018.620   117350294.112 7      4501.759          44.875    22331016.700   117350294.119 5      4501.759          35.250    22331021.700    91441800.473 5      3507.864          35.187
R18  21472948.920   114624057.964 7       165.079          45.000    21472948.920   114624057.959 7       165.079          45.125    21472957.320    89152080.059 7       128.395          47.687    21472957.340    89152083.066 8       128.395          48.500
G27  20974824.140   110223435.401 7      2012.871          47.062    20974822.960   110223435.412 8      2012.871          48.937    20974828.500    85888418.434 8      1568.471          48.750    20974828.940    85888421.430 8      1568.471          50.437
R16  19525483.860   104301621.052 8       658.413          50.062    19525484.340   104301621.056 8       658.413          49.000    19525492.720    81123520.811 8       512.099          51.562    19525493.040    81123521.815 8       512.099          51.437
G16  20840959.300   109519973.021 7      1025.640          47.750    20840957.780   109519973.034 6      1025.640          40.625    20840961.520    85340247.655 6       799.200          40.062
R03  23245959.400   124437442.531 7      4605.387          42.875    23245959.440   124437442.549 7      4605.387          42.312    23245973.520    96784737.807 7      3581.968          42.062    23245973.300    96784736.827 6      3581.968          41.312
R15  23011855.400   122968361.328 7     -1693.335          42.750    23011857.300   122968361.343 7     -1693.335          42.437    23011877.120    95642143.846 7     -1317.038          44.250    23011877.000    95642140.844 7     -1317.038          44.562
G21  20837681.760   109502750.646 7      3756.928          47.875    20837679.780   109502750.648 6      3756.928          38.312    20837684.300    85326832.035 6      2927.476          39.000
G08  21176853.980   111285112.595 7      3616.944          47.062    21176852.920   111285112.595 6      3616.944          39.812    21176859.080    86715692.186 6      2818.398          39.500    21176859.720    86715697.194 8      2818.398          51.687
R09  20440345.120   109150296.744 7      5002.339          47.312    20440345.400   109150296.750 7      5002.339          46.812    20440351.600    84894705.190 8      3890.708          50.250    20440351.560    84894708.185 8      3890.708          50.625
G10  22110544.160   116191688.903 7      2281.150          46.625    22110542.680   116191688.911 7      2281.150          45.875    22110549.660    90539003.756 7      1777.520          45.937    22110549.580    90539005.759 8      1777.520          48.250
G26  23027977.060   121012821.461 7      -501.514          43.875    23027976.300   121012821.461 6      -501.514          41.875    23027987.440    94295749.566 6      -390.791          41.687    23027987.040    94295749.566 7      -390.791          45.125
G23  23828282.880   125218470.757 7       445.815          44.875    23828281.700   125218470.764 5       445.815          31.625    23828287.440    97572797.310 5       347.388          31.562    23828288.180    97572868.315 7       347.388          45.000
R04  23907282.460   128022413.645 6      5873.926          41.187    23907282.720   128022413.679 6      5873.926          39.937    23907310.100    99573098.693 7      4568.609          43.812    23907310.360    99573101.677 7      4568.609          44.625
> 2024 05 06 12 43 54.0000000  0 14
G02  22330161.920   117345792.501 7      4501.617          44.875    22330160.060   117345792.506 5      4501.617          35.562    22330165.320    91438292.729 5      3507.753          35.500
R18  21472918.020   114623892.889 7       165.427          44.187    21472917.560   114623892.879 7       165.427          45.312    21472926.400    89151951.662 7       128.665          47.875    21472926.580    89151954.673 8       128.665          48.062
G27  20974441.020   110221422.610 7      2012.897          47.187    20974440.080   110221422.617 8      2012.897          48.250    20974445.420    85886850.031 8      1568.491          48.375    20974446.040    85886853.029 8      1568.491          50.187
R16  19525360.560   104300963.017 8       657.882          49.375    19525361.080   104300963.021 8       657.882          48.250    19525369.500    81123009.008 8       511.686          50.812    19525369.580    81123010.012 8       511.686          50.937
G16  20840764.240   109518947.751 7      1025.250          47.000    20840762.640   109518947.763 6      1025.250          40.562    20840766.360    85339448.749 6       798.896          40.375
R03  23245098.940   124432837.329 7      4605.285          43.250    23245098.940   124432837.338 7      4605.285          42.250    23245113.420    96781155.990 6      3581.888          41.562    23245113.120    96781154.997 6      3581.888          41.312
R15  23012172.260   122970054.733 7     -1693.417          43.375    23012174.340   122970054.744 7     -1693.417          42.625    23012193.860    95643460.907 7     -1317.102          44.125    23012194.020    95643457.913 7     -1317.102          44.312
G21  20836966.880   109498994.000 7      3756.615          46.437    20836964.940   109498994.002 6      3756.615          38.875    20836969.360    85323904.784 6      2927.233          39.375
G08  21176165.780   111281495.788 7      3616.995          47.000    21176164.580   111281495.780 6      3616.995          39.750    21176170.880    86712873.897 6      2818.438          39.375    21176171.620    86712878.905 8      2818.438          51.250
R09  20439408.540   109145294.935 8      5001.666          48.187    20439408.760   109145294.928 7      5001.666          47.250    20439415.060    84890814.884 8      3890.185          49.937    20439414.900    84890817.881 8      3890.185          50.562
G10  22110109.960   116189408.144 7      2280.658          46.000    22110108.700   116189408.149 7      2280.658          46.500    22110115.760    90537226.551 7      1777.136          46.125    22110115.860    90537228.558 7      1777.136          47.875
G26  23028072.500   121013323.172 7      -501.646          43.500    23028072.040   121013323.169 6      -501.646          41.437    23028082.880    94296140.500 6      -390.893          41.562    23028082.440    94296140.492 7      -390.893          44.875
G23  23828198.120   125218025.264 7       445.488          44.750    23828197.060   125218025.271 5       445.488          31.625    23828202.480    97572450.179 5       347.134          31.562    23828203.200    97572521.183 7       347.134          45.000
R04  23906185.540   128016539.600 6      5874.427          41.187    23906186.400   128016539.633 6      5874.427          39.812    23906213.240    99568529.995 7      4568.999          44.312    23906213.720    99568532.994 7      4568.999          45.250
> 2024 05 06 12 43 55.0000000  0 14
G02  22329305.520   117341290.899 7      4501.485          44.125    22329303.360   117341290.906 5      4501.485          35.375    22329308.600    91434784.997 5      3507.651          35.500
R18  21472886.640   114623727.428 7       165.653          44.687    21472886.680   114623727.423 7       165.653          44.500    21472895.260    89151822.986 7       128.841          47.437    21472895.720    89151825.999 7       128.841          46.750
G27  20974057.960   110219409.600 7      2013.136          45.937    20974057.060   110219409.610 8      2013.136          48.500    20974062.360    85885281.456 8      1568.677          48.500    20974063.000    85885284.454 8      1568.677          49.875
R16  19525237.660   104300305.426 8       657.324          49.687    19525237.860   104300305.430 8       657.324          49.000    19525246.400    81122497.554 8       511.252          50.000    19525246.500    81122498.554 8       511.252          49.750
G16  20840569.080   109517922.598 7      1024.960          46.250    20840567.340   109517922.609 6      1024.960          39.812    20840571.400    85338649.931 6       798.670          39.500
R03  23244238.620   124428232.212 7      4605.029          43.187    23244238.740   124428232.230 7      4605.029          42.250    23244253.220    96777574.251 6      3581.689          41.875    23244252.740    96777573.264 6      3581.689          41.625
R15  23012489.320   122971747.851 7     -1693.006          43.375    23012491.420   122971747.863 7     -1693.006          42.625    23012510.260    95644777.758 7     -1316.783          43.875    23012510.480    95644774.760 7     -1316.783          44.250
G21  20836252.220   109495237.477 7      3756.401          46.750    20836250.020   109495237.482 6      3756.401          39.000    20836254.540    85320977.630 6      2927.066          39.062
G08  21175477.300   111277878.739 7      3617.136          46.562    21175476.320   111277878.731 6      3617.136          39.375    21175482.660    86710055.423 6      2818.547          38.875    21175483.380    86710060.434 8      2818.547          51.187
R09  20438471.920   109140293.437 7      5001.270          46.875    20438471.900   109140293.430 7      5001.270          47.312    20438478.400    84886924.836 8      3889.877          49.375    20438478.420    84886927.835 8      3889.877          49.500
G10  22109676.100   116187127.593 7      2280.398          45.937    22109674.800   116187127.598 7      2280.398          45.375    22109681.660    90535449.505 7      1776.934          45.625    22109681.900    90535451.509 7      1776.934          47.500
G26  23028167.980   121013824.713 7      -501.469          44.187    23028167.340   121013824.715 6      -501.469          41.500    23028178.400    94296531.306 6      -390.755          41.375    23028178.000    94296531.304 7      -390.755          44.750
G23  23828113.500   125217579.878 7       445.273          45.750    23828112.340   125217579.886 5       445.273          31.000    23828117.800    97572103.133 5       346.966          31.562    23828118.240    97572174.136 7       346.966          42.187
R04  23905088.520   128010665.139 6      5874.662          40.750    23905089.640   128010665.184 6      5874.662          39.812    23905116.280    99563960.983 7      4569.182          44.250    23905116.620    99563963.984 7      4569.182          44.000
> 2024 05 06 12 43 56.0000000  0 14
G02  22328448.860   117336789.459 7      4501.404          44.437    22328446.740   117336789.466 5      4501.404          35.375    22328451.880    91431277.392 5      3507.588          35.375
R18  21472855.700   114623561.763 7       165.884          45.437    21472855.980   114623561.759 7       165.884          44.437    21472864.220    89151694.124 7       129.021          47.375    21472864.880    89151697.134 7       129.021          47.500
G27  20973675.020   110217396.559 7      2013.088          46.937    20973674.020   110217396.564 8      2013.088          49.187    20973679.320    85883712.855 8      1568.640          48.875    20973679.600    85883715.853 8      1568.640          50.125
R16  19525114.920   104299648.417 8       656.686          49.750    19525115.080   104299648.420 8       656.686          49.187    19525123.480    81121986.549 8       510.756          50.312    19525123.740    81121987.549 8       510.756          50.750
G16  20840374.100   109516897.701 7      1024.703          47.000    20840372.360   109516897.708 6      1024.703          40.500    20840376.420    85337851.316 6       798.470          40.250
R03  23243377.980   124423627.347 7      4604.736          43.187    23243378.420   124423627.373 7      4604.736          42.187    23243392.580    96773992.704 7      3581.461          42.000    23243392.700    96773991.711 7      3581.461          42.375
R15  23012806.120   122973440.929 7     -1692.950          43.625    23012808.420   122973440.957 7     -1692.950          42.062    23012827.160    95646094.591 7     -1316.739          44.562    23012827.400    95646091.601 7     -1316.739          44.312
G21  20835537.200   109491481.233 7      3756.123          47.125    20835535.340   109491481.235 6      3756.123          38.625    20835539.840    85318050.696 6      2926.849          39.062
G08  21174788.980   111274261.583 7      3617.181          46.000    21174788.000   111274261.577 6      3617.181          39.250    21174794.300    86707236.866 6      2818.582          39.125    21174795.080    86707241.880 8      2818.582          51.687
R09  20437535.440   109135292.435 7      5000.825          47.250    20437535.520   109135292.431 7      5000.825          47.125    20437541.840    84883035.176 8      3889.530          50.125    20437542.040    84883038.179 8      3889.530          50.750
G10  22109242.460   116184847.425 7      2280.023          47.375    22109240.920   116184847.435 7      2280.023          46.500    22109247.860    90533672.759 7      1776.641          46.500    22109248.000    90533674.763 7      1776.641          47.812
G26  23028263.440   121014326.306 7      -501.515          44.062    23028262.820   121014326.306 7      -501.515          42.062    23028273.800    94296922.148 7      -390.791          42.312    23028273.580    94296922.146 7      -390.791          45.250
G23  23828028.840   125217134.738 7       444.956          45.750    23828027.680   125217134.748 5       444.956          31.000    23828033.120    97571756.274 5       346.719          31.187    23828033.000    97571827.287 7       346.719          43.500
R04  23903991.440   128004790.358 6      5875.051          40.750    23903992.600   128004790.381 6      5875.051          39.812    23904019.560    99559391.703 7      4569.484          44.062    23904019.760    99559394.699 7      4569.484          43.312
> 2024 05 06 12 43 57.0000000  0 14
G02  22327592.240   117332288.298 7      4500.994          45.000    22327590.280   117332288.303 5      4500.994          35.750    22327595.500    91427769.999 5      3507.268          35.812
R18  21472825.040   114623395.942 7       165.913          45.562    21472824.620   114623395.940 7       165.913          45.000    21472833.200    89151565.159 7       129.043          47.500    21472833.500    89151568.168 7       129.043          47.250
G27  20973292.200   110215383.526 8      2013.053          48.000    20973290.900   110215383.533 8      2013.053          49.187    20973296.320    85882144.264 8      1568.613          49.125    20973296.660    85882147.259 8      1568.613          50.562
R16  19524991.820   104298992.057 8       655.996          49.875    19524992.240   104298992.060 8       655.996          48.562    19525000.620    81121476.049 8       510.219          51.000    19525000.860    81121477.051 8       510.219          51.187
G16  20840179.100   109515873.158 7      1024.283          47.687    20840177.520   109515873.168 6      1024.283          40.187    20840181.400    85337052.971 6       798.143          40.062
R03  23242518.200   124419022.819 7      4604.308          42.937    23242518.540   124419022.842 7      4604.308          42.187    23242532.680    96770411.415 7      3581.128          42.000    23242532.400    96770410.413 7      3581.128          42.062
R15  23013123.240   122975134.037 7     -1693.148          43.437    23013125.600   122975134.062 7     -1693.148          43.062    23013144.480    95647411.427 7     -1316.893          44.250    23013144.100    95647408.438 7     -1316.893          44.875
G21  20834822.540   109487725.349 7      3755.700          47.500    20834820.760   109487725.356 6      3755.700          38.812    20834825.060    85315124.048 6      2926.520          38.750
G08  21174100.900   111270644.424 7      3617.121          47.062    21174099.660   111270644.418 6      3617.121          39.812    21174106.040    86704418.307 6      2818.536          39.187    21174106.820    86704423.321 8      2818.536          51.625
R09  20436599.000   109130291.991 8      5000.087          48.062    20436598.660   109130291.989 7      5000.087          47.062    20436605.320    84879145.950 8      3888.957          50.500    20436605.680    84879148.951 8      3888.957          50.500
G10  22108808.720   116182567.735 8      2279.421          48.062    22108807.140   116182567.745 7      2279.421          46.812    22108814.040    90531896.387 7      1776.172          46.750    22108814.260    90531898.390 7      1776.172          47.687
G26  23028359.040   121014827.999 7      -501.786          44.812    23028358.420   121014827.999 7      -501.786          42.625    23028369.300    94297313.077 7      -391.002          42.062    23028368.640    94297313.084 7      -391.002          45.250
G23  23827944.380   125216689.938 7       444.630          45.312    23827942.920   125216689.946 5       444.630          31.000    23827948.460    97571409.684 5       346.465          31.187    23827948.600    97571480.701 7       346.465          43.687
R04  23902894.260   127998915.328 6      5875.068          40.750    23902895.240   127998915.375 6      5875.068          40.187    23902922.160    99554822.262 7      4569.498          43.750    23902922.580    99554825.254 7      4569.498          44.812
> 2024 05 06 12 43 58.0000000  0 14
G02  22326735.520   117327787.247 7      4500.946          44.812    22326733.720   117327787.254 5      4500.946          35.812    22326738.880    91424262.699 5      3507.230          35.500
R18  21472793.900   114623229.882 7       166.106          45.812    21472793.600   114623229.883 7       166.106          45.000    21472802.140    89151436.029 8       129.194          48.125    21472802.380    89151439.036 7       129.194          47.250
G27  20972909.180   110213370.435 8      2013.026          48.312    20972907.880   110213370.447 8      2013.026          48.562    20972913.200    85880575.634 8      1568.592          48.375    20972913.880    85880578.631 8      1568.592          50.187
R16  19524869.280   104298336.260 8       655.442          48.937    19524869.260   104298336.258 8       655.442          48.625    19524877.920    81120965.985 8       509.788          51.125    19524878.020    81120966.983 8       509.788          50.875
G16  20839984.020   109514848.841 7      1024.241          47.312    20839982.600   109514848.849 6      1024.241          40.250    20839986.460    85336254.806 6       798.110          39.687
R03  23241657.600   124414418.489 7      4604.191          43.062    23241658.400   124414418.517 7      4604.191          42.125    23241672.460    96766830.280 6      3581.038          41.875    23241672.220    96766829.278 6      3581.038          41.625
R15  23013440.420   122976827.053 7     -1693.044          43.875    23013442.440   122976827.073 7     -1693.044          42.687    23013461.700    95648728.204 7     -1316.812          44.062    23013461.000    95648725.212 7     -1316.812          44.562
G21  20834107.860   109483969.730 7      3755.484          47.250    20834106.200   109483969.732 6      3755.484          38.937    20834110.280    85312197.597 6      2926.352          39.000
G08  21173412.380   111267027.146 7      3617.268          46.875    21173411.340   111267027.141 6      3617.268          39.625    21173417.560    86701599.657 6      2818.650          39.187    21173418.360    86701604.671 8      2818.650          51.312
R09  20435662.660   109125292.001 7      4999.664          47.250    20435662.340   109125292.007 7      4999.664          46.875    20435669.040    84875257.079 8      3888.628          50.312    20435669.320    84875260.079 8      3888.628          50.375
G10  22108374.900   116180288.395 7      2279.093          46.875    22108373.480   116180288.400 7      2279.093          46.750    22108380.200    90530120.280 7      1775.916          46.500    22108380.540    90530122.279 7      1775.916          47.687
G26  23028454.380   121015329.695 7      -501.871          43.750    23028453.820   121015329.700 6      -501.871          41.500    23028464.800    94297704.007 6      -391.068          41.937    23028464.380    94297704.011 7      -391.068          45.125
G23  23827859.660   125216245.394 7       444.311          42.750    23827858.260   125216245.399 5       444.311          31.250    23827863.760    97571063.290 5       346.217          31.187    23827864.060    97571134.298 7       346.217          43.625
R04  23901796.980   127993039.957 6      5875.488          41.125    23901797.880   127993040.007 6      5875.488          40.187    23901824.900    99550252.539 7      4569.824          44.437    23901825.220    99550255.522 7      4569.824          43.375
> 2024 05 06 12 43 59.0000000  0 14
G02  22325879.080   117323286.672 7      4500.444          44.312    22325877.180   117323286.676 5      4500.444          35.687    22325882.260    91420755.770 5      3506.839          35.500
R18  21472762.700   114623063.898 7       166.204          45.812    21472762.480   114623063.907 7       166.204          45.125    21472771.020    89151306.918 7       129.270          47.437    21472771.380    89151309.924 7       129.270          47.625
G27  20972526.040   110211357.546 7      2013.052          47.812    20972525.020   110211357.559 8      2013.052          48.750    20972530.060    85879007.149 8      1568.612          48.750    20972530.940    85879010.146 8      1568.612          50.000
R16  19524746.500   104297681.313 8       654.756          49.187    19524746.540   104297681.316 8       654.756          48.875    19524755.180    81120456.585 8       509.254          50.375    19524755.560    81120457.583 8       509.254          51.562
G16  20839789.280   109513825.100 7      1023.729          47.750    20839787.920   109513825.110 6      1023.729          40.750    20839791.680    85335457.089 6       797.711          40.375
R03  23240797.600   124409814.703 7      4603.745          43.062    23240798.120   124409814.736 7      4603.745          42.125    23240812.640    96763249.559 6      3580.691          41.625    23240812.280    96763248.549 6      3580.691          41.625
R15  23013757.320   122978520.284 7     -1693.081          43.625    23013759.280   122978520.304 7     -1693.081          42.687    23013778.480    95650045.142 7     -1316.840          43.937    23013777.900    95650042.144 7     -1316.840          45.062
G21  20833393.240   109480214.668 7      3755.034          46.937    20833391.580   109480214.673 6      3755.034          38.437    20833395.560    85309271.583 6      2926.001          38.750
G08  21172724.180   111263410.050 7      3617.189          45.937    21172723.040   111263410.044 6      3617.189          39.687    21172729.340    86698781.145 6      2818.589          39.000    21172730.180    86698786.157 8      2818.589          51.312
R09  20434726.500   109120292.801 7      4999.069          47.187    20434725.860   109120292.802 7      4999.069          47.187    20434732.780    84871368.819 8      3888.164          50.687    20434733.260    84871371.816 8      3888.164          51.000
G10  22107941.260   116178009.704 7      2278.584          46.750    22107939.800   116178009.712 7      2278.584          46.937    22107946.640    90528344.687 7      1775.520          46.937    22107946.740    90528346.688 8      1775.520          48.187
G26  23028550.040   121015831.674 7      -501.942          44.375    23028549.320   121015831.676 7      -501.942          42.187    23028560.400    94298095.156 6      -391.124          41.625    23028559.960    94298095.164 7      -391.124          45.062
G23  23827775.120   125215801.333 7       443.993          42.687    23827773.800   125215801.340 5       443.993          31.250    23827779.320    97570717.276 5       345.969          31.250    23827779.940    97570788.289 7       345.969          44.312
R04  23900699.480   127987164.648 6      5875.450          41.125    23900701.500   127987164.701 6      5875.450          40.187    23900728.100    99545682.859 7      4569.794          44.125    23900727.920    99545685.858 7      4569.794          43.750
> 2024 05 06 12 44  0.0000000  0 14
G02  22325022.280   117318786.065 7      4500.174          44.500    22325020.720   117318786.072 5      4500.174          35.687    22325025.980    91417248.810 5      3506.629          35.625
R18  21472731.760   114622897.497 7       166.306          46.000    21472731.280   114622897.493 7       166.306          44.875    21472739.820    89151177.493 7       129.349          47.937    21472739.940    89151180.499 7       129.349          47.000
G27  20972142.840   110209344.434 7      2012.940          47.250    20972141.780   110209344.447 8      2012.940          48.750    20972147.000    85877438.492 8      1568.525          48.875    20972147.680    85877441.494 8      1568.525          49.750
R16  19524623.640   104297026.779 8       654.081          49.687    19524623.880   104297026.780 8       654.081          49.187    19524632.640    81119947.504 8       508.730          50.812    19524633.040    81119948.504 8       508.730          51.500
G16  20839594.420   109512801.432 7      1023.381          47.500    20839592.920   109512801.440 6      1023.381          40.875    20839596.940    85334659.428 6       797.440          40.437
R03  23239937.540   124405210.964 7      4603.305          42.937    23239938.160   124405210.982 7      4603.305          42.500    23239952.280    96759668.890 7      3580.349          42.625    23239952.140    96759667.881 6      3580.349          41.437
R15  23014073.960   122980213.250 7     -1693.129          43.812    23014076.260   122980213.264 7     -1693.129          42.312    23014095.300    95651361.872 7     -1316.878          44.062    23014094.960    95651358.881 7     -1316.878          44.625
G21  20832678.820   109476459.699 7      3754.640          46.812    20832677.000   109476459.703 6      3754.640          38.812    20832681.000    85306345.643 6      2925.694          38.625
G08  21172035.640   111259792.668 7      3617.247          45.812    21172034.600   111259792.662 6      3617.247          39.375    21172041.020    86695962.409 6      2818.634          39.250    21172041.780    86695967.421 8      2818.634          51.312
R09  20433790.380   109115293.901 7      4998.421          47.125    20433789.880   109115293.902 7      4998.421          47.625    20433796.680    84867480.787 8      3887.661          50.000    20433797.140    84867483.785 8      3887.661          51.000
G10  22107507.720   116175731.215 7      2278.050          46.562    22107506.200   116175731.223 7      2278.050          46.500    22107513.160    90526569.239 7      1775.104          46.375    22107512.860    90526571.244 7      1775.104          47.750
G26  23028645.500   121016333.475 7      -501.919          44.062    23028644.740   121016333.474 7      -501.919          42.062    23028655.880    94298486.157 7      -391.106          42.062    23028655.540    94298486.159 7      -391.106          44.875
G23  23827690.720   125215357.358 7       443.706          45.312    23827689.180   125215357.366 5       443.706          31.437    23827694.780    97570371.328 5       345.745          31.250    23827695.220    97570442.345 7       345.745          44.250
R04  23899601.980   127981288.825 6      5875.751          41.125    23899603.800   127981288.856 6      5875.751          39.625    23899630.760    99541112.766 7      4570.028          44.437    23899630.660    99541115.767 7      4570.028          43.937
> 2024 05 06 12 44  1.0000000  0 14
G02  22324166.120   117314285.721 7      4500.159          44.187    22324164.320   117314285.726 5      4500.159          35.687    22324169.640    91413742.050 5      3506.617          35.625
R18  21472700.660   114622730.984 7       166.504          45.312    21472700.040   114622730.982 7       166.504          45.250    21472708.800    89151047.985 8       129.503          48.062    21472709.100    89151050.989 7       129.503          47.500
G27  20971759.800   110207331.366 7      2013.038          47.687    20971758.800   110207331.374 8      2013.038          48.625    20971763.840    85875869.872 8      1568.601          48.562    20971764.400    85875872.874 8      1568.601          49.687
R16  19524501.540   104296372.938 8       653.427          49.125    19524501.420   104296372.936 8       653.427          48.375    19524510.160    81119438.963 8       508.221          51.062    19524510.440    81119439.963 8       508.221          51.187
G16  20839399.760   109511778.146 7      1023.009          47.687    20839398.260   109511778.156 6      1023.009          40.437    20839402.260    85333862.066 6       797.150          39.937
R03  23239077.600   124400607.563 7      4603.161          42.937    23239078.260   124400607.575 7      4603.161          42.500    23239092.440    96756088.477 6      3580.236          41.687    23239091.820    96756087.470 6      3580.236          40.875
R15  23014390.580   122981906.283 7     -1693.182          44.375    23014393.100   122981906.292 7     -1693.182          42.562    23014412.580    95652678.653 7     -1316.919          44.437    23014411.600    95652675.661 7     -1316.919          44.062
G21  20831964.440   109472705.149 7      3754.215          47.125    20831962.540   109472705.157 6      3754.215          39.062    20831966.400    85303420.026 6      2925.363          38.750
G08  21171347.620   111256175.319 7      3617.251          46.437    21171346.440   111256175.316 6      3617.251          39.875    21171352.620    86693143.700 6      2818.637          39.562    21171353.720    86693148.715 8      2818.637          51.812
R09  20432854.480   109110295.614 7      4997.873          46.375    20432853.560   109110295.612 7      4997.873          46.562    20432860.600    84863593.235 8      3887.234          50.062    20432861.120    84863596.233 8      3887.234          50.625
G10  22107074.260   116173453.218 7      2277.685          46.937    22107072.780   116173453.225 7      2277.685          46.000    22107079.640    90524794.178 7      1774.819          46.625    22107079.640    90524796.181 7      1774.819          47.687
G26  23028740.900   121016835.441 7      -502.090          44.250    23028740.320   121016835.443 6      -502.090          41.500    23028751.320    94298877.299 6      -391.239          41.312    23028750.980    94298877.300 7      -391.239          44.937
G23  23827606.440   125214913.773 7       443.370          46.000    23827604.800   125214913.781 5       443.370          31.437    23827610.480    97570025.686 5       345.483          31.500    23827611.060    97570096.698 7       345.483          44.187
R04  23898504.500   127975412.772 6      5876.329          40.500    23898506.380   127975412.782 6      5876.329          39.625    23898533.560    99536542.498 7      4570.478          44.062    23898533.060    99536545.503 7      4570.478          44.687
> 2024 05 06 12 44  2.0000000  0 14
G02  22323309.860   117309785.637 7      4500.074          45.187    22323307.920   117309785.639 5      4500.074          35.562    22323313.400    91410235.499 5      3506.551          35.562
R18  21472669.320   114622564.329 7       166.856          44.000    21472669.100   114622564.322 7       166.856          45.312    21472677.540    89150918.364 8       129.777          48.625    21472677.520    89150921.373 7       129.777          47.562
G27  20971376.800   110205318.341 7      2013.140          47.500    20971375.800   110205318.348 8      2013.140          48.812    20971380.820    85874301.285 8      1568.680          49.062    20971381.420    85874304.287 8      1568.680          50.062
R16  19524379.300   104295719.713 8       652.969          49.812    19524379.240   104295719.712 8       652.969          48.500    19524387.760    81118930.905 8       507.864          50.562    19524388.200    81118931.905 8       507.864          51.187
G16  20839205.240   109510755.211 7      1022.843          47.500    20839203.620   109510755.224 6      1022.843          40.562    20839207.540    85333064.980 6       797.020          40.187
R03  23238217.860   124396004.526 7      4602.973          43.062    23238218.640   124396004.544 6      4602.973          41.687    23238232.960    96752508.352 6      3580.090          41.687    23238232.020    96752507.355 6      3580.090          41.437
R15  23014707.480   122983599.323 7     -1692.946          44.437    23014709.640   122983599.338 7     -1692.946          42.562    23014729.060    95653995.444 7     -1316.736          44.250    23014728.560    95653992.450 7     -1316.736          44.750
G21  20831249.900   109468950.936 7      3754.108          47.187    20831248.120   109468950.938 6      3754.108          38.437    20831251.980    85300494.674 6      2925.279          38.625
G08  21170659.060   111252557.945 7      3617.495          46.187    21170658.000   111252557.942 6      3617.495          40.000    21170664.360    86690324.975 6      2818.827          39.625    21170665.340    86690329.989 8      2818.827          51.312
R09  20431918.440   109105297.864 7      4997.575          47.500    20431917.900   109105297.865 7      4997.575          46.750    20431924.900    84859706.107 8      3887.003          50.562    20431925.080    84859709.102 8      3887.003          50.812
G10  22106640.940   116171175.683 7      2277.373          46.687    22106639.400   116171175.690 7      2277.373          46.937    22106646.180    90523019.482 7      1774.576          47.062    22106646.320    90523021.482 8      1774.576          48.187
G26  23028836.400   121017337.497 7      -501.904          44.687    23028835.800   121017337.494 6      -501.904          41.875    23028846.920    94299268.501 6      -391.094          41.625    23028846.760    94299268.502 7      -391.094          45.000
G23  23827522.160   125214470.527 7       443.137          45.562    23827520.560   125214470.537 5       443.137          31.437    23827526.100    97569680.303 5       345.302          31.500    23827526.640    97569751.316 7       345.302          44.562
R04  23897407.440   127969536.472 6      5876.574          40.500    23897408.400   127969536.498 6      5876.574          39.625    23897435.700    99531972.062 7      4570.668          44.500    23897436.140    99531975.054 7      4570.668          44.687
> 2024 05 06 12 44  3.0000000  0 14
G02  22322453.640   117305285.703 7      4499.664          44.312    22322451.600   117305285.707 5      4499.664          35.437    22322457.080    91406729.069 5      3506.232          35.562
R18  21472637.940   114622397.437 7       166.886          43.000    21472637.620   114622397.436 7       166.886          45.000    21472646.280    89150788.572 8       129.800          48.000    21472646.220    89150791.577 7       129.800          47.937
G27  20970993.780   110203305.224 7      2012.966          47.750    20970992.660   110203305.231 8      2012.966          48.562    20970997.720    85872732.628 8      1568.545          48.562    20970998.460    85872735.632 8      1568.545          49.687
R16  19524256.980   104295067.020 8       652.250          49.625    19524256.980   104295067.021 8       652.250          48.812    19524265.640    81118423.257 8       507.306          51.000    19524265.840    81118424.255 8       507.306          51.125
G16  20839010.400   109509732.521 7      1022.357          47.062    20839008.920   109509732.531 6      1022.357          40.562    20839013.100    85332268.083 6       796.642          40.437
R03  23237357.360   124391401.700 7      4602.606          43.687    23237358.220   124391401.721 6      4602.606          41.687    23237373.120    96748928.401 7      3579.804          42.250    23237371.940    96748927.402 6      3579.804          41.437
R15  23015024.460   122985292.265 7     -1693.040          43.937    23015027.020   122985292.285 7     -1693.040          42.937    23015046.180    95655312.168 7     -1316.809          44.187    23015045.540    95655309.170 7     -1316.809          44.375
G21  20830535.580   109465196.978 7      3753.637          47.687    20830533.760   109465196.980 6      3753.637          38.750    20830537.640    85297569.518 6      2924.912          38.875
G08  21169970.380   111248940.454 7      3617.441          46.875    21169969.600   111248940.449 6      3617.441          39.500    21169975.820    86687506.158 6      2818.785          39.437    21169976.680    86687511.168 8      2818.785          51.500
R09  20430982.440   109100300.595 7      4996.883          46.875    20430982.080   109100300.593 7      4996.883          46.875    20430989.020    84855819.348 8      3886.465          50.000    20430989.280    84855822.339 8      3886.465          51.562
G10  22106207.600   116168898.482 7      2276.851          47.125    22106206.080   116168898.492 7      2276.851          46.500    22106212.940    90521245.050 7      1774.169          46.750    22106213.300    90521247.052 7      1774.169          47.937
G26  23028932.000   121017839.557 7      -502.274          45.125    23028931.400   121017839.560 6      -502.274          41.937    23028942.400    94299659.718 6      -391.382          41.562    23028942.420    94299659.720 7      -391.382          45.000
G23  23827437.880   125214027.485 7       442.787          45.562    23827436.220   125214027.493 5       442.787          31.437    23827441.640    97569335.080 5       345.029          31.500    23827442.320    97569406.086 7       345.029          43.937
R04  23896310.140   127963659.857 6      5876.409          41.187    23896311.160   127963659.883 6      5876.409          39.625    23896338.580    99527401.371 7      4570.540          44.375    23896338.820    99527404.364 7      4570.540          44.500
> 2024 05 06 12 44  4.0000000  0 14
G02  22321597.420   117300785.958 7      4499.695          44.062    22321595.320   117300785.962 5      4499.695          35.437    22321600.760    91403222.781 5      3506.256          35.250
R18  21472606.540   114622230.367 7       167.281          45.000    21472606.460   114622230.370 7       167.281          45.250    21472615.000    89150658.632 7       130.108          47.937    21472615.400    89150661.635 8       130.108          48.062
G27  20970610.560   110201292.090 8      2013.252          48.125    20970609.660   110201292.100 8      2013.252          49.062    20970614.560    85871163.959 8      1568.768          49.062    20970615.320    85871166.963 8      1568.768          49.875
R16  19524135.100   104294414.968 8       651.795          49.312    19524134.860   104294414.969 8       651.795          49.000    19524143.340    81117916.108 8       506.952          50.687    19524143.840    81117917.106 8       506.952          49.937
G16  20838815.860   109508710.130 7      1022.365          46.937    20838814.420   109508710.135 6      1022.365          40.312    20838818.460    85331471.411 6       796.648          40.000
R03  23236498.220   124386799.201 7      4602.440          43.562    23236499.000   124386799.224 6      4602.440          41.562    23236513.300    96745348.688 7      3579.675          42.187    23236512.700    96745347.693 6      3579.675          41.812
R15  23015341.520   122986985.191 7     -1692.780          44.125    23015343.640   122986985.206 7     -1692.780          42.812    23015362.500    95656628.857 7     -1316.607          43.875    23015362.360    95656625.859 7     -1316.607          44.375
G21  20829821.160   109461443.345 7      3753.475          47.187    20829819.580   109461443.350 6      3753.475          38.937    20829823.220    85294644.622 6      2924.785          39.000
G08  21169282.180   111245322.917 7      3617.658          47.625    21169281.160   111245322.911 6      3617.658          39.437    21169287.440    86684687.301 6      2818.954          39.562    21169288.280    86684692.312 8      2818.954          51.187
R09  20430046.820   109095303.892 7      4996.570          47.500    20430046.320   109095303.890 7      4996.570          47.250    20430053.380    84851933.027 8      3886.221          49.937    20430053.700    84851936.018 8      3886.221          50.625
G10  22105774.480   116166621.709 7      2276.679          47.437    22105772.900   116166621.716 7      2276.679          46.812    22105779.700    90519470.947 7      1774.036          46.750    22105779.360    90519472.953 8      1774.036          48.125
G26  23029027.680   121018341.676 7      -502.172          44.187    23029026.940   121018341.673 6      -502.172          41.500    23029038.000    94300050.965 6      -391.303          40.875    23029037.580    94300050.969 7      -391.303          45.375
G23  23827353.580   125213584.754 7       442.769          45.250    23827352.000   125213584.758 5       442.769          31.437    23827357.440    97568990.092 5       345.015          31.375    23827357.900    97569061.093 7       345.015          44.250
R04  23895212.220   127957782.933 6      5877.046          41.187    23895213.560   127957782.972 6      5877.046          40.000    23895241.240    99522830.445 7      4571.036          44.687    23895241.300    99522833.440 7      4571.036          44.812
> 2024 05 06 12 44  5.0000000  0 14
G02  22320741.580   117296286.339 7      4499.497          44.000    22320739.020   117296286.344 5      4499.497          35.437    22320744.400    91399716.599 5      3506.102          35.250
R18  21472575.360   114622062.994 7       167.413          44.437    21472575.120   114622062.998 7       167.413          45.875    21472583.540    89150528.462 7       130.210          46.875    21472583.940    89150531.464 7       130.210          47.500
G27  20970227.580   110199278.855 8      2013.338          48.375    20970226.600   110199278.860 7      2013.338          47.875    20970231.500    85869595.208 7      1568.834          47.937    20970232.160    85869598.210 8      1568.834          49.562
R16  19524013.280   104293763.475 8       651.166          49.812    19524013.000   104293763.473 8       651.166          49.375    19524021.460    81117409.393 8       506.462          49.812    19524021.900    81117410.390 8       506.462          49.937
G16  20838621.560   109507687.962 7      1022.059          47.812    20838619.960   109507687.972 6      1022.059          40.812    20838623.980    85330674.921 6       796.410          40.000
R03  23235638.300   124382196.868 7      4602.194          43.562    23235638.900   124382196.894 6      4602.194          41.562    23235653.180    96741769.108 7      3579.484          42.375    23235652.580    96741768.113 7      3579.484          42.375
R15  23015658.160   122988677.984 7     -1692.816          43.937    23015660.720   122988678.014 7     -1692.816          42.687    23015679.140    95657945.467 7     -1316.635          44.312    23015679.200    95657942.469 7     -1316.635          44.000
G21  20829106.960   109457689.928 7      3753.268          47.125    20829105.340   109457689.933 6      3753.268          38.562    20829109.000    85291719.887 6      2924.625          38.562
G08  21168593.740   111241705.219 7      3617.727          47.250    21168592.720   111241705.216 6      3617.727          39.375    21168598.960    86681868.326 6      2819.008          39.312    21168599.840    86681873.337 8      2819.008          50.625
R09  20429111.180   109090307.629 7      4996.055          45.750    20429110.780   109090307.630 7      4996.055          47.000    20429117.820    84848047.054 8      3885.820          49.000    20429117.900    84848050.047 8      3885.820          50.562
G10  22105341.180   116164345.280 7      2276.164          47.562    22105339.720   116164345.287 7      2276.164          46.375    22105346.360    90517697.112 7      1773.634          46.500    22105346.300    90517699.115 7      1773.634          47.562
G26  23029122.980   121018843.755 7      -502.188          43.312    23029122.480   121018843.755 6      -502.188          41.187    23029133.680    94300442.193 6      -391.316          40.937    23029133.160    94300442.193 7      -391.316          44.687
G23  23827269.120   125213142.227 7       442.382          45.062    23827267.620   125213142.229 5       442.382          31.375    23827273.360    97568645.270 5       344.713          31.375    23827273.740    97568716.275 7       344.713          44.437
R04  23894115.180   127951905.718 6      5877.370          41.187    23894116.180   127951905.746 6      5877.370          40.000    23894143.860    99518259.276 7      4571.288          44.187    23894143.460    99518262.270 7      4571.288          44.562
> 2024 05 06 12 44  6.0000000  0 14
G02  22319885.240   117291786.975 7      4499.124          44.187    22319882.840   117291786.980 5      4499.124          35.062    22319888.300    91396210.607 5      3505.811          35.000
R18  21472544.040   114621895.504 7       167.350          45.812    21472543.880   114621895.505 7       167.350          45.062    21472552.180    89150398.192 7       130.161          47.937    21472552.620    89150401.195 7       130.161          47.687
G27  20969844.440   110197265.677 8      2012.995          48.187    20969843.520   110197265.684 8      2012.995          48.812    20969848.460    85868026.504 8      1568.568          49.187    20969848.900    85868029.508 8      1568.568          49.750
R16  19523891.420   104293112.697 8       650.306          48.312    19523891.060   104293112.698 8       650.306          48.562    19523899.720    81116903.234 8       505.793          51.187    19523900.300    81116904.234 8       505.793          51.375
G16  20838427.040   109506666.160 7      1021.487          46.375    20838425.400   109506666.170 6      1021.487          40.812    20838429.480    85329878.717 6       795.964          40.625
R03  23234778.300   124377594.904 7      4601.623          43.937    23234779.320   124377594.933 6      4601.623          41.750    23234793.580    96738189.818 7      3579.040          42.125    23234793.300    96738188.823 7      3579.040          42.125
R15  23015975.260   122990370.832 7     -1693.081          44.062    23015977.840   122990370.849 7     -1693.081          42.687    23015995.980    95659262.102 7     -1316.840          43.500    23015996.020    95659259.100 7     -1316.840          44.625
G21  20828392.760   109453936.906 7      3752.720          47.312    20828391.140   109453936.908 6      3752.720          38.000    20828394.800    85288795.458 6      2924.197          38.312
G08  21167905.360   111238087.537 7      3617.578          47.937    21167904.380   111238087.534 6      3617.578          40.062    21167910.520    86679049.353 6      2818.892          39.250    21167911.340    86679054.370 8      2818.892          51.500
R09  20428175.860   109085311.967 7      4995.199          47.062    20428175.240   109085311.963 7      4995.199          46.687    20428182.120    84844161.541 8      3885.155          50.187    20428182.420    84844164.534 8      3885.155          51.000
G10  22104907.920   116162069.313 7      2275.576          47.687    22104906.820   116162069.313 7      2275.576          46.750    22104913.320    90515923.630 7      1773.176          46.562    22104913.360    90515925.633 8      1773.176          48.125
G26  23029218.680   121019345.945 7      -502.347          43.875    23029218.100   121019345.939 6      -502.347          41.375    23029229.260    94300833.501 6      -391.439          41.375    23029228.800    94300833.500 7      -391.439          45.562
G23  23827185.100   125212700.047 7       441.904          44.750    23827183.640   125212700.050 5       441.904          31.375    23827189.320    97568300.719 5       344.341          31.375    23827189.980    97568371.723 7       344.341          44.000
R04  23893017.660   127946028.275 6      5877.579          40.937    23893017.960   127946028.317 6      5877.579          40.000    23893046.120    99513687.946 7      4571.450          44.250    23893046.180    99513690.955 7      4571.450          44.187
> 2024 05 06 12 44  7.0000000  0 14
G02  22319029.120   117287287.905 7      4498.883          44.750    22319026.700   117287287.912 5      4498.883          35.375    22319032.020    91392704.851 5      3505.623          35.000
R18  21472512.640   114621727.894 7       167.728          45.062    21472512.520   114621727.898 7       167.728          45.312    21472521.040    89150267.837 8       130.455          48.375    21472521.180    89150270.837 8       130.455          48.500
G27  20969461.280   110195252.520 7      2013.258          47.062    20969460.440   110195252.528 8      2013.258          48.937    20969465.480    85866457.815 8      1568.773          49.125    20969465.860    85866460.817 8      1568.773          49.500
R16  19523769.600   104292462.621 7       649.807          47.875    19523769.300   104292462.625 8       649.807          49.000    19523778.060    81116397.628 8       505.406          50.187    19523778.540    81116398.630 8       505.406          51.125
G16  20838232.480   109505644.734 7      1021.372          46.500    20838230.980   109505644.738 6      1021.372          40.250    20838235.120    85329082.802 6       795.874          39.687
R03  23233918.640   124372993.280 7      4601.536          43.812    23233919.420   124372993.309 6      4601.536          41.750    23233933.880    96734610.800 7      3578.972          42.125    23233933.880    96734609.797 6      3578.972          41.875
R15  23016291.560   122992063.686 7     -1692.764          44.937    23016294.400   122992063.703 7     -1692.764          42.687    23016312.760    95660578.751 7     -1316.594          43.750    23016312.840    95660575.755 7     -1316.594          44.312
G21  20827678.500   109450184.258 7      3752.556          47.625    20827676.980   109450184.261 6      3752.556          38.437    20827680.780    85285871.328 6      2924.070          38.500
G08  21167216.760   111234469.866 7      3617.747          47.312    21167215.840   111234469.863 6      3617.747          39.750    21167222.200    86676230.390 6      2819.023          39.312    21167223.160    86676235.405 8      2819.023          51.187
R09  20427240.560   109080316.884 7      4994.867          46.250    20427239.700   109080316.875 7      4994.867          46.937    20427246.680    84840276.476 8      3884.896          49.875    20427247.060    84840279.470 8      3884.896          50.812
G10  22104474.920   116159793.809 7      2275.395          46.875    22104473.640   116159793.812 7      2275.395          46.937    22104480.240    90514150.522 7      1773.035          46.937    22104480.200    90514152.523 7      1773.035          47.625
G26  23029314.400   121019848.263 7      -502.360          45.250    23029313.720   121019848.260 7      -502.360          42.250    23029324.880    94301224.920 6      -391.449          41.687    23029324.400    94301224.921 7      -391.449          45.687
G23  23827101.140   125212258.217 7       441.765          45.250    23827099.560   125212258.225 5       441.765          31.375    23827105.100    97567956.444 5       344.232          31.375    23827106.460    97568027.446 7       344.232          43.937
R04  23891919.620   127940150.698 6      5877.784          40.937    23891920.660   127940150.727 6      5877.784          40.062    23891948.280    99509116.483 7      4571.610          44.312    23891948.500    99509119.475 7      4571.610          44.812
> 2024 05 06 12 44  8.0000000  0 14
G02  22318172.800   117282789.032 7      4498.716          44.125    22318170.580   117282789.037 5      4498.716          35.812    22318175.920    91389199.242 5      3505.493          35.562
R18  21472481.120   114621560.132 7       167.799          44.937    21472481.020   114621560.144 7       167.799          45.437    21472489.600    89150137.361 8       130.510          48.000    21472490.100    89150140.362 8       130.510          48.000
G27  20969078.040   110193239.392 7      2013.144          47.062    20969077.380   110193239.400 8      2013.144          48.812    20969082.300    85864889.150 8      1568.684          49.062    20969082.620    85864892.150 8      1568.684          50.062
R16  19523648.340   104291813.197 8       649.023          48.500    19523647.800   104291813.201 8       649.023          48.375    19523656.460    81115892.523 8       504.796          51.187    19523656.840    81115893.525 8       504.796          50.875
G16  20838038.300   109504623.662 7      1020.799          46.937    20838036.700   109504623.669 6      1020.799          40.875    20838040.720    85328287.166 6       795.428          40.437
R03  23233058.900   124368391.989 7      4601.052          43.812    23233059.860   124368392.012 7      4601.052          42.250    23233074.340    96731032.017 6      3578.596          41.750    23233074.320    96731031.014 6      3578.596          41.875
R15  23016608.520   122993756.577 7     -1692.902          44.937    23016610.840   122993756.599 7     -1692.902          42.437    23016629.420    95661895.428 7     -1316.701          44.000    23016629.520    95661892.434 7     -1316.701          44.187
G21  20826964.500   109446431.966 7      3752.089          47.250    20826962.960   109446431.971 6      3752.089          38.875    20826966.920    85282947.474 6      2923.705          38.875
G08  21166528.400   111230852.157 7      3617.739          47.062    21166527.380   111230852.157 6      3617.739          38.937    21166533.740    86673411.407 6      2819.018          39.625    21166534.780    86673416.420 8      2819.018          51.250
R09  20426304.860   109075322.370 7      4994.158          46.812    20426304.340   109075322.371 7      4994.158          47.437    20426311.340    84836391.869 8      3884.345          50.125    20426311.400    84836394.866 8      3884.345          50.312
G10  22104041.920   116157518.778 7      2274.773          46.500    22104040.800   116157518.781 7      2274.773          46.562    22104047.320    90512377.773 7      1772.550          47.062    22104047.240    90512379.774 7      1772.550          47.750
