     3.05           OBSERVATION DATA    MIXED               RINEX VERSION / TYPE
TPS2RIN 1.0.29.3920 TPS-USER            20240511 192648 UTC PGM / RUN BY / DATE
Win64 build Feb 23, 2024 (c) Topcon Positioning Systems     COMMENT
SRC: 20240508_GUI19.tps                                     COMMENT
OPT: -S -v 3.05                                             COMMENT
Observer            Agency                                  OBSERVER / AGENCY
O0M3X53SBGM         TPS HIPER_SR        4.8 HSR Jul,08,2022 REC # / TYPE / VERS
FW: 4.8 HSR Jul,08,2022 p3                                  COMMENT
SN: HiPer SR 1212-12575                                     COMMENT
000                 TPSHIPER_SR     NONE                    ANT # / TYPE
        1.8000        0.0000        0.0000                  ANTENNA: DELTA H/E/N
GUI19                                                       MARKER NAME
  5389707.5380 -1589026.5713  3008886.4282                  APPROX POSITION XYZ
  2024     5     8    16     0   15.0000000     GPS         TIME OF FIRST OBS
  2024     5     8    16    15   29.0000000     GPS         TIME OF LAST OBS
     1.000                                                  INTERVAL
   915 EPOCHS                                               COMMENT
G   16 C1C L1C D1C S1C C1W L1W D1W S1W C2W L2W D2W S2W C2X  SYS / # / OBS TYPES
       L2X D2X S2X                                          SYS / # / OBS TYPES
R   16 C1C L1C D1C S1C C1P L1P D1P S1P C2P L2P D2P S2P C2C  SYS / # / OBS TYPES
       L2C D2C S2C                                          SYS / # / OBS TYPES
    14                                                      # OF SATELLITES
   G02   915   915   915   915   915   915   915   915   915PRN / # OF OBS
         915   915   915     0     0     0     0            PRN / # OF OBS
   G03   915   915   915   915   915   915   915   915   915PRN / # OF OBS
         915   915   915   915   915   915   915            PRN / # OF OBS
   G04   915   915   915   915   915   915   915   915   915PRN / # OF OBS
         915   915   915   915   915   915   915            PRN / # OF OBS
   G08   915   915   915   915   915   915   915   915   915PRN / # OF OBS
         915   915   915   915   915   915   915            PRN / # OF OBS
   G09   107   107   107   107   106   106   106   106   106PRN / # OF OBS
         106   106   106   101   101   101   101            PRN / # OF OBS
   G14   641   641   641   641   627   627   627   627   629PRN / # OF OBS
         629   629   629   599   599   599   599            PRN / # OF OBS
   G17   915   915   915   915   915   915   915   915   915PRN / # OF OBS
         915   915   915   915   915   915   915            PRN / # OF OBS
   G21   915   915   915   915   915   915   915   915   915PRN / # OF OBS
         915   915   915     0     0     0     0            PRN / # OF OBS
   G22   915   915   915   915   915   915   915   915   915PRN / # OF OBS
         915   915   915     0     0     0     0            PRN / # OF OBS
   R07   915   915   915   915   915   915   915   915   915PRN / # OF OBS
         915   915   915   915   915   915   915            PRN / # OF OBS
   R08   915   915   915   915   915   915   915   915   915PRN / # OF OBS
         915   915   915   915   915   915   915            PRN / # OF OBS
   R21   915   915   915   915   915   915   915   915   915PRN / # OF OBS
         915   915   915   915   915   915   915            PRN / # OF OBS
   R22   915   915   915   915   915   915   915   915   915PRN / # OF OBS
         915   915   915   915   915   915   915            PRN / # OF OBS
   R23   915   915   915   915   915   915   915   915     0PRN / # OF OBS
           0     0     0     0     0     0     0            PRN / # OF OBS
G L1C                                                       SYS / PHASE SHIFT
G L1W -0.25000                                              SYS / PHASE SHIFT
G L2W  0.00000                                              SYS / PHASE SHIFT
G L2X  0.25000                                              SYS / PHASE SHIFT
R L1C                                                       SYS / PHASE SHIFT
R L1P -0.25000                                              SYS / PHASE SHIFT
R L2P -0.25000                                              SYS / PHASE SHIFT
R L2C                                                       SYS / PHASE SHIFT
  5 R07  5 R08  6 R21  4 R22 -3 R23  3                      GLONASS SLOT / FRQ #
                                                            GLONASS COD/PHS/BIS
    18    18  1929     7GPS                                 LEAP SECONDS
                                                            END OF HEADER
> 2024 05 08 16 00 15.0000000  0 12
G08  22503296.220   118255612.313 7      -108.339          44.000    22503295.540   118255612.320 7      -108.339          42.312    22503313.220    92147295.582 7       -84.420          42.312    22503313.960    92147300.594 7       -84.420          47.375
G04  23182490.140   121824809.071 7      5499.465          43.000    23182488.960   121824809.083 5      5499.465          32.312    23182507.420    94928424.041 5      4285.297          32.250    23182507.880    94928496.040 8      4285.297          48.125
R23  22387925.600   119760321.793 6      4747.155          40.312    22387925.300   119760321.824 6      4747.155          39.937
R21  22447862.480   120123036.155 7       998.584          43.625    22447864.680   120123036.199 7       998.584          43.375    22447879.920    93429105.480 7       776.676          45.875    22447880.320    93429105.489 7       776.676          44.312
R22  20596671.240   109946438.152 7      2969.542          46.062    20596671.220   109946438.153 7      2969.542          47.687    20596679.580    85513983.511 8      2309.643          50.062    20596679.920    85513974.511 8      2309.643          50.250
R07  19836547.220   106186598.714 7      2316.647          47.687    19836548.080   106186598.747 7      2316.647          47.625    19836560.660    82589636.931 8      1801.836          50.500    19836560.600    82589636.934 8      1801.836          50.187
R08  20786322.640   111309821.939 7      5869.694          46.375    20786323.820   111309821.973 7      5869.694          44.687    20786343.960    86574390.649 8      4565.317          49.437    20786343.200    86574389.648 8      4565.317          49.250
G03  20134067.480   105805233.219 8      2638.479          48.812    20134066.440   105805233.224 8      2638.479          50.125    20134074.640    82445669.447 8      2055.957          50.937    20134075.260    82445676.445 8      2055.957          51.000
G02  21941559.340   115303675.027 7      1949.164          45.937    21941557.420   115303675.034 6      1949.164          37.500    21941560.880    89847027.482 6      1518.829          37.562
G22  23629966.800   124176315.479 7      3790.941          42.562    23629966.140   124176315.484 3      3790.941          22.500    23629974.160    96760790.158 3      2953.980          22.562
G17  23305130.140   122469301.405 7      5343.316          43.687    23305129.680   122469301.408 5      5343.316          32.000    23305136.160    95430635.016 5      4163.623          32.375    23305137.120    95430640.004 7      4163.623          44.125
G21  22537596.060   118435860.100 7      1213.733          45.937    22537595.320   118435860.097 5      1213.733          35.812    22537600.180    92287704.412 6       945.766          36.000
> 2024 05 08 16 00 16.0000000  0 12
G08  22503317.000   118255720.777 7      -108.805          43.875    22503316.120   118255720.787 7      -108.805          43.000    22503333.840    92147380.091 7       -84.783          42.375    22503334.700    92147385.097 7       -84.783          47.437
G04  23181443.620   121819309.784 7      5499.048          42.937    23181442.400   121819309.794 5      5499.048          32.312    23181460.860    94924138.882 5      4284.972          32.250    23181461.380    94924210.886 8      4284.972          48.062
R23  22387038.420   119755574.732 6      4746.791          39.812    22387037.880   119755574.765 6      4746.791          39.937
R21  22447676.000   120122037.693 7       998.199          43.437    22447678.120   120122037.732 7       998.199          43.062    22447693.280    93428328.890 7       776.377          45.437    22447693.960    93428328.897 7       776.377          44.375
R22  20596114.760   109943468.833 7      2969.077          47.437    20596115.040   109943468.839 7      2969.077          47.875    20596123.380    85511674.037 8      2309.282          50.687    20596123.700    85511665.034 8      2309.282          50.625
R07  19836114.680   106184282.536 8      2315.514          48.875    19836115.320   106184282.561 7      2315.514          47.375    19836127.940    82587835.455 8      1800.955          50.375    19836127.960    82587835.460 8      1800.955          51.250
R08  20785226.700   111303952.580 7      5868.852          46.437    20785227.920   111303952.613 7      5868.852          44.687    20785247.980    86569825.604 8      4564.662          49.625    20785247.240    86569824.603 8      4564.662          49.500
G03  20133565.460   105802595.083 8      2637.668          48.875    20133564.360   105802595.088 8      2637.668          50.500    20133572.620    82443613.757 8      2055.326          50.812    20133573.520    82443620.755 8      2055.326          51.875
G02  21941188.460   115301725.955 7      1948.852          45.812    21941186.520   115301725.957 6      1948.852          36.937    21941189.680    89845508.725 6      1518.586          37.500
G22  23629245.340   124172524.830 7      3790.258          42.000    23629245.000   124172524.832 3      3790.258          22.375    23629252.860    96757836.401 3      2953.448          22.375
G17  23304113.660   122463958.206 7      5343.069          43.375    23304112.740   122463958.203 5      5343.069          32.250    23304119.360    95426471.484 5      4163.430          32.375    23304119.700    95426476.470 7      4163.430          44.125
G21  22537365.180   118434646.539 7      1213.437          45.250    22537364.400   118434646.536 5      1213.437          35.562    22537369.200    92286758.780 5       945.535          35.875
> 2024 05 08 16 00 17.0000000  0 12
G08  22503337.940   118255829.798 7      -109.072          43.625    22503336.820   118255829.805 7      -109.072          42.937    22503354.680    92147465.030 7       -84.991          42.000    22503355.340    92147470.036 7       -84.991          47.812
G04  23180397.240   121813810.799 7      5498.971          42.062    23180395.920   121813810.804 5      5498.971          32.312    23180414.240    94919853.963 5      4284.912          32.000    23180414.860    94919925.969 8      4284.912          48.250
R23  22386150.860   119750827.793 6      4746.986          39.812    22386150.160   119750827.816 6      4746.986          39.937
R21  22447489.380   120121039.680 7       997.916          43.250    22447491.240   120121039.706 7       997.916          43.562    22447506.820    93427552.640 7       776.157          45.562    22447507.460    93427552.650 7       776.157          44.312
R22  20595558.520   109940499.853 7      2968.931          47.750    20595558.860   109940499.862 8      2968.931          48.062    20595567.100    85509364.834 8      2309.169          51.125    20595567.460    85509355.830 8      2309.169          51.000
R07  19835681.880   106181967.450 8      2314.718          48.250    19835682.760   106181967.475 8      2314.718          48.062    19835695.360    82586034.835 8      1800.336          50.875    19835695.660    82586034.839 8      1800.336          51.250
R08  20784130.760   111298083.980 7      5868.375          46.750    20784132.140   111298084.014 7      5868.375          44.937    20784152.280    86565261.151 8      4564.291          50.500    20784151.220    86565260.149 8      4564.291          49.562
G03  20133063.520   105799957.710 8      2637.210          48.937    20133062.540   105799957.712 8      2637.210          50.937    20133070.720    82441558.662 8      2054.968          51.000    20133071.520    82441565.665 8      2054.968          51.875
G02  21940817.660   115299777.125 7      1948.894          45.937    21940815.860   115299777.130 6      1948.894          38.375    21940819.000    89843990.156 6      1518.619          37.500
G22  23628524.340   124168734.888 6      3789.742          41.125    23628523.660   124168734.893 3      3789.742          22.375    23628531.460    96754883.199 3      2953.046          22.375
G17  23303096.860   122458615.283 7      5342.919          42.875    23303095.940   122458615.285 5      5342.919          32.250    23303102.640    95422308.171 5      4163.314          32.375    23303103.220    95422313.163 7      4163.314          43.875
G21  22537134.380   118433433.188 7      1213.367          47.500    22537133.360   118433433.185 6      1213.367          36.250    22537138.340    92285813.308 6       945.481          36.250
> 2024 05 08 16 00 18.0000000  0 12
G08  22503358.800   118255939.102 7      -109.708          43.312    22503357.540   118255939.110 7      -109.708          42.812    22503375.420    92147550.190 7       -85.487          42.125    22503376.180    92147555.198 7       -85.487          46.562
G04  23179350.600   121808311.864 7      5498.611          43.062    23179349.440   121808311.872 5      5498.611          32.250    23179367.920    94915569.083 5      4284.632          32.000    23179368.520    94915641.084 8      4284.632          48.437
R23  22385263.580   119746080.719 6      4746.819          40.562    22385263.260   119746080.742 6      4746.819          40.125
R21  22447303.120   120120041.791 7       997.496          43.812    22447304.520   120120041.824 7       997.496          43.687    22447320.280    93426776.501 7       775.830          45.000    22447320.880    93426776.516 7       775.830          44.312
R22  20595002.260   109937530.969 7      2968.582          47.562    20595002.760   109937530.970 7      2968.582          47.937    20595010.980    85507055.700 8      2308.897          48.937    20595011.280    85507046.698 8      2308.897          48.687
R07  19835249.680   106179653.204 8      2313.530          48.875    19835250.340   106179653.230 7      2313.530          47.875    19835263.080    82584234.871 8      1799.413          48.562    19835263.300    82584234.875 8      1799.413          51.062
R08  20783035.100   111292215.893 7      5867.528          46.937    20783036.020   111292215.926 7      5867.528          45.500    20783056.400    86560697.097 8      4563.633          49.625    20783055.580    86560696.098 8      4563.633          48.062
G03  20132561.580   105797320.870 8      2636.364          48.750    20132560.740   105797320.874 8      2636.364          51.250    20132568.980    82439503.986 8      2054.309          51.375    20132569.800    82439510.988 8      2054.309          51.812
G02  21940446.780   115297828.306 7      1948.537          46.187    21940444.960   115297828.313 6      1948.537          37.750    21940448.040    89842471.600 6      1518.341          37.562
G22  23627803.260   124164945.392 6      3788.996          40.750    23627802.420   124164945.397 3      3788.996          22.375    23627810.420    96751930.346 3      2952.464          22.375
G17  23302080.560   122453272.347 7      5342.779          43.937    23302079.360   122453272.351 5      5342.779          32.187    23302085.880    95418144.848 5      4163.204          31.937    23302086.380    95418149.846 7      4163.204          44.187
G21  22536903.420   118432219.779 7      1213.196          46.250    22536902.460   118432219.782 5      1213.196          35.937    22536907.620    92284867.797 5       945.347          35.750
> 2024 05 08 16 00 19.0000000  0 12
G08  22503379.760   118256048.738 7      -109.821          44.375    22503378.440   118256048.743 7      -109.821          42.937    22503396.340    92147635.606 7       -85.574          42.625    22503396.880    92147640.613 7       -85.574          47.687
G04  23178304.220   121802813.050 7      5498.665          42.875    23178303.060   121802813.055 5      5498.665          32.250    23178321.580    94911284.295 5      4284.674          32.000    23178322.020    94911356.303 8      4284.674          48.312
R23  22384376.240   119741333.602 6      4747.054          40.562    22384375.760   119741333.619 6      4747.054          40.125
R21  22447116.340   120119044.126 7       997.559          43.625    22447118.240   120119044.157 7       997.559          43.687    22447133.980    93426000.538 7       775.879          46.000    22447134.620    93426000.546 7       775.879          45.375
R22  20594446.700   109934562.256 7      2968.643          47.687    20594446.540   109934562.259 7      2968.643          47.625    20594454.680    85504746.705 8      2308.945          50.687    20594455.020    85504737.701 8      2308.945          50.625
R07  19834817.960   106177339.855 8      2312.905          48.437    19834818.260   106177339.881 7      2312.905          47.875    19834830.980    82582435.603 8      1798.926          50.937    19834830.900    82582435.610 8      1798.926          50.750
R08  20781939.520   111286348.343 7      5867.262          46.687    20781940.480   111286348.377 7      5867.262          45.187    20781960.700    86556133.460 8      4563.426          50.062    20781959.820    86556132.460 8      4563.426          50.125
G03  20132059.840   105794684.592 8      2636.012          49.375    20132059.040   105794684.597 8      2636.012          50.625    20132067.280    82437449.752 8      2054.035          50.500    20132068.120    82437456.752 8      2054.035          51.937
G02  21940076.000   115295879.542 7      1948.771          46.187    21940074.080   115295879.549 6      1948.771          37.437    21940077.200    89840953.082 6      1518.523          37.500
G22  23627082.180   124161156.399 6      3788.820          41.437    23627081.280   124161156.404 3      3788.820          22.375    23627089.480    96748977.881 3      2952.328          22.375
G17  23301063.440   122447929.499 7      5342.958          43.062    23301062.680   122447929.504 5      5342.958          32.187    23301069.220    95413981.595 5      4163.344          31.937    23301069.820    95413986.581 7      4163.344          44.375
G21  22536672.280   118431006.394 7      1213.377          46.812    22536671.440   118431006.391 5      1213.377          35.937    22536676.640    92283922.300 6       945.489          36.000
> 2024 05 08 16 00 20.0000000  0 12
G08  22503400.520   118256158.739 7      -110.228          43.562    22503399.300   118256158.749 7      -110.228          42.375    22503417.180    92147721.317 7       -85.892          42.062    22503418.160    92147726.321 7       -85.892          47.687
G04  23177258.000   121797314.368 7      5498.623          43.500    23177256.800   121797314.373 5      5498.623          32.625    23177275.340    94906999.613 5      4284.642          32.312    23177275.740    94907071.621 8      4284.642          48.375
R23  22383489.200   119736586.420 6      4747.038          40.562    22383488.440   119736586.451 6      4747.038          40.125
R21  22446929.860   120118046.737 7       997.198          43.625    22446931.780   120118046.781 7       997.198          43.250    22446947.580    93425224.784 7       775.599          45.812    22446948.420    93425224.793 7       775.599          45.625
R22  20593890.400   109931593.735 8      2968.396          48.562    20593890.640   109931593.741 8      2968.396          48.250    20593898.700    85502437.858 8      2308.752          50.812    20593899.140    85502428.851 8      2308.752          50.750
R07  19834385.940   106175027.449 8      2311.919          48.812    19834386.580   106175027.477 7      2311.919          47.500    19834398.800    82580637.069 8      1798.159          50.875    19834398.920    82580637.075 8      1798.159          50.625
R08  20780843.820   111280481.390 7      5866.547          46.312    20780845.100   111280481.422 7      5866.547          45.437    20780865.060    86551570.287 8      4562.870          49.875    20780864.080    86551569.288 8      4562.870          49.812
G03  20131558.480   105792048.947 8      2635.316          49.625    20131557.500   105792048.955 8      2635.316          50.937    20131565.720    82435396.005 8      2053.493          51.125    20131566.500    82435403.009 8      2053.493          51.562
G02  21939705.280   115293930.875 7      1948.607          47.375    21939703.360   115293930.880 6      1948.607          37.625    21939706.360    89839434.638 6      1518.395          37.500
G22  23626361.260   124157367.957 6      3788.048          41.062    23626360.420   124157367.962 3      3788.048          22.375    23626368.460    96746025.851 3      2951.725          22.375
G17  23300046.880   122442586.776 7      5342.642          43.312    23300045.980   122442586.775 5      5342.642          32.187    23300052.640    95409818.432 5      4163.098          31.937    23300053.180    95409823.419 7      4163.098          44.187
G21  22536441.480   118429793.057 7      1213.336          46.312    22536440.620   118429793.056 5      1213.336          35.875    22536445.760    92282976.838 6       945.457          36.000
> 2024 05 08 16 00 21.0000000  0 12
G08  22503421.400   118256269.092 7      -110.585          44.062    22503420.260   118256269.102 7      -110.585          42.437    22503438.240    92147807.295 7       -86.170          42.562    22503439.220    92147812.301 7       -86.170          47.750
G04  23176211.600   121791815.827 7      5498.475          43.062    23176210.620   121791815.832 5      5498.475          32.625    23176229.080    94902715.036 5      4284.526          32.312    23176229.320    94902787.042 8      4284.526          48.687
R23  22382602.080   119731839.172 6      4747.265          40.875    22382600.680   119731839.205 6      4747.265          40.625
R21  22446743.660   120117049.586 7       997.005          43.375    22446745.160   120117049.625 7       997.005          43.187    22446761.380    93424449.212 7       775.449          45.875    22446762.100    93424449.216 7       775.449          45.375
R22  20593334.180   109928625.377 8      2968.263          48.062    20593334.380   109928625.383 7      2968.263          47.750    20593342.460    85500129.133 8      2308.649          50.750    20593342.920    85500120.128 8      2308.649          51.250
R07  19833954.120   106172715.976 8      2310.983          48.125    19833954.640   106172716.007 8      2310.983          48.000    19833966.960    82578839.261 8      1797.431          51.250    19833967.020    82578839.268 8      1797.431          50.625
R08  20779748.460   111274614.968 7      5866.073          46.250    20779749.660   111274615.002 7      5866.073          45.187    20779769.720    86547007.527 8      4562.501          50.000    20779768.720    86547006.529 8      4562.501          50.062
G03  20131056.920   105789413.875 8      2634.717          50.000    20131056.140   105789413.883 8      2634.717          50.750    20131064.300    82433342.704 8      2053.026          50.937    20131065.280    82433349.706 8      2053.026          51.812
G02  21939334.560   115291982.263 7      1948.560          47.250    21939332.560   115291982.268 6      1948.560          37.500    21939335.540    89837916.238 6      1518.358          37.312
G22  23625640.720   124153580.038 6      3787.564          41.312    23625639.580   124153580.046 3      3787.564          22.375    23625647.700    96743074.230 3      2951.348          22.375
G17  23299029.780   122437244.105 7      5342.549          43.937    23299029.480   122437244.104 5      5342.549          32.500    23299035.980    95405655.309 5      4163.025          32.375    23299036.580    95405660.307 7      4163.025          44.062
G21  22536210.640   118428579.756 7      1213.248          47.250    22536209.760   118428579.755 5      1213.248          35.937    22536214.760    92282031.406 6       945.388          36.250
> 2024 05 08 16 00 22.0000000  0 12
G08  22503442.320   118256379.837 7      -110.892          43.625    22503441.240   118256379.844 7      -110.892          42.562    22503459.280    92147893.577 7       -86.409          42.500    22503460.140    92147898.583 7       -86.409          47.750
G04  23175164.920   121786317.475 7      5498.244          42.875    23175164.000   121786317.480 5      5498.244          32.625    23175182.640    94898430.612 5      4284.346          32.375    23175183.040    94898502.612 8      4284.346          48.187
R23  22381714.060   119727091.990 6      4747.142          40.875    22381713.740   119727092.016 6      4747.142          40.625
R21  22446557.240   120116052.775 7       996.657          43.312    22446559.060   120116052.816 7       996.657          43.437    22446575.120    93423673.906 7       775.178          46.562    22446575.660    93423673.906 7       775.178          45.312
R22  20592778.120   109925657.264 7      2967.987          46.625    20592778.420   109925657.265 7      2967.987          47.812    20592786.460    85497820.599 8      2308.434          50.500    20592786.840    85497811.596 8      2308.434          50.437
R07  19833522.320   106170405.523 8      2309.956          48.750    19833523.300   106170405.544 8      2309.956          48.312    19833535.500    82577042.234 8      1796.633          50.937    19833535.480    82577042.243 8      1796.633          51.187
R08  20778652.820   111268749.204 7      5865.414          47.125    20778654.080   111268749.230 7      5865.414          45.250    20778674.340    86542445.272 8      4561.989          50.125    20778673.400    86542444.277 8      4561.989          50.125
G03  20130555.560   105786779.452 8      2634.117          49.875    20130554.760   105786779.460 8      2634.117          50.562    20130563.000    82431289.909 8      2052.559          51.187    20130563.900    82431296.909 8      2052.559          51.875
G02  21938963.860   115290033.790 7      1948.438          47.375    21938961.680   115290033.798 6      1948.438          37.250    21938964.780    89836397.947 6      1518.263          37.437
G22  23624919.720   124149792.697 6      3787.041          41.812    23624918.680   124149792.702 3      3787.041          22.375    23624926.940    96740123.055 3      2950.941          22.375
G17  23298013.260   122431901.586 7      5342.340          44.125    23298012.820   122431901.588 5      5342.340          32.500    23298019.220    95401492.314 5      4162.862          32.375    23298019.920    95401497.312 7      4162.862          44.312
G21  22535979.860   118427366.534 7      1213.132          46.937    22535978.800   118427366.536 6      1213.132          36.312    22535984.060    92281086.038 6       945.298          36.437
> 2024 05 08 16 00 23.0000000  0 12
G08  22503463.380   118256490.642 7      -111.055          43.312    22503462.320   118256490.649 7      -111.055          42.750    22503480.280    92147979.908 7       -86.536          42.125    22503481.240    92147984.910 7       -86.536          47.562
G04  23174118.760   121780818.927 7      5498.496          42.250    23174117.580   121780818.927 5      5498.496          32.125    23174136.300    94894146.027 5      4284.543          32.375    23174136.940    94894218.027 8      4284.543          48.687
R23  22380826.760   119722344.407 6      4747.569          40.375    22380826.160   119722344.422 6      4747.569          40.625
R21  22446371.180   120115055.918 7       996.767          43.312    22446372.560   120115055.957 7       996.767          43.437    22446389.040    93422898.559 7       775.263          45.937    22446389.400    93422898.563 7       775.263          45.562
R22  20592221.980   109922688.970 8      2968.225          48.000    20592222.580   109922688.971 7      2968.225          47.875    20592230.480    85495511.926 8      2308.620          50.375    20592230.800    85495502.919 8      2308.620          50.500
R07  19833090.980   106168095.611 8      2309.523          49.125    19833091.620   106168095.634 7      2309.523          47.625    19833103.900    82575245.646 8      1796.296          51.125    19833103.940    82575245.652 8      1796.296          50.875
R08  20777557.420   111262883.674 7      5865.210          46.687    20777558.540   111262883.707 7      5865.210          45.312    20777578.940    86537883.213 8      4561.830          49.937    20777577.940    86537882.216 8      4561.830          50.437
G03  20130054.300   105784145.311 8      2633.759          50.125    20130053.540   105784145.318 8      2633.759          50.687    20130061.760    82429237.335 8      2052.280          51.250    20130062.520    82429244.333 8      2052.280          52.062
G02  21938592.700   115288085.055 7      1948.759          47.250    21938590.920   115288085.060 6      1948.759          37.875    21938593.920    89834879.454 6      1518.513          37.750
G22  23624198.700   124146005.548 6      3786.806          41.437    23624197.740   124146005.553 3      3786.806          22.375    23624206.120    96737172.028 3      2950.758          22.375
G17  23296996.440   122426558.805 7      5342.787          43.750    23296996.140   122426558.804 5      5342.787          32.625    23297002.680    95397329.110 5      4163.211          32.500    23297003.260    95397334.110 7      4163.211          44.375
G21  22535749.100   118426153.014 7      1213.476          46.375    22535747.900   118426153.014 5      1213.476          35.937    22535753.180    92280140.437 6       945.566          36.312
> 2024 05 08 16 00 24.0000000  0 12
G08  22503484.880   118256602.038 7      -111.390          44.250    22503483.620   118256602.043 7      -111.390          42.562    22503501.460    92148066.696 7       -86.798          42.125    22503502.680    92148071.696 7       -86.798          47.750
G04  23173072.560   121775320.765 7      5498.254          42.062    23173071.220   121775320.764 5      5498.254          32.125    23173089.960    94889861.747 5      4284.354          32.375    23173090.400    94889933.750 8      4284.354          48.562
R23  22379939.400   119717597.025 6      4747.526          40.375    22379938.140   119717597.056 6      4747.526          40.250
R21  22446185.280   120114059.572 7       996.437          43.000    22446186.340   120114059.606 7       996.437          43.375    22446202.880    93422123.617 7       775.007          46.625    22446203.060    93422123.621 7       775.007          45.500
R22  20591666.080   109919721.135 7      2967.861          47.562    20591666.380   109919721.144 7      2967.861          47.875    20591674.420    85493203.614 8      2308.336          50.875    20591674.940    85493194.611 8      2308.336          50.437
R07  19832659.440   106165786.909 8      2308.368          49.187    19832660.460   106165786.937 8      2308.368          48.312    19832672.580    82573449.991 8      1795.397          51.187    19832672.760    82573449.999 8      1795.397          50.437
R08  20776461.980   111257019.021 7      5864.384          46.875    20776463.380   111257019.060 7      5864.384          45.500    20776483.880    86533321.832 8      4561.187          50.000    20776482.860    86533320.834 8      4561.187          49.500
G03  20129553.280   105781512.007 8      2633.082          50.062    20129552.380   105781512.012 8      2633.082          50.562    20129560.580    82427185.410 8      2051.752          50.750    20129561.580    82427192.408 8      2051.752          52.125
G02  21938221.940   115286136.677 7      1948.477          47.125    21938220.200   115286136.684 6      1948.477          37.562    21938223.260    89833361.238 6      1518.294          37.250
G22  23623478.520   124142219.179 6      3786.232          41.375    23623477.180   124142219.190 3      3786.232          22.500    23623485.480    96734221.609 3      2950.310          22.375
G17  23295979.920   122421216.407 7      5342.476          42.937    23295979.480   122421216.409 5      5342.476          32.625    23295985.940    95393166.204 5      4162.969          32.500    23295986.880    95393171.202 7      4162.969          44.500
G21  22535518.340   118424939.792 7      1213.324          46.750    22535516.960   118424939.789 6      1213.324          36.125    22535522.360    92279195.063 6       945.447          36.250
> 2024 05 08 16 00 25.0000000  0 12
G08  22503505.860   118256713.550 7      -111.426          43.375    22503504.720   118256713.563 7      -111.426          42.312    22503522.680    92148153.580 7       -86.826          42.125    22503524.080    92148158.582 7       -86.826          47.437
G04  23172025.900   121769822.513 6      5498.334          41.687    23172024.920   121769822.520 5      5498.334          32.187    23172043.640    94885577.397 5      4284.416          32.125    23172044.260    94885649.403 8      4284.416          48.187
R23  22379052.200   119712849.384 6      4747.960          40.375    22379051.120   119712849.401 6      4747.960          40.250
R21  22445998.600   120113063.229 7       996.474          43.312    22445999.920   120113063.263 7       996.474          43.312    22446016.780    93421348.673 7       775.035          46.125    22446017.160    93421348.673 7       775.035          45.875
R22  20591110.140   109916753.231 7      2968.085          47.750    20591110.500   109916753.234 7      2968.085          47.875    20591118.580    85490895.241 8      2308.510          50.750    20591119.020    85490886.237 8      2308.510          50.812
R07  19832227.920   106163478.875 8      2307.804          49.187    19832229.220   106163478.901 8      2307.804          48.062    19832241.560    82571654.858 8      1794.958          50.687    19832241.540    82571654.862 8      1794.958          49.562
R08  20775366.880   111251154.687 7      5864.342          46.250    20775368.500   111251154.734 7      5864.342          45.687    20775388.700    86528760.702 8      4561.155          50.000    20775387.700    86528759.704 8      4561.155          50.250
G03  20129052.420   105778879.053 8      2632.925          49.750    20129051.280   105778879.061 8      2632.925          50.937    20129059.580    82425133.760 8      2051.630          50.937    20129060.580    82425140.760 8      2051.630          52.125
G02  21937851.080   115284188.123 7      1948.800          47.625    21937849.460   115284188.130 6      1948.800          37.625    21937852.480    89831842.880 6      1518.545          37.812
G22  23622758.020   124138433.092 6      3786.221          41.500    23622756.760   124138433.105 3      3786.221          22.500    23622765.000    96731271.415 3      2950.302          22.250
G17  23294963.420   122415873.828 7      5342.832          43.500    23294962.880   122415873.827 5      5342.832          32.625    23294969.320    95389003.162 5      4163.246          32.500    23294969.720    95389008.160 7      4163.246          44.500
G21  22535287.320   118423726.349 7      1213.671          47.125    22535286.100   118423726.352 5      1213.671          35.562    22535291.380    92278249.525 6       945.718          36.250
> 2024 05 08 16 00 26.0000000  0 12
G08  22503527.040   118256825.516 7      -112.192          44.187    22503526.140   118256825.521 7      -112.192          42.437    22503543.980    92148240.810 6       -87.423          41.875    22503545.140    92148245.812 7       -87.423          47.437
G04  23170979.740   121764324.432 6      5498.067          41.000    23170978.660   121764324.437 5      5498.067          32.187    23170997.600    94881293.182 5      4284.208          32.125    23170998.120    94881365.188 8      4284.208          48.812
R23  22378164.740   119708101.739 6      4747.628          40.500    22378163.060   119708101.760 6      4747.628          40.375
R21  22445812.280   120112067.165 7       996.022          43.312    22445813.820   120112067.198 7       996.022          43.312    22445830.860    93420573.948 7       774.684          45.937    22445830.900    93420573.952 7       774.684          45.375
R22  20590554.060   109913785.609 7      2967.355          46.687    20590554.640   109913785.621 7      2967.355          47.875    20590562.440    85488587.098 8      2307.943          50.125    20590562.800    85488578.097 8      2307.943          49.937
R07  19831797.440   106161171.859 8      2306.472          48.687    19831798.180   106161171.888 8      2306.472          48.000    19831810.420    82569860.514 8      1793.923          50.250    19831810.440    82569860.518 8      1793.923          50.125
R08  20774272.140   111245291.047 7      5863.255          46.250    20774273.320   111245291.097 7      5863.255          45.125    20774293.500    86524200.109 8      4560.310          49.187    20774292.680    86524199.112 8      4560.310          49.500
G03  20128551.400   105776246.790 8      2631.953          49.875    20128550.360   105776246.798 8      2631.953          50.437    20128558.660    82423082.652 8      2050.873          50.437    20128559.540    82423089.652 8      2050.873          52.000
G02  21937480.180   115282239.732 7      1948.276          47.125    21937478.580   115282239.737 6      1948.276          37.750    21937481.640    89830324.657 6      1518.137          37.312
G22  23622037.500   124134647.638 6      3785.156          40.187    23622036.420   124134647.648 3      3785.156          22.500    23622044.680    96728321.706 3      2949.472          22.250
G17  23293946.500   122410531.448 7      5342.297          43.250    23293946.180   122410531.448 5      5342.297          32.750    23293952.760    95384840.271 5      4162.829          32.625    23293952.980    95384845.267 7      4162.829          44.312
G21  22535056.240   118422513.027 7      1213.309          46.187    22535055.320   118422513.032 6      1213.309          36.187    22535060.520    92277304.077 5       945.435          35.875
> 2024 05 08 16 00 27.0000000  0 12
G08  22503548.520   118256937.848 7      -112.332          43.187    22503547.600   118256937.856 7      -112.332          42.250    22503565.440    92148328.331 6       -87.532          41.875    22503566.700    92148333.335 7       -87.532          47.687
G04  23169934.060   121758826.561 7      5498.032          42.250    23169932.540   121758826.564 5      5498.032          32.187    23169951.440    94877009.129 5      4284.181          32.125    23169951.700    94877081.129 8      4284.181          48.187
R23  22377277.120   119703354.092 6      4747.879          40.500    22377276.000   119703354.110 6      4747.879          40.375
R21  22445626.420   120111071.418 7       995.820          42.812    22445627.740   120111071.457 7       995.820          43.437    22445644.820    93419799.470 7       774.526          46.375    22445644.920    93419799.468 7       774.526          45.750
R22  20589998.200   109910818.167 7      2967.442          47.687    20589998.700   109910818.181 7      2967.442          47.812    20590006.580    85486279.091 8      2308.011          50.812    20590006.980    85486270.088 8      2308.011          50.500
R07  19831366.560   106158865.793 8      2305.821          49.562    19831367.680   106158865.819 7      2305.821          47.312    19831379.620    82568066.911 8      1793.416          51.000    19831379.720    82568066.912 8      1793.416          50.625
R08  20773177.100   111239427.993 7      5862.888          46.562    20773178.740   111239428.040 7      5862.888          45.812    20773198.700    86519639.962 8      4560.024          49.750    20773197.860    86519638.965 8      4560.024          50.125
G03  20128050.480   105773615.155 8      2631.547          49.812    20128049.620   105773615.160 8      2631.547          51.062    20128057.860    82421032.027 8      2050.556          51.375    20128058.820    82421039.025 8      2050.556          52.312
G02  21937109.580   115280291.435 7      1948.403          47.625    21937107.920   115280291.443 6      1948.403          37.437    21937110.960    89828806.498 6      1518.236          37.187
G22  23621317.400   124130862.746 6      3784.733          40.625    23621316.160   124130862.756 3      3784.733          22.500    23621324.440    96725372.441 3      2949.142          22.250
G17  23292929.860   122405189.163 7      5342.434          43.625    23292929.600   122405189.160 5      5342.434          32.750    23292936.060    95380677.456 5      4162.936          32.625    23292936.560    95380682.447 7      4162.936          44.312
G21  22534825.380   118421299.792 7      1213.349          46.562    22534824.480   118421299.794 6      1213.349          36.000    22534829.660    92276358.695 6       945.467          36.250
> 2024 05 08 16 00 28.0000000  0 12
G08  22503569.900   118257050.377 7      -112.493          43.375    22503568.940   118257050.384 7      -112.493          42.500    22503586.680    92148416.004 7       -87.657          42.000    22503587.760    92148421.004 7       -87.657          47.812
G04  23168887.920   121753328.641 7      5498.080          42.625    23168886.340   121753328.643 5      5498.080          32.437    23168905.080    94872725.039 5      4284.219          32.062    23168905.640    94872797.049 8      4284.219          48.375
R23  22376389.980   119698606.237 6      4747.924          40.250    22376388.600   119698606.252 6      4747.924          40.375
R21  22445440.560   120110075.782 7       995.677          43.750    22445441.320   120110075.813 7       995.677          43.375    22445458.620    93419025.071 7       774.415          46.187    22445458.800    93419025.072 7       774.415          45.812
R22  20589442.260   109907850.743 7      2967.499          47.875    20589442.960   109907850.746 7      2967.499          47.937    20589450.880    85483971.092 8      2308.054          50.500    20589451.180    85483962.088 8      2308.054          50.562
R07  19830935.860   106156560.506 8      2304.919          49.250    19830936.740   106156560.535 7      2304.919          47.875    19830948.920    82566273.910 8      1792.715          50.750    19830949.100    82566273.913 8      1792.715          50.812
R08  20772082.400   111233565.324 7      5862.503          45.750    20772083.640   111233565.371 7      5862.503          45.500    20772103.840    86515080.119 8      4559.725          50.000    20772103.300    86515079.126 8      4559.725          49.875
G03  20127550.000   105770983.943 8      2631.079          50.875    20127548.860   105770983.948 8      2631.079          50.562    20127557.160    82418981.730 8      2050.192          51.000    20127558.120    82418988.728 8      2050.192          52.187
G02  21936738.800   115278343.055 7      1948.465          47.625    21936737.300   115278343.060 6      1948.465          37.250    21936740.040    89827288.281 6      1518.284          37.312
G22  23620597.380   124127078.198 6      3784.454          41.187    23620596.000   124127078.205 3      3784.454          22.500    23620604.320    96722423.443 3      2948.926          22.250
G17  23291913.180   122399846.797 7      5342.502          43.250    23291913.100   122399846.802 5      5342.502          32.750    23291919.580    95376514.575 5      4162.988          32.812    23291920.180    95376519.569 7      4162.988          44.312
G21  22534594.560   118420086.407 7      1213.510          47.750    22534593.720   118420086.404 6      1213.510          36.000    22534598.800    92275413.198 6       945.592          36.250
> 2024 05 08 16 00 29.0000000  0 12
G08  22503591.460   118257163.237 7      -112.993          42.625    22503590.440   118257163.239 7      -112.993          42.250    22503608.120    92148503.930 6       -88.047          41.937    22503609.380    92148508.934 7       -88.047          47.375
G04  23167841.440   121747830.823 7      5497.804          42.750    23167840.200   121747830.830 5      5497.804          32.437    23167858.900    94868441.029 5      4284.003          32.062    23167859.520    94868513.045 8      4284.003          48.437
R23  22375502.240   119693858.258 6      4748.094          40.250    22375501.220   119693858.276 6      4748.094          40.562
R21  22445255.020   120109080.397 7       995.274          43.750    22445255.800   120109080.422 7       995.274          43.375    22445272.860    93418250.879 7       774.102          46.250    22445272.820    93418250.881 7       774.102          45.312
R22  20588886.380   109904883.476 7      2967.113          47.937    20588887.140   109904883.493 8      2967.113          48.062    20588894.820    85481663.221 8      2307.755          50.625    20588895.340    85481654.222 8      2307.755          50.500
R07  19830505.680   106154256.094 8      2303.915          49.562    19830506.100   106154256.120 8      2303.915          48.250    19830518.520    82564481.594 8      1791.934          50.875    19830518.460    82564481.594 8      1791.934          50.937
R08  20770987.440   111227703.183 7      5861.909          46.125    20770988.600   111227703.225 7      5861.909          45.437    20771009.000    86510520.687 8      4559.262          49.875    20771008.520    86510519.691 8      4559.262          49.875
G03  20127049.300   105768353.301 8      2630.310          50.375    20127048.320   105768353.309 8      2630.310          51.125    20127056.600    82416931.887 8      2049.592          50.750    20127057.540    82416938.888 8      2049.592          51.937
G02  21936368.220   115276394.714 8      1948.263          48.187    21936366.680   115276394.721 6      1948.263          37.625    21936369.300    89825770.095 6      1518.127          37.312
G22  23619877.160   124123294.152 7      3783.840          42.000    23619875.880   124123294.157 3      3783.840          22.500    23619884.180    96719474.832 3      2948.447          22.250
G17  23290896.540   122394504.523 7      5342.222          44.562    23290896.680   122394504.528 5      5342.222          32.750    23290902.880    95372351.768 5      4162.770          32.812    23290903.580    95372356.766 7      4162.770          44.437
G21  22534363.340   118418873.033 7      1213.326          47.125    22534362.760   118418873.032 6      1213.326          36.187    22534367.820    92274467.712 6       945.448          36.062
> 2024 05 08 16 00 30.0000000  0 12
G08  22503613.040   118257276.448 7      -113.184          43.937    22503612.080   118257276.448 7      -113.184          42.437    22503629.680    92148592.137 6       -88.195          41.625    22503631.040    92148597.135 7       -88.195          46.875
G04  23166795.140   121742333.149 6      5497.833          41.937    23166793.980   121742333.154 5      5497.833          32.062    23166812.720    94864157.132 5      4284.026          32.062    23166813.180    94864229.136 8      4284.026          48.562
R23  22374614.000   119689110.277 6      4748.269          40.500    22374613.580   119689110.287 6      4748.269          40.562
R21  22445069.200   120108085.247 7       995.229          43.500    22445069.780   120108085.278 7       995.229          43.187    22445087.100    93417476.865 7       774.067          45.437    22445086.920    93417476.863 7       774.067          44.937
R22  20588330.660   109901916.383 7      2967.197          47.187    20588331.400   109901916.395 8      2967.197          48.625    20588339.120    85479355.477 8      2307.820          48.687    20588339.320    85479346.475 8      2307.820          48.500
R07  19830075.160   106151952.587 8      2303.241          49.187    19830075.900   106151952.615 8      2303.241          48.125    19830088.240    82562689.982 8      1791.409          48.875    19830088.260    82562689.978 8      1791.409          50.625
R08  20769893.300   111221841.650 7      5861.440          46.187    20769894.420   111221841.691 7      5861.440          45.250    20769914.620    86505961.731 8      4558.897          48.250    20769913.800    86505960.733 8      4558.897          48.437
G03  20126548.660   105765723.248 8      2629.971          50.125    20126547.760   105765723.253 8      2629.971          49.187    20126556.140    82414882.497 8      2049.328          49.062    20126557.040    82414889.493 8      2049.328          51.750
G02  21935997.260   115274446.454 8      1948.384          48.437    21935995.880   115274446.461 6      1948.384          37.812    21935998.740    89824251.971 6      1518.221          37.312
G22  23619157.340   124119510.637 6      3783.381          41.375    23619155.640   124119510.644 3      3783.381          22.500    23619164.220    96716526.638 3      2948.089          22.250
G17  23289880.160   122389162.306 7      5342.382          44.062    23289880.200   122389162.306 5      5342.382          32.937    23289886.360    95368189.004 5      4162.895          32.812    23289886.380    95368193.993 7      4162.895          43.937
G21  22534132.560   118417659.687 7      1213.492          47.437    22534131.840   118417659.686 5      1213.492          35.875    22534137.000    92273522.245 6       945.578          36.250
> 2024 05 08 16 00 31.0000000  0 12
G08  22503634.600   118257390.033 7      -113.763          42.812    22503633.620   118257390.041 7      -113.763          42.250    22503651.480    92148680.640 6       -88.647          41.750    22503652.820    92148685.643 7       -88.647          47.562
G04  23165748.920   121736835.633 7      5497.587          42.000    23165747.800   121736835.638 5      5497.587          32.062    23165766.580    94859873.353 5      4283.834          32.062    23165766.720    94859945.351 8      4283.834          48.625
R23  22373726.540   119684362.261 6      4748.076          40.500    22373725.900   119684362.289 6      4748.076          40.812
R21  22444882.960   120107090.327 7       994.822          43.312    22444884.140   120107090.364 7       994.822          43.125    22444900.940    93416703.030 7       773.751          46.312    22444900.840    93416703.033 7       773.751          46.000
R22  20587774.960   109898949.501 7      2966.839          47.875    20587775.640   109898949.507 7      2966.839          47.812    20587783.160    85477047.900 8      2307.542          50.187    20587783.440    85477038.900 8      2307.542          50.687
R07  19829645.020   106149650.046 8      2302.082          49.000    19829645.320   106149650.074 7      2302.082          47.812    19829658.120    82560899.116 8      1790.508          50.625    19829657.920    82560899.117 8      1790.508          50.625
R08  20768798.600   111215980.721 7      5860.662          46.312    20768799.820   111215980.766 7      5860.662          45.750    20768819.840    86501403.244 8      4558.292          49.562    20768819.140    86501402.250 8      4558.292          49.875
G03  20126048.420   105763093.825 8      2629.100          50.125    20126047.440   105763093.830 8      2629.100          50.875    20126055.760    82412833.598 8      2048.649          50.750    20126056.600    82412840.597 8      2048.649          51.875
G02  21935626.420   115272498.297 7      1948.119          47.500    21935625.060   115272498.299 6      1948.119          37.312    21935628.100    89822733.924 6      1518.015          37.625
G22  23618437.300   124115727.660 6      3782.795          41.500    23618435.840   124115727.668 3      3782.795          22.500    23618444.360    96713578.860 3      2947.632          22.250
G17  23288863.840   122383820.229 7      5341.981          43.875    23288863.780   122383820.231 5      5341.981          32.937    23288869.800    95364026.348 5      4162.583          32.812    23288870.100    95364031.346 7      4162.583          44.000
G21  22533901.740   118416446.399 7      1213.322          47.375    22533900.880   118416446.401 6      1213.322          36.375    22533906.160    92272576.824 6       945.446          36.250
> 2024 05 08 16 00 32.0000000  0 12
G08  22503656.200   118257503.960 7      -114.230          42.875    22503655.200   118257503.978 7      -114.230          42.625    22503673.000    92148769.408 6       -89.010          41.812    22503674.380    92148774.412 7       -89.010          47.312
G04  23164703.380   121731338.228 7      5497.332          42.250    23164701.720   121731338.227 5      5497.332          32.062    23164720.560    94855589.663 5      4283.635          32.062    23164720.480    94855661.672 8      4283.635          48.375
R23  22372838.940   119679614.232 6      4747.901          40.875    22372838.360   119679614.252 6      4747.901          40.812
R21  22444696.920   120106095.638 7       994.597          43.687    22444698.640   120106095.672 7       994.597          43.125    22444714.940    93415929.369 7       773.576          46.250    22444714.800    93415929.363 7       773.576          45.625
R22  20587219.020   109895982.779 8      2966.600          48.375    20587219.900   109895982.785 8      2966.600          48.687    20587227.440    85474740.452 8      2307.355          51.125    20587227.720    85474731.452 8      2307.355          50.000
R07  19829214.800   106147348.418 8      2301.065          49.312    19829215.520   106147348.446 8      2301.065          48.375    19829228.240    82559108.967 8      1789.717          51.000    19829228.200    82559108.965 8      1789.717          50.937
R08  20767704.380   111210120.323 7      5860.088          46.125    20767705.300   111210120.363 7      5860.088          45.375    20767725.380    86496845.169 8      4557.847          50.437    20767724.840    86496844.176 8      4557.847          49.500
G03  20125548.120   105760464.975 8      2628.523          50.375    20125547.140   105760464.975 8      2628.523          50.625    20125555.480    82410785.144 8      2048.200          50.812    20125556.380    82410792.142 8      2048.200          51.937
G02  21935255.820   115270550.200 7      1947.989          47.000    21935254.280   115270550.205 6      1947.989          37.687    21935257.340    89821215.927 6      1517.913          37.375
G22  23617717.840   124111945.209 6      3782.023          41.687    23617716.060   124111945.214 3      3782.023          22.437    23617724.520    96710631.496 3      2947.031          22.250
G17  23287847.300   122378478.194 7      5341.968          44.562    23287847.180   122378478.194 5      5341.968          32.937    23287853.200    95359863.725 5      4162.572          32.812    23287853.400    95359868.723 7      4162.572          44.250
G21  22533670.900   118415233.143 8      1213.121          48.000    22533670.060   118415233.148 5      1213.121          35.937    22533675.380    92271631.432 6       945.289          36.000
> 2024 05 08 16 00 33.0000000  0 12
G08  22503677.940   118257618.204 7      -114.391          43.375    22503676.880   118257618.212 7      -114.391          42.062    22503694.720    92148858.414 6       -89.136          41.937    22503695.920    92148863.409 7       -89.136          47.687
G04  23163657.140   121725840.938 7      5497.227          42.750    23163655.480   121725840.937 5      5497.227          32.500    23163674.380    94851306.066 5      4283.554          32.000    23163674.560    94851378.066 8      4283.554          48.562
R23  22371951.280   119674866.090 6      4748.175          40.875    22371950.660   119674866.102 6      4748.175          41.000
R21  22444510.640   120105101.179 7       994.272          43.687    22444512.840   120105101.220 7       994.272          43.437    22444528.980    93415155.894 7       773.323          46.625    22444529.260    93415155.894 7       773.323          46.062
R22  20586663.360   109893016.188 8      2966.511          48.312    20586664.340   109893016.194 7      2966.511          47.875    20586671.740    85472433.105 8      2307.286          50.187    20586672.100    85472424.105 8      2307.286          50.187
R07  19828785.580   106145047.662 8      2300.300          49.062    19828785.600   106145047.685 8      2300.300          48.625    19828798.320    82557319.486 8      1789.122          50.750    19828798.440    82557319.487 8      1789.122          50.687
R08  20766609.640   111204260.442 7      5859.572          46.000    20766610.840   111204260.484 7      5859.572          45.375    20766631.060    86492287.498 8      4557.445          49.625    20766630.520    86492286.501 8      4557.445          49.750
G03  20125048.000   105757836.680 8      2627.994          50.312    20125046.900   105757836.685 8      2627.994          50.500    20125055.280    82408737.128 8      2047.787          51.375    20125056.200    82408744.128 8      2047.787          52.250
G02  21934885.340   115268602.132 7      1948.044          47.812    21934883.560   115268602.139 6      1948.044          37.812    21934886.620    89819697.954 6      1517.956          37.437
G22  23616998.020   124108163.221 6      3781.604          41.312    23616996.380   124108163.225 3      3781.604          22.437    23617004.720    96707684.492 3      2946.704          22.250
G17  23286830.720   122373136.227 7      5341.983          44.125    23286830.700   122373136.221 5      5341.983          32.812    23286836.620    95355701.156 5      4162.584          32.875    23286837.100    95355706.154 7      4162.584          44.250
G21  22533440.100   118414019.876 7      1213.248          46.625    22533439.180   118414019.881 5      1213.248          35.937    22533444.460    92270686.025 5       945.388          35.875
> 2024 05 08 16 00 34.0000000  0 12
G08  22503699.800   118257732.819 7      -114.833          43.312    22503698.740   118257732.832 6      -114.833          41.750    22503716.520    92148947.714 6       -89.480          41.937    22503717.900    92148952.722 7       -89.480          47.312
G04  23162611.080   121720343.776 7      5497.067          43.000    23162609.400   121720343.773 5      5497.067          32.500    23162628.320    94847022.566 5      4283.429          32.000    23162628.760    94847094.568 8      4283.429          48.750
R23  22371063.580   119670117.913 6      4748.126          40.875    22371062.900   119670117.928 6      4748.126          41.000
R21  22444324.740   120104107.032 7       993.886          43.687    22444327.260   120104107.074 7       993.886          43.437    22444343.240    93414382.661 7       773.022          46.250    22444343.540    93414382.661 7       773.022          45.875
R22  20586107.600   109890049.797 7      2966.231          47.812    20586108.260   109890049.803 8      2966.231          48.562    20586115.920    85470125.910 8      2307.069          50.625    20586116.200    85470116.908 8      2307.069          50.312
R07  19828355.960   106142747.846 8      2299.277          49.312    19828355.880   106142747.874 7      2299.277          47.937    19828368.780    82555530.747 8      1788.327          51.125    19828368.520    82555530.747 8      1788.327          50.750
