     3.05           OBSERVATION DATA    MIXED               RINEX VERSION / TYPE
TPS2RIN 1.0.29.3920 TPS-USER            20240511 191956 UTC PGM / RUN BY / DATE
Win64 build Feb 23, 2024 (c) Topcon Positioning Systems     COMMENT
SRC: 20240508_GUI14.tps                                     COMMENT
OPT: -S -v 3.05                                             COMMENT
Observer            Agency                                  OBSERVER / AGENCY
O0M3X53SBGM         TPS HIPER_SR        4.8 HSR Jul,08,2022 REC # / TYPE / VERS
FW: 4.8 HSR Jul,08,2022 p3                                  COMMENT
SN: HiPer SR 1212-12575                                     COMMENT
000                 TPSHIPER_SR     NONE                    ANT # / TYPE
        1.8000        0.0000        0.0000                  ANTENNA: DELTA H/E/N
GUI14                                                       MARKER NAME
  5388960.2470 -1589817.1101  3010296.4817                  APPROX POSITION XYZ
  2024     5     8    13    29   36.0000000     GPS         TIME OF FIRST OBS
  2024     5     8    13    44   36.0000000     GPS         TIME OF LAST OBS
     1.000                                                  INTERVAL
   901 EPOCHS                                               COMMENT
G   16 C1C L1C D1C S1C C1W L1W D1W S1W C2W L2W D2W S2W C2X  SYS / # / OBS TYPES
       L2X D2X S2X                                          SYS / # / OBS TYPES
R   16 C1C L1C D1C S1C C1P L1P D1P S1P C2P L2P D2P S2P C2C  SYS / # / OBS TYPES
       L2C D2C S2C                                          SYS / # / OBS TYPES
    16                                                      # OF SATELLITES
   G02   901   901   901   901   901   901   901   901   901PRN / # OF OBS
         901   901   901     0     0     0     0            PRN / # OF OBS
   G03   901   901   901   901   901   901   901   901   901PRN / # OF OBS
         901   901   901   901   901   901   901            PRN / # OF OBS
   G08   901   901   901   901   901   901   901   901   901PRN / # OF OBS
         901   901   901   901   901   901   901            PRN / # OF OBS
   G10   901   901   901   901   901   901   901   901   901PRN / # OF OBS
         901   901   901   901   901   901   901            PRN / # OF OBS
   G16   901   901   901   901   901   901   901   901   901PRN / # OF OBS
         901   901   901     0     0     0     0            PRN / # OF OBS
   G21   901   901   901   901   901   901   901   901   901PRN / # OF OBS
         901   901   901     0     0     0     0            PRN / # OF OBS
   G26   323   323   323   323   323   323   323   323   323PRN / # OF OBS
         323   323   323   323   323   323   323            PRN / # OF OBS
   G27   901   901   901   901   901   901   901   901   901PRN / # OF OBS
         901   901   901   901   901   901   901            PRN / # OF OBS
   G32   751   751   751   751   741   741   741   741   741PRN / # OF OBS
         741   741   741   733   733   733   733            PRN / # OF OBS
   R05   901   901   901   901   901   901   901   901   901PRN / # OF OBS
         901   901   901   901   901   901   901            PRN / # OF OBS
   R07   626   626   626   626   626   626   626   626   626PRN / # OF OBS
         626   626   626   626   626   626   626            PRN / # OF OBS
   R10   901   901   901   901   901   901   901   901     0PRN / # OF OBS
           0     0     0     0     0     0     0            PRN / # OF OBS
   R11   901   901   901   901   901   901   901   901   901PRN / # OF OBS
         901   901   901   901   901   901   901            PRN / # OF OBS
   R12   873   873   873   873   869   869   869   869   869PRN / # OF OBS
         869   869   869   868   868   868   868            PRN / # OF OBS
   R21   901   901   901   901   901   901   901   901   901PRN / # OF OBS
         901   901   901   901   901   901   901            PRN / # OF OBS
   R22   901   901   901   901   901   901   901   901   901PRN / # OF OBS
         901   901   901   901   901   901   901            PRN / # OF OBS
G L1C                                                       SYS / PHASE SHIFT
G L1W -0.25000                                              SYS / PHASE SHIFT
G L2W  0.00000                                              SYS / PHASE SHIFT
G L2X  0.25000                                              SYS / PHASE SHIFT
R L1C                                                       SYS / PHASE SHIFT
R L1P -0.25000                                              SYS / PHASE SHIFT
R L2P -0.25000                                              SYS / PHASE SHIFT
R L2C                                                       SYS / PHASE SHIFT
  7 R05  1 R07  5 R10 -7 R11  0 R12 -1 R21  4 R22 -3        GLONASS SLOT / FRQ #
                                                            GLONASS COD/PHS/BIS
    18    18  1929     7GPS                                 LEAP SECONDS
                                                            END OF HEADER
> 2024 05 08 13 29 36.0000000  0 13
R22  21985532.840   117360270.724 7      3748.252          42.000    21985533.780   117360270.736 6      3748.252          41.562    21985544.600    91280258.028 7      2915.307          44.687    21985544.200    91280257.022 7      2915.307          44.437
G10  23064683.760   121205736.220 7       263.918          45.750    23064682.240   121205736.225 7       263.918          44.625    23064692.240    94446058.234 7       205.650          44.562    23064692.360    94446061.234 7       205.650          46.625
R21  20758280.700   111081748.560 8      1732.299          49.062    20758281.120   111081748.575 8      1732.299          48.812    20758292.120    86396966.550 8      1347.343          49.625    20758291.400    86396965.547 8      1347.343          48.500
R05  22999756.060   122946880.152 7      2028.647          42.625    22999755.460   122946880.140 7      2028.647          42.125    22999771.300    95625408.609 7      1577.837          44.000    22999771.020    95625410.609 7      1577.837          44.562
R10  22116701.380   117894460.489 6     -1656.084          40.750    22116699.760   117894460.482 6     -1656.084          39.500
G02  21721579.220   114147670.885 7      3103.890          46.687    21721577.980   114147670.889 6      3103.890          38.187    21721581.780    88946245.021 6      2418.616          38.000
G27  21702538.780   114047601.664 7      1165.546          46.312    21702537.180   114047601.674 7      1165.546          47.062    21702545.960    88868293.593 7       908.218          47.062    21702544.780    88868290.592 8       908.218          48.750
G21  20771187.140   109153326.301 7      2128.048          47.875    20771185.560   109153326.306 6      2128.048          39.375    20771190.420    85054551.950 6      1658.219          39.375
G26  25293392.420   132917679.141 6     -1134.515          40.125    25293391.840   132917679.145 5     -1134.515          34.812    25293412.000   103572298.207 5      -884.037          35.000    25293413.020   103572296.207 6      -884.037          41.625
G03  24369506.320   128062620.447 7      6245.619          44.000    24369505.200   128062620.452 5      6245.619          32.062    24369526.560    99789106.972 5      4866.716          31.750    24369527.520    99789138.975 7      4866.716          46.000
G08  20881925.120   109735257.625 8      2865.168          48.625    20881924.840   109735257.628 8      2865.168          49.375    20881932.120    85508021.430 8      2232.598          50.125    20881931.800    85508019.432 8      2232.598          50.125
R11  19932537.960   106513441.535 8      1479.804          49.000    19932538.040   106513441.542 8      1479.804          48.062    19932546.820    82843822.544 8      1150.959          51.562    19932546.820    82843820.539 8      1150.959          52.250
G16  22438205.760   117913562.146 7      -569.090          46.000    22438204.860   117913562.153 6      -569.090          36.312    22438214.240    91880728.205 6      -443.447          36.062
> 2024 05 08 13 29 37.0000000  0 13
R22  21984830.680   117356522.448 6      3748.078          41.500    21984831.480   117356522.449 6      3748.078          41.187    21984842.600    91277342.700 7      2915.172          44.312    21984842.080    91277341.692 7      2915.172          44.562
G10  23064633.480   121205472.383 7       263.532          45.250    23064632.080   121205472.388 7       263.532          44.562    23064642.000    94445852.645 7       205.350          44.500    23064642.280    94445855.645 7       205.350          46.625
R21  20757956.860   111080016.205 7      1732.206          46.500    20757957.400   111080016.228 8      1732.206          48.750    20757968.420    86395619.167 8      1347.271          49.625    20757967.780    86395618.164 8      1347.271          48.250
R05  22999376.540   122944851.817 7      2027.849          42.625    22999375.820   122944851.816 7      2027.849          42.000    22999391.840    95623831.027 7      1577.216          43.812    22999391.580    95623833.026 7      1577.216          44.687
R10  22117012.160   117896116.637 6     -1656.405          40.875    22117010.660   117896116.634 6     -1656.405          39.500
G02  21720988.720   114144567.111 7      3103.546          46.375    21720987.260   114144567.118 6      3103.546          37.750    21720991.080    88943826.499 6      2418.347          38.000
G27  21702317.400   114046436.155 7      1165.366          46.500    21702315.380   114046436.163 7      1165.366          46.750    21702324.100    88867385.402 7       908.077          46.875    21702323.140    88867382.401 8       908.077          48.875
G21  20770782.180   109151198.306 7      2127.727          47.250    20770780.480   109151198.311 6      2127.727          39.125    20770785.360    85052893.774 6      1657.969          39.062
G26  25293608.400   132918813.356 6     -1134.420          40.750    25293607.600   132918813.361 5     -1134.420          35.250    25293628.040   103573182.011 5      -883.964          35.000    25293628.660   103573180.019 6      -883.964          41.812
G03  24368317.980   128056374.727 7      6245.545          44.187    24368316.520   128056374.726 5      6245.545          32.062    24368337.900    99784240.179 5      4866.658          31.750    24368338.720    99784272.178 7      4866.658          45.875
G08  20881380.080   109732392.493 8      2864.946          48.187    20881379.640   109732392.501 8      2864.946          48.812    20881386.920    85505788.862 8      2232.425          49.250    20881386.760    85505786.862 8      2232.425          50.750
R11  19932260.780   106511961.983 8      1479.040          49.062    19932261.080   106511961.992 7      1479.040          47.875    19932270.060    82842671.775 8      1150.364          51.625    19932269.760    82842669.770 8      1150.364          52.125
G16  22438314.140   117914131.303 7      -569.398          46.187    22438313.200   117914131.305 6      -569.398          36.312    22438322.560    91881171.687 6      -443.687          36.437
> 2024 05 08 13 29 38.0000000  0 13
R22  21984129.080   117352774.353 6      3747.964          41.500    21984129.500   117352774.351 6      3747.964          41.187    21984140.340    91274427.515 7      2915.083          44.625    21984139.780    91274426.509 7      2915.083          44.062
G10  23064583.380   121205208.985 7       263.126          45.875    23064581.940   121205208.987 7       263.126          44.312    23064591.920    94445647.396 7       205.034          44.437    23064592.160    94445650.393 7       205.034          46.875
R21  20757633.200   111078283.970 8      1732.082          48.750    20757633.840   111078283.987 8      1732.082          48.875    20757644.700    86394271.867 8      1347.175          49.625    20757644.200    86394270.864 8      1347.175          49.187
R05  22998997.080   122942824.239 7      2027.168          42.500    22998996.540   122942824.237 7      2027.168          42.000    22999012.300    95622254.020 7      1576.686          44.125    22999012.240    95622256.018 7      1576.686          44.687
R10  22117323.400   117897772.978 6     -1656.517          40.875    22117321.680   117897772.976 6     -1656.517          39.500
G02  21720398.120   114141463.624 7      3103.262          45.687    21720396.640   114141463.631 6      3103.262          38.125    21720400.440    88941408.195 6      2418.126          37.937
G27  21702095.180   114045270.846 7      1165.177          47.125    21702093.720   114045270.851 7      1165.177          47.250    21702102.400    88866477.358 7       907.930          47.062    21702101.380    88866474.359 8       907.930          48.750
G21  20770377.540   109149070.634 8      2127.448          48.187    20770375.560   109149070.642 6      2127.448          40.000    20770380.640    85051235.846 6      1657.752          39.937
G26  25293824.400   132919947.545 6     -1134.230          40.312    25293823.320   132919947.537 5     -1134.230          35.250    25293843.760   103574065.789 5      -883.816          34.750    25293844.380   103574063.797 6      -883.816          41.750
G03  24367129.280   128050128.986 7      6245.601          44.375    24367128.140   128050128.988 5      6245.601          32.062    24367149.400    99779373.370 5      4866.702          31.750    24367150.360    99779405.369 7      4866.702          45.687
G08  20880834.740   109729527.545 8      2864.763          48.625    20880834.480   109729527.550 8      2864.763          49.250    20880841.700    85503556.429 8      2232.283          49.562    20880841.500    85503554.435 8      2232.283          49.937
R11  19931984.060   106510483.329 8      1478.109          48.937    19931984.480   106510483.335 8      1478.109          48.625    19931993.320    82841521.706 8      1149.640          51.500    19931993.140    82841519.701 8      1149.640          52.125
G16  22438422.440   117914700.752 7      -569.636          47.312    22438421.400   117914700.754 6      -569.636          36.125    22438431.040    91881615.399 6      -443.872          36.500
> 2024 05 08 13 29 39.0000000  0 13
R22  21983426.960   117349026.455 6      3747.830          41.250    21983427.760   117349026.456 6      3747.830          41.687    21983437.940    91271512.488 7      2914.979          44.500    21983437.580    91271511.480 7      2914.979          44.250
G10  23064533.340   121204946.049 7       262.652          46.625    23064531.940   121204946.054 7       262.652          44.875    23064541.780    94445442.513 7       204.664          44.562    23064542.060    94445445.512 7       204.664          46.625
R21  20757309.600   111076551.826 8      1732.034          49.062    20757309.900   111076551.843 8      1732.034          48.750    20757321.120    86392924.646 8      1347.137          49.500    20757320.560    86392923.639 8      1347.137          48.625
R05  22998618.280   122940797.435 7      2026.413          43.375    22998617.900   122940797.428 6      2026.413          41.625    22998633.300    95620677.615 7      1576.099          43.812    22998633.040    95620679.615 7      1576.099          43.687
R10  22117633.400   117899429.584 6     -1656.854          40.875    22117632.340   117899429.582 6     -1656.854          39.687
G02  21719807.580   114138360.441 7      3102.937          45.937    21719806.180   114138360.451 6      3102.937          38.062    21719810.080    88938990.134 6      2417.873          38.062
G27  21701873.460   114044105.746 7      1164.991          46.750    21701871.880   114044105.751 7      1164.991          47.500    21701880.700    88865569.483 7       907.785          47.000    21701879.640    88865566.484 8       907.785          48.875
G21  20769972.800   109146943.314 7      2127.022          47.687    20769970.800   109146943.322 6      2127.022          39.750    20769975.720    85049578.194 6      1657.420          39.750
G26  25294039.780   132921081.742 6     -1134.290          40.437    25294039.100   132921081.739 5     -1134.290          34.625    25294059.500   103574949.585 5      -883.862          34.750    25294059.740   103574947.593 6      -883.862          41.750
G03  24365940.920   128043883.266 7      6245.636          44.312    24365939.700   128043883.268 5      6245.636          32.062    24365960.840    99774506.579 5      4866.729          32.062    24365961.660    99774538.584 7      4866.729          45.750
G08  20880289.600   109726662.805 8      2864.520          48.875    20880289.300   109726662.807 8      2864.520          49.562    20880296.520    85501324.165 8      2232.094          49.500    20880296.240    85501322.169 8      2232.094          50.375
R11  19931707.380   106509005.524 8      1477.302          49.187    19931708.000   106509005.536 8      1477.302          48.187    19931716.720    82840372.307 8      1149.012          51.875    19931716.740    82840370.304 8      1149.012          51.875
G16  22438530.820   117915270.534 7      -569.975          45.937    22438529.820   117915270.537 5      -569.975          35.875    22438539.360    91882059.376 5      -444.136          35.812
> 2024 05 08 13 29 40.0000000  0 13
R22  21982725.000   117345278.550 6      3747.794          41.625    21982725.860   117345278.572 6      3747.794          41.687    21982735.540    91268597.469 7      2914.951          44.437    21982735.620    91268596.463 7      2914.951          43.937
G10  23064483.380   121204683.352 7       262.513          46.437    23064481.940   121204683.355 7       262.513          44.375    23064491.860    94445237.808 7       204.555          44.187    23064491.940    94445240.814 7       204.555          46.687
R21  20756985.720   111074819.548 8      1732.321          48.500    20756986.340   111074819.563 8      1732.321          49.187    20756997.240    86391577.312 8      1347.360          49.500    20756996.820    86391576.310 8      1347.360          49.062
R05  22998239.540   122938771.201 7      2025.855          43.375    22998238.340   122938771.194 6      2025.855          41.625    22998254.260    95619101.659 7      1575.665          43.500    22998253.980    95619103.654 7      1575.665          43.625
R10  22117944.540   117901086.195 6     -1656.595          40.875    22117943.440   117901086.185 6     -1656.595          39.687
G02  21719217.260   114135257.356 7      3102.958          46.062    21719215.640   114135257.366 6      3102.958          38.125    21719219.580    88936572.146 6      2417.890          38.000
G27  21701651.640   114042940.629 7      1165.144          47.062    21701650.140   114042940.634 7      1165.144          47.312    21701658.940    88864661.599 7       907.905          47.187    21701657.920    88864658.600 8       907.905          48.625
G21  20769568.220   109144816.089 7      2127.043          46.812    20769565.920   109144816.097 6      2127.043          39.562    20769570.760    85047920.618 6      1657.436          39.562
G26  25294255.400   132922215.716 6     -1133.891          40.062    25294254.800   132922215.715 5     -1133.891          34.875    25294275.360   103575833.205 5      -883.551          34.562    25294275.620   103575831.211 6      -883.551          41.750
G03  24364752.460   128037637.341 7      6246.044          44.187    24364751.020   128037637.343 5      6246.044          32.062    24364772.380    99769639.629 5      4867.047          32.062    24364773.160    99769671.636 7      4867.047          45.625
G08  20879744.500   109723798.040 8      2864.735          49.125    20879744.180   109723798.043 8      2864.735          48.750    20879751.460    85499091.882 8      2232.261          49.000    20879751.180    85499089.881 8      2232.261          49.875
R11  19931431.300   106507528.361 8      1476.781          49.062    19931431.460   106507528.378 8      1476.781          48.000    19931440.460    82839223.404 8      1148.608          52.062    19931440.180    82839221.401 8      1148.608          51.937
G16  22438639.480   117915840.414 7      -569.960          46.187    22438638.340   117915840.416 6      -569.960          36.125    22438647.880    91882503.427 6      -444.125          36.000
> 2024 05 08 13 29 41.0000000  0 13
R22  21982022.980   117341530.738 6      3747.706          41.625    21982023.540   117341530.752 6      3747.706          41.687    21982033.600    91265682.496 7      2914.883          44.000    21982033.360    91265681.483 7      2914.883          44.000
G10  23064433.220   121204420.995 7       262.132          46.375    23064432.000   121204420.994 7       262.132          44.562    23064442.000    94445033.369 7       204.259          44.625    23064442.000    94445036.371 7       204.259          46.750
R21  20756662.340   111073087.254 8      1732.276          48.687    20756662.600   111073087.275 8      1732.276          48.750    20756673.540    86390229.979 8      1347.325          49.750    20756672.760    86390228.974 8      1347.325          48.875
R05  22997860.400   122936745.598 7      2025.189          43.187    22997859.280   122936745.591 7      2025.189          42.375    22997875.160    95617526.190 7      1575.147          43.875    22997875.240    95617528.184 7      1575.147          43.500
R10  22118256.260   117902742.947 6     -1656.840          41.062    22118253.900   117902742.948 6     -1656.840          39.687
G02  21718627.060   114132154.444 7      3102.734          47.375    21718625.140   114132154.449 6      3102.734          37.812    21718629.020    88934154.288 6      2417.715          38.125
G27  21701430.280   114041775.627 7      1164.917          46.375    21701428.480   114041775.632 7      1164.917          47.125    21701437.320    88863753.801 7       907.728          47.000    21701436.280    88863750.798 8       907.728          49.125
G21  20769163.540   109142689.082 8      2126.767          48.000    20769161.260   109142689.089 6      2126.767          39.812    20769166.020    85046263.210 6      1657.221          39.625
G26  25294471.520   132923349.563 6     -1133.938          40.125    25294470.580   132923349.557 5     -1133.938          34.875    25294491.120   103576716.722 5      -883.588          34.500    25294491.680   103576714.724 6      -883.588          41.750
G03  24363564.060   128031391.313 7      6246.056          43.750    24363562.520   128031391.316 5      6246.056          32.062    24363583.800    99764772.596 5      4867.057          32.312    24363584.740    99764804.602 7      4867.057          46.000
G08  20879199.200   109720933.347 8      2864.588          48.812    20879199.020   109720933.355 8      2864.588          49.375    20879206.280    85496859.651 8      2232.146          49.875    20879206.040    85496857.655 8      2232.146          50.062
R11  19931155.020   106506051.964 8      1476.002          48.562    19931155.080   106506051.976 8      1476.002          48.437    19931164.080    82838075.085 8      1148.002          51.875    19931163.820    82838073.086 8      1148.002          52.312
G16  22438747.860   117916410.488 7      -570.252          46.000    22438746.920   117916410.493 6      -570.252          36.062    22438756.360    91882947.631 5      -444.352          35.937
> 2024 05 08 13 29 42.0000000  0 13
R22  21981320.380   117337783.088 7      3747.746          42.375    21981321.500   117337783.084 6      3747.746          41.687    21981331.740    91262767.643 7      2914.913          44.062    21981331.480    91262766.628 7      2914.913          43.937
G10  23064383.460   121204159.055 7       261.743          45.937    23064382.040   121204159.060 7       261.743          44.875    23064392.140    94444829.260 7       203.956          44.562    23064392.160    94444832.258 7       203.956          47.000
R21  20756338.260   111071355.046 8      1732.305          48.812    20756338.860   111071355.064 8      1732.305          48.875    20756349.940    86388882.702 8      1347.348          50.187    20756349.460    86388881.701 8      1347.348          48.750
R05  22997480.860   122934720.748 7      2024.629          43.687    22997480.740   122934720.747 7      2024.629          42.187    22997496.320    95615951.303 7      1574.711          44.062    22997496.360    95615953.303 7      1574.711          44.062
R10  22118566.860   117904399.939 6     -1657.091          41.062    22118564.820   117904399.934 6     -1657.091          39.687
G02  21718036.580   114129051.808 7      3102.539          47.437    21718034.800   114129051.815 6      3102.539          37.937    21718038.640    88931736.654 6      2417.563          38.000
G27  21701208.560   114040610.796 7      1164.899          46.625    21701206.820   114040610.795 7      1164.899          47.312    21701215.700    88862846.132 7       907.713          47.312    21701214.760    88862843.129 8       907.713          48.875
G21  20768758.720   109140562.374 7      2126.613          47.125    20768756.540   109140562.382 6      2126.613          39.625    20768761.320    85044606.033 6      1657.101          39.562
G26  25294687.000   132924483.340 6     -1133.561          40.062    25294686.220   132924483.334 5     -1133.561          34.750    25294706.820   103577600.182 5      -883.295          34.500    25294708.000   103577598.188 6      -883.295          41.750
G03  24362375.160   128025145.273 7      6246.170          44.000    24362373.920   128025145.275 5      6246.170          32.437    24362395.060    99759905.556 5      4867.146          32.312    24362396.260    99759937.553 7      4867.146          45.625
G08  20878654.060   109718068.846 8      2864.436          48.937    20878653.980   109718068.848 8      2864.436          49.375    20878661.160    85494627.568 8      2232.028          49.437    20878660.960    85494625.568 8      2232.028          50.250
R11  19930878.820   106504576.404 8      1475.298          49.187    19930878.880   106504576.413 8      1475.298          48.625    19930888.040    82836927.423 8      1147.454          51.937    19930887.760    82836925.420 8      1147.454          52.375
G16  22438856.360   117916980.849 7      -570.403          46.312    22438855.480   117916980.848 6      -570.403          36.062    22438864.940    91883392.051 5      -444.470          35.937
> 2024 05 08 13 29 43.0000000  0 13
R22  21980618.600   117334035.749 7      3747.158          42.312    21980619.560   117334035.747 6      3747.158          41.625    21980629.860    91259853.045 7      2914.456          43.625    21980629.300    91259852.037 7      2914.456          44.125
G10  23064333.640   121203897.662 7       261.050          45.687    23064332.380   121203897.664 7       261.050          44.687    23064342.320    94444625.573 7       203.415          44.562    23064342.580    94444628.571 7       203.415          46.437
R21  20756014.600   111069623.039 8      1731.822          48.437    20756015.180   111069623.059 8      1731.822          48.375    20756026.240    86387535.585 8      1346.973          49.687    20756025.380    86387534.584 8      1346.973          48.375
R05  22997101.940   122932696.804 7      2023.436          43.687    22997101.840   122932696.800 7      2023.436          42.187    22997117.760    95614377.127 7      1573.784          43.562    22997117.280    95614379.121 7      1573.784          43.625
R10  22118877.880   117906057.243 6     -1657.600          40.812    22118875.620   117906057.249 6     -1657.600          39.687
G02  21717446.100   114125949.576 7      3101.926          47.875    21717444.460   114125949.587 6      3101.926          37.562    21717448.260    88929319.333 6      2417.085          37.687
G27  21700986.820   114039446.267 7      1164.364          45.625    21700985.320   114039446.269 7      1164.364          46.937    21700994.140    88861938.705 7       907.297          46.500    21700993.120    88861935.704 8       907.297          48.750
G21  20768354.020   109138436.095 7      2125.945          46.562    20768352.100   109138436.103 6      2125.945          39.750    20768356.700    85042949.192 6      1656.581          39.500
G26  25294902.400   132925617.234 6     -1133.972          40.750    25294902.000   132925617.234 5     -1133.972          34.687    25294922.740   103578483.743 5      -883.615          34.500    25294923.140   103578481.749 6      -883.615          41.750
G03  24361186.460   128018899.335 7      6245.870          43.687    24361185.380   128018899.334 5      6245.870          32.437    24361206.400    99755038.591 5      4866.912          32.312    24361207.540    99755070.592 7      4866.912          45.750
G08  20878109.160   109715204.618 8      2863.983          48.437    20878108.920   109715204.620 8      2863.983          49.437    20878116.140    85492395.702 8      2231.675          49.312    20878115.980    85492393.706 8      2231.675          49.875
R11  19930602.500   106503101.832 8      1474.043          48.937    19930602.660   106503101.836 8      1474.043          48.125    19930612.060    82835780.527 8      1146.478          51.687    19930611.960    82835778.523 8      1146.478          52.062
G16  22438964.880   117917551.624 7      -570.999          46.625    22438964.100   117917551.624 6      -570.999          36.250    22438973.720    91883836.797 6      -444.934          36.062
> 2024 05 08 13 29 44.0000000  0 13
R22  21979916.240   117330288.780 7      3747.007          42.312    21979917.700   117330288.794 6      3747.007          41.812    21979928.020    91256938.755 7      2914.339          43.750    21979927.280    91256937.736 7      2914.339          44.062
G10  23064284.220   121203636.904 7       260.710          45.562    23064282.720   121203636.912 7       260.710          43.812    23064292.700    94444422.385 7       203.150          44.062    23064292.900    94444425.383 7       203.150          46.375
R21  20755690.920   111067891.309 8      1731.873          48.187    20755691.360   111067891.330 8      1731.873          48.500    20755702.640    86386188.680 8      1347.012          48.562    20755701.900    86386187.682 8      1347.012          48.312
R05  22996723.620   122930673.802 7      2022.867          42.937    22996723.900   122930673.790 7      2022.867          42.312    22996739.280    95612803.670 7      1573.341          43.750    22996738.740    95612805.664 7      1573.341          43.500
R10  22119188.940   117907714.982 6     -1657.559          40.812    22119186.640   117907714.985 6     -1657.559          39.687
G02  21716855.840   114122847.818 7      3101.850          47.687    21716854.180   114122847.828 6      3101.850          37.562    21716858.060    88926902.378 6      2417.026          37.500
G27  21700765.300   114038282.140 7      1164.196          46.375    21700763.660   114038282.147 7      1164.196          46.750    21700772.480    88861031.589 7       907.166          46.875    21700771.440    88861028.590 7       907.166          47.937
G21  20767949.380   109136310.331 8      2125.715          48.062    20767947.520   109136310.338 6      2125.715          39.125    20767952.300    85041292.757 6      1656.402          39.250
G26  25295118.540   132926751.310 6     -1133.893          40.375    25295117.720   132926751.307 5     -1133.893          34.687    25295138.500   103579367.438 5      -883.553          34.500    25295139.400   103579365.440 6      -883.553          41.750
G03  24359998.160   128012653.599 7      6245.920          43.625    24359996.940   128012653.601 5      6245.920          32.312    24360017.740    99750171.786 5      4866.950          32.125    24360018.760    99750203.789 7      4866.950          45.312
G08  20877564.240   109712340.776 8      2863.869          48.687    20877564.020   109712340.783 8      2863.869          49.187    20877571.180    85490164.139 8      2231.586          49.125    20877571.080    85490162.143 8      2231.586          49.437
R11  19930326.940   106501628.300 8      1473.271          49.062    19930327.100   106501628.309 7      1473.271          47.750    19930336.320    82834634.442 8      1145.878          50.562    19930336.100    82834632.438 8      1145.878          51.812
G16  22439073.740   117918122.907 7      -571.266          45.937    22439072.420   117918122.912 6      -571.266          36.000    22439082.400    91884281.942 6      -445.142          36.125
> 2024 05 08 13 29 45.0000000  0 13
R22  21979214.640   117326541.851 6      3746.610          41.687    21979215.420   117326541.871 6      3746.610          41.812    21979225.860    91254024.498 7      2914.030          43.562    21979225.400    91254023.481 7      2914.030          43.875
G10  23064234.680   121203376.467 7       260.136          46.375    23064233.140   121203376.469 7       260.136          44.625    23064243.140    94444219.441 7       202.704          44.312    23064243.480    94444222.437 7       202.704          46.250
R21  20755367.260   111066159.519 8      1731.625          49.125    20755368.100   111066159.536 8      1731.625          48.687    20755378.920    86384841.730 8      1346.820          48.687    20755378.440    86384840.723 7      1346.820          47.687
R05  22996345.580   122928651.392 7      2021.931          43.375    22996345.320   122928651.383 7      2021.931          42.312    22996361.120    95611230.695 7      1572.613          43.687    22996360.480    95611232.691 7      1572.613          43.500
R10  22119499.360   117909372.869 6     -1658.167          40.812    22119498.140   117909372.867 6     -1658.167          39.812
G02  21716265.820   114119746.225 7      3101.408          47.500    21716263.880   114119746.235 6      3101.408          37.625    21716267.780    88924485.553 6      2416.681          37.375
G27  21700544.040   114037118.073 7      1163.889          47.750    21700542.200   114037118.075 7      1163.889          46.750    21700551.040    88860124.518 7       906.926          46.375    21700550.160    88860121.519 8       906.926          48.250
G21  20767544.880   109134184.750 8      2125.330          48.062    20767543.020   109134184.755 6      2125.330          39.687    20767547.720    85039636.454 6      1656.101          39.625
G26  25295334.840   132927885.205 6     -1133.985          40.250    25295333.580   132927885.205 5     -1133.985          34.625    25295354.400   103580250.999 5      -883.624          34.500    25295354.680   103580249.005 6      -883.624          41.625
G03  24358809.580   128006407.734 7      6245.744          43.687    24358808.460   128006407.737 5      6245.744          32.312    24358829.160    99745304.881 5      4866.814          32.125    24358830.040    99745336.880 7      4866.814          45.625
G08  20877019.220   109709476.994 8      2863.536          49.562    20877018.920   109709477.002 8      2863.536          48.812    20877026.220    85487932.619 8      2231.327          48.812    20877026.160    85487930.618 8      2231.327          49.375
R11  19930051.080   106500155.486 8      1472.222          49.000    19930051.520   106500155.498 8      1472.222          48.500    19930060.700    82833488.914 8      1145.062          50.312    19930060.360    82833486.908 8      1145.062          50.937
G16  22439182.300   117918694.353 7      -571.739          46.250    22439181.340   117918694.355 6      -571.739          36.000    22439191.320    91884727.210 5      -445.511          35.625
> 2024 05 08 13 29 46.0000000  0 13
R22  21978512.300   117322795.072 6      3746.584          41.875    21978514.080   117322795.084 7      3746.584          42.125    21978523.360    91251110.318 7      2914.010          44.500    21978523.580    91251109.303 7      2914.010          44.437
G10  23064184.940   121203116.393 7       259.959          46.687    23064183.620   121203116.395 7       259.959          44.625    23064193.720    94444016.782 7       202.565          44.500    23064193.800    94444019.780 7       202.565          47.000
R21  20755043.740   111064427.752 8      1731.772          48.312    20755044.360   111064427.769 8      1731.772          48.062    20755055.400    86383494.798 8      1346.933          49.812    20755054.820    86383493.793 8      1346.933          49.000
R05  22995967.080   122926629.659 7      2021.400          43.375    22995967.320   122926629.652 6      2021.400          41.937    22995982.640    95609658.234 7      1572.200          43.875    22995982.300    95609660.230 7      1572.200          43.937
R10  22119810.800   117911030.885 6     -1658.182          40.812    22119808.860   117911030.875 6     -1658.182          39.812
G02  21715675.380   114116644.861 7      3101.280          47.312    21715673.820   114116644.868 6      3101.280          38.125    21715677.660    88922068.903 6      2416.582          38.062
G27  21700322.260   114035954.130 7      1163.872          46.562    21700320.800   114035954.138 7      1163.872          47.250    21700329.500    88859217.547 7       906.913          47.250    21700328.560    88859214.544 8       906.913          49.187
G21  20767140.640   109132059.414 7      2125.224          47.750    20767138.480   109132059.422 6      2125.224          39.750    20767143.360    85037980.352 6      1656.019          39.875
G26  25295550.440   132929019.011 6     -1133.705          40.187    25295549.380   132929019.015 5     -1133.705          34.625    25295570.040   103581134.486 5      -883.406          34.437    25295570.860   103581132.490 6      -883.406          41.625
G03  24357621.000   128000161.783 7      6245.953          43.312    24357620.020   128000161.785 5      6245.953          32.312    24357640.700    99740437.908 5      4866.976          32.125    24357641.620    99740469.913 7      4866.976          45.625
G08  20876474.320   109706613.318 8      2863.647          49.312    20876474.040   109706613.323 8      2863.647          49.312    20876481.360    85485701.178 8      2231.413          49.500    20876481.260    85485699.180 8      2231.413          50.312
R11  19929775.780   106498683.434 8      1471.677          48.750    19929775.840   106498683.446 8      1471.677          48.187    19929785.120    82832343.987 8      1144.638          51.812    19929785.100    82832341.980 8      1144.638          52.437
G16  22439291.080   117919266.035 7      -571.790          46.687    22439290.200   117919266.037 5      -571.790          35.812    22439300.020    91885172.663 6      -445.551          36.125
> 2024 05 08 13 29 47.0000000  0 13
R22  21977810.420   117319048.685 6      3746.248          41.875    21977812.680   117319048.697 7      3746.248          42.125    21977821.760    91248196.457 7      2913.749          43.875    21977821.720    91248195.451 7      2913.749          44.687
G10  23064135.840   121202857.015 7       259.039          46.687    23064134.340   121202857.014 7       259.039          44.687    23064144.320    94443814.665 7       201.848          44.687    23064144.540    94443817.667 7       201.848          46.562
R21  20754720.020   111062696.341 8      1731.290          48.000    20754720.640   111062696.361 8      1731.290          48.000    20754731.880    86382148.145 8      1346.559          49.750    20754731.140    86382147.142 8      1346.559          48.937
R05  22995589.180   122924608.923 7      2020.211          43.250    22995589.300   122924608.914 7      2020.211          42.312    22995604.940    95608086.546 7      1571.275          44.125    22995604.340    95608088.542 7      1571.275          44.187
R10  22120120.980   117912689.348 6     -1658.591          40.812    22120120.260   117912689.341 6     -1658.591          39.812
G02  21715085.500   114113544.033 7      3100.515          47.187    21715083.700   114113544.040 6      3100.515          37.812    21715087.740    88919652.675 6      2415.986          37.625
G27  21700100.880   114034790.634 7      1163.272          47.062    21700099.400   114034790.641 7      1163.272          46.937    21700108.020    88858310.925 7       906.446          46.562    21700107.200    88858307.924 8       906.446          48.812
G21  20766736.360   109129934.648 7      2124.561          47.937    20766734.340   109129934.651 6      2124.561          39.562    20766739.080    85036324.686 6      1655.502          39.687
G26  25295765.960   132930153.071 6     -1134.153          40.125    25295765.240   132930153.076 5     -1134.153          34.812    25295785.980   103582018.167 5      -883.755          34.437    25295786.620   103582016.167 6      -883.755          41.875
G03  24356432.460   127993916.087 7      6245.673          44.000    24356431.600   127993916.084 5      6245.673          32.500    24356452.260    99735571.131 5      4866.758          32.250    24356453.240    99735603.127 7      4866.758          45.562
G08  20875929.340   109703750.075 8      2863.073          49.125    20875929.140   109703750.085 8      2863.073          49.437    20875936.520    85483470.082 8      2230.966          49.812    20875936.640    85483468.086 8      2230.966          49.875
R11  19929500.680   106497212.501 8      1470.461          48.562    19929500.640   106497212.510 7      1470.461          47.687    19929509.920    82831199.922 8      1143.692          51.687    19929509.820    82831197.915 8      1143.692          52.312
G16  22439400.240   117919838.251 7      -572.400          45.937    22439399.040   117919838.255 6      -572.400          36.125    22439408.900    91885618.535 6      -446.026          36.000
> 2024 05 08 13 29 48.0000000  0 13
R22  21977108.980   117315302.501 7      3745.998          42.812    21977110.760   117315302.513 7      3745.998          42.187    21977119.860    91245282.764 7      2913.554          43.875    21977120.040    91245281.756 7      2913.554          44.625
G10  23064086.500   121202598.031 7       258.787          46.687    23064085.100   121202598.033 7       258.787          44.437    23064095.100    94443612.859 7       201.653          44.625    23064095.200    94443615.857 7       201.653          46.687
R21  20754396.620   111060964.962 8      1731.447          49.187    20754397.120   111060964.980 8      1731.447          48.625    20754408.160    86380801.515 8      1346.681          49.750    20754407.760    86380800.519 8      1346.681          48.750
R05  22995211.820   122922588.890 7      2019.704          42.562    22995211.520   122922588.880 7      2019.704          42.312    22995226.820    95606515.407 7      1570.881          44.125    22995226.580    95606517.407 7      1570.881          44.625
R10  22120432.640   117914348.067 6     -1658.922          41.062    22120430.900   117914348.065 6     -1658.922          39.750
G02  21714495.340   114110443.441 7      3100.462          47.312    21714493.680   114110443.451 6      3100.462          37.875    21714497.760    88917236.632 6      2415.944          37.625
G27  21699879.620   114033627.306 7      1163.233          46.375    21699878.020   114033627.310 7      1163.233          47.000    21699886.720    88857404.429 7       906.415          46.500    21699885.960    88857401.426 8       906.415          48.687
G21  20766332.000   109127810.166 7      2124.343          47.750    20766329.960   109127810.171 6      2124.343          39.437    20766334.900    85034669.246 6      1655.332          39.625
G26  25295981.900   132931287.042 6     -1133.981          40.250    25295981.000   132931287.049 5     -1133.981          34.937    25296001.720   103582901.789 5      -883.622          34.875    25296002.200   103582899.789 6      -883.622          41.875
G03  24355243.980   127987670.346 7      6245.897          44.375    24355243.120   127987670.345 5      6245.897          32.500    24355263.660    99730704.322 5      4866.933          32.250    24355264.480    99730736.326 7      4866.933          45.125
G08  20875384.660   109700886.995 8      2863.051          49.437    20875384.340   109700886.997 8      2863.051          49.437    20875391.600    85481239.104 8      2230.949          49.687    20875391.960    85481237.108 8      2230.949          50.500
R11  19929225.520   106495742.405 8      1469.716          49.062    19929225.560   106495742.411 8      1469.716          48.187    19929234.860    82830056.512 8      1143.112          51.812    19929234.520    82830054.511 8      1143.112          52.562
G16  22439509.360   117920410.768 7      -572.614          46.937    22439508.020   117920410.776 6      -572.614          36.437    22439518.080    91886064.642 6      -446.193          36.000
> 2024 05 08 13 29 49.0000000  0 13
R22  21976407.380   117311556.416 7      3745.963          42.500    21976408.780   117311556.422 7      3745.963          42.437    21976418.220    91242369.149 7      2913.527          44.250    21976418.340    91242368.147 7      2913.527          44.625
G10  23064037.260   121202339.444 7       258.375          45.812    23064035.840   121202339.441 7       258.375          44.500    23064045.840    94443411.355 7       201.331          44.437    23064046.000    94443414.357 7       201.331          47.062
R21  20754072.960   111059233.592 8      1731.390          48.750    20754073.460   111059233.612 8      1731.390          48.562    20754084.740    86379454.894 8      1346.636          49.750    20754084.200    86379453.895 8      1346.636          48.812
R05  22994834.060   122920569.551 7      2018.958          42.562    22994833.660   122920569.553 7      2018.958          42.375    22994849.140    95604944.821 7      1570.301          43.937    22994848.940    95604946.817 7      1570.301          44.375
R10  22120744.120   117916006.922 6     -1658.935          41.062    22120742.380   117916006.912 6     -1658.935          39.750
G02  21713905.320   114107343.091 7      3100.245          47.125    21713903.640   114107343.096 6      3100.245          37.812    21713907.660    88914820.775 6      2415.775          37.875
G27  21699658.000   114032464.106 7      1163.153          47.000    21699656.660   114032464.114 7      1163.153          47.375    21699665.420    88856498.036 7       906.353          47.187    21699664.380    88856495.039 8       906.353          48.562
G21  20765927.720   109125685.939 7      2124.131          47.937    20765925.680   109125685.944 6      2124.131          39.375    20765930.580    85033014.006 6      1655.167          39.437
G26  25296197.920   132932420.937 6     -1133.730          41.125    25296196.660   132932420.941 5     -1133.730          34.937    25296217.580   103583785.341 5      -883.426          34.750    25296218.300   103583783.339 6      -883.426          41.937
G03  24354055.280   127981424.560 7      6245.906          43.937    24354054.640   127981424.562 5      6245.906          32.500    24354075.040    99725837.480 5      4866.940          32.625    24354075.760    99725869.475 7      4866.940          45.750
G08  20874839.940   109698024.033 8      2862.875          49.437    20874839.460   109698024.038 8      2862.875          49.062    20874846.800    85479008.227 8      2230.812          49.312    20874847.020    85479006.229 8      2230.812          49.812
R11  19928950.640   106494273.096 8      1468.919          49.125    19928950.560   106494273.106 8      1468.919          48.437    19928959.900    82828913.720 8      1142.492          51.875    19928959.520    82828911.718 8      1142.492          52.375
G16  22439618.320   117920983.525 7      -572.828          46.437    22439617.180   117920983.530 6      -572.828          36.312    22439626.920    91886510.932 6      -446.360          36.125
> 2024 05 08 13 29 50.0000000  0 13
R22  21975705.440   117307810.419 7      3745.821          42.500    21975706.480   117307810.420 7      3745.821          42.437    21975716.980    91239455.593 7      2913.416          44.500    21975716.800    91239454.592 7      2913.416          44.000
G10  23063988.240   121202081.172 7       258.048          45.312    23063986.600   121202081.174 7       258.048          44.437    23063996.820    94443210.106 7       201.076          44.375    23063997.020    94443213.100 7       201.076          46.625
R21  20753749.740   111057502.191 7      1731.293          47.687    20753749.900   111057502.217 8      1731.293          48.437    20753761.200    86378108.249 8      1346.562          49.250    20753760.880    86378107.250 8      1346.562          48.875
R05  22994456.280   122918550.903 7      2018.029          42.812    22994456.180   122918550.893 7      2018.029          42.375    22994471.420    95603374.756 7      1569.578          44.187    22994471.100    95603376.755 7      1569.578          44.437
R10  22121055.120   117917665.913 6     -1659.183          40.875    22121053.680   117917665.901 6     -1659.183          39.687
G02  21713315.460   114104242.930 7      3099.969          46.687    21713313.720   114104242.932 6      3099.969          37.562    21713317.680    88912405.063 6      2415.560          37.937
G27  21699436.660   114031301.020 7      1162.889          46.250    21699435.380   114031301.022 7      1162.889          47.312    21699444.020    88855591.729 7       906.147          47.125    21699443.180    88855588.727 8       906.147          48.625
G21  20765523.820   109123561.933 7      2123.729          47.375    20765521.520   109123561.940 6      2123.729          39.250    20765526.440    85031358.934 6      1654.854          39.500
G26  25296413.460   132933554.747 6     -1133.939          40.750    25296412.320   132933554.744 5     -1133.939          34.687    25296433.380   103584668.828 5      -883.589          34.750    25296434.340   103584666.832 6      -883.589          41.937
G03  24352866.860   127975178.675 7      6245.857          43.562    24352866.040   127975178.679 5      6245.857          32.500    24352886.540    99720970.559 5      4866.901          32.625    24352887.160    99721002.560 7      4866.901          45.437
G08  20874295.140   109695161.166 8      2862.688          49.187    20874294.720   109695161.166 8      2862.688          49.375    20874302.020    85476777.416 8      2230.666          49.625    20874302.080    85476775.420 8      2230.666          50.687
R11  19928675.920   106492804.547 8      1468.044          49.187    19928675.920   106492804.553 8      1468.044          48.250    19928685.000    82827771.505 8      1141.812          51.687    19928684.840    82827769.504 8      1141.812          52.500
G16  22439727.440   117921556.484 7      -573.168          46.375    22439726.120   117921556.489 6      -573.168          36.187    22439735.920    91886957.383 5      -446.625          35.812
> 2024 05 08 13 29 51.0000000  0 13
R22  21975003.720   117304064.526 6      3745.825          41.937    21975004.940   117304064.524 7      3745.825          42.250    21975015.140    91236542.113 7      2913.419          44.437    21975014.980    91236541.105 7      2913.419          44.437
G10  23063939.200   121201823.273 7       257.762          45.937    23063937.520   121201823.270 7       257.762          44.437    23063947.760    94443009.142 7       200.853          44.375    23063947.800    94443012.142 7       200.853          46.437
R21  20753426.040   111055770.810 8      1731.404          48.875    20753426.460   111055770.830 7      1731.404          47.937    20753437.640    86376761.619 8      1346.648          50.000    20753437.380    86376760.618 8      1346.648          49.062
R05  22994078.800   122916532.861 7      2017.662          42.437    22994078.480   122916532.872 7      2017.662          42.312    22994093.800    95601805.176 7      1569.293          43.937    22994093.760    95601807.179 7      1569.293          44.000
R10  22121366.360   117919325.035 6     -1659.179          40.875    22121365.120   117919325.033 6     -1659.179          39.687
G02  21712725.500   114101142.961 7      3099.891          47.062    21712723.740   114101142.966 6      3099.891          37.687    21712727.760    88909989.505 6      2415.500          37.875
G27  21699215.400   114030138.012 7      1162.974          46.875    21699213.920   114030138.019 7      1162.974          46.875    21699222.640    88854685.489 7       906.213          46.812    21699221.900    88854682.488 8       906.213          48.437
G21  20765119.640   109121438.147 7      2123.652          47.187    20765117.320   109121438.154 6      2123.652          39.687    20765122.280    85029704.036 6      1654.794          39.625
G26  25296629.180   132934688.392 6     -1133.697          39.875    25296628.040   132934688.395 5     -1133.697          35.187    25296649.060   103585552.194 5      -883.400          34.750    25296649.720   103585550.198 6      -883.400          41.875
G03  24351678.240   127968932.705 7      6245.985          44.375    24351677.560   127968932.710 5      6245.985          32.500    24351697.740    99716103.571 5      4867.001          32.625    24351698.620    99716135.568 7      4867.001          45.375
G08  20873750.160   109692298.378 8      2862.722          49.875    20873749.920   109692298.383 8      2862.722          49.375    20873757.220    85474546.676 8      2230.692          49.562    20873757.160    85474544.680 8      2230.692          50.375
R11  19928401.340   106491336.746 8      1467.433          49.187    19928401.400   106491336.752 7      1467.433          47.875    19928410.320    82826629.876 8      1141.337          51.625    19928410.140    82826627.871 8      1141.337          51.937
G16  22439836.340   117922129.659 7      -573.332          46.312    22439835.280   117922129.664 6      -573.332          36.312    22439845.120    91887404.001 6      -446.752          36.250
> 2024 05 08 13 29 52.0000000  0 13
R22  21974302.000   117300318.854 6      3745.576          41.062    21974303.160   117300318.853 7      3745.576          42.250    21974313.440    91233628.823 7      2913.226          44.437    21974313.300    91233627.819 7      2913.226          44.687
G10  23063890.400   121201565.850 7       257.227          46.062    23063888.560   121201565.852 7       257.227          44.750    23063898.680    94442808.552 7       200.437          44.625    23063898.620    94442811.548 7       200.437          46.812
R21  20753102.580   111054039.568 8      1731.251          48.937    20753102.660   111054039.583 8      1731.251          48.062    20753114.140    86375415.089 8      1346.529          49.687    20753113.680    86375414.086 8      1346.529          48.625
R05  22993701.040   122914515.679 7      2016.673          42.437    22993701.800   122914515.683 7      2016.673          42.250    22993716.420    95600236.256 7      1568.524          43.812    22993716.660    95600238.262 7      1568.524          44.125
R10  22121677.580   117920984.437 6     -1659.546          40.875    22121676.880   117920984.448 6     -1659.546          39.687
G02  21712135.760   114098043.333 7      3099.471          47.250    21712134.040   114098043.343 6      3099.471          38.062    21712137.880    88907574.215 6      2415.172          37.937
G27  21698994.260   114028975.278 7      1162.586          46.562    21698992.740   114028975.280 7      1162.586          47.250    21699001.360    88853779.454 7       905.911          47.250    21699000.700    88853776.455 8       905.911          48.750
G21  20764715.360   109119314.724 7      2123.229          47.500    20764713.280   109119314.734 6      2123.229          39.625    20764718.080    85028049.422 6      1654.464          39.562
G26  25296844.920   132935822.040 6     -1133.362          39.875    25296843.820   132935822.042 5     -1133.362          35.187    25296864.740   103586435.554 5      -883.139          34.812    25296865.700   103586433.554 6      -883.139          41.875
G03  24350489.800   127962686.748 7      6246.051          44.250    24350488.920   127962686.751 5      6246.051          33.000    24350509.040    99711236.588 5      4867.053          32.875    24350510.080    99711268.585 7      4867.053          45.500
G08  20873205.560   109689435.831 8      2862.373          49.250    20873205.260   109689435.836 8      2862.373          49.062    20873212.580    85472316.118 8      2230.421          49.812    20873212.420    85472314.124 8      2230.421          50.875
R11  19928126.480   106489869.855 8      1466.405          49.312    19928126.620   106489869.870 8      1466.405          48.250    19928135.780    82825488.969 8      1140.538          51.937    19928135.460    82825486.967 8      1140.538          52.312
G16  22439945.680   117922703.180 7      -573.779          46.812    22439944.500   117922703.185 6      -573.779          36.312    22439954.140    91887850.886 6      -447.100          36.437
> 2024 05 08 13 29 53.0000000  0 13
R22  21973600.180   117296573.372 6      3745.198          41.062    21973602.060   117296573.387 7      3745.198          42.125    21973612.200    91230715.681 7      2912.932          44.000    21973611.600    91230714.673 7      2912.932          44.500
G10  23063841.240   121201308.873 7       256.607          45.750    23063839.660   121201308.876 7       256.607          44.375    23063849.820    94442608.309 7       199.954          43.875    23063849.940    94442611.309 7       199.954          46.812
R21  20752779.040   111052308.422 8      1730.996          48.187    20752779.180   111052308.442 8      1730.996          48.625    20752790.660    86374068.642 8      1346.330          49.375    20752790.100    86374067.639 8      1346.330          48.500
R05  22993324.000   122912499.190 7      2015.967          42.437    22993324.120   122912499.199 7      2015.967          42.250    22993339.120    95598667.879 7      1567.974          44.000    22993339.180    95598669.884 7      1567.974          44.187
R10  22121988.280   117922644.067 6     -1659.802          40.812    22121988.080   117922644.084 6     -1659.802          40.125
G02  21711545.840   114094943.990 7      3099.117          46.562    21711544.200   114094944.000 6      3099.117          38.125    21711548.160    88905159.142 6      2414.897          38.062
G27  21698773.140   114027812.724 7      1162.304          46.562    21698771.480   114027812.729 7      1162.304          47.062    21698780.140    88852873.566 7       905.692          46.875    21698779.140    88852870.565 8       905.692          48.562
G21  20764311.300   109117191.616 7      2122.810          47.062    20764309.320   109117191.626 6      2122.810          39.625    20764314.120    85026395.053 6      1654.138          39.812
G26  25297060.520   132936955.733 6     -1133.762          39.000    25297059.680   132936955.738 5     -1133.762          34.937    25297080.440   103587318.955 5      -883.451          34.812    25297081.220   103587316.963 7      -883.451          42.000
G03  24349301.100   127956440.821 7      6245.794          43.437    24349300.280   127956440.823 5      6245.794          33.000    24349320.540    99706369.636 5      4866.853          32.875    24349321.680    99706401.633 7      4866.853          45.250
