     3.05           OBSERVATION DATA    MIXED               RINEX VERSION / TYPE
TPS2RIN 1.0.29.3920 TPS-USER            20240511 190913 UTC PGM / RUN BY / DATE
Win64 build Feb 23, 2024 (c) Topcon Positioning Systems     COMMENT
SRC: 20240508_GUI10.tps                                     COMMENT
OPT: -S -v 3.05                                             COMMENT
Observer            Agency                                  OBSERVER / AGENCY
O0M3X53SBGM         TPS HIPER_SR        4.8 HSR Jul,08,2022 REC # / TYPE / VERS
FW: 4.8 HSR Jul,08,2022 p3                                  COMMENT
SN: HiPer SR 1212-12575                                     COMMENT
000                 TPSHIPER_SR     NONE                    ANT # / TYPE
        1.8000        0.0000        0.0000                  ANTENNA: DELTA H/E/N
GUI10                                                       MARKER NAME
  5387562.3379 -1581842.4486  3016279.8303                  APPROX POSITION XYZ
  2024     5     8    10    28    4.0000000     GPS         TIME OF FIRST OBS
  2024     5     8    10    43   34.0000000     GPS         TIME OF LAST OBS
     1.000                                                  INTERVAL
   931 EPOCHS                                               COMMENT
G   16 C1C L1C D1C S1C C1W L1W D1W S1W C2W L2W D2W S2W C2X  SYS / # / OBS TYPES
       L2X D2X S2X                                          SYS / # / OBS TYPES
R   16 C1C L1C D1C S1C C1P L1P D1P S1P C2P L2P D2P S2P C2C  SYS / # / OBS TYPES
       L2C D2C S2C                                          SYS / # / OBS TYPES
    13                                                      # OF SATELLITES
   G08   932   932   932   932   932   932   932   932   932PRN / # OF OBS
         932   932   932   932   932   932   932            PRN / # OF OBS
   G10   932   932   932   932   932   932   932   932   932PRN / # OF OBS
         932   932   932   932   932   932   932            PRN / # OF OBS
   G16   932   932   932   932   932   932   932   932   932PRN / # OF OBS
         932   932   932     0     0     0     0            PRN / # OF OBS
   G18   932   932   932   932   932   932   932   932   932PRN / # OF OBS
         932   932   932   932   932   932   932            PRN / # OF OBS
   G23   932   932   932   932   932   932   932   932   932PRN / # OF OBS
         932   932   932   932   932   932   932            PRN / # OF OBS
   G26   932   932   932   932   932   932   932   932   932PRN / # OF OBS
         932   932   932   932   932   932   932            PRN / # OF OBS
   G27   932   932   932   932   932   932   932   932   932PRN / # OF OBS
         932   932   932   932   932   932   932            PRN / # OF OBS
   G28   932   932   932   932   932   932   932   932   932PRN / # OF OBS
         932   932   932   932   932   932   932            PRN / # OF OBS
   G31   932   932   932   932   932   932   932   932   932PRN / # OF OBS
         932   932   932   932   932   932   932            PRN / # OF OBS
   R09   932   932   932   932   932   932   932   932   932PRN / # OF OBS
         932   932   932   932   932   932   932            PRN / # OF OBS
   R10   932   932   932   932   932   932   932   932     0PRN / # OF OBS
           0     0     0     0     0     0     0            PRN / # OF OBS
   R16   932   932   932   932   932   932   932   932   932PRN / # OF OBS
         932   932   932   932   932   932   932            PRN / # OF OBS
   R21   932   932   932   932   932   932   932   932   932PRN / # OF OBS
         932   932   932   932   932   932   932            PRN / # OF OBS
G L1C                                                       SYS / PHASE SHIFT
G L1W -0.25000                                              SYS / PHASE SHIFT
G L2W  0.00000                                              SYS / PHASE SHIFT
G L2X  0.25000                                              SYS / PHASE SHIFT
R L1C                                                       SYS / PHASE SHIFT
R L1P -0.25000                                              SYS / PHASE SHIFT
R L2P -0.25000                                              SYS / PHASE SHIFT
R L2C                                                       SYS / PHASE SHIFT
  4 R09 -2 R10 -7 R16 -1 R21  4                             GLONASS SLOT / FRQ #
                                                            GLONASS COD/PHS/BIS
    18    18  1929     7GPS                                 LEAP SECONDS
                                                            END OF HEADER
> 2024 05 08 10 28  4.0000000  0 13
G26  20492900.380   107690918.164 8      2242.486          49.500    20492899.680   107690918.172 8      2242.486          49.437    20492904.160    83915016.150 8      1747.392          49.875    20492904.360    83915017.151 8      1747.392          49.250
G23  23719725.080   124647995.313 6      4233.215          41.000    23719723.740   124647995.320 4      4233.215          25.375    23719730.720    97128331.217 4      3298.609          25.125    23719731.420    97128339.233 6      3298.609          41.125
G28  23297548.120   122429440.732 7     -1050.500          43.250    23297547.100   122429440.729 5     -1050.500          32.000    23297554.060    95399576.231 5      -818.571          31.812    23297554.380    95399586.221 7      -818.571          47.062
G16  21084421.460   110799388.771 7      3977.916          45.812    21084419.680   110799388.781 6      3977.916          37.562    21084422.280    86337183.752 6      3099.675          37.437
G27  21123370.920   111004076.654 7      3429.736          47.875    21123369.860   111004076.658 6      3429.736          41.187    21123374.080    86496683.144 6      2672.522          41.250    21123374.700    86496683.146 8      2672.522          50.812
G10  24279986.720   127592188.707 7      4918.054          43.625    24279985.940   127592188.712 6      4918.054          37.750    24279997.360    99422536.826 6      3832.250          37.875    24279997.800    99422534.838 6      3832.250          40.250
G08  23413318.360   123037821.304 6      4624.344          37.062    23413316.380   123037821.298 4      4624.344          26.500    23413325.960    95873638.161 4      3603.385          26.187    23413326.740    95873658.172 7      3603.385          45.875
R21  22870507.280   122384712.060 6      6088.745          40.187    22870509.080   122384712.091 6      6088.745          40.937    22870521.720    95188162.488 7      4735.691          45.500    22870520.920    95188162.488 7      4735.691          45.937
R09  19198733.800   102520201.623 8      2603.480          48.750    19198733.820   102520201.630 7      2603.480          47.937    19198739.660    79737933.102 8      2024.929          52.000    19198739.680    79737951.097 8      2024.929          52.875
R10  20658917.260   110123655.613 7      5452.280          46.750    20658917.120   110123655.613 7      5452.280          45.062
G18  22433930.560   117891101.326 7        80.898          45.812    22433930.180   117891101.331 6        80.898          36.187    22433933.240    91863206.737 6        63.038          36.062    22433933.740    91863207.742 8        63.038          48.687
R16  22130994.280   118219791.343 7      -638.367          42.687    22130992.820   118219791.336 7      -638.367          43.562    22131006.340    91948781.785 7      -496.507          47.125    22131006.520    91948783.788 7      -496.507          47.500
G31  21534016.540   113162021.053 7        -5.059          47.187    21534015.680   113162021.061 7        -5.059          46.625    21534017.920    88178201.997 7        -3.942          46.312    21534020.220    88178210.997 7        -3.942          47.750
> 2024 05 08 10 28  5.0000000  0 13
G26  20492473.720   107688675.625 8      2242.390          48.687    20492472.880   107688675.630 8      2242.390          49.500    20492477.460    83913268.711 8      1747.317          49.625    20492477.800    83913269.714 8      1747.317          50.250
G23  23718919.280   124643762.208 6      4233.074          41.125    23718918.180   124643762.216 4      4233.074          25.375    23718925.340    97125032.698 4      3298.499          25.125    23718925.560    97125040.718 6      3298.499          41.125
G28  23297748.200   122430491.200 7     -1050.562          43.375    23297746.920   122430491.202 5     -1050.562          32.000    23297753.860    95400394.772 5      -818.620          31.812    23297754.380    95400404.765 7      -818.620          47.000
G16  21083664.320   110795410.869 7      3977.857          46.250    21083662.660   110795410.879 6      3977.857          37.000    21083665.220    86334084.088 6      3099.629          37.625
G27  21122718.180   111000646.868 8      3429.628          48.000    21122717.300   111000646.873 6      3429.628          41.187    21122721.380    86494010.583 6      2672.437          41.000    21122722.040    86494010.584 8      2672.437          50.375
G10  24279050.940   127587270.517 7      4918.228          43.250    24279049.960   127587270.517 6      4918.228          37.187    24279061.540    99418704.474 6      3832.386          38.250    24279061.800    99418702.492 6      3832.386          40.375
G08  23412438.640   123033196.941 6      4624.358          37.062    23412436.280   123033196.935 4      4624.358          26.500    23412446.060    95870034.763 4      3603.396          26.187    23412447.160    95870054.775 7      3603.396          46.062
R21  22869369.340   122378623.425 6      6088.325          40.812    22869371.160   122378623.443 6      6088.325          40.937    22869383.900    95183426.880 7      4735.364          45.437    22869383.080    95183426.877 7      4735.364          45.312
R09  19198246.360   102517598.299 8      2602.981          49.000    19198246.280   102517598.303 7      2602.981          47.625    19198252.120    79735908.290 8      2024.541          52.187    19198252.580    79735926.283 8      2024.541          52.687
R10  20657894.900   110118203.276 7      5452.267          46.500    20657894.060   110118203.271 7      5452.267          44.875
G18  22433915.060   117891020.435 7        80.616          44.937    22433914.900   117891020.442 6        80.616          36.250    22433917.920    91863143.707 6        62.818          36.062    22433918.300    91863144.704 8        62.818          48.937
R16  22131113.280   118220429.784 7      -638.648          43.187    22131112.200   118220429.780 7      -638.648          43.500    22131126.040    91949278.342 7      -496.726          46.437    22131125.960    91949280.341 7      -496.726          47.250
G31  21534017.360   113162026.169 7        -5.253          47.250    21534016.640   113162026.174 7        -5.253          46.437    21534018.840    88178205.979 7        -4.093          46.062    21534021.300    88178214.977 7        -4.093          47.875
> 2024 05 08 10 28  6.0000000  0 13
G26  20492047.180   107686433.525 8      2242.002          48.000    20492046.240   107686433.532 8      2242.002          49.187    20492050.820    83911521.622 8      1747.015          49.437    20492051.020    83911522.625 8      1747.015          49.875
G23  23718114.080   124639529.477 6      4232.765          40.812    23718112.540   124639529.482 4      4232.765          25.312    23718120.020    97121734.466 4      3298.258          25.250    23718120.220    97121742.471 6      3298.258          41.187
G28  23297947.800   122431541.879 7     -1050.655          43.562    23297947.060   122431541.873 5     -1050.655          32.000    23297953.980    95401213.474 5      -818.692          31.687    23297954.200    95401223.464 7      -818.692          46.875
G16  21082907.620   110791433.238 7      3977.645          45.437    21082905.640   110791433.251 6      3977.645          37.437    21082908.400    86330984.638 6      3099.464          37.250
G27  21122065.360   110997217.427 7      3429.396          46.812    21122064.720   110997217.431 6      3429.396          41.562    21122068.840    86491338.291 6      2672.257          41.062    21122069.380    86491338.296 8      2672.257          50.437
G10  24278115.280   127582352.377 7      4918.251          43.250    24278114.120   127582352.379 6      4918.251          37.875    24278125.540    99414872.167 6      3832.403          37.875    24278125.860    99414870.173 6      3832.403          40.375
G08  23411558.760   123028572.833 6      4624.218          37.062    23411556.320   123028572.825 4      4624.218          26.500    23411566.080    95866431.562 4      3603.286          26.187    23411567.260    95866451.576 7      3603.286          46.437
R21  22868231.460   122372535.207 6      6087.943          40.812    22868233.480   122372535.236 6      6087.943          40.937    22868246.200    95178691.613 7      4735.067          46.000    22868245.520    95178691.613 7      4735.067          45.875
R09  19197758.960   102514995.765 8      2602.298          48.437    19197758.960   102514995.766 8      2602.298          48.062    19197764.740    79733884.097 8      2024.010          52.250    19197764.720    79733902.090 8      2024.010          52.375
R10  20656872.160   110112751.342 7      5451.890          46.125    20656871.380   110112751.345 7      5451.890          45.062
G18  22433899.780   117890940.014 7        80.300          45.812    22433899.500   117890940.014 6        80.300          36.562    22433902.660    91863081.037 6        62.572          36.625    22433903.000    91863082.039 8        62.572          49.125
R16  22131233.440   118221068.725 7      -638.982          43.437    22131231.800   118221068.720 7      -638.982          43.250    22131245.500    91949775.291 7      -496.986          47.125    22131245.200    91949777.291 7      -496.986          47.500
G31  21534018.500   113162031.781 7        -5.749          46.500    21534017.760   113162031.784 7        -5.749          46.125    21534019.920    88178210.350 7        -4.480          46.375    21534022.440    88178219.345 7        -4.480          47.500
> 2024 05 08 10 28  7.0000000  0 13
G26  20491620.460   107684191.819 8      2241.383          48.812    20491619.720   107684191.826 8      2241.383          49.812    20491624.220    83909774.840 8      1746.532          49.812    20491624.460    83909775.841 8      1746.532          50.125
G23  23717308.560   124635297.048 6      4232.142          40.625    23717307.120   124635297.052 4      4232.142          25.312    23717314.660    97118436.473 4      3297.773          25.250    23717314.900    97118444.493 6      3297.773          41.187
G28  23298147.980   122432592.702 7     -1050.967          43.500    23298146.960   122432592.699 5     -1050.967          31.687    23298153.820    95402032.289 5      -818.935          31.687    23298154.220    95402042.289 7      -818.935          46.500
G16  21082150.500   110787455.849 7      3977.207          45.312    21082148.740   110787455.857 6      3977.207          37.187    21082151.540    86327885.375 6      3099.122          37.187
G27  21121412.960   110993788.308 7      3428.881          47.937    21121412.100   110993788.316 6      3428.881          41.187    21121416.380    86488666.255 6      2671.855          41.187    21121416.640    86488666.258 8      2671.855          50.562
G10  24277179.100   127577434.260 7      4917.952          42.375    24277178.300   127577434.262 6      4917.952          37.312    24277189.580    99411039.874 6      3832.170          37.625    24277189.620    99411037.885 6      3832.170          40.187
G08  23410678.540   123023948.956 6      4623.664          37.062    23410676.220   123023948.950 4      4623.664          26.500    23410686.260    95862828.545 4      3602.855          26.187    23410687.500    95862848.567 7      3602.855          46.812
R21  22867093.760   122366447.340 6      6087.614          40.125    22867095.220   122366447.377 6      6087.614          40.750    22867108.340    95173956.625 7      4734.811          45.750    22867108.000    95173956.626 7      4734.811          46.062
R09  19197271.860   102512393.952 8      2601.423          49.375    19197271.640   102512393.948 8      2601.423          48.250    19197277.440    79731860.458 8      2023.329          51.625    19197277.840    79731878.453 8      2023.329          53.500
R10  20655849.840   110107299.759 7      5451.315          46.500    20655848.780   110107299.760 7      5451.315          45.375
G18  22433884.480   117890860.051 7        79.755          46.250    22433884.320   117890860.056 6        79.755          36.562    22433887.520    91863018.726 6        62.147          36.062    22433887.560    91863019.724 8        62.147          49.062
R16  22131352.840   118221708.173 7      -639.734          43.437    22131351.760   118221708.168 7      -639.734          43.250    22131365.180    91950272.627 7      -497.571          46.812    22131365.320    91950274.629 7      -497.571          47.625
G31  21534019.880   113162037.812 7        -6.342          47.875    21534018.880   113162037.814 7        -6.342          46.250    21534021.200    88178215.045 7        -4.942          46.437    21534023.380    88178224.048 8        -4.942          48.000
> 2024 05 08 10 28  8.0000000  0 13
G26  20491193.900   107681950.609 8      2240.778          49.250    20491193.220   107681950.619 8      2240.778          50.000    20491197.740    83908028.447 8      1746.061          49.875    20491198.080    83908029.448 8      1746.061          50.187
G23  23716503.440   124631065.049 6      4231.603          41.312    23716501.800   124631065.057 4      4231.603          25.312    23716509.360    97115138.816 4      3297.353          25.250    23716509.040    97115146.832 6      3297.353          41.187
G28  23298347.920   122433643.838 7     -1051.470          42.687    23298346.900   122433643.840 5     -1051.470          31.687    23298353.820    95402851.352 5      -819.328          31.687    23298354.360    95402861.348 7      -819.328          46.937
G16  21081393.820   110783478.804 7      3976.709          46.562    21081392.160   110783478.809 6      3976.709          37.562    21081394.740    86324786.375 6      3098.735          36.937
G27  21120760.620   110990359.632 7      3428.249          47.437    21120759.740   110990359.642 6      3428.249          41.187    21120763.740    86485994.563 6      2671.363          41.000    21120764.380    86485994.563 8      2671.363          50.062
G10  24276243.280   127572516.230 6      4917.851          41.875    24276242.380   127572516.235 6      4917.851          37.687    24276253.800    99407207.649 6      3832.092          38.000    24276253.660    99407205.666 6      3832.092          40.187
G08  23409798.800   123019325.416 6      4623.187          37.125    23409796.300   123019325.407 4      4623.187          26.500    23409806.580    95859225.788 4      3602.483          26.187    23409807.680    95859245.810 7      3602.483          46.000
R21  22865956.340   122360359.976 6      6087.039          40.125    22865957.780   122360360.018 6      6087.039          40.750    22865970.940    95169222.019 7      4734.364          46.250    22865970.500    95169222.020 7      4734.364          45.937
R09  19196784.620   102509793.004 8      2600.383          49.062    19196784.600   102509793.000 8      2600.383          48.250    19196790.400    79729837.499 8      2022.520          52.187    19196790.880    79729855.494 8      2022.520          53.125
R10  20654827.640   110101848.643 7      5450.737          46.187    20654826.000   110101848.636 7      5450.737          45.875
G18  22433869.360   117890780.663 7        78.973          46.125    22433869.340   117890780.666 6        78.973          36.562    22433872.340    91862956.866 6        61.537          36.500    22433872.920    91862957.865 8        61.537          48.937
R16  22131472.820   118222348.208 7      -640.428          44.312    22131471.480   118222348.207 7      -640.428          43.687    22131485.060    91950770.427 7      -498.111          47.250    22131485.080    91950772.430 7      -498.111          47.500
G31  21534020.920   113162044.396 7        -7.027          47.812    21534020.220   113162044.396 7        -7.027          46.875    21534022.340    88178220.176 7        -5.476          46.875    21534024.440    88178229.176 7        -5.476          47.500
> 2024 05 08 10 28  9.0000000  0 13
G26  20490767.760   107679710.054 8      2240.329          48.875    20490766.800   107679710.053 8      2240.329          49.750    20490771.440    83906282.553 8      1745.711          49.875    20490771.840    83906283.553 8      1745.711          50.187
G23  23715698.180   124626833.640 6      4231.173          41.375    23715696.560   124626833.647 4      4231.173          25.312    23715704.060    97111841.618 4      3297.018          25.250    23715704.380    97111849.631 6      3297.018          41.437
G28  23298548.160   122434695.394 7     -1051.760          43.250    23298546.960   122434695.396 5     -1051.760          31.687    23298553.800    95403670.736 5      -819.554          31.500    23298554.280    95403680.738 7      -819.554          46.687
G16  21080637.100   110779502.258 7      3976.284          46.375    21080635.500   110779502.268 6      3976.284          37.562    21080638.040    86321687.774 6      3098.403          37.500
G27  21120108.380   110986931.512 7      3427.959          47.687    21120107.260   110986931.519 6      3427.959          41.437    21120111.480    86483323.299 6      2671.137          41.312    21120111.920    86483323.297 8      2671.137          50.312
G10  24275307.720   127567598.518 7      4917.645          42.812    24275306.660   127567598.523 6      4917.645          37.437    24275318.080    99403375.676 6      3831.931          37.500    24275317.700    99403373.674 6      3831.931          40.062
G08  23408919.220   123014702.356 6      4622.863          37.312    23408916.780   123014702.348 4      4622.863          26.687    23408926.800    95855623.406 4      3602.231          26.187    23408927.840    95855643.416 7      3602.231          45.937
R21  22864819.140   122354273.278 6      6086.408          40.125    22864820.480   122354273.317 6      6086.408          40.750    22864833.240    95164487.921 7      4733.873          46.437    22864832.740    95164487.923 7      4733.873          45.875
R09  19196297.720   102507193.041 8      2599.553          48.562    19196297.760   102507193.040 7      2599.553          47.750    19196303.440    79727815.306 8      2021.874          52.375    19196303.880    79727833.300 8      2021.874          53.062
R10  20653804.640   110096398.119 7      5450.295          45.750    20653803.360   110096398.127 7      5450.295          45.500
G18  22433854.480   117890701.977 7        78.430          46.062    22433854.360   117890701.979 6        78.430          36.125    22433857.360    91862895.548 6        61.114          36.250    22433857.880    91862896.549 8        61.114          49.062
R16  22131593.000   118222989.010 7      -641.138          44.250    22131591.300   118222989.014 7      -641.138          43.687    22131605.140    91951268.826 7      -498.663          47.062    22131605.000    91951270.827 7      -498.663          47.312
G31  21534022.500   113162051.672 8        -7.496          48.187    21534021.600   113162051.674 7        -7.496          46.375    21534023.660    88178225.843 7        -5.841          46.687    21534025.880    88178234.842 7        -5.841          47.687
> 2024 05 08 10 28 10.0000000  0 13
G26  20490341.340   107677469.998 8      2239.942          49.125    20490340.540   107677470.005 8      2239.942          49.375    20490345.120    83904537.057 8      1745.409          49.312    20490345.640    83904538.058 8      1745.409          49.125
G23  23714892.640   124622602.645 6      4230.901          41.500    23714891.460   124622602.655 4      4230.901          25.312    23714898.940    97108544.741 4      3296.806          25.250    23714898.920    97108552.755 6      3296.806          41.437
G28  23298748.160   122435747.224 7     -1051.807          43.000    23298747.220   122435747.226 5     -1051.807          31.687    23298754.060    95404490.336 5      -819.590          31.500    23298754.460    95404500.329 7      -819.590          46.562
G16  21079880.520   110775526.049 7      3976.145          45.312    21079878.840   110775526.054 6      3976.145          37.625    21079881.420    86318589.427 6      3098.295          37.312
G27  21119455.960   110983503.828 8      3427.650          48.000    21119455.020   110983503.828 6      3427.650          40.937    21119459.260    86480652.368 6      2670.896          40.687    21119459.920    86480652.373 8      2670.896          50.812
G10  24274371.920   127562680.879 6      4917.774          41.875    24274370.960   127562680.881 6      4917.774          37.687    24274382.160    99399543.754 6      3832.032          37.437    24274382.440    99399541.766 6      3832.032          40.062
G08  23408039.340   123010079.614 6      4622.692          37.312    23408037.260   123010079.601 4      4622.692          26.687    23408046.980    95852021.270 4      3602.098          26.312    23408047.880    95852041.288 7      3602.098          45.687
R21  22863681.800   122348187.072 6      6086.131          40.937    22863683.280   122348187.098 6      6086.131          40.750    22863696.200    95159754.199 7      4733.657          45.812    22863695.640    95159754.202 7      4733.657          45.625
R09  19195811.020   102504593.906 8      2598.886          48.187    19195811.040   102504593.910 8      2598.886          48.187    19195816.820    79725793.758 8      2021.356          51.312    19195817.240    79725811.755 8      2021.356          51.937
R10  20652782.100   110090948.093 7      5449.858          45.687    20652780.980   110090948.099 7      5449.858          45.000
G18  22433839.760   117890623.840 7        78.051          46.250    22433839.320   117890623.845 6        78.051          36.500    22433842.620    91862834.660 6        60.819          36.000    22433842.820    91862835.659 8        60.819          48.750
R16  22131713.060   118223630.373 7      -641.471          43.750    22131711.480   118223630.369 7      -641.471          43.187    22131725.060    91951767.647 7      -498.922          46.562    22131724.920    91951769.649 7      -498.922          47.625
G31  21534023.880   113162059.512 7        -7.983          46.312    21534023.140   113162059.509 7        -7.983          46.250    21534025.120    88178231.946 7        -6.221          45.750    21534027.420    88178240.951 7        -6.221          47.500
> 2024 05 08 10 28 11.0000000  0 13
G26  20489915.340   107675230.499 8      2239.368          49.125    20489914.400   107675230.506 8      2239.368          49.937    20489919.040    83902791.993 8      1744.962          50.187    20489919.600    83902792.990 8      1744.962          49.500
G23  23714087.860   124618372.123 6      4230.445          41.375    23714086.320   124618372.131 4      4230.445          25.312    23714093.800    97105248.232 4      3296.450          25.250    23714093.360    97105256.240 6      3296.450          41.000
G28  23298948.780   122436799.353 7     -1051.983          43.375    23298947.580   122436799.352 5     -1051.983          31.687    23298954.300    95405310.168 5      -819.727          31.562    23298954.780    95405320.162 7      -819.727          46.875
G16  21079123.860   110771550.226 7      3975.820          45.312    21079122.200   110771550.233 6      3975.820          38.000    21079124.820    86315491.387 6      3098.041          37.562
G27  21118804.040   110980076.602 8      3427.202          48.062    21118802.860   110980076.609 6      3427.202          41.312    21118807.000    86477981.811 6      2670.547          41.312    21118807.860    86477981.813 8      2670.547          50.437
G10  24273436.060   127557763.435 7      4917.653          42.937    24273435.180   127557763.432 6      4917.653          37.125    24273446.420    99395711.984 6      3831.937          37.625    24273446.700    99395709.988 6      3831.937          40.062
G08  23407159.460   123005457.238 6      4622.328          38.562    23407157.860   123005457.227 4      4622.328          26.687    23407167.320    95848419.424 4      3601.814          26.312    23407167.940    95848439.454 7      3601.814          45.937
R21  22862544.120   122342101.453 6      6085.595          40.937    22862545.720   122342101.492 6      6085.595          40.750    22862558.760    95155020.958 7      4733.241          46.062    22862558.480    95155020.963 7      4733.241          46.312
R09  19195324.540   102501995.649 7      2598.010          47.500    19195324.440   102501995.650 8      2598.010          48.062    19195330.200    79723772.892 8      2020.675          51.937    19195330.220    79723790.889 8      2020.675          53.000
R10  20651759.620   110085498.541 7      5449.570          46.000    20651758.680   110085498.544 7      5449.570          45.250
G18  22433824.880   117890546.328 7        77.322          46.062    22433824.540   117890546.336 6        77.322          36.375    22433827.600    91862774.261 6        60.251          36.375    22433828.120    91862775.256 8        60.251          48.812
R16  22131833.360   118224272.335 7      -642.010          44.000    22131831.780   118224272.341 7      -642.010          43.187    22131845.120    91952266.951 7      -499.341          47.187    22131844.860    91952268.952 7      -499.341          47.500
G31  21534025.500   113162067.931 7        -8.502          47.250    21534024.760   113162067.930 7        -8.502          46.437    21534026.840    88178238.506 7        -6.625          46.500    21534029.180    88178247.503 8        -6.625          48.187
> 2024 05 08 10 28 12.0000000  0 13
G26  20489489.000   107672991.312 8      2239.051          49.500    20489488.240   107672991.317 8      2239.051          49.375    20489492.800    83901047.170 8      1744.715          49.562    20489493.440    83901048.170 8      1744.715          49.875
G23  23713282.700   124614141.859 7      4230.184          42.562    23713281.380   124614141.875 4      4230.184          25.375    23713288.620    97101951.925 4      3296.247          25.312    23713289.080    97101959.941 6      3296.247          41.000
G28  23299148.900   122437851.618 7     -1052.286          42.375    23299147.920   122437851.618 5     -1052.286          31.937    23299154.560    95406130.105 5      -819.963          31.562    23299154.960    95406140.091 7      -819.963          46.750
G16  21078367.360   110767574.597 7      3975.521          46.250    21078365.600   110767574.610 6      3975.521          37.437    21078368.120    86312393.495 6      3097.808          37.500
G27  21118151.520   110976649.643 8      3426.831          48.375    21118150.760   110976649.651 6      3426.831          41.062    21118155.000    86475311.453 6      2670.258          41.125    21118155.640    86475311.454 8      2670.258          50.750
G10  24272499.960   127552845.917 7      4917.644          42.062    24272499.480   127552845.920 6      4917.644          37.375    24272510.700    99391880.160 6      3831.930          37.812    24272511.340    99391878.164 6      3831.930          40.062
G08  23406279.620   123000835.040 6      4622.260          38.125    23406278.300   123000835.026 4      4622.260          26.687    23406287.800    95844817.714 4      3601.761          26.312    23406288.280    95844837.723 7      3601.761          46.062
R21  22861408.080   122336016.216 6      6085.048          41.125    22861408.560   122336016.247 6      6085.048          41.312    22861421.400    95150287.992 7      4732.815          46.125    22861421.260    95150287.996 7      4732.815          46.375
R09  19194837.780   102499398.036 8      2597.288          48.312    19194837.920   102499398.035 7      2597.288          47.562    19194843.700    79721752.520 8      2020.113          52.062    19194844.160    79721770.515 8      2020.113          53.125
R10  20650737.800   110080049.296 7      5449.148          46.125    20650736.720   110080049.305 7      5449.148          45.312
G18  22433810.260   117890469.163 7        77.062          46.312    22433809.760   117890469.168 6        77.062          36.500    22433812.860    91862714.126 6        60.048          36.187    22433813.840    91862715.123 8        60.048          48.875
R16  22131953.420   118224914.686 7      -642.454          43.812    22131951.920   118224914.692 7      -642.454          42.875    22131965.180    91952766.543 7      -499.686          47.250    22131965.160    91952768.548 7      -499.686          47.250
G31  21534027.200   113162076.715 7        -8.912          47.875    21534026.440   113162076.717 7        -8.912          46.750    21534028.580    88178245.347 7        -6.944          46.750    21534030.580    88178254.345 7        -6.944          47.687
> 2024 05 08 10 28 13.0000000  0 13
G26  20489063.000   107670752.583 8      2238.474          48.875    20489062.200   107670752.588 8      2238.474          49.687    20489066.860    83899302.704 8      1744.266          49.937    20489067.480    83899303.705 8      1744.266          50.125
G23  23712477.500   124609912.002 7      4229.605          42.125    23712476.560   124609912.018 4      4229.605          25.375    23712483.560    97098655.937 4      3295.796          25.312    23712484.100    97098663.938 6      3295.796          40.875
G28  23299348.980   122438904.071 7     -1052.464          42.937    23299348.100   122438904.073 5     -1052.464          31.937    23299354.740    95406950.190 5      -820.101          31.562    23299355.460    95406960.175 7      -820.101          47.187
G16  21077610.800   110763599.252 7      3975.157          45.937    21077609.140   110763599.262 6      3975.157          37.875    21077611.580    86309295.823 6      3097.525          37.375
G27  21117499.560   110973223.045 8      3426.394          48.500    21117498.800   110973223.050 6      3426.394          41.375    21117502.900    86472641.375 6      2669.917          41.000    21117503.640    86472641.375 8      2669.917          50.875
G10  24271564.600   127547928.484 7      4917.473          43.312    24271563.660   127547928.483 6      4917.473          37.562    24271574.860    99388048.397 6      3831.797          37.562    24271574.940    99388046.408 6      3831.797          40.250
G08  23405400.040   122996213.107 6      4621.753          38.062    23405398.860   122996213.094 4      4621.753          26.687    23405408.300    95841216.208 4      3601.366          26.312    23405409.060    95841236.230 7      3601.366          46.187
R21  22860270.820   122329931.351 6      6084.767          41.125    22860271.740   122329931.365 6      6084.767          41.312    22860284.400    95145555.311 7      4732.597          46.437    22860283.940    95145555.313 7      4732.597          46.562
R09  19194351.660   102496801.227 8      2596.395          49.000    19194351.860   102496801.230 8      2596.395          48.562    19194357.440    79719732.779 8      2019.419          52.062    19194357.860    79719750.774 8      2019.419          53.000
R10  20649715.180   110074600.475 7      5448.563          46.250    20649714.260   110074600.483 7      5448.563          45.250
G18  22433795.620   117890392.540 7        76.304          46.437    22433795.260   117890392.544 6        76.304          36.562    22433798.440    91862654.417 6        59.457          36.437    22433799.180    91862655.415 8        59.457          49.062
R16  22132073.360   118225557.545 7      -643.103          43.812    22132072.200   118225557.540 7      -643.103          43.500    22132085.940    91953266.531 7      -500.191          46.437    22132085.640    91953268.537 7      -500.191          47.000
G31  21534028.880   113162086.005 7        -9.532          47.500    21534028.240   113162086.002 7        -9.532          46.500    21534030.220    88178252.580 7        -7.428          46.625    21534032.060    88178261.581 7        -7.428          47.687
> 2024 05 08 10 28 14.0000000  0 13
G26  20488637.060   107668514.251 8      2238.076          49.375    20488636.240   107668514.256 8      2238.076          49.625    20488640.900    83897558.549 8      1743.956          49.750    20488641.460    83897559.550 8      1743.956          49.812
G23  23711672.780   124605682.424 6      4229.358          41.687    23711671.720   124605682.434 4      4229.358          25.375    23711678.720    97095360.163 4      3295.603          25.312    23711679.640    97095368.173 6      3295.603          41.312
G28  23299549.340   122439956.736 7     -1052.795          42.437    23299548.500   122439956.735 5     -1052.795          31.937    23299555.260    95407770.438 5      -820.360          31.687    23299555.880    95407780.425 7      -820.360          46.750
G16  21076854.560   110759624.159 7      3974.848          46.750    21076852.740   110759624.167 6      3974.848          38.000    21076855.320    86306198.346 6      3097.285          37.562
G27  21116847.700   110969796.754 7      3426.131          47.875    21116846.760   110969796.764 6      3426.131          41.500    21116850.800    86469971.542 6      2669.713          41.250    21116851.480    86469971.544 8      2669.713          50.562
G10  24270628.940   127543011.063 7      4917.390          42.812    24270627.820   127543011.058 6      4917.390          37.312    24270639.120    99384216.649 6      3831.732          37.500    24270639.380    99384214.655 6      3831.732          40.250
G08  23404520.860   122991591.425 6      4621.443          38.062    23404519.460   122991591.408 4      4621.443          26.687    23404528.880    95837614.897 4      3601.125          26.312    23404530.040    95837634.906 7      3601.125          46.312
R21  22859133.860   122323846.855 6      6084.411          41.437    22859134.580   122323846.875 6      6084.411          41.687    22859147.460    95140822.931 7      4732.320          46.562    22859147.020    95140822.929 7      4732.320          46.312
R09  19193865.480   102494205.130 7      2595.727          47.750    19193865.480   102494205.136 8      2595.727          48.125    19193871.340    79717713.597 8      2018.899          51.875    19193871.740    79717731.592 8      2018.899          53.062
R10  20648692.760   110069152.022 7      5448.246          46.187    20648691.780   110069152.025 7      5448.246          45.500
G18  22433781.360   117890316.336 7        75.965          46.375    22433780.780   117890316.341 6        75.965          36.375    22433783.980    91862595.036 6        59.194          36.562    22433784.580    91862596.035 8        59.194          49.250
R16  22132194.220   118226200.849 7      -643.551          43.250    22132192.620   118226200.845 7      -643.551          43.125    22132206.380    91953766.869 7      -500.540          47.062    22132206.040    91953768.875 7      -500.540          47.437
G31  21534030.640   113162095.722 8        -9.992          48.312    21534030.060   113162095.727 7        -9.992          46.562    21534031.960    88178260.156 7        -7.786          46.750    21534034.260    88178269.150 7        -7.786          47.562
> 2024 05 08 10 28 15.0000000  0 13
G26  20488211.180   107666276.515 8      2237.563          49.125    20488210.340   107666276.522 8      2237.563          49.437    20488215.120    83895814.860 8      1743.556          49.437    20488215.340    83895815.860 8      1743.556          49.812
G23  23710868.040   124601453.424 6      4228.689          40.875    23710866.840   124601453.436 4      4228.689          25.375    23710874.140    97092064.844 4      3295.082          25.312    23710874.780    97092072.854 6      3295.082          41.312
G28  23299749.560   122441009.750 7     -1053.045          42.875    23299748.680   122441009.747 5     -1053.045          31.750    23299755.820    95408590.960 5      -820.555          31.687    23299756.480    95408600.950 7      -820.555          47.000
G16  21076098.160   110755649.497 7      3974.463          45.312    21076096.460   110755649.507 6      3974.463          37.875    21076098.840    86303101.211 6      3096.985          37.562
G27  21116195.760   110966371.007 8      3425.688          48.375    21116194.900   110966371.014 6      3425.688          41.937    21116198.940    86467302.126 6      2669.368          41.375    21116199.740    86467302.133 8      2669.368          50.750
G10  24269693.140   127538093.871 7      4917.156          44.187    24269692.240   127538093.868 6      4917.156          37.437    24269703.480    99380385.084 6      3831.550          37.500    24269704.360    99380383.092 6      3831.550          40.562
G08  23403641.400   122986970.144 6      4621.262          38.812    23403640.080   122986970.130 4      4621.262          26.812    23403649.540    95834013.899 4      3600.983          26.562    23403650.640    95834033.898 7      3600.983          46.187
R21  22857996.960   122317762.985 6      6083.641          41.437    22857997.440   122317763.016 6      6083.641          41.687    22858010.460    95136091.049 7      4731.721          46.625    22858010.120    95136091.043 7      4731.721          46.750
R09  19193379.680   102491609.984 8      2594.835          48.687    19193379.480   102491609.988 7      2594.835          47.875    19193385.300    79715695.148 8      2018.205          51.937    19193385.560    79715713.145 8      2018.205          52.687
R10  20647670.960   110063704.160 7      5447.739          45.812    20647670.280   110063704.166 7      5447.739          45.312
G18  22433766.900   117890240.814 7        75.272          46.500    22433766.500   117890240.821 6        75.272          36.562    22433769.620    91862536.187 6        58.654          36.187    22433770.200    91862537.189 8        58.654          48.625
R16  22132315.000   118226844.862 7      -644.261          43.500    22132313.120   118226844.860 7      -644.261          43.312    22132326.980    91954267.764 7      -501.092          46.687    22132326.940    91954269.769 7      -501.092          47.312
G31  21534032.840   113162106.095 8       -10.553          48.000    21534032.040   113162106.095 7       -10.553          46.750    21534034.100    88178268.235 7        -8.223          46.625    21534036.160    88178277.233 8        -8.223          48.062
> 2024 05 08 10 28 16.0000000  0 13
G26  20487785.380   107664039.196 8      2237.127          48.375    20487784.680   107664039.201 8      2237.127          49.687    20487789.340    83894071.496 8      1743.216          50.125    20487789.860    83894072.497 8      1743.216          49.812
G23  23710063.560   124597224.744 6      4228.387          41.000    23710062.080   124597224.751 4      4228.387          25.375    23710069.500    97088769.771 4      3294.847          25.312    23710070.380    97088777.775 6      3294.847          41.375
G28  23299950.060   122442062.967 7     -1053.282          43.187    23299949.120   122442062.964 5     -1053.282          31.750    23299956.280    95409411.639 5      -820.739          31.687    23299956.400    95409421.626 7      -820.739          46.562
G16  21075341.780   110751675.088 7      3974.317          45.812    21075340.060   110751675.093 6      3974.317          37.437    21075342.560    86300004.267 6      3096.870          37.312
G27  21115543.820   110962945.601 8      3425.235          48.187    21115543.020   110962945.609 6      3425.235          41.000    21115547.060    86464632.981 6      2669.014          40.875    21115547.920    86464632.979 8      2669.014          50.937
G10  24268757.420   127533176.695 7      4917.104          42.812    24268756.600   127533176.698 6      4917.104          38.062    24268767.820    99376553.528 6      3831.510          38.000    24268768.120    99376551.532 6      3831.510          40.562
G08  23402762.260   122982349.110 6      4620.984          38.875    23402760.980   122982349.096 4      4620.984          26.812    23402770.060    95830413.093 4      3600.767          26.562    23402771.160    95830433.101 7      3600.767          46.125
R21  22856859.900   122311679.556 6      6083.148          41.562    22856860.780   122311679.590 6      6083.148          41.812    22856873.500    95131359.502 7      4731.337          46.625    22856873.240    95131359.498 7      4731.337          46.687
R09  19192893.920   102489015.599 7      2594.014          47.875    19192893.740   102489015.594 8      2594.014          48.062    19192899.380    79713677.286 8      2017.566          51.937    19192899.600    79713695.279 8      2017.566          52.812
R10  20646648.880   110058256.684 7      5447.253          45.875    20646647.880   110058256.685 7      5447.253          45.562
G18  22433752.560   117890165.743 7        74.834          46.562    22433752.360   117890165.750 6        74.834          36.437    22433755.220    91862477.688 6        58.312          36.250    22433755.740    91862478.690 8        58.312          49.187
R16  22132435.520   118227489.358 7      -644.648          43.750    22132433.540   118227489.354 7      -644.648          43.312    22132447.560    91954769.032 7      -501.393          47.062    22132447.500    91954771.040 7      -501.393          47.187
G31  21534034.880   113162116.931 7       -11.101          47.750    21534034.040   113162116.931 7       -11.101          46.625    21534036.160    88178276.676 7        -8.650          46.437    21534038.320    88178285.679 7        -8.650          47.750
> 2024 05 08 10 28 17.0000000  0 13
G26  20487359.880   107661802.367 8      2236.585          48.687    20487359.020   107661802.372 8      2236.585          49.437    20487363.680    83892328.512 8      1742.794          49.562    20487364.080    83892329.509 8      1742.794          49.687
G23  23709258.800   124592996.453 7      4228.077          42.625    23709257.500   124592996.461 4      4228.077          25.375    23709264.820    97085475.003 4      3294.606          25.312    23709265.520    97085483.015 6      3294.606          41.500
G28  23300150.740   122443116.441 7     -1053.617          42.750    23300149.540   122443116.438 5     -1053.617          31.875    23300156.840    95410232.522 5      -821.000          31.625    23300157.000    95410242.515 7      -821.000          47.000
G16  21074585.600   110747701.020 7      3974.017          45.812    21074583.880   110747701.024 6      3974.017          37.625    21074586.420    86296907.588 6      3096.637          37.562
G27  21114892.120   110959520.603 7      3424.774          47.937    21114891.260   110959520.613 6      3424.774          41.812    21114895.240    86461964.151 6      2668.655          41.375    21114896.000    86461964.158 8      2668.655          50.250
G10  24267821.600   127528259.616 7      4917.002          43.000    24267820.860   127528259.619 6      4917.002          37.750    24267832.240    99372722.046 6      3831.430          37.437    24267831.760    99372720.065 6      3831.430          40.500
G08  23401882.880   122977728.394 6      4620.582          38.062    23401881.900   122977728.378 4      4620.582          26.812    23401890.800    95826812.535 4      3600.454          26.562    23401891.960    95826832.547 7      3600.454          46.062
R21  22855723.380   122305596.655 6      6082.646          41.562    22855723.820   122305596.683 6      6082.646          41.812    22855736.740    95126628.359 7      4730.947          46.500    22855736.360    95126628.359 7      4730.947          46.625
R09  19192408.120   102486422.031 8      2593.150          48.125    19192408.080   102486422.029 7      2593.150          47.687    19192413.700    79711660.069 8      2016.894          51.875    19192413.900    79711678.062 8      2016.894          52.687
R10  20645627.460   110052809.652 7      5446.834          45.937    20645626.180   110052809.657 7      5446.834          45.187
G18  22433738.300   117890091.232 7        74.257          46.375    22433738.200   117890091.236 6        74.257          36.875    22433741.060    91862419.626 6        57.862          36.437    22433741.620    91862420.625 8        57.862          49.062
R16  22132556.160   118228134.463 7      -645.366          43.750    22132554.940   118228134.453 7      -645.366          44.062    22132568.320    91955270.770 7      -501.951          47.000    22132568.480    91955272.773 7      -501.951          47.875
G31  21534036.920   113162128.290 7       -11.645          47.750    21534036.340   113162128.292 7       -11.645          46.500    21534038.320    88178285.527 7        -9.074          46.875    21534040.260    88178294.526 7        -9.074          47.625
> 2024 05 08 10 28 18.0000000  0 13
G26  20486934.300   107659565.966 8      2236.213          48.812    20486933.480   107659565.976 8      2236.213          49.750    20486938.160    83890585.861 8      1742.504          50.000    20486938.380    83890586.863 8      1742.504          50.000
G23  23708454.300   124588768.533 7      4227.857          42.437    23708453.080   124588768.540 4      4227.857          25.500    23708460.380    97082180.522 4      3294.434          25.312    23708461.200    97082188.540 6      3294.434          41.500
G28  23300351.020   122444170.113 7     -1053.721          43.562    23300350.140   122444170.110 5     -1053.721          31.875    23300357.280    95411053.554 5      -821.081          31.625    23300357.480    95411063.550 7      -821.081          46.562
G16  21073829.500   110743727.230 7      3973.735          44.937    21073827.560   110743727.238 6      3973.735          37.375    21073830.360    86293811.131 6      3096.417          37.562
G27  21114240.520   110956095.954 8      3424.524          48.312    21114239.580   110956095.964 6      3424.524          41.937    21114243.520    86459295.596 6      2668.460          41.562    21114244.260    86459295.598 8      2668.460          50.687
G10  24266885.800   127523342.601 7      4916.969          43.437    24266885.100   127523342.608 6      4916.969          38.125    24266896.500    99368890.620 6      3831.404          37.625    24266896.300    99368888.630 6      3831.404          40.500
G08  23401003.860   122973107.941 6      4620.321          39.562    23401002.600   122973107.927 4      4620.321          26.812    23401011.480    95823212.180 4      3600.250          26.562    23401012.400    95823232.206 7      3600.250          45.937
R21  22854586.620   122299514.161 6      6082.397          41.562    22854587.280   122299514.183 6      6082.397          41.812    22854600.360    95121897.529 7      4730.753          46.562    22854599.600    95121897.528 7      4730.753          46.500
R09  19191922.520   102483829.247 8      2592.477          49.375    19191922.540   102483829.248 8      2592.477          48.000    19191928.220    79709643.464 8      2016.371          51.812    19191928.160    79709661.453 8      2016.371          52.687
R10  20644605.520   110047363.021 7      5446.482          46.125    20644604.440   110047363.027 7      5446.482          44.750
G18  22433724.020   117890017.207 7        73.804          45.500    22433724.060   117890017.211 6        73.804          36.062    22433727.000    91862361.942 6        57.510          36.312    22433727.720    91862362.943 8        57.510          49.125
R16  22132677.400   118228780.054 7      -645.692          44.000    22132676.020   118228780.044 7      -645.692          43.625    22132689.260    91955772.882 7      -502.205          46.875    22132689.320    91955774.885 7      -502.205          47.312
G31  21534039.280   113162140.124 8       -12.015          48.000    21534038.580   113162140.127 7       -12.015          46.625    21534040.620    88178294.747 7        -9.362          46.562    21534042.860    88178303.739 7        -9.362          47.812
> 2024 05 08 10 28 19.0000000  0 13
G26  20486508.660   107657330.061 8      2235.591          49.062    20486508.040   107657330.069 8      2235.591          49.750    20486512.600    83888843.596 8      1742.019          49.875    20486513.000    83888844.597 8      1742.019          49.562
G23  23707649.900   124584541.083 7      4227.071          42.250    23707648.520   124584541.087 4      4227.071          25.500    23707655.840    97078886.411 4      3293.822          25.437    23707656.700    97078894.431 6      3293.822          41.375
G28  23300551.760   122445224.071 7     -1054.160          44.000    23300550.640   122445224.073 5     -1054.160          31.875    23300557.700    95411874.812 5      -821.423          31.625    23300558.200    95411884.805 7      -821.423          47.062
G16  21073073.400   110739753.803 7      3973.150          45.375    21073071.380   110739753.808 6      3973.150          37.437    21073074.000    86290714.956 6      3095.961          37.437
G27  21113588.960   110952671.731 7      3423.971          47.875    21113588.060   110952671.736 6      3423.971          41.437    21113591.940    86456627.366 6      2668.029          41.125    21113592.820    86456627.372 8      2668.029          50.750
G10  24265950.120   127518425.716 7      4916.874          43.500    24265949.560   127518425.713 6      4916.874          37.125    24265961.020    99365059.275 6      3831.331          37.687    24265960.720    99365057.281 6      3831.331          40.750
G08  23400124.740   122968487.803 6      4620.003          38.500    23400123.380   122968487.792 4      4620.003          26.812    23400132.320    95819612.073 4      3600.003          26.562    23400133.220    95819632.086 7      3600.003          45.875
R21  22853450.080   122293432.123 6      6081.691          41.062    22853450.700   122293432.152 6      6081.691          41.812    22853463.440    95117167.062 7      4730.204          46.187    22853462.880    95117167.061 7      4730.204          46.625
R09  19191437.200   102481237.316 8      2591.453          48.625    19191436.920   102481237.320 8      2591.453          48.000    19191442.760    79707627.519 8      2015.574          52.000    19191442.920    79707645.510 8      2015.574          52.250
R10  20643583.720   110041916.852 7      5445.933          46.187    20643582.700   110041916.858 7      5445.933          45.375
G18  22433710.220   117889943.720 7        73.173          46.312    22433709.980   117889943.728 6        73.173          36.562    22433713.040    91862304.678 6        57.018          36.312    22433713.720    91862305.677 8        57.018          49.187
R16  22132798.440   118229426.190 7      -646.363          44.000    22132796.760   118229426.183 7      -646.363          43.562    22132810.180    91956275.436 7      -502.727          46.437    22132810.040    91956277.442 7      -502.727          46.812
G31  21534041.460   113162152.497 7       -12.612          47.875    21534040.940   113162152.502 7       -12.612          46.437    21534042.900    88178304.388 7        -9.828          46.500    21534045.020    88178313.378 7        -9.828          47.500
> 2024 05 08 10 28 20.0000000  0 13
G26  20486083.340   107655094.679 8      2235.086          49.375    20486082.580   107655094.684 8      2235.086          49.375    20486087.240    83887101.740 8      1741.625          49.250    20486087.780    83887102.739 8      1741.625          49.500
G23  23706845.540   124580314.027 6      4226.775          40.187    23706844.140   124580314.034 4      4226.775          25.500    23706851.360    97075592.603 4      3293.591          25.437    23706852.160    97075600.617 6      3293.591          41.375
G28  23300752.540   122446278.304 7     -1054.374          42.812    23300751.200   122446278.309 5     -1054.374          31.625    23300758.180    95412696.284 5      -821.590          31.625    23300759.180    95412706.272 7      -821.590          46.875
G16  21072317.040   110735780.697 7      3972.989          44.937    21072315.300   110735780.702 6      3972.989          37.687    21072317.940    86287619.027 6      3095.836          37.437
G27  21112937.280   110949247.944 8      3423.542          48.250    21112936.460   110949247.949 6      3423.542          40.875    21112940.400    86453959.486 6      2667.695          41.000    21112941.280    86453959.492 8      2667.695          50.437
G10  24265014.380   127513508.945 7      4916.768          43.062    24265013.960   127513508.950 6      4916.768          37.437    24265025.360    99361228.033 6      3831.248          37.937    24265026.060    99361226.043 6      3831.248          40.750
G08  23399245.560   122963868.030 6      4619.660          38.500    23399244.040   122963868.022 4      4619.660          27.000    23399253.180    95816012.252 4      3599.735          26.562    23399254.140    95816032.255 7      3599.735          46.000
R21  22852313.660   122287350.533 6      6081.364          41.062    22852313.800   122287350.572 6      6081.364          41.812    22852327.340    95112436.947 7      4729.949          46.250    22852326.460    95112436.945 7      4729.949          46.250
R09  19190952.040   102478646.207 7      2590.689          47.562    19190951.620   102478646.208 8      2590.689          48.312    19190957.660    79705612.206 8      2014.980          50.875    19190957.500    79705630.199 8      2014.980          51.250
R10  20642562.060   110036471.181 7      5445.472          45.750    20642561.180   110036471.187 7      5445.472          45.125
G18  22433696.700   117889870.807 7        72.703          45.437    22433696.060   117889870.814 6        72.703          36.500    22433699.300    91862247.862 6        56.652          36.312    22433699.980    91862248.857 8        56.652          49.000
R16  22132919.460   118230072.913 7      -646.910          43.125    22132917.860   118230072.904 7      -646.910          43.562    22132931.280    91956778.433 7      -503.152          47.000    22132931.140    91956780.434 7      -503.152          46.937
G31  21534044.020   113162165.441 7       -13.185          47.312    21534043.420   113162165.440 7       -13.185          46.312    21534045.380    88178314.463 7       -10.274          46.500    21534047.360    88178323.464 7       -10.274          47.250
> 2024 05 08 10 28 21.0000000  0 13
G26  20485658.140   107652859.757 8      2234.875          49.687    20485657.320   107652859.757 8      2234.875          49.750    20485662.020    83885360.240 8      1741.461          49.875    20485662.540    83885361.240 8      1741.461          49.875
G23  23706041.120   124576087.391 6      4226.513          41.750    23706039.840   124576087.399 4      4226.513          25.500    23706047.000    97072299.125 4      3293.387          25.437    23706047.460    97072307.149 6      3293.387          41.375
