     3.05           OBSERVATION DATA    MIXED               RINEX VERSION / TYPE
TPS2RIN 1.0.29.3920 TPS-USER            20240511 192342 UTC PGM / RUN BY / DATE
Win64 build Feb 23, 2024 (c) Topcon Positioning Systems     COMMENT
SRC: 20240508_GUI16.tps                                     COMMENT
OPT: -S -v 3.05                                             COMMENT
Observer            Agency                                  OBSERVER / AGENCY
O0M3X53SBGM         TPS HIPER_SR        4.8 HSR Jul,08,2022 REC # / TYPE / VERS
FW: 4.8 HSR Jul,08,2022 p3                                  COMMENT
SN: HiPer SR 1212-12575                                     COMMENT
000                 TPSHIPER_SR     NONE                    ANT # / TYPE
        1.8000        0.0000        0.0000                  ANTENNA: DELTA H/E/N
GUI16                                                       MARKER NAME
  5389606.1497 -1590183.0989  3008984.4491                  APPROX POSITION XYZ
  2024     5     8    14    17   38.0000000     GPS         TIME OF FIRST OBS
  2024     5     8    14    32   38.0000000     GPS         TIME OF LAST OBS
     1.000                                                  INTERVAL
   901 EPOCHS                                               COMMENT
G   16 C1C L1C D1C S1C C1W L1W D1W S1W C2W L2W D2W S2W C2X  SYS / # / OBS TYPES
       L2X D2X S2X                                          SYS / # / OBS TYPES
R   16 C1C L1C D1C S1C C1P L1P D1P S1P C2P L2P D2P S2P C2C  SYS / # / OBS TYPES
       L2C D2C S2C                                          SYS / # / OBS TYPES
    13                                                      # OF SATELLITES
   G02   901   901   901   901   901   901   901   901   901PRN / # OF OBS
         901   901   901     0     0     0     0            PRN / # OF OBS
   G03   901   901   901   901   901   901   901   901   901PRN / # OF OBS
         901   901   901   901   901   901   901            PRN / # OF OBS
   G08   901   901   901   901   901   901   901   901   901PRN / # OF OBS
         901   901   901   901   901   901   901            PRN / # OF OBS
   G10   901   901   901   901   901   901   901   901   901PRN / # OF OBS
         901   901   901   901   901   901   901            PRN / # OF OBS
   G16   901   901   901   901   901   901   901   901   901PRN / # OF OBS
         901   901   901     0     0     0     0            PRN / # OF OBS
   G21   901   901   901   901   901   901   901   901   901PRN / # OF OBS
         901   901   901     0     0     0     0            PRN / # OF OBS
   G27   901   901   901   901   901   901   901   901   901PRN / # OF OBS
         901   901   901   901   901   901   901            PRN / # OF OBS
   G32   901   901   901   901   901   901   901   901   901PRN / # OF OBS
         901   901   901   901   901   901   901            PRN / # OF OBS
   R07   901   901   901   901   901   901   901   901   901PRN / # OF OBS
         901   901   901   901   901   901   901            PRN / # OF OBS
   R11   901   901   901   901   901   901   901   901   901PRN / # OF OBS
         901   901   901   901   901   901   901            PRN / # OF OBS
   R12   901   901   901   901   901   901   901   901   901PRN / # OF OBS
         901   901   901   901   901   901   901            PRN / # OF OBS
   R21   901   901   901   901   901   901   901   901   901PRN / # OF OBS
         901   901   901   901   901   901   901            PRN / # OF OBS
   R22   901   901   901   901   901   901   901   901   901PRN / # OF OBS
         901   901   901   901   901   901   901            PRN / # OF OBS
G L1C                                                       SYS / PHASE SHIFT
G L1W -0.25000                                              SYS / PHASE SHIFT
G L2W  0.00000                                              SYS / PHASE SHIFT
G L2X  0.25000                                              SYS / PHASE SHIFT
R L1C                                                       SYS / PHASE SHIFT
R L1P -0.25000                                              SYS / PHASE SHIFT
R L2P -0.25000                                              SYS / PHASE SHIFT
R L2C                                                       SYS / PHASE SHIFT
  5 R07  5 R11  0 R12 -1 R21  4 R22 -3                      GLONASS SLOT / FRQ #
                                                            GLONASS COD/PHS/BIS
    18    18  1929     7GPS                                 LEAP SECONDS
                                                            END OF HEADER
> 2024 05 08 14 17 38.0000000  0 13
R12  21299028.700   113775588.300 7      3445.833          46.500    21299026.740   113775588.299 7      3445.833          46.375    21299039.180    88492169.480 7      2680.092          46.250    21299039.400    88492171.486 7      2680.092          46.187
G10  24420927.400   128332838.362 7      -701.396          42.812    24420926.680   128332838.364 6      -701.396          39.437    24420938.200    99999657.123 6      -546.542          39.250    24420938.020    99999661.120 7      -546.542          43.875
R21  21076783.740   112786131.389 7      1589.684          45.187    21076784.180   112786131.404 7      1589.684          44.687    21076797.040    87722597.831 8      1236.421          48.500    21076796.760    87722595.831 8      1236.421          48.562
G27  22446943.840   117959481.899 7       481.822          45.312    22446943.400   117959481.896 7       481.822          45.312    22446955.400    91916525.289 7       375.445          45.562    22446955.940    91916529.285 7       375.445          47.437
R11  20941982.280   111907593.828 8      -598.770          49.500    20941981.060   111907593.823 7      -598.770          47.687    20941995.720    87039299.817 8      -465.710          49.125    20941995.380    87039299.823 8      -465.710          49.625
G02  21428653.780   112608337.457 8      2412.379          49.187    21428652.160   112608337.465 6      2412.379          40.125    21428655.680    87746762.648 6      1879.776          40.000
G16  24144131.880   126878266.749 7     -1160.639          42.000    24144130.240   126878266.754 4     -1160.639          28.312    24144148.560    98866238.790 4      -904.394          28.125
G32  24915848.500   130933668.698 6      2937.925          40.312    24915847.780   130933668.700 5      2937.925          34.312    24915864.080   102026306.124 5      2289.292          34.250    24915865.260   102026304.130 6      2289.292          41.062
R07  22211151.140   118898028.604 7      6231.484          44.500    22211152.380   118898028.633 7      6231.484          43.375    22211176.080    92476350.989 7      4846.709          47.125    22211175.920    92476349.990 7      4846.709          46.687
R22  21288485.120   113639370.935 7      3347.215          45.187    21288483.280   113639370.939 7      3347.215          45.562    21288495.060    88386224.189 8      2603.390          48.375    21288495.340    88386224.187 8      2603.390          48.875
G03  22233836.920   116839601.972 7      5776.059          45.187    22233835.900   116839601.971 6      5776.059          37.312    22233851.980    91043904.232 6      4500.825          37.187    22233852.420    91043910.233 8      4500.825          49.812
G21  21019130.800   110456279.825 7      1442.373          47.750    21019128.420   110456279.824 6      1442.373          40.250    21019133.840    86069840.709 6      1123.927          40.250
G08  20701447.580   108786839.439 8      2120.959          48.750    20701387.760   108786839.444 4      2120.959          25.187    20701513.020    84769224.873 4      1652.695          25.125    20701455.240    84768999.868 8      1652.695          50.125
> 2024 05 08 14 17 39.0000000  0 13
R12  21298383.980   113772143.048 7      3445.229          45.875    21298382.020   113772143.038 7      3445.229          46.437    21298394.120    88489489.831 7      2679.623          46.875    21298394.380    88489491.838 7      2679.623          46.500
G10  24421060.800   128333539.964 7      -701.402          43.062    24421060.080   128333539.966 6      -701.402          39.562    24421071.660   100000203.818 6      -546.547          39.375    24421071.820   100000207.811 7      -546.547          43.812
R21  21076486.480   112784541.726 7      1589.970          45.687    21076487.040   112784541.754 7      1589.970          44.625    21076499.960    87721361.435 8      1236.643          48.750    21076499.640    87721359.437 8      1236.643          48.812
G27  22446852.300   117959000.273 7       481.948          44.812    22446851.580   117959000.270 7       481.948          45.500    22446863.800    91916149.985 7       375.544          44.875    22446864.360    91916153.980 7       375.544          47.250
R11  20942094.520   111908192.925 8      -599.007          48.750    20942093.240   111908192.921 8      -599.007          48.187    20942107.680    87039765.757 8      -465.894          49.437    20942107.800    87039765.757 8      -465.894          49.812
G02  21428194.720   112605925.228 8      2412.437          48.312    21428193.020   112605925.233 6      2412.437          40.062    21428196.580    87744882.984 6      1879.821          40.000
G16  24144352.660   126879427.531 7     -1160.549          42.625    24144351.000   126879427.534 4     -1160.549          28.312    24144369.500    98867143.292 4      -904.324          28.500
G32  24915289.560   130930730.978 6      2937.780          40.937    24915288.780   130930730.980 5      2937.780          34.187    24915305.000   102024017.002 5      2289.179          34.375    24915306.020   102024014.998 6      2289.179          41.062
R07  22209987.300   118891797.222 7      6231.637          44.562    22209988.060   118891797.256 7      6231.637          43.312    22210012.000    92471504.363 7      4846.829          47.375    22210011.800    92471503.362 7      4846.829          47.562
R22  21287858.460   113636023.799 7      3347.420          44.687    21287856.260   113636023.802 7      3347.420          45.812    21287867.980    88383620.860 8      2603.549          48.312    21287868.120    88383620.859 8      2603.549          49.062
G03  22232737.680   116833826.120 7      5776.063          44.375    22232736.800   116833826.117 6      5776.063          37.062    22232752.560    91039403.581 6      4500.828          37.187    22232753.380    91039409.576 8      4500.828          49.000
G21  21018856.240   110454837.635 7      1442.418          47.937    21018853.900   110454837.635 6      1442.418          39.812    21018859.580    86068716.919 6      1123.962          39.812
G08  20701043.940   108784718.707 8      2120.919          49.312    20700984.300   108784718.709 4      2120.919          25.187    20701109.380    84767572.352 4      1652.664          25.125    20701051.960    84767347.349 8      1652.664          50.875
> 2024 05 08 14 17 40.0000000  0 13
R12  21297739.220   113768698.564 7      3444.010          46.187    21297737.240   113768698.563 7      3444.010          46.812    21297749.380    88486810.788 7      2678.674          46.500    21297749.620    88486812.800 7      2678.674          46.437
G10  24421194.540   128334241.680 7      -701.981          42.687    24421193.360   128334241.684 6      -701.981          39.500    24421205.160   100000750.612 6      -546.998          39.312    24421205.360   100000754.613 7      -546.998          43.812
R21  21076189.780   112782952.069 7      1589.474          45.375    21076190.280   112782952.089 7      1589.474          45.312    21076202.940    87720125.028 8      1236.257          48.562    21076202.680    87720123.031 8      1236.257          48.937
G27  22446760.800   117958518.872 7       481.186          45.062    22446760.000   117958518.869 7       481.186          45.062    22446772.140    91915774.861 7       374.950          45.125    22446772.700    91915778.850 7       374.950          47.562
R11  20942206.560   111908792.464 8      -599.955          48.562    20942205.400   111908792.465 7      -599.955          47.687    20942220.100    87040232.058 8      -466.632          49.500    20942220.180    87040232.061 8      -466.632          49.750
G02  21427735.580   112603513.119 8      2411.816          48.187    21427734.160   112603513.116 6      2411.816          39.875    21427737.740    87743003.417 6      1879.337          40.312
G16  24144573.480   126880588.329 7     -1160.869          42.312    24144571.860   126880588.334 4     -1160.869          28.312    24144590.280    98868047.816 4      -904.573          28.500
G32  24914730.700   130927793.621 6      2936.801          41.250    24914729.680   130927793.623 5      2936.801          34.187    24914746.120   102021728.158 5      2288.416          34.187    24914747.660   102021726.158 6      2288.416          40.875
R07  22208823.360   118885565.980 7      6231.110          44.437    22208824.380   118885566.011 7      6231.110          43.312    22208847.880    92466657.838 7      4846.419          47.062    22208848.060    92466656.839 7      4846.419          47.750
R22  21287231.060   113632676.689 7      3346.897          45.562    21287229.280   113632676.690 7      3346.897          45.937    21287240.840    88381017.558 8      2603.142          48.875    21287241.260    88381017.564 8      2603.142          49.062
G03  22231638.680   116828050.542 7      5775.246          45.250    22231637.640   116828050.542 6      5775.246          36.937    22231653.780    91034903.138 6      4500.192          36.812    22231654.360    91034909.135 8      4500.192          49.562
G21  21018581.700   110453395.517 7      1441.917          47.500    21018579.420   110453395.519 6      1441.917          39.625    21018585.100    86067593.191 6      1123.572          39.625
G08  20700640.540   108782598.231 8      2120.163          49.125    20700580.760   108782598.236 4      2120.163          25.187    20700706.060    84765920.036 4      1652.075          25.125    20700648.460    84765695.029 8      1652.075          50.187
> 2024 05 08 14 17 41.0000000  0 13
R12  21297094.760   113765254.963 7      3443.234          46.437    21297092.600   113765254.956 7      3443.234          46.250    21297104.960    88484132.431 7      2678.071          46.687    21297105.360    88484134.435 7      2678.071          47.062
G10  24421328.400   128334943.639 7      -701.999          42.625    24421327.100   128334943.642 6      -701.999          39.562    24421338.740   100001297.591 6      -547.012          39.437    24421338.540   100001301.580 7      -547.012          43.625
R21  21075892.440   112781362.408 7      1589.642          45.750    21075893.320   112781362.431 7      1589.642          45.312    21075905.720    87718888.628 8      1236.388          48.875    21075905.420    87718886.630 8      1236.388          49.062
G27  22446669.440   117958037.729 7       481.138          45.687    22446668.500   117958037.723 7       481.138          45.562    22446680.720    91915399.934 7       374.912          45.250    22446681.320    91915403.927 7       374.912          47.625
R11  20942318.800   111909392.559 8      -600.324          48.437    20942317.600   111909392.560 7      -600.324          47.500    20942332.260    87040698.788 8      -466.918          50.125    20942332.520    87040698.791 8      -466.918          49.687
G02  21427276.560   112601101.176 8      2411.903          48.625    21427275.140   112601101.176 6      2411.903          40.125    21427278.700    87741123.985 6      1879.405          40.250
G16  24144794.580   126881749.238 7     -1160.877          42.000    24144792.860   126881749.245 4     -1160.877          28.312    24144811.120    98868952.424 4      -904.579          28.500
G32  24914172.200   130924856.663 6      2936.778          41.500    24914170.920   130924856.665 5      2936.778          34.375    24914187.120   102019439.624 5      2288.398          34.187    24914187.620   102019437.624 6      2288.398          40.875
R07  22207659.340   118879334.940 7      6231.050          44.625    22207660.660   118879334.966 7      6231.050          43.187    22207683.880    92461811.472 7      4846.373          47.250    22207683.900    92461810.471 7      4846.373          46.625
R22  21286604.040   113629329.696 7      3346.949          45.750    21286602.540   113629329.694 7      3346.949          46.062    21286613.800    88378414.338 8      2603.183          48.000    21286613.980    88378414.343 8      2603.183          48.000
G03  22230539.740   116822275.282 7      5775.140          45.125    22230538.780   116822275.281 6      5775.140          37.562    22230554.740    91030402.942 6      4500.109          37.000    22230555.500    91030408.947 8      4500.109          49.500
G21  21018307.260   110451953.577 7      1441.888          46.937    21018304.920   110451953.580 6      1441.888          39.937    21018310.660    86066469.601 6      1123.549          40.125
G08  20700237.120   108780478.087 8      2120.070          49.125    20700177.340   108780478.092 4      2120.070          25.125    20700302.500    84764267.971 4      1652.003          25.062    20700245.020    84764042.960 8      1652.003          50.625
> 2024 05 08 14 17 42.0000000  0 13
R12  21296450.240   113761812.149 7      3442.526          47.187    21296448.440   113761812.144 7      3442.526          46.937    21296460.540    88481454.691 7      2677.521          46.750    21296460.600    88481456.699 7      2677.521          46.812
G10  24421461.900   128335645.799 7      -702.201          42.875    24421460.740   128335645.806 6      -702.201          39.437    24421472.500   100001844.729 6      -547.169          39.312    24421472.700   100001848.721 7      -547.169          43.562
R21  21075595.660   112779772.770 7      1589.667          46.062    21075596.300   112779772.787 7      1589.667          45.437    21075608.840    87717652.234 8      1236.408          49.000    21075608.360    87717650.240 8      1236.408          48.625
G27  22446577.700   117957556.848 7       480.807          45.562    22446576.920   117957556.848 7       480.807          45.250    22446589.140    91915025.216 7       374.655          45.125    22446589.600    91915029.213 7       374.655          47.500
R11  20942431.280   111909993.185 8      -600.806          49.187    20942430.040   111909993.181 7      -600.806          47.437    20942444.840    87041165.927 8      -467.293          49.875    20942444.960    87041165.930 8      -467.293          49.937
G02  21426817.800   112598689.423 8      2411.738          48.250    21426816.120   112598689.422 6      2411.738          39.937    21426819.820    87739244.694 6      1879.276          40.312
G16  24145015.240   126882910.235 6     -1160.894          41.625    24145014.000   126882910.243 4     -1160.894          28.437    24145032.120    98869857.101 4      -904.593          28.500
G32  24913613.040   130921920.141 6      2936.438          41.000    24913612.080   130921920.141 5      2936.438          34.500    24913628.580   102017151.435 5      2288.134          34.250    24913629.200   102017149.441 6      2288.134          40.562
R07  22206495.640   118873104.091 7      6230.845          44.437    22206496.380   118873104.125 7      6230.845          43.187    22206519.880    92456965.267 7      4846.213          47.125    22206519.720    92456964.266 7      4846.213          46.687
R22  21285977.060   113625982.762 7      3346.979          44.750    21285975.740   113625982.758 7      3346.979          46.062    21285986.600    88375811.163 7      2603.206          47.937    21285987.000    88375811.170 8      2603.206          48.562
G03  22229440.660   116816500.329 7      5774.885          45.187    22229439.800   116816500.326 6      5774.885          36.937    22229455.820    91025902.991 6      4499.910          37.000    22229456.420    91025908.992 8      4499.910          49.375
G21  21018033.260   110450511.766 7      1441.857          46.625    21018030.560   110450511.771 6      1441.857          40.000    21018036.340    86065346.112 6      1123.525          40.062
G08  20699833.840   108778358.274 8      2119.731          49.875    20699774.020   108778358.284 4      2119.731          25.125    20699899.080    84762616.167 4      1651.738          25.062    20699841.680    84762391.160 8      1651.738          50.125
> 2024 05 08 14 17 43.0000000  0 13
R12  21295805.520   113758370.072 7      3441.614          47.125    21295804.020   113758370.070 7      3441.614          46.687    21295816.160    88478777.516 7      2676.811          46.000    21295816.200    88478779.528 7      2676.811          46.312
G10  24421595.540   128336348.074 6      -702.372          41.937    24421594.280   128336348.076 6      -702.372          38.937    24421606.320   100002391.946 6      -547.303          38.500    24421605.980   100002395.934 7      -547.303          43.750
R21  21075298.400   112778183.075 7      1589.696          45.562    21075299.000   112778183.084 7      1589.696          45.312    21075311.820    87716415.798 8      1236.430          48.625    21075311.380    87716413.803 8      1236.430          49.250
G27  22446486.480   117957076.123 7       480.636          44.875    22446485.500   117957076.120 7       480.636          45.500    22446497.740    91914650.613 7       374.522          45.125    22446498.440    91914654.608 7       374.522          47.187
R11  20942543.680   111910594.220 8      -601.363          48.312    20942542.460   111910594.224 7      -601.363          47.750    20942557.260    87041633.393 8      -467.727          49.125    20942557.360    87041633.391 8      -467.727          48.875
G02  21426358.740   112596277.748 8      2411.553          48.062    21426357.340   112596277.745 6      2411.553          40.000    21426360.900    87737365.465 6      1879.132          39.812
G16  24145235.880   126884071.230 6     -1161.082          41.687    24145234.820   126884071.238 4     -1161.082          28.437    24145253.080    98870761.773 4      -904.739          28.500
G32  24913054.080   130918983.964 6      2935.893          40.125    24913053.280   130918983.963 5      2935.893          34.500    24913069.700   102014863.513 5      2287.709          34.250    24913070.300   102014861.515 6      2287.709          40.562
R07  22205331.740   118866873.335 7      6230.650          44.125    22205332.840   118866873.366 7      6230.650          43.125    22205355.740    92452119.119 7      4846.061          46.937    22205355.920    92452118.122 7      4846.061          46.437
R22  21285350.260   113622635.842 7      3346.783          45.937    21285348.960   113622635.829 7      3346.783          46.125    21285359.480    88373208.002 7      2603.054          47.500    21285359.960    88373208.008 7      2603.054          47.125
G03  22228341.780   116810725.615 7      5774.496          45.750    22228340.940   116810725.615 6      5774.496          37.437    22228356.940    91021403.224 6      4499.608          36.875    22228357.220    91021409.221 8      4499.608          49.187
G21  21017758.840   110449070.029 7      1441.630          47.125    21017756.320   110449070.034 6      1441.630          39.812    21017761.920    86064222.684 6      1123.348          39.750
G08  20699430.320   108776238.666 8      2119.494          48.812    20699370.520   108776238.676 4      2119.494          25.125    20699495.840    84760964.522 4      1651.554          25.062    20699438.240    84760739.515 8      1651.554          50.187
> 2024 05 08 14 17 44.0000000  0 13
R12  21295161.420   113754928.745 7      3440.957          47.562    21295159.920   113754928.755 7      3440.957          46.812    21295172.140    88476100.940 7      2676.300          46.250    21295172.340    88476102.949 7      2676.300          47.000
G10  24421728.760   128337050.491 7      -702.431          42.250    24421727.920   128337050.490 6      -702.431          38.500    24421739.920   100002939.277 6      -547.348          38.312    24421739.620   100002943.266 7      -547.348          43.812
R21  21075001.280   112776593.361 7      1589.741          46.875    21075002.180   112776593.373 7      1589.741          45.187    21075014.720    87715179.350 8      1236.465          48.562    21075014.300    87715177.357 8      1236.465          49.000
G27  22446395.060   117956595.605 7       480.380          46.437    22446394.200   117956595.610 7       480.380          45.000    22446406.140    91914276.181 7       374.322          44.625    22446406.880    91914280.178 7       374.322          47.250
R11  20942656.180   111911195.712 8      -601.702          48.125    20942654.880   111911195.707 7      -601.702          47.062    20942669.940    87042101.207 8      -467.991          49.250    20942670.040    87042101.206 8      -467.991          49.375
G02  21425899.980   112593866.170 8      2411.576          48.750    21425898.420   112593866.167 6      2411.576          39.812    21425901.980    87735486.313 6      1879.150          39.750
G16  24145457.000   126885232.228 7     -1160.968          42.375    24145455.740   126885232.241 4     -1160.968          28.437    24145473.940    98871666.452 4      -904.651          28.375
G32  24912495.360   130916048.123 6      2935.624          40.125    24912494.440   130916048.125 5      2935.624          34.062    24912511.020   102012575.855 5      2287.500          33.937    24912511.840   102012573.863 6      2287.500          40.437
R07  22204167.700   118860642.692 7      6230.719          44.125    22204168.640   118860642.723 7      6230.719          43.312    22204191.880    92447273.066 7      4846.115          47.000    22204191.820    92447272.067 7      4846.115          46.562
R22  21284723.440   113619288.900 7      3346.883          45.125    21284721.840   113619288.890 7      3346.883          46.125    21284732.320    88370604.813 7      2603.131          47.687    21284732.780    88370604.818 7      2603.131          47.187
G03  22227243.100   116804951.132 7      5774.372          45.562    22227242.160   116804951.127 6      5774.372          37.125    22227257.920    91016903.633 6      4499.511          37.125    22227258.520    91016909.632 8      4499.511          48.875
G21  21017484.560   110447628.365 7      1441.622          47.437    21017481.980   110447628.373 6      1441.622          39.750    21017487.640    86063099.308 6      1123.342          39.875
G08  20699026.860   108774119.329 8      2119.326          48.875    20698967.380   108774119.339 4      2119.326          25.125    20699092.760    84759313.086 4      1651.423          25.062    20699034.880    84759088.077 8      1651.423          50.312
> 2024 05 08 14 17 45.0000000  0 13
R12  21294517.280   113751488.244 7      3439.993          46.875    21294516.220   113751488.259 7      3439.993          46.625    21294528.140    88473424.996 7      2675.550          46.937    21294528.260    88473427.004 7      2675.550          47.375
G10  24421862.560   128337753.094 6      -702.736          41.625    24421861.560   128337753.094 6      -702.736          39.687    24421873.640   100003486.750 6      -547.587          39.000    24421873.600   100003490.741 7      -547.587          43.625
R21  21074704.320   112775003.621 7      1589.725          46.750    21074705.040   112775003.633 7      1589.725          45.500    21074717.660    87713942.883 8      1236.453          48.687    21074717.320    87713940.892 8      1236.453          49.250
G27  22446303.620   117956115.284 7       480.287          46.312    22446302.840   117956115.287 7       480.287          45.312    22446314.780    91913901.895 7       374.250          45.062    22446315.320    91913905.892 7       374.250          47.500
R11  20942768.780   111911797.692 8      -602.271          48.125    20942767.700   111911797.691 7      -602.271          47.125    20942782.480    87042569.404 8      -468.433          49.750    20942782.620    87042569.401 8      -468.433          49.875
G02  21425441.360   112591454.736 8      2411.393          48.125    21425439.580   112591454.736 6      2411.393          40.500    21425443.160    87733607.272 6      1879.007          40.250
G16  24145677.780   126886393.302 7     -1161.135          42.750    24145676.760   126886393.314 4     -1161.135          28.437    24145694.800    98872571.189 4      -904.780          28.375
G32  24911937.020   130913112.660 6      2935.293          40.187    24911935.840   130913112.662 5      2935.293          34.062    24911952.280   102010288.489 5      2287.241          33.937    24911952.520   102010286.495 6      2287.241          40.437
R07  22203003.920   118854412.220 7      6230.372          44.687    22203004.440   118854412.243 7      6230.372          43.312    22203028.120    92442427.137 7      4845.845          47.250    22203027.920    92442426.136 7      4845.845          47.187
R22  21284096.660   113615942.011 7      3346.797          44.812    21284094.800   113615942.007 7      3346.797          46.125    21284105.200    88368001.682 7      2603.064          47.937    21284105.820    88368001.687 7      2603.064          47.687
G03  22226144.100   116799176.939 7      5774.007          45.937    22226143.260   116799176.936 6      5774.007          37.250    22226159.140    91012404.268 6      4499.226          36.937    22226159.760    91012410.269 8      4499.226          49.250
G21  21017210.100   110446186.833 7      1441.367          47.875    21017207.580   110446186.838 6      1441.367          40.687    21017213.340    86061976.032 6      1123.143          40.437
G08  20698623.760   108772000.291 8      2118.845          48.750    20698564.120   108772000.301 4      2118.845          25.125    20698689.360    84757661.888 4      1651.048          25.062    20698631.820    84757436.877 8      1651.048          50.375
> 2024 05 08 14 17 46.0000000  0 13
R12  21293873.320   113748048.489 7      3439.212          46.250    21293872.480   113748048.498 7      3439.212          47.437    21293884.520    88470749.629 7      2674.943          47.312    21293884.360    88470751.636 7      2674.943          47.687
G10  24421996.200   128338455.824 7      -702.926          42.187    24421995.360   128338455.821 6      -702.926          38.437    24422007.280   100004034.330 6      -547.735          38.812    24422007.700   100004038.316 7      -547.735          43.625
R21  21074407.520   112773413.843 7      1589.623          46.437    21074408.180   112773413.852 7      1589.623          45.500    21074420.520    87712706.387 8      1236.373          49.125    21074420.500    87712704.392 8      1236.373          49.250
G27  22446212.160   117955635.192 7       479.874          44.875    22446211.260   117955635.189 7       479.874          45.750    22446223.480    91913527.783 7       373.928          45.375    22446223.820    91913531.778 7       373.928          47.062
R11  20942881.860   111912400.146 7      -602.885          47.687    20942880.460   111912400.145 7      -602.885          47.437    20942895.320    87043037.961 8      -468.910          49.500    20942895.300    87043037.957 8      -468.910          49.500
G02  21424982.320   112589043.411 7      2411.187          47.687    21424980.740   112589043.408 6      2411.187          40.562    21424984.240    87731728.317 6      1878.847          39.750
G16  24145898.880   126887554.394 7     -1161.277          42.875    24145897.740   126887554.407 4     -1161.277          28.437    24145915.780    98873475.941 4      -904.891          28.375
G32  24911378.840   130910177.581 6      2934.934          41.187    24911377.380   130910177.580 5      2934.934          34.250    24911393.680   102008001.419 5      2286.962          34.250    24911393.840   102007999.413 6      2286.962          40.437
R07  22201839.860   118848181.834 7      6230.303          44.312    22201841.040   118848181.865 7      6230.303          43.437    22201864.000    92437581.289 7      4845.791          47.312    22201864.020    92437580.284 7      4845.791          47.125
R22  21283469.620   113612595.128 7      3346.788          46.125    21283467.800   113612595.132 7      3346.788          46.187    21283477.960    88365398.563 8      2603.057          48.000    21283478.540    88365398.564 7      2603.057          47.687
G03  22225045.320   116793402.984 7      5773.704          44.312    22225044.580   116793402.981 6      5773.704          37.312    22225060.440    91007905.093 6      4498.990          36.937    22225060.920    91007911.098 8      4498.990          49.062
G21  21016935.680   110444745.348 7      1441.342          47.312    21016933.380   110444745.350 6      1441.342          40.437    21016938.980    86060852.793 6      1123.123          40.750
G08  20698220.620   108769881.479 8      2118.611          48.625    20698161.060   108769881.487 4      2118.611          25.125    20698286.160    84756010.861 4      1650.866          25.062    20698228.840    84755785.853 8      1650.866          50.312
> 2024 05 08 14 17 47.0000000  0 13
R12  21293229.680   113744609.547 7      3438.249          47.062    21293228.660   113744609.549 7      3438.249          47.437    21293240.560    88468074.893 7      2674.194          47.187    21293240.640    88468076.902 7      2674.194          47.312
G10  24422130.300   128339158.698 7      -703.128          42.250    24422129.180   128339158.695 6      -703.128          39.687    24422141.060   100004582.024 6      -547.892          38.875    24422141.060   100004586.019 7      -547.892          43.562
R21  21074110.560   112771824.054 7      1589.497          46.562    21074110.760   112771824.066 7      1589.497          45.437    21074123.400    87711469.889 8      1236.276          48.875    21074123.300    87711467.892 8      1236.276          49.250
G27  22446120.840   117955155.292 7       479.492          45.375    22446120.020   117955155.294 7       479.492          45.562    22446132.200    91913153.835 7       373.630          45.250    22446132.760    91913157.831 7       373.630          46.937
R11  20942994.600   111913003.083 7      -603.399          47.937    20942993.100   111913003.077 7      -603.399          47.000    20943008.280    87043506.899 8      -469.311          49.625    20943008.340    87043506.900 8      -469.311          49.875
G02  21424523.360   112586632.222 8      2410.875          48.250    21424521.900   112586632.219 6      2410.875          40.000    21424525.520    87729849.473 6      1878.604          40.062
G16  24146120.020   126888715.520 7     -1161.421          42.625    24146118.760   126888715.530 4     -1161.421          28.687    24146136.600    98874380.714 4      -905.004          28.375
G32  24910820.220   130907242.861 7      2934.293          42.000    24910818.880   130907242.858 5      2934.293          34.250    24910835.240   102005714.631 5      2286.462          34.250    24910836.180   102005712.645 6      2286.462          40.687
R07  22200676.100   118841951.648 7      6229.816          43.562    22200677.040   118841951.669 7      6229.816          43.125    22200700.040    92432735.587 7      4845.412          47.437    22200700.340    92432734.584 7      4845.412          47.312
R22  21282842.820   113609248.301 7      3346.585          45.437    21282840.580   113609248.299 7      3346.585          46.062    21282851.120    88362795.465 8      2602.899          48.312    21282851.480    88362795.461 8      2602.899          48.000
G03  22223946.640   116787629.295 7      5773.386          45.375    22223945.800   116787629.295 6      5773.386          37.500    22223961.660    91003406.128 6      4498.742          37.125    22223962.300    91003412.130 8      4498.742          49.312
G21  21016661.380   110443303.999 7      1440.994          46.812    21016659.140   110443304.004 6      1440.994          40.375    21016664.760    86059729.668 6      1122.852          40.187
G08  20697817.460   108767762.961 8      2118.124          48.437    20697757.940   108767762.966 4      2118.124          25.125    20697883.200    84754360.071 4      1650.486          25.062    20697825.520    84754135.062 8      1650.486          50.812
> 2024 05 08 14 17 48.0000000  0 13
R12  21292585.740   113741171.429 7      3437.670          47.062    21292585.360   113741171.427 7      3437.670          47.375    21292597.360    88465400.796 7      2673.743          47.125    21292597.260    88465402.806 7      2673.743          47.500
G10  24422264.160   128339861.793 7      -703.240          42.375    24422263.000   128339861.792 6      -703.240          39.187    24422274.740   100005129.890 6      -547.979          39.562    24422274.920   100005133.877 7      -547.979          43.625
R21  21073813.440   112770234.260 7      1589.777          45.437    21073814.000   112770234.283 7      1589.777          45.500    21073826.440    87710233.385 8      1236.493          49.125    21073825.840    87710231.391 8      1236.493          48.812
G27  22446029.400   117954675.631 7       479.523          45.437    22446028.720   117954675.625 7       479.523          45.062    22446040.880    91912780.056 7       373.655          45.062    22446041.200    91912784.047 7       373.655          46.937
R11  20943107.560   111913606.526 7      -603.724          47.812    20943106.120   111913606.522 7      -603.724          46.937    20943121.320    87043976.233 8      -469.563          49.500    20943121.340    87043976.234 8      -469.563          49.937
G02  21424064.580   112584221.177 8      2410.920          48.937    21424063.180   112584221.174 6      2410.920          40.062    21424066.700    87727970.735 6      1878.639          40.250
G16  24146340.840   126889876.715 6     -1161.216          41.875    24146339.820   126889876.720 4     -1161.216          28.687    24146357.560    98875285.539 4      -904.843          28.375
G32  24910261.600   130904308.560 6      2933.973          40.937    24910260.460   130904308.562 5      2933.973          34.250    24910276.800   102003428.168 5      2286.213          34.125    24910277.900   102003426.187 6      2286.213          40.687
R07  22199512.180   118835721.618 7      6229.939          43.812    22199512.700   118835721.636 7      6229.939          43.125    22199536.480    92427890.002 7      4845.508          47.187    22199536.500    92427889.001 7      4845.508          47.062
R22  21282215.500   113605901.527 7      3346.700          46.687    21282213.680   113605901.528 7      3346.700          46.187    21282224.240    88360192.423 7      2602.989          47.437    21282224.640    88360192.419 7      2602.989          47.812
G03  22222847.800   116781855.916 7      5773.202          46.000    22222847.200   116781855.921 6      5773.202          37.000    22222862.920    90998907.404 6      4498.599          36.750    22222863.420    90998913.407 8      4498.599          49.375
G21  21016387.320   110441862.748 7      1441.199          46.875    21016384.860   110441862.750 6      1441.199          39.875    21016390.520    86058606.611 6      1123.012          40.062
G08  20697414.380   108765644.720 8      2118.117          48.875    20697354.780   108765644.722 4      2118.117          25.250    20697480.000    84752709.489 4      1650.481          25.125    20697422.100    84752484.478 8      1650.481          50.687
> 2024 05 08 14 17 49.0000000  0 13
R12  21291942.100   113737734.200 7      3436.859          47.937    21291942.140   113737734.204 7      3436.859          47.875    21291953.880    88462727.398 7      2673.113          47.625    21291953.840    88462729.407 7      2673.113          47.437
G10  24422398.300   128340565.143 7      -703.418          42.250    24422396.820   128340565.142 6      -703.418          39.187    24422408.460   100005677.953 6      -548.118          38.562    24422408.580   100005681.939 7      -548.118          43.500
R21  21073516.360   112768644.570 7      1589.716          45.687    21073517.200   112768644.585 7      1589.716          45.562    21073529.480    87708996.955 8      1236.446          49.125    21073528.780    87708994.958 8      1236.446          48.812
G27  22445938.180   117954196.298 7       479.249          45.437    22445937.540   117954196.297 7       479.249          45.000    22445949.620    91912406.542 7       373.441          44.937    22445950.240    91912410.541 7       373.441          47.250
R11  20943220.320   111914210.572 7      -604.286          47.875    20943219.260   111914210.573 7      -604.286          47.062    20943234.200    87044446.040 8      -470.001          49.625    20943234.300    87044446.037 8      -470.001          49.937
G02  21423605.680   112581810.367 8      2410.819          48.375    21423604.360   112581810.366 6      2410.819          40.250    21423607.880    87726092.183 6      1878.560          40.375
G16  24146561.940   126891038.070 7     -1161.324          42.375    24146560.760   126891038.075 4     -1161.324          28.687    24146578.580    98876190.497 4      -904.928          28.812
G32  24909703.140   130901374.710 6      2933.707          40.875    24909702.100   130901374.710 5      2933.707          33.937    24909718.520   102001142.062 5      2286.006          33.875    24909719.780   102001140.074 6      2286.006          40.750
R07  22198348.660   118829491.858 7      6229.653          43.812    22198348.820   118829491.873 7      6229.653          42.812    22198372.380    92423044.633 7      4845.285          46.937    22198372.720    92423043.634 7      4845.285          46.625
R22  21281588.680   113602554.919 7      3346.605          46.250    21281586.940   113602554.917 7      3346.605          46.625    21281597.340    88357589.499 8      2602.915          48.500    21281597.520    88357589.500 8      2602.915          48.000
G03  22221749.480   116776082.931 7      5772.792          45.562    22221748.700   116776082.936 6      5772.792          37.375    22221764.360    90994408.980 6      4498.280          37.062    22221764.920    90994414.979 8      4498.280          49.312
G21  21016113.040   110440421.741 7      1441.035          46.937    21016110.440   110440421.749 6      1441.035          40.125    21016116.340    86057483.751 6      1122.885          39.812
G08  20697011.280   108763526.891 8      2117.708          48.875    20696951.620   108763526.893 4      2117.708          25.250    20697077.000    84751059.232 4      1650.162          25.125    20697019.280    84750834.223 8      1650.162          51.000
> 2024 05 08 14 17 50.0000000  0 13
R12  21291298.960   113734297.895 7      3435.991          46.812    21291298.780   113734297.907 8      3435.991          48.187    21291310.620    88460054.722 7      2672.437          47.000    21291310.560    88460056.736 7      2672.437          47.500
G10  24422532.160   128341268.800 7      -703.797          42.062    24422530.580   128341268.802 6      -703.797          39.562    24422542.480   100006226.257 6      -548.414          39.062    24422542.620   100006230.246 7      -548.414          43.500
R21  21073219.340   112767054.958 7      1589.711          46.000    21073220.400   112767054.963 7      1589.711          45.062    21073232.380    87707760.580 8      1236.442          48.375    21073231.780    87707758.580 8      1236.442          48.687
G27  22445847.280   117953717.301 7       479.009          46.250    22445846.420   117953717.298 7       479.009          45.500    22445858.560    91912033.288 7       373.254          45.062    22445859.080    91912037.289 7       373.254          47.187
R11  20943333.560   111914815.214 8      -604.812          48.125    20943332.540   111914815.212 7      -604.812          47.875    20943347.320    87044916.297 8      -470.409          49.625    20943347.260    87044916.291 8      -470.409          49.625
G02  21423146.900   112579399.827 8      2410.538          48.625    21423145.600   112579399.827 6      2410.538          40.187    21423149.280    87724213.841 6      1878.341          40.125
G16  24146782.600   126892199.596 7     -1161.529          42.500    24146781.840   126892199.598 4     -1161.529          28.687    24146799.740    98877095.578 4      -905.088          28.812
G32  24909145.180   130898441.394 6      2933.130          40.625    24909143.840   130898441.397 5      2933.130          33.937    24909160.280   101998856.371 5      2285.556          33.875    24909161.760   101998854.388 6      2285.556          40.750
R07  22197184.940   118823262.331 7      6229.514          43.750    22197184.820   118823262.354 7      6229.514          42.812    22197208.780    92418199.453 7      4845.178          46.875    22197208.800    92418198.457 7      4845.178          46.562
R22  21280961.680   113599208.471 7      3346.489          45.312    21280959.960   113599208.464 7      3346.489          46.562    21280970.780    88354986.714 8      2602.824          48.000    21280970.680    88354986.715 7      2602.824          47.687
G03  22220650.780   116770310.314 7      5772.577          45.000    22220650.160   116770310.314 6      5772.577          36.875    22220666.020    90989910.841 6      4498.112          36.937    22220666.460    90989916.836 8      4498.112          49.187
G21  21015838.880   110438980.971 7      1440.785          47.062    21015836.400   110438980.975 6      1440.785          40.125    21015842.340    86056361.070 6      1122.690          40.375
G08  20696608.440   108761409.461 8      2117.290          49.062    20696548.860   108761409.463 4      2117.290          25.250    20696674.040    84749409.281 4      1649.836          25.125    20696616.460    84749184.274 8      1649.836          50.687
> 2024 05 08 14 17 51.0000000  0 13
R12  21290655.560   113730862.274 8      3435.363          48.187    21290655.940   113730862.280 8      3435.363          48.062    21290667.800    88457382.566 7      2671.949          47.375    21290667.400    88457384.578 7      2671.949          47.625
G10  24422665.620   128341972.462 7      -703.597          42.875    24422664.520   128341972.464 6      -703.597          39.187    24422676.380   100006774.561 6      -548.258          38.625    24422676.940   100006778.554 7      -548.258          43.812
R21  21072922.400   112765465.178 7      1589.970          46.562    21072922.980   112765465.179 7      1589.970          45.250    21072935.180    87706524.080 8      1236.643          48.937    21072934.780    87706522.080 8      1236.643          48.187
G27  22445755.940   117953238.405 7       479.015          45.687    22445755.280   117953238.404 7       479.015          44.875    22445767.440    91911660.115 7       373.258          44.687    22445768.020    91911664.108 7       373.258          47.437
R11  20943446.740   111915420.206 7      -605.137          47.875    20943445.840   111915420.210 7      -605.137          47.062    20943460.640    87045386.838 8      -470.662          49.625    20943460.500    87045386.834 8      -470.662          49.937
G02  21422688.360   112576989.292 7      2410.589          47.687    21422686.920   112576989.292 6      2410.589          40.625    21422690.580    87722335.500 6      1878.381          41.250
G16  24147004.080   126893361.040 7     -1161.376          42.812    24147002.940   126893361.050 4     -1161.376          28.875    24147020.620    98878000.610 4      -904.968          28.812
G32  24908587.160   130895508.325 6      2932.935          40.937    24908585.760   130895508.330 5      2932.935          34.000    24908602.080   101996570.867 5      2285.404          34.125    24908603.440   101996568.887 6      2285.404          40.750
R07  22196021.200   118817032.847 7      6229.519          43.437    22196021.300   118817032.872 7      6229.519          42.812    22196044.980    92413354.303 7      4845.181          46.875    22196045.040    92413353.304 7      4845.181          46.562
R22  21280334.760   113595861.924 7      3346.684          46.437    21280333.440   113595861.920 7      3346.684          46.250    21280343.880    88352383.851 8      2602.977          48.562    21280343.620    88352383.843 7      2602.977          47.937
G03  22219552.340   116764537.865 7      5772.464          45.562    22219551.640   116764537.865 6      5772.464          37.187    22219567.440    90985412.841 6      4498.024          36.812    22219568.120    90985418.838 8      4498.024          49.000
G21  21015564.660   110437540.169 7      1440.942          46.812    21015562.280   110437540.173 6      1440.942          40.375    21015568.120    86055238.361 6      1122.812          40.375
G08  20696205.560   108759292.160 7      2117.337          47.937    20696145.880   108759292.164 4      2117.337          25.250    20696271.120    84747759.433 4      1649.873          25.125    20696213.460    84747534.427 8      1649.873          50.500
> 2024 05 08 14 17 52.0000000  0 13
R12  21290012.680   113727427.160 7      3434.780          47.750    21290013.220   113727427.161 8      3434.780          48.125    21290024.640    88454710.803 7      2671.495          47.250    21290024.520    88454712.810 7      2671.495          47.812
G10  24422799.300   128342676.069 7      -703.597          43.312    24422798.300   128342676.072 6      -703.597          39.375    24422810.340   100007322.827 6      -548.257          39.375    24422810.600   100007326.819 7      -548.257          43.687
R21  21072625.180   112763875.130 7      1590.110          46.000    21072625.880   112763875.145 7      1590.110          45.187    21072637.780    87705287.384 8      1236.752          48.937    21072637.580    87705285.387 8      1236.752          49.125
G27  22445664.800   117952759.492 7       478.829          45.562    22445664.200   117952759.492 7       478.829          45.187    22445676.340    91911286.927 7       373.113          44.812    22445676.520    91911290.926 7       373.113          47.187
R11  20943559.880   111916025.438 8      -605.496          48.562    20943559.100   111916025.448 7      -605.496          47.562    20943573.800    87045857.566 8      -470.941          49.937    20943573.780    87045857.566 8      -470.941          50.062
G02  21422229.600   112574578.658 7      2410.590          47.750    21422228.240   112574578.655 6      2410.590          40.687    21422231.780    87720457.077 6      1878.382          40.562
G16  24147225.180   126894522.284 7     -1161.243          42.937    24147223.760   126894522.295 4     -1161.243          28.875    24147241.660    98878905.482 4      -904.865          28.812
G32  24908029.140   130892575.395 6      2932.815          39.750    24908027.680   130892575.403 5      2932.815          34.000    24908044.160   101994285.477 5      2285.310          34.125    24908045.200   101994283.492 6      2285.310          40.750
R07  22194857.660   118810803.269 7      6229.466          44.187    22194857.440   118810803.297 7      6229.466          42.812    22194881.200    92408509.076 7      4845.140          46.875    22194881.540    92408508.077 7      4845.140          46.937
R22  21279707.960   113592515.196 7      3346.836          46.250    21279706.520   113592515.186 7      3346.836          46.562    21279717.200    88349780.833 8      2603.095          48.500    21279716.940    88349780.832 8      2603.095          48.125
G03  22218453.760   116758765.453 7      5772.284          45.250    22218453.200   116758765.453 6      5772.284          37.562    22218469.040    90980914.870 6      4497.884          37.187    22218469.780    90980920.867 8      4497.884          49.187
G21  21015290.440   110436099.248 7      1440.867          47.812    21015288.160   110436099.253 6      1440.867          40.500    21015293.940    86054115.566 6      1122.753          40.562
G08  20695802.620   108757174.922 8      2117.207          48.250    20695743.100   108757174.926 4      2117.207          25.250    20695868.220    84746109.634 4      1649.772          25.125    20695810.260    84745884.623 8      1649.772          50.562
> 2024 05 08 14 17 53.0000000  0 13
R12  21289369.980   113723992.674 8      3434.034          48.312    21289370.340   113723992.685 8      3434.034          48.375    21289381.860    88452039.542 7      2670.916          47.750    21289381.720    88452041.554 7      2670.916          47.437
G10  24422933.120   128343379.705 7      -703.783          42.375    24422932.120   128343379.710 6      -703.783          39.250    24422944.380   100007871.108 6      -548.402          38.750    24422944.160   100007875.101 7      -548.402          43.375
R21  21072327.800   112762284.924 7      1590.202          45.250    21072328.620   112762284.941 7      1590.202          45.375    21072340.700    87704050.553 8      1236.824          48.000    21072340.540    87704048.558 8      1236.824          48.812
G27  22445573.840   117952280.630 7       478.762          45.875    22445573.060   117952280.627 7       478.762          45.250    22445585.160    91910913.777 7       373.061          44.812    22445585.660    91910917.774 7       373.061          46.875
R11  20943673.500   111916630.973 8      -605.812          48.437    20943672.620   111916630.977 7      -605.812          47.687    20943687.140    87046328.522 8      -471.187          48.625    20943686.880    87046328.521 8      -471.187          49.687
G02  21421770.900   112572167.976 8      2410.621          48.000    21421769.460   112572167.973 6      2410.621          40.250    21421772.960    87718578.628 6      1878.406          40.125
G16  24147446.420   126895683.406 7     -1161.066          42.312    24147444.940   126895683.413 4     -1161.066          28.875    24147462.680    98879810.254 4      -904.727          28.875
G32  24907471.000   130889642.694 6      2932.538          39.500    24907469.620   130889642.701 5      2932.538          34.000    24907486.100   101992000.262 5      2285.094          34.187    24907486.960   101991998.276 6      2285.094          40.750
R07  22193693.460   118804573.680 7      6229.491          44.187    22193693.780   118804573.714 7      6229.491          42.937    22193717.600    92403663.842 7      4845.160          47.062    22193717.840    92403662.843 7      4845.160          46.312
R22  21279080.840   113589168.331 7      3346.819          45.812    21279079.600   113589168.335 7      3346.819          47.062    21279090.220    88347177.727 8      2603.082          48.000    21279090.260    88347177.726 8      2603.082          48.062
G03  22217355.360   116752993.159 7      5772.035          44.875    22217354.820   116752993.159 6      5772.035          36.875    22217370.560    90976416.987 6      4497.690          36.812    22217371.340    90976422.988 8      4497.690          49.500
G21  21015016.260   110434658.265 7      1440.869          47.812    21015013.920   110434658.275 6      1440.869          39.812    21015019.720    86052992.726 6      1122.755          40.125
G08  20695399.600   108755057.804 8      2116.937          48.750    20695340.340   108755057.809 4      2116.937          25.250    20695465.420    84744459.932 4      1649.561          25.125    20695407.660    84744234.925 8      1649.561          49.812
> 2024 05 08 14 17 54.0000000  0 13
R12  21288727.140   113720559.058 8      3433.152          48.500    21288727.460   113720559.059 8      3433.152          48.062    21288739.220    88449368.942 7      2670.229          47.812    21288738.760    88449370.952 7      2670.229          47.812
G10  24423067.140   128344083.518 7      -703.879          42.937    24423066.280   128344083.528 6      -703.879          38.875    24423078.080   100008419.533 6      -548.477          38.687    24423078.640   100008423.518 7      -548.477          43.500
R21  21072030.600   112760694.774 7      1590.072          45.375    21072031.280   112760694.794 7      1590.072          45.250    21072043.500    87702813.770 7      1236.722          47.812    21072043.420    87702811.774 8      1236.722          48.437
G27  22445483.100   117951802.028 7       478.413          45.937    22445481.980   117951802.027 7       478.413          44.812    22445494.180    91910540.836 7       372.790          44.500    22445494.340    91910544.835 7       372.790          46.937
R11  20943786.600   111917237.055 8      -606.476          48.125    20943785.860   111917237.056 7      -606.476          47.437    20943800.700    87046799.909 8      -471.704          49.187    20943800.660    87046799.906 8      -471.704          48.687
G02  21421312.180   112569757.488 8      2410.360          48.187    21421310.700   112569757.485 6      2410.360          40.125    21421314.300    87716700.324 6      1878.203          40.125
G16  24147667.120   126896844.637 7     -1161.277          42.812    24147665.960   126896844.650 4     -1161.277          28.875    24147683.740    98880715.114 4      -904.891          28.875
G32  24906913.120   130886710.421 6      2932.055          39.312    24906911.560   130886710.426 5      2932.055          34.125    24906928.060   101989715.378 5      2284.718          34.187    24906928.920   101989713.382 6      2284.718          40.500
R07  22192529.720   118798344.284 7      6229.331          44.312    22192529.760   118798344.315 7      6229.331          42.500    22192554.040    92398818.759 7      4845.035          46.625    22192554.020    92398817.760 7      4845.035          46.750
R22  21278453.940   113585821.563 7      3346.650          46.312    21278452.580   113585821.566 7      3346.650          46.437    21278463.520    88344574.685 7      2602.950          47.500    21278462.960    88344574.682 7      2602.950          47.375
G03  22216257.120   116747221.155 7      5771.892          45.125    22216256.400   116747221.152 6      5771.892          36.937    22216272.080    90971919.331 6      4497.578          36.625    22216273.040    90971925.334 8      4497.578          49.625
G21  21014742.040   110433217.442 7      1440.685          47.812    21014739.700   110433217.447 6      1440.685          40.187    21014745.440    86051870.001 6      1122.612          39.937
G08  20694996.940   108752941.000 8      2116.609          49.375    20694937.340   108752941.005 4      2116.609          25.250    20695062.700    84742810.472 4      1649.306          25.125    20695004.820    84742585.461 8      1649.306          50.187
> 2024 05 08 14 17 55.0000000  0 13
R12  21288084.780   113717126.466 8      3432.196          48.625    21288085.100   113717126.467 8      3432.196          48.562    21288096.820    88446699.144 8      2669.485          48.062    21288096.420    88446701.153 7      2669.485          47.875
G10  24423201.060   128344787.748 7      -704.303          42.500    24423200.240   128344787.750 6      -704.303          38.875    24423212.140   100008968.278 6      -548.808          38.437    24423212.660   100008972.266 7      -548.808          43.500
