     3.05           OBSERVATION DATA    MIXED               RINEX VERSION / TYPE
TPS2RIN 1.0.29.3920 TPS-USER            20240511 192642 UTC PGM / RUN BY / DATE
Win64 build Feb 23, 2024 (c) Topcon Positioning Systems     COMMENT
SRC: 20240508_GUI18.tps                                     COMMENT
OPT: -S -v 3.05                                             COMMENT
Observer            Agency                                  OBSERVER / AGENCY
O0M3X53SBGM         TPS HIPER_SR        4.8 HSR Jul,08,2022 REC # / TYPE / VERS
FW: 4.8 HSR Jul,08,2022 p3                                  COMMENT
SN: HiPer SR 1212-12575                                     COMMENT
000                 TPSHIPER_SR     NONE                    ANT # / TYPE
        1.8000        0.0000        0.0000                  ANTENNA: DELTA H/E/N
GUI18                                                       MARKER NAME
  5389627.9979 -1592200.9479  3009021.8166                  APPROX POSITION XYZ
  2024     5     8    15    21   47.0000000     GPS         TIME OF FIRST OBS
  2024     5     8    15    36   47.0000000     GPS         TIME OF LAST OBS
     1.000                                                  INTERVAL
   901 EPOCHS                                               COMMENT
G   16 C1C L1C D1C S1C C1W L1W D1W S1W C2W L2W D2W S2W C2X  SYS / # / OBS TYPES
       L2X D2X S2X                                          SYS / # / OBS TYPES
R   16 C1C L1C D1C S1C C1P L1P D1P S1P C2P L2P D2P S2P C2C  SYS / # / OBS TYPES
       L2C D2C S2C                                          SYS / # / OBS TYPES
    14                                                      # OF SATELLITES
   G02   901   901   901   901   901   901   901   901   901PRN / # OF OBS
         901   901   901     0     0     0     0            PRN / # OF OBS
   G03   901   901   901   901   901   901   901   901   901PRN / # OF OBS
         901   901   901   901   901   901   901            PRN / # OF OBS
   G04   901   901   901   901   901   901   901   901   901PRN / # OF OBS
         901   901   901   901   901   901   901            PRN / # OF OBS
   G08   901   901   901   901   901   901   901   901   901PRN / # OF OBS
         901   901   901   901   901   901   901            PRN / # OF OBS
   G14   901   901   901   901   901   901   901   901   901PRN / # OF OBS
         901   901   901   901   901   901   901            PRN / # OF OBS
   G21   901   901   901   901   901   901   901   901   901PRN / # OF OBS
         901   901   901     0     0     0     0            PRN / # OF OBS
   G27   901   901   901   901   901   901   901   901   901PRN / # OF OBS
         901   901   901   901   901   901   901            PRN / # OF OBS
   G32   901   901   901   901   901   901   901   901   901PRN / # OF OBS
         901   901   901   901   901   901   901            PRN / # OF OBS
   R06   901   901   901   901   901   901   901   901     0PRN / # OF OBS
           0     0     0     0     0     0     0            PRN / # OF OBS
   R07   901   901   901   901   901   901   901   901   901PRN / # OF OBS
         901   901   901   901   901   901   901            PRN / # OF OBS
   R08   901   901   901   901   901   901   901   901   901PRN / # OF OBS
         901   901   901   901   901   901   901            PRN / # OF OBS
   R12   588   588   588   588   588   588   588   588   588PRN / # OF OBS
         588   588   588   588   588   588   588            PRN / # OF OBS
   R21   901   901   901   901   901   901   901   901   901PRN / # OF OBS
         901   901   901   901   901   901   901            PRN / # OF OBS
   R22   901   901   901   901   901   901   901   901   901PRN / # OF OBS
         901   901   901   901   901   901   901            PRN / # OF OBS
G L1C                                                       SYS / PHASE SHIFT
G L1W -0.25000                                              SYS / PHASE SHIFT
G L2W  0.00000                                              SYS / PHASE SHIFT
G L2X  0.25000                                              SYS / PHASE SHIFT
R L1C                                                       SYS / PHASE SHIFT
R L1P -0.25000                                              SYS / PHASE SHIFT
R L2P -0.25000                                              SYS / PHASE SHIFT
R L2C                                                       SYS / PHASE SHIFT
  6 R06 -4 R07  5 R08  6 R12 -1 R21  4 R22 -3               GLONASS SLOT / FRQ #
                                                            GLONASS COD/PHS/BIS
    18    18  1929     7GPS                                 LEAP SECONDS
                                                            END OF HEADER
> 2024 05 08 15 21 47.0000000  0 14
R07  20069061.840   107431263.330 7      4291.153          47.937    20069061.500   107431263.347 7      4291.153          47.062    20069076.940    83557712.238 8      3337.563          50.437    20069076.980    83557714.238 8      3337.563          50.750
G08  21429277.240   112611610.383 7       709.947          47.812    21429276.460   112611610.388 7       709.947          47.875    21429287.840    87749346.813 8       553.205          48.062    21429288.760    87749350.814 8       553.205          49.375
G21  21865919.720   114906179.958 7      1198.070          47.750    21865918.360   114906179.966 6      1198.070          38.000    21865923.000    89537301.063 6       933.561          38.500
R21  21768993.940   116490280.989 7      1376.086          44.062    21768992.040   116490281.004 7      1376.086          43.812    21769007.920    90603610.047 7      1070.289          47.812    21769007.680    90603608.051 7      1070.289          47.750
R12  21720876.960   116029022.026 7       477.745          44.562    21720877.360   116029022.024 7       477.745          45.375    21720892.620    90244858.222 7       371.580          47.375    21720892.780    90244860.228 7       371.580          47.375
R22  20728242.820   110648769.930 7      3163.418          47.687    20728244.180   110648769.942 8      3163.418          48.500    20728252.500    86060195.071 8      2460.436          50.625    20728252.460    86060189.068 8      2460.436          50.875
R06  21310496.360   113716893.195 6       444.340          37.500    21310495.300   113716893.206 6       444.340          36.250
G32  25207079.160   132464102.260 6      1093.990          40.437    25207078.880   132464102.268 5      1093.990          34.062    25207089.600   103218825.409 5       852.460          34.125    25207090.580   103218835.392 6       852.460          39.562
G14  22396520.100   117694505.761 7      3829.843          43.750    22396518.820   117694505.771 5      3829.843          34.062    22396527.160    91710031.276 5      2984.294          34.187    22396528.100    91710039.265 8      2984.294          48.250
G02  21612472.200   113574308.064 7      2027.207          47.062    21612470.640   113574308.069 6      2027.207          39.250    21612473.820    88499466.996 6      1579.642          39.562
G27  24228794.680   127323176.736 7      -445.407          42.312    24228792.820   127323176.741 6      -445.407          39.750    24228816.760    99212946.827 6      -347.070          39.500    24228816.700    99212951.831 7      -347.070          43.875
R08  22320849.740   119527144.654 7      6689.894          45.125    22320850.780   119527144.701 7      6689.894          43.625    22320872.480    92965649.701 7      5203.251          44.937    22320872.780    92965649.711 7      5203.251          44.437
G03  20380354.120   107099482.517 8      3969.673          48.250    20380352.680   107099482.519 6      3969.673          41.437    20380361.440    83454178.164 6      3093.252          41.125    20380363.040    83454184.175 8      3093.252          51.312
G04  24402323.360   128235076.824 6      5437.378          39.750    24402321.960   128235076.824 4      5437.378          24.437    24402339.600    99923454.553 4      4236.918          24.437    24402340.460    99923508.539 7      4236.918          42.812
> 2024 05 08 15 21 48.0000000  0 14
R07  20068260.320   107426972.926 8      4289.942          49.250    20068260.040   107426972.946 7      4289.942          47.437    20068275.520    83554375.263 8      3336.621          51.000    20068275.320    83554377.262 8      3336.621          50.875
G08  21429142.280   112610900.866 7       709.286          47.500    21429141.460   112610900.869 8       709.286          48.000    21429152.780    87748793.939 8       552.690          48.125    21429153.620    87748797.939 8       552.690          49.312
G21  21865691.700   114904982.160 7      1197.708          47.062    21865690.440   114904982.167 6      1197.708          38.187    21865695.080    89536367.715 6       933.279          38.562
R21  21768736.420   116488905.267 7      1375.544          43.187    21768734.820   116488905.279 7      1375.544          44.062    21768750.880    90602540.032 7      1069.868          47.437    21768750.420    90602538.033 7      1069.868          47.937
R12  21720787.820   116028544.902 7       476.783          44.687    21720787.920   116028544.901 7       476.783          45.437    21720803.520    90244487.120 7       370.831          47.250    21720803.420    90244489.121 7       370.831          47.312
R22  20727650.280   110645606.861 8      3163.014          48.187    20727651.600   110645606.872 8      3163.014          48.687    20727659.580    86057734.910 8      2460.122          50.625    20727659.780    86057728.911 8      2460.122          50.750
R06  21310413.520   113716449.611 6       443.089          37.937    21310412.400   113716449.601 6       443.089          36.250
G32  25206870.800   132463008.742 6      1093.168          40.375    25206870.660   132463008.747 5      1093.168          34.062    25206881.540   103217973.313 5       851.819          34.125    25206881.920   103217983.274 6       851.819          39.562
G14  22395791.780   117690676.538 7      3828.864          43.562    22395790.340   117690676.551 5      3828.864          33.937    22395798.460    91707047.467 5      2983.530          33.875    22395799.280    91707055.456 8      2983.530          48.250
G02  21612086.460   113572281.262 7      2026.732          46.875    21612085.060   113572281.267 6      2026.732          39.687    21612088.260    88497887.674 6      1579.271          39.750
G27  24228879.420   127323622.694 6      -446.049          41.687    24228877.660   127323622.694 6      -446.049          40.250    24228901.500    99213294.322 6      -347.571          39.937    24228901.960    99213299.326 7      -347.571          44.125
R08  22319600.520   119520455.162 7      6689.341          45.125    22319601.500   119520455.206 7      6689.341          43.812    22319623.640    92960446.762 7      5202.821          44.625    22319623.860    92960446.771 7      5202.821          44.500
G03  20379598.880   107095513.434 8      3968.730          48.437    20379597.440   107095513.433 6      3968.730          41.625    20379606.240    83451085.375 6      3092.517          41.250    20379607.800    83451091.387 8      3092.517          51.500
G04  24401288.200   128229639.529 6      5437.221          39.062    24401287.240   128229639.536 4      5437.221          24.500    24401305.000    99919217.701 4      4236.795          24.437    24401305.860    99919271.696 7      4236.795          42.750
> 2024 05 08 15 21 49.0000000  0 14
R07  20067458.780   107422683.234 7      4289.469          47.062    20067458.980   107422683.257 7      4289.469          47.000    20067474.100    83551038.848 8      3336.254          50.250    20067474.200    83551040.849 8      3336.254          50.437
G08  21429007.380   112610191.710 8       709.064          48.000    21429006.400   112610191.717 7       709.064          47.312    21429017.940    87748241.343 7       552.517          47.812    21429018.600    87748245.350 8       552.517          48.812
G21  21865463.800   114903784.314 7      1198.003          47.437    21865462.480   114903784.321 6      1198.003          38.625    21865467.260    89535434.321 6       933.509          38.437
R21  21768479.620   116487529.580 7      1375.774          43.375    21768477.920   116487529.595 7      1375.774          44.437    21768493.360    90601470.060 7      1070.046          46.562    21768493.320    90601468.062 7      1070.046          46.250
R12  21720698.820   116028068.313 7       476.376          45.437    21720698.240   116028068.311 7       476.376          45.062    21720714.280    90244116.429 7       370.515          46.937    21720714.480    90244118.430 7       370.515          47.375
R22  20727057.800   110642443.831 8      3163.084          48.562    20727058.980   110642443.837 8      3163.084          48.937    20727067.060    86055274.768 8      2460.176          49.937    20727067.340    86055268.769 8      2460.176          50.375
R06  21310330.180   113716006.672 6       442.686          37.937    21310329.460   113716006.678 6       442.686          36.250
G32  25206663.280   132461915.671 6      1092.895          39.000    25206662.480   132461915.674 5      1092.895          34.187    25206673.440   103217121.586 5       851.607          34.250    25206673.560   103217131.594 6       851.607          39.500
G14  22395063.260   117686847.861 7      3828.488          43.375    22395061.600   117686847.871 5      3828.488          33.937    22395069.840    91704064.076 5      2983.237          33.875    22395070.560    91704072.062 7      2983.237          47.750
G02  21611701.100   113570254.463 7      2026.850          47.187    21611699.300   113570254.471 6      2026.850          39.437    21611702.680    88496308.344 6      1579.364          39.187
G27  24228964.120   127324068.776 7      -446.022          42.000    24228962.680   127324068.783 6      -446.022          39.812    24228986.140    99213641.929 6      -347.549          39.437    24228986.140    99213646.929 7      -347.549          44.000
R08  22318351.660   119513765.793 7      6689.470          44.312    22318352.420   119513765.840 7      6689.470          43.812    22318374.240    92955243.911 7      5202.921          44.187    22318374.400    92955243.920 7      5202.921          44.750
G03  20378843.620   107091544.886 8      3968.425          48.062    20378842.100   107091544.888 6      3968.425          41.375    20378850.900    83447993.000 6      3092.279          40.875    20378852.600    83447999.012 8      3092.279          50.562
G04  24400253.780   128224202.080 6      5437.547          39.562    24400252.340   128224202.085 4      5437.547          24.500    24400270.400    99914980.728 4      4237.050          24.437    24400271.240    99915034.719 7      4237.050          42.812
> 2024 05 08 15 21 50.0000000  0 14
R07  20066657.420   107418394.444 8      4288.317          48.250    20066657.840   107418394.470 7      4288.317          46.687    20066673.020    83547703.131 8      3335.357          50.062    20066673.060    83547705.128 8      3335.357          49.500
G08  21428872.460   112609483.018 7       708.451          47.500    21428871.660   112609483.023 7       708.451          46.687    21428883.080    87747689.108 7       552.040          46.812    21428883.860    87747693.111 8       552.040          49.500
G21  21865235.940   114902586.589 8      1197.650          48.125    21865234.520   114902586.594 6      1197.650          38.437    21865239.360    89534501.028 6       933.233          38.625
R21  21768222.000   116486154.123 7      1375.287          43.750    21768220.860   116486154.143 7      1375.287          44.437    21768236.320    90600400.254 7      1069.667          47.125    21768236.220    90600398.254 7      1069.667          46.937
R12  21720609.520   116027592.405 7       475.567          44.062    21720609.140   116027592.406 7       475.567          44.687    21720625.560    90243746.272 7       369.885          46.812    21720625.320    90243748.273 7       369.885          47.062
R22  20726465.540   110639280.922 8      3162.757          48.437    20726466.580   110639280.931 8      3162.757          48.375    20726474.460    86052814.746 8      2459.922          49.375    20726474.740    86052808.747 8      2459.922          49.312
R06  21310247.220   113715564.641 6       441.515          37.937    21310246.660   113715564.642 6       441.515          36.250
G32  25206455.160   132460823.170 6      1092.101          40.875    25206454.500   132460823.170 5      1092.101          32.875    25206465.120   103216270.299 5       850.988          34.250    25206465.600   103216280.282 6       850.988          39.500
G14  22394334.760   117683019.833 7      3827.720          43.687    22394333.100   117683019.846 5      3827.720          33.437    22394341.320    91701081.197 5      2982.639          33.437    22394342.260    91701089.187 7      2982.639          47.500
G02  21611315.360   113568227.788 7      2026.641          46.437    21611313.620   113568227.796 6      2026.641          39.125    21611317.020    88494729.114 6      1579.200          39.125
G27  24229049.140   127324515.162 6      -446.478          40.812    24229047.520   127324515.167 6      -446.478          39.750    24229071.160    99213989.764 6      -347.905          39.312    24229071.400    99213994.766 7      -347.905          43.750
R08  22317102.160   119507076.729 7      6688.935          44.687    22317103.300   119507076.771 7      6688.935          43.937    22317124.860    92950041.316 7      5202.505          43.875    22317125.500    92950041.323 7      5202.505          44.125
G03  20378088.380   107087577.006 7      3967.479          47.687    20378087.080   107087577.008 6      3967.479          41.812    20378095.860    83444901.152 6      3091.542          41.625    20378097.460    83444907.163 8      3091.542          51.125
G04  24399219.180   128218764.535 6      5437.592          39.062    24399217.640   128218764.540 4      5437.592          24.500    24399235.640    99910743.680 4      4237.085          24.437    24399236.880    99910797.683 7      4237.085          42.812
> 2024 05 08 15 21 51.0000000  0 14
R07  20065856.640   107414106.580 8      4287.496          48.000    20065857.020   107414106.606 7      4287.496          47.125    20065872.060    83544368.124 8      3334.719          50.750    20065872.000    83544370.121 8      3334.719          50.875
G08  21428737.660   112608774.852 8       707.921          48.125    21428736.840   112608774.855 7       707.921          47.125    21428748.160    87747137.286 7       551.627          47.250    21428749.280    87747141.287 8       551.627          49.937
G21  21865007.880   114901388.979 7      1197.583          47.812    21865006.660   114901388.987 6      1197.583          38.062    21865011.540    89533567.828 6       933.182          38.062
R21  21767965.160   116484778.886 7      1375.134          43.937    21767964.080   116484778.906 7      1375.134          43.750    21767979.680    90599330.625 7      1069.549          47.437    21767979.220    90599328.623 7      1069.549          47.750
R12  21720520.720   116027117.255 7       474.851          44.125    21720519.960   116027117.256 7       474.851          44.687    21720536.340    90243376.701 7       369.329          47.812    21720536.540    90243378.700 7       369.329          47.812
R22  20725873.060   110636118.199 8      3162.672          48.250    20725874.060   110636118.203 8      3162.672          48.812    20725882.020    86050354.840 8      2459.856          49.750    20725882.160    86050348.839 8      2459.856          50.312
R06  21310164.040   113715123.426 6       440.853          37.937    21310164.280   113715123.445 6       440.853          36.250
G32  25206247.240   132459731.237 6      1091.800          41.000    25206246.420   132459731.234 5      1091.800          32.875    25206257.260   103215419.446 5       850.753          33.187    25206258.520   103215429.419 6       850.753          39.500
G14  22393606.360   117679192.533 7      3827.037          43.625    22393604.740   117679192.540 5      3827.037          33.437    22393613.220    91698098.880 5      2982.107          33.437    22393614.000    91698106.861 7      2982.107          47.625
G02  21610929.560   113566201.307 7      2026.375          47.125    21610927.980   113566201.315 6      2026.375          39.625    21610931.320    88493150.045 6      1578.993          39.562
G27  24229134.080   127324961.901 7      -446.842          42.500    24229132.720   127324961.898 6      -446.842          39.125    24229156.140    99214337.868 6      -348.188          39.750    24229156.260    99214342.860 7      -348.188          43.812
R08  22315853.500   119500388.000 7      6688.532          44.562    22315854.420   119500388.042 7      6688.532          43.875    22315875.820    92944838.957 7      5202.191          44.625    22315876.560    92944838.961 7      5202.191          44.687
G03  20377333.140   107083609.824 8      3966.893          48.812    20377332.040   107083609.827 6      3966.893          41.750    20377340.980    83441809.846 6      3091.085          41.125    20377342.320    83441815.855 8      3091.085          51.562
G04  24398184.540   128213327.037 6      5437.700          39.375    24398182.840   128213327.044 4      5437.700          24.500    24398200.940    99906506.668 4      4237.169          24.437    24398201.800    99906560.667 7      4237.169          42.875
> 2024 05 08 15 21 52.0000000  0 14
R07  20065055.880   107409819.776 8      4286.328          48.125    20065056.300   107409819.796 7      4286.328          47.625    20065071.120    83541033.951 8      3333.811          51.062    20065071.220    83541035.948 8      3333.811          51.187
G08  21428603.180   112608067.304 8       707.268          48.187    21428602.360   112608067.311 7       707.268          47.437    21428613.480    87746585.947 7       551.118          47.750    21428614.540    87746589.950 8       551.118          49.125
G21  21864780.160   114900191.638 7      1197.265          47.687    21864778.760   114900191.648 6      1197.265          38.437    21864783.720    89532634.833 6       932.934          38.437
R21  21767708.300   116483404.031 7      1374.726          44.562    21767706.880   116483404.046 7      1374.726          44.625    21767722.720    90598261.287 7      1069.231          47.937    21767722.060    90598259.285 7      1069.231          47.812
R12  21720431.820   116026642.987 7       473.865          44.062    21720431.000   116026642.988 7       473.865          44.437    21720447.660    90243007.815 7       368.562          47.812    21720447.800    90243009.819 8       368.562          48.250
R22  20725280.480   110632955.784 8      3162.298          48.312    20725281.460   110632955.785 8      3162.298          49.500    20725289.520    86047895.179 8      2459.565          50.500    20725289.940    86047889.181 8      2459.565          50.625
R06  21310081.600   113714683.329 6       439.486          38.062    21310081.240   113714683.329 6       439.486          36.250
G32  25206039.500   132458640.066 6      1091.011          40.750    25206038.540   132458640.058 5      1091.011          33.500    25206049.600   103214569.182 5       850.138          33.187    25206050.160   103214579.159 6       850.138          38.375
G14  22392878.020   117675366.039 7      3826.166          44.250    22392876.520   117675366.052 5      3826.166          33.875    22392885.060    91695117.204 5      2981.428          33.750    22392885.480    91695125.202 7      2981.428          47.937
G02  21610544.260   113564175.107 7      2026.116          46.937    21610542.420   113564175.112 6      2026.116          39.812    21610545.800    88491571.186 6      1578.792          39.875
G27  24229218.940   127325409.062 7      -447.370          42.687    24229217.840   127325409.057 6      -447.370          39.937    24229241.200    99214686.303 6      -348.600          39.750    24229241.640    99214691.307 7      -348.600          44.062
R08  22314604.180   119493699.645 7      6688.134          44.812    22314605.580   119493699.685 7      6688.134          43.937    22314626.980    92939636.904 7      5201.882          44.375    22314627.720    92939636.912 7      5201.882          44.750
G03  20376578.300   107079643.473 8      3966.024          48.000    20376577.260   107079643.476 6      3966.024          41.687    20376586.100    83438719.185 6      3090.409          41.500    20376587.540    83438725.198 8      3090.409          51.125
G04  24397149.980   128207889.649 6      5437.536          39.875    24397148.060   128207889.656 4      5437.536          24.500    24397166.340    99902269.745 4      4237.041          24.437    24397167.320    99902323.738 7      4237.041          42.875
> 2024 05 08 15 21 53.0000000  0 14
R07  20064255.240   107405533.815 8      4285.621          48.687    20064255.920   107405533.830 8      4285.621          48.062    20064270.400    83537700.430 8      3333.261          50.250    20064270.460    83537702.433 8      3333.261          50.875
G08  21428468.700   112607360.218 7       706.888          47.812    21428467.820   112607360.220 7       706.888          47.875    21428478.980    87746034.963 7       550.822          47.812    21428479.800    87746038.966 8       550.822          49.375
G21  21864552.300   114898994.373 7      1197.223          47.625    21864550.980   114898994.383 6      1197.223          38.687    21864555.820    89531701.899 6       932.901          38.875
R21  21767451.320   116482029.401 7      1374.591          45.562    21767450.120   116482029.416 7      1374.591          43.812    21767466.040    90597192.128 7      1069.126          47.687    21767465.300    90597190.128 8      1069.126          48.000
R12  21720343.200   116026169.354 7       473.419          43.937    21720342.440   116026169.350 7       473.419          44.812    21720359.280    90242639.422 7       368.215          46.875    21720358.820    90242641.421 8       368.215          48.000
R22  20724688.340   110629793.472 7      3162.325          47.937    20724689.020   110629793.479 8      3162.325          48.750    20724697.020    86045435.600 8      2459.586          50.437    20724697.500    86045429.601 8      2459.586          50.937
R06  21309999.180   113714243.973 6       439.036          38.062    21309999.000   113714243.977 6       439.036          36.312
G32  25205831.880   132457549.433 6      1090.403          41.250    25205831.140   132457549.430 5      1090.403          33.500    25205841.960   103213719.349 5       849.665          33.062    25205842.720   103213729.336 6       849.665          38.375
G14  22392149.880   117671540.208 7      3825.623          44.437    22392148.480   117671540.218 5      3825.623          34.312    22392157.120    91692136.043 5      2981.005          33.750    22392157.480    91692144.031 7      2981.005          47.812
G02  21610158.720   113562149.026 7      2026.144          47.187    21610156.720   113562149.028 6      2026.144          39.937    21610160.260    88489992.419 6      1578.814          39.875
G27  24229304.300   127325856.473 7      -447.509          42.187    24229302.880   127325856.473 6      -447.509          40.125    24229326.400    99215034.942 6      -348.708          40.062    24229326.160    99215039.950 7      -348.708          44.062
R08  22313355.400   119487011.503 7      6688.121          44.812    22313356.220   119487011.542 7      6688.121          43.937    22313377.880    92934435.013 7      5201.872          44.437    22313378.380    92934435.021 7      5201.872          44.375
G03  20375823.660   107075677.769 8      3965.499          48.062    20375822.580   107075677.768 6      3965.499          41.750    20375831.420    83435629.027 6      3090.000          41.500    20375832.720    83435635.041 8      3090.000          51.312
G04  24396115.120   128202452.193 6      5437.614          39.062    24396113.100   128202452.200 4      5437.614          24.500    24396131.820    99898032.766 4      4237.102          24.437    24396132.620    99898086.761 7      4237.102          42.875
> 2024 05 08 15 21 54.0000000  0 14
R07  20063454.660   107401248.392 8      4285.131          48.937    20063455.240   107401248.407 7      4285.131          47.187    20063469.980    83534367.330 8      3332.879          50.375    20063469.860    83534369.329 8      3332.879          50.625
G08  21428333.940   112606653.232 8       706.967          48.125    21428333.240   112606653.239 7       706.967          47.312    21428344.440    87745484.061 7       550.884          47.562    21428345.360    87745488.064 8       550.884          49.375
G21  21864324.360   114897796.866 7      1197.613          47.125    21864323.040   114897796.876 6      1197.613          38.375    21864327.940    89530768.779 6       933.205          38.500
R21  21767194.660   116480654.623 7      1374.898          44.312    21767193.200   116480654.638 7      1374.898          44.375    21767208.920    90596122.853 7      1069.365          47.562    21767208.600    90596120.853 7      1069.365          47.187
R12  21720254.380   116025696.008 7       473.219          44.125    21720253.680   116025696.006 7       473.219          44.937    21720270.360    90242271.257 7       368.059          47.250    21720270.380    90242273.258 7       368.059          47.500
R22  20724095.980   110626630.926 8      3162.640          48.937    20724096.560   110626630.932 8      3162.640          49.312    20724104.520    86042975.856 8      2459.831          50.187    20724104.940    86042969.857 8      2459.831          50.687
R06  21309916.340   113713805.184 6       438.531          38.062    21309916.300   113713805.163 6       438.531          36.312
G32  25205624.360   132456459.005 6      1090.416          40.062    25205623.540   132456459.000 5      1090.416          33.500    25205634.420   103212869.671 5       849.675          33.062    25205635.220   103212879.646 6       849.675          38.375
G14  22391421.900   117667714.689 7      3825.405          43.187    22391420.500   117667714.699 5      3825.405          34.312    22391429.040    91689155.112 5      2980.835          34.187    22391429.240    91689163.095 8      2980.835          48.000
G02  21609772.840   113560122.731 7      2026.415          47.062    21609771.280   113560122.731 6      2026.415          39.437    21609774.740    88488413.486 6      1579.025          39.750
G27  24229389.300   127326303.816 7      -447.312          42.125    24229388.160   127326303.821 6      -447.312          40.000    24229411.580    99215383.529 6      -348.554          39.812    24229411.200    99215388.535 7      -348.554          44.062
R08  22312106.240   119480323.282 7      6688.230          44.625    22312106.940   119480323.321 7      6688.230          43.937    22312128.880    92929233.067 7      5201.956          44.062    22312129.580    92929233.074 7      5201.956          44.375
G03  20375069.160   107071712.369 8      3965.282          48.437    20375068.160   107071712.371 6      3965.282          41.437    20375076.840    83432539.114 6      3089.830          41.125    20375078.320    83432545.125 8      3089.830          51.125
G04  24395080.080   128197014.327 6      5438.171          39.062    24395078.400   128197014.334 4      5438.171          24.500    24395096.920    99893795.470 4      4237.536          24.375    24395097.620    99893849.467 7      4237.536          43.187
> 2024 05 08 15 21 55.0000000  0 14
R07  20062653.960   107396963.767 8      4284.060          48.250    20062654.900   107396963.790 7      4284.060          47.687    20062669.540    83531034.854 8      3332.046          50.812    20062669.680    83531036.855 8      3332.046          51.250
G08  21428199.620   112605946.716 8       706.211          48.125    21428198.780   112605946.718 7       706.211          47.937    21428210.080    87744933.517 7       550.294          47.937    21428210.860    87744937.519 8       550.294          49.500
G21  21864096.480   114896599.416 7      1197.306          47.625    21864095.120   114896599.429 6      1197.306          38.687    21864100.080    89529835.699 6       932.965          38.375
R21  21766937.700   116479279.996 7      1374.473          45.937    21766936.560   116479280.005 7      1374.473          44.500    21766952.260    90595053.688 7      1069.035          47.750    21766951.500    90595051.692 7      1069.035          47.375
R12  21720166.400   116025223.315 7       472.266          44.437    21720165.300   116025223.308 7       472.266          44.687    21720181.940    90241903.595 7       367.318          47.750    21720181.980    90241905.592 8       367.318          48.312
R22  20723503.320   110623468.521 8      3162.226          49.062    20723504.200   110623468.522 8      3162.226          49.125    20723512.360    86040516.206 8      2459.509          50.375    20723512.400    86040510.203 8      2459.509          50.312
R06  21309835.100   113713367.160 6       437.598          38.062    21309834.580   113713367.155 6       437.598          36.312
G32  25205417.060   132455369.127 6      1089.469          39.687    25205416.040   132455369.129 5      1089.469          32.500    25205427.100   103212020.413 5       848.937          32.500    25205427.260   103212030.402 6       848.937          38.375
G14  22390693.880   117663889.799 7      3824.547          43.437    22390692.640   117663889.809 5      3824.547          34.312    22390701.160    91686174.675 5      2980.167          34.000    22390701.360    91686182.668 8      2980.167          48.625
G02  21609387.340   113558096.540 7      2026.019          47.062    21609385.560   113558096.542 6      2026.019          40.000    21609389.100    88486834.635 6      1578.716          39.937
G27  24229474.600   127326751.432 7      -447.794          42.750    24229473.380   127326751.434 6      -447.794          40.000    24229496.780    99215732.320 6      -348.930          39.562    24229496.340    99215737.318 7      -348.930          44.437
R08  22310857.500   119473635.305 7      6687.716          45.125    22310858.360   119473635.342 7      6687.716          43.937    22310880.000    92924031.306 7      5201.557          44.562    22310880.400    92924031.312 7      5201.557          44.062
G03  20374314.660   107067747.615 8      3964.344          48.625    20374313.760   107067747.615 6      3964.344          41.937    20374322.360    83429449.697 6      3089.099          41.625    20374323.520    83429455.707 8      3089.099          51.312
G04  24394045.500   128191576.366 6      5438.177          38.937    24394043.680   128191576.376 4      5438.177          24.500    24394062.000    99889558.098 4      4237.540          24.375    24394063.140    99889612.087 7      4237.540          43.312
> 2024 05 08 15 21 56.0000000  0 14
R07  20061853.860   107392679.846 8      4283.723          48.437    20061854.780   107392679.866 7      4283.723          47.437    20061869.360    83527702.919 8      3331.784          50.687    20061869.400    83527704.922 8      3331.784          50.937
G08  21428065.360   112605240.526 8       706.133          48.375    21428064.440   112605240.531 7       706.133          47.687    21428075.740    87744383.232 8       550.233          48.125    21428076.360    87744387.235 8       550.233          49.062
G21  21863868.720   114895401.938 8      1197.586          48.062    21863867.340   114895401.949 6      1197.586          39.062    21863872.140    89528902.597 6       933.184          38.437
R21  21766681.020   116477905.411 7      1374.610          44.812    21766679.300   116477905.426 7      1374.610          44.500    21766695.140    90593984.570 7      1069.141          47.750    21766695.000    90593982.567 7      1069.141          47.937
R12  21720077.880   116024751.179 7       471.846          44.000    21720077.000   116024751.180 7       471.846          44.562    21720093.840    90241536.371 7       366.992          47.500    21720093.900    90241538.373 8       366.992          48.250
R22  20722910.800   110620306.103 8      3162.460          48.937    20722911.700   110620306.112 8      3162.460          49.000    20722919.860    86038056.563 8      2459.691          50.187    20722920.160    86038050.565 8      2459.691          50.375
R06  21309752.880   113712929.877 6       436.981          38.062    21309752.420   113712929.902 6       436.981          36.312
G32  25205209.640   132454279.679 6      1089.196          39.187    25205208.580   132454279.679 5      1089.196          32.500    25205219.880   103211171.499 5       848.724          32.500    25205221.140   103211181.501 6       848.724          38.562
G14  22389966.420   117660065.462 7      3824.109          44.375    22389965.020   117660065.472 5      3824.109          34.312    22389973.320    91683194.673 5      2979.826          34.000    22389973.480    91683202.668 8      2979.826          48.250
G02  21609001.680   113556070.340 8      2026.341          48.437    21609000.080   113556070.342 6      2026.341          39.562    21609003.600    88485255.778 6      1578.967          39.562
G27  24229559.940   127327199.214 7      -447.828          42.812    24229558.660   127327199.211 6      -447.828          39.875    24229581.960    99216081.239 6      -348.957          39.812    24229581.880    99216086.233 7      -348.957          44.375
R08  22309608.360   119466947.486 7      6687.829          44.750    22309609.520   119466947.526 7      6687.829          43.937    22309631.080    92918829.671 7      5201.645          44.250    22309631.740    92918829.675 7      5201.645          44.125
G03  20373560.620   107063783.390 8      3964.080          49.125    20373559.260   107063783.390 6      3964.080          41.625    20373568.000    83426360.695 6      3088.894          41.250    20373569.300    83426366.702 8      3088.894          51.250
G04  24393010.580   128186138.290 6      5438.162          38.937    24393008.960   128186138.303 4      5438.162          24.312    24393027.220    99885320.640 4      4237.529          24.375    24393028.140    99885374.641 7      4237.529          42.937
> 2024 05 08 15 21 57.0000000  0 14
R07  20061053.820   107388396.692 8      4282.691          48.500    20061054.600   107388396.718 7      4282.691          47.375    20061069.200    83524371.588 8      3330.982          50.750    20061069.280    83524373.593 8      3330.982          50.875
G08  21427930.860   112604534.719 7       705.510          47.937    21427930.060   112604534.729 7       705.510          47.750    21427941.500    87743833.249 8       549.748          48.312    21427942.320    87743837.252 8       549.748          49.687
G21  21863640.900   114894204.463 8      1197.376          48.125    21863639.440   114894204.470 6      1197.376          38.562    21863644.280    89527969.492 6       933.020          38.625
R21  21766424.160   116476530.918 7      1374.371          44.312    21766422.080   116476530.932 7      1374.371          44.500    21766438.460    90592915.520 7      1068.956          47.625    21766437.880    90592913.520 7      1068.956          47.625
R12  21719989.780   116024279.621 7       471.189          44.250    21719989.020   116024279.622 7       471.189          44.625    21720005.420    90241169.598 7       366.480          47.562    21720005.480    90241171.598 8       366.480          48.250
R22  20722318.400   110617143.733 8      3162.302          49.000    20722319.300   110617143.742 8      3162.302          48.562    20722327.380    86035596.936 8      2459.568          49.812    20722327.640    86035590.935 8      2459.568          50.375
R06  21309671.360   113712493.372 6       436.201          37.937    21309670.780   113712493.380 6       436.201          36.312
G32  25205002.240   132453190.668 6      1088.826          40.250    25205001.380   132453190.675 5      1088.826          32.437    25205012.560   103210322.927 5       848.436          32.500    25205013.860   103210332.910 6       848.436          38.562
G14  22389238.720   117656241.688 7      3823.347          44.625    22389237.260   117656241.698 5      3823.347          33.937    22389245.780    91680215.115 5      2979.231          34.000    22389246.180    91680223.108 7      2979.231          47.062
G02  21608616.160   113554044.190 7      2026.109          47.750    21608614.640   113554044.195 6      2026.109          39.687    21608618.040    88483676.956 6      1578.786          39.500
G27  24229645.320   127327647.166 6      -448.145          41.937    24229643.920   127327647.166 6      -448.145          39.562    24229667.260    99216430.301 6      -349.204          39.625    24229667.280    99216435.299 7      -349.204          44.250
R08  22308359.460   119460259.844 7      6687.527          44.750    22308360.180   119460259.889 7      6687.527          43.562    22308382.040    92913628.169 7      5201.410          44.250    22308382.820    92913628.178 7      5201.410          44.375
G03  20372806.240   107059819.748 8      3963.296          48.375    20372804.980   107059819.753 6      3963.296          41.562    20372813.740    83423272.147 6      3088.283          41.312    20372815.160    83423278.154 8      3088.283          51.000
G04  24391975.440   128180700.022 6      5438.293          38.937    24391974.100   128180700.029 4      5438.293          24.312    24391992.400    99881083.031 4      4237.631          24.375    24391993.760    99881137.032 7      4237.631          42.937
> 2024 05 08 15 21 58.0000000  0 14
R07  20060254.080   107384114.487 8      4281.676          49.375    20060254.740   107384114.510 7      4281.676          47.812    20060269.280    83521040.988 8      3330.192          50.750    20060269.340    83521042.993 8      3330.192          51.625
G08  21427796.800   112603829.438 8       704.991          48.562    21427795.980   112603829.438 8       704.991          48.000    21427807.340    87743283.663 8       549.343          48.000    21427808.320    87743287.666 8       549.343          49.625
G21  21863413.000   114893007.124 7      1197.200          47.875    21863411.600   114893007.134 6      1197.200          37.687    21863416.400    89527036.500 6       932.883          38.250
R21  21766167.400   116475156.761 7      1373.961          44.875    21766165.740   116475156.770 7      1373.961          44.250    21766181.940    90591846.721 8      1068.636          48.062    21766181.060    90591844.723 8      1068.636          48.062
R12  21719901.480   116023808.828 7       470.308          44.812    21719900.980   116023808.837 7       470.308          44.562    21719917.520    90240803.422 7       365.795          47.375    21719917.440    90240805.423 7       365.795          47.937
R22  20721726.040   110613981.579 8      3161.913          48.687    20721726.860   110613981.588 8      3161.913          48.937    20721735.140    86033137.475 8      2459.266          49.625    20721735.080    86033131.476 8      2459.266          50.625
R06  21309589.860   113712057.800 6       434.922          37.937    21309589.760   113712057.808 6       434.922          36.437
G32  25204795.500   132452102.347 6      1087.893          39.625    25204794.260   132452102.357 5      1087.893          32.437    25204805.380   103209474.887 5       847.709          32.625    25204806.640   103209484.868 6       847.709          38.562
G14  22388511.320   117652418.637 7      3822.573          45.125    22388509.760   117652418.650 5      3822.573          34.250    22388518.260    91677236.108 5      2978.628          34.000    22388518.660    91677244.109 7      2978.628          47.437
G02  21608230.660   113552018.250 7      2025.712          47.750    21608229.000   113552018.252 6      2025.712          39.562    21608232.420    88482098.304 6      1578.477          39.687
G27  24229730.300   127328095.476 7      -448.569          42.687    24229729.220   127328095.475 6      -448.569          39.500    24229752.500    99216779.637 6      -349.534          39.125    24229752.700    99216784.635 7      -349.534          44.500
R08  22307110.640   119453572.558 7      6687.067          45.187    22307111.220   119453572.605 7      6687.067          43.562    22307133.020    92908426.951 7      5201.052          43.875    22307134.080    92908426.955 7      5201.052          44.625
G03  20372052.080   107055856.816 8      3962.537          48.187    20372050.820   107055856.818 6      3962.537          41.625    20372059.800    83420184.155 6      3087.691          41.437    20372061.200    83420190.159 8      3087.691          51.187
G04  24390940.400   128175261.777 6      5438.185          39.062    24390939.360   128175261.785 4      5438.185          24.312    24390957.480    99876845.440 4      4237.547          24.375    24390958.540    99876899.434 7      4237.547          43.437
> 2024 05 08 15 21 59.0000000  0 14
R07  20059453.900   107379832.998 8      4281.209          48.937    20059455.180   107379833.024 8      4281.209          48.000    20059469.440    83517710.946 8      3329.829          50.437    20059469.740    83517712.951 8      3329.829          50.687
G08  21427662.220   112603124.468 8       704.861          48.312    21427661.860   112603124.470 7       704.861          47.625    21427673.120    87742734.327 7       549.242          47.875    21427674.460    87742738.328 8       549.242          49.625
G21  21863185.100   114891809.722 8      1197.433          48.187    21863183.700   114891809.732 6      1197.433          38.125    21863188.520    89526103.462 6       933.065          38.375
R21  21765911.060   116473782.658 7      1374.053          44.875    21765908.940   116473782.662 7      1374.053          44.500    21765925.060    90590777.966 7      1068.708          47.750    21765924.400    90590775.968 7      1068.708          47.625
R12  21719813.060   116023338.521 7       470.112          45.000    21719813.040   116023338.522 7       470.112          44.687    21719829.560    90240437.617 7       365.643          47.562    21719829.540    90240439.614 8       365.643          48.000
R22  20721133.420   110610819.369 8      3162.232          48.750    20721134.640   110610819.375 8      3162.232          49.187    20721142.820    86030677.982 8      2459.514          49.625    20721142.820    86030671.977 8      2459.514          49.687
R06  21309507.740   113711622.828 6       434.626          37.937    21309507.340   113711622.847 6       434.626          36.437
G32  25204588.480   132451014.371 6      1087.927          40.375    25204587.100   132451014.376 5      1087.927          32.875    25204598.300   103208627.115 5       847.735          32.625    25204599.940   103208637.086 6       847.735          39.125
G14  22387783.840   117648596.085 7      3822.316          45.125    22387782.400   117648596.097 5      3822.316          34.250    22387790.860    91674257.495 5      2978.428          33.875    22387791.400    91674265.503 7      2978.428          47.125
G02  21607845.100   113549992.247 7      2026.086          47.500    21607843.400   113549992.252 6      2026.086          39.312    21607847.000    88480519.598 6      1578.768          39.937
G27  24229815.720   127328543.898 7      -448.463          42.312    24229814.720   127328543.898 6      -448.463          40.000    24229837.920    99217129.057 6      -349.452          39.437    24229838.180    99217134.051 7      -349.452          44.187
R08  22305862.140   119446885.385 7      6687.075          44.875    22305862.840   119446885.432 7      6687.075          43.562    22305884.360    92903225.816 7      5201.059          44.062    22305885.220    92903225.818 7      5201.059          44.312
G03  20371298.180   107051894.401 8      3962.164          48.000    20371296.680   107051894.403 6      3962.164          41.500    20371305.700    83417096.561 6      3087.401          41.250    20371307.140    83417102.563 8      3087.401          50.187
G04  24389905.620   128169823.317 6      5438.675          39.312    24389904.400   128169823.325 4      5438.675          24.312    24389922.640    99872607.683 4      4237.929          24.375    24389923.580    99872661.673 7      4237.929          43.375
> 2024 05 08 15 22  0.0000000  0 14
R07  20058654.160   107375552.439 8      4280.132          48.687    20058655.200   107375552.473 7      4280.132          47.937    20058669.700    83514381.634 8      3328.992          49.312    20058670.060    83514383.641 8      3328.992          50.625
G08  21427528.440   112602419.985 8       704.231          48.187    21427527.780   112602419.988 7       704.231          47.687    21427539.120    87742185.376 7       548.751          47.812    21427540.360    87742189.381 8       548.751          49.375
G21  21862957.040   114890612.410 8      1197.312          48.250    21862955.860   114890612.420 6      1197.312          37.562    21862960.880    89525170.491 6       932.970          38.312
R21  21765654.460   116472408.731 7      1373.812          44.625    21765652.240   116472408.741 7      1373.812          44.312    21765668.480    90589709.362 7      1068.520          46.875    21765667.540    90589707.363 7      1068.520          47.562
R12  21719725.300   116022868.905 7       469.246          44.187    21719725.160   116022868.917 7       469.246          44.500    21719741.720    90240072.358 7       364.969          46.562    21719741.580    90240074.362 7       364.969          47.687
R22  20720541.400   110607657.337 8      3161.950          48.875    20720542.280   110607657.344 8      3161.950          48.187    20720550.360    86028218.620 8      2459.294          48.437    20720550.240    86028212.611 8      2459.294          48.750
R06  21309426.220   113711188.779 6       433.627          37.937    21309426.260   113711188.783 6       433.627          36.437
G32  25204381.460   132449927.004 6      1087.163          39.687    25204380.240   132449927.006 5      1087.163          32.875    25204391.400   103207779.820 5       847.140          32.562    25204392.900   103207789.810 6       847.140          39.125
G14  22387056.440   117644774.226 7      3821.439          44.812    22387055.260   117644774.239 5      3821.439          34.062    22387063.680    91671279.426 5      2977.745          33.875    22387064.300    91671287.427 7      2977.745          47.375
G02  21607459.580   113547966.423 8      2025.732          48.437    21607458.000   113547966.428 6      2025.732          39.625    21607461.620    88478941.034 6      1578.492          39.125
G27  24229901.200   127328992.621 7      -448.779          42.562    24229900.140   127328992.615 6      -448.779          39.375    24229923.300    99217478.707 6      -349.698          39.562    24229922.960    99217483.699 7      -349.698          44.062
R08  22304613.380   119440198.495 7      6686.777          44.437    22304614.240   119440198.529 7      6686.777          43.375    22304635.880    92898024.889 7      5200.826          43.375    22304636.360    92898024.893 7      5200.826          43.812
G03  20370544.260   107047932.663 8      3961.351          48.937    20370542.680   107047932.666 6      3961.351          41.187    20370551.880    83414009.496 6      3086.767          40.750    20370553.140    83414015.495 8      3086.767          51.125
G04  24388871.020   128164384.816 6      5438.646          38.812    24388869.480   128164384.820 4      5438.646          24.312    24388887.800    99868369.893 4      4237.906          24.375    24388888.860    99868423.884 7      4237.906          43.250
> 2024 05 08 15 22  1.0000000  0 14
R07  20057854.720   107371272.754 8      4279.259          48.750    20057855.580   107371272.788 8      4279.259          48.250    20057870.260    83511053.003 8      3328.313          50.500    20057870.380    83511055.008 8      3328.313          51.562
G08  21427394.420   112601715.984 7       703.726          47.500    21427393.740   112601715.989 7       703.726          47.937    21427405.140    87741636.801 7       548.358          47.687    21427406.460    87741640.804 8       548.358          49.500
G21  21862729.380   114889415.215 8      1197.221          48.312    21862728.140   114889415.223 6      1197.221          38.312    21862732.940    89524237.610 6       932.899          38.562
R21  21765397.540   116471035.011 7      1373.661          45.812    21765395.440   116471035.029 7      1373.661          44.000    21765411.760    90588640.917 8      1068.403          48.187    21765411.180    90588638.916 8      1068.403          48.437
R12  21719637.120   116022400.000 7       468.571          44.312    21719637.580   116022400.007 7       468.571          45.250    21719653.900    90239707.646 7       364.444          47.312    21719653.780    90239709.647 8       364.444          48.062
R22  20719948.960   110604495.448 8      3161.748          49.000    20719949.880   110604495.454 8      3161.748          48.937    20719957.900    86025759.377 8      2459.137          49.562    20719958.300    86025753.376 8      2459.137          50.187
R06  21309345.140   113710755.547 6       432.898          38.000    21309344.740   113710755.548 6       432.898          36.437
G32  25204174.400   132448840.205 6      1086.627          39.937    25204173.400   132448840.205 5      1086.627          32.500    25204184.500   103206932.964 5       846.722          32.562    25204185.880   103206942.960 6       846.722          39.125
G14  22386329.480   117640953.027 7      3820.979          44.500    22386328.040   117640953.032 5      3820.979          34.062    22386336.560    91668301.858 5      2977.386          33.937    22386336.980    91668309.864 8      2977.386          48.000
G02  21607074.200   113545940.723 8      2025.713          48.250    21607072.400   113545940.725 6      2025.713          39.562    21607076.160    88477362.566 6      1578.478          40.000
G27  24229986.520   127329441.653 7      -449.165          42.125    24229985.600   127329441.653 6      -449.165          39.812    24230008.620    99217828.611 6      -349.998          39.625    24230008.360    99217833.596 7      -349.998          44.187
R08  22303364.700   119433511.867 7      6686.537          44.812    22303365.460   119433511.909 7      6686.537          43.812    22303387.040    92892824.185 7      5200.640          44.250    22303387.780    92892824.187 7      5200.640          44.250
G03  20369790.440   107043971.586 8      3960.800          48.437    20369788.860   107043971.585 6      3960.800          41.687    20369798.180    83410922.944 6      3086.337          41.500    20369799.560    83410928.945 8      3086.337          51.437
G04  24387836.140   128158946.329 6      5438.485          39.250    24387834.540   128158946.334 4      5438.485          24.312    24387852.820    99864132.112 4      4237.780          24.375    24387853.600    99864186.094 7      4237.780          43.250
> 2024 05 08 15 22  2.0000000  0 14
R07  20057055.340   107366993.766 8      4278.816          48.875    20057056.080   107366993.794 8      4278.816          48.500    20057070.940    83507724.897 8      3327.968          50.562    20057070.920    83507726.900 8      3327.968          50.875
G08  21427260.380   112601012.280 8       703.623          48.000    21427259.800   112601012.287 7       703.623          47.875    21427271.320    87741088.454 8       548.278          48.125    21427272.320    87741092.457 8       548.278          49.625
G21  21862501.520   114888217.937 7      1197.459          47.812    21862500.200   114888217.947 6      1197.459          38.125    21862505.180    89523304.664 6       933.085          38.187
R21  21765140.480   116469661.363 7      1373.686          44.875    21765138.880   116469661.378 7      1373.686          44.312    21765155.280    90587572.514 7      1068.423          47.875    21765154.580    90587570.512 8      1068.423          48.187
R12  21719549.740   116021931.630 7       468.180          45.125    21719549.860   116021931.628 7       468.180          44.562    21719566.140    90239343.333 7       364.140          47.687    21719565.900    90239345.334 7       364.140          47.937
R22  20719356.820   110601333.510 8      3162.060          49.312    20719357.660   110601333.519 8      3162.060          48.625    20719365.660    86023300.090 8      2459.380          49.750    20719365.700    86023294.085 8      2459.380          50.062
R06  21309263.660   113710323.041 6       432.409          38.000    21309263.980   113710323.029 6       432.409          36.437
G32  25203967.760   132447753.816 6      1086.411          40.250    25203966.720   132447753.815 5      1086.411          32.500    25203977.640   103206086.431 5       846.554          32.562    25203978.860   103206096.420 6       846.554          38.875
G14  22385602.340   117637132.343 7      3820.571          45.250    22385600.840   117637132.350 5      3820.571          34.000    22385609.520    91665324.704 5      2977.069          33.937    22385609.820    91665332.707 7      2977.069          47.750
G02  21606688.580   113543915.009 7      2025.839          47.625    21606686.840   113543915.014 6      2025.839          39.812    21606690.760    88475784.086 6      1578.576          39.625
G27  24230072.060   127329890.801 7      -449.136          42.625    24230071.200   127329890.800 6      -449.136          39.437    24230094.180    99218178.594 6      -349.976          39.687    24230094.220    99218183.580 7      -349.976          44.437
R08  22302115.740   119426825.320 7      6686.529          44.812    22302116.460   119426825.370 7      6686.529          43.812    22302138.220    92887623.540 7      5200.634          43.562    22302139.080    92887623.538 7      5200.634          44.187
G03  20369036.740   107040011.031 8      3960.382          48.062    20369035.260   107040011.033 6      3960.382          41.375    20369044.440    83407836.803 6      3086.012          41.687    20369046.220    83407842.802 8      3086.012          51.500
G04  24386801.220   128153507.578 6      5438.958          39.312    24386799.620   128153507.580 4      5438.958          24.312    24386817.820    99859894.124 4      4238.149          24.250    24386818.820    99859948.122 7      4238.149          43.437
> 2024 05 08 15 22  3.0000000  0 14
R07  20056256.440   107362715.444 8      4277.700          49.062    20056257.120   107362715.467 8      4277.700          48.375    20056271.580    83504397.315 8      3327.100          50.812    20056271.900    83504399.318 8      3327.100          51.312
G08  21427126.500   112600308.872 7       702.995          47.937    21427125.980   112600308.880 7       702.995          47.875    21427137.480    87740540.336 7       547.789          47.625    21427138.640    87740544.339 8       547.789          49.187
