     3.05           OBSERVATION DATA    MIXED               RINEX VERSION / TYPE
TPS2RIN 1.0.29.3920 TPS-USER            20240511 192056 UTC PGM / RUN BY / DATE
Win64 build Feb 23, 2024 (c) Topcon Positioning Systems     COMMENT
SRC: 20240508_GUI15.tps                                     COMMENT
OPT: -S -v 3.05                                             COMMENT
Observer            Agency                                  OBSERVER / AGENCY
O0M3X53SBGM         TPS HIPER_SR        4.8 HSR Jul,08,2022 REC # / TYPE / VERS
FW: 4.8 HSR Jul,08,2022 p3                                  COMMENT
SN: HiPer SR 1212-12575                                     COMMENT
000                 TPSHIPER_SR     NONE                    ANT # / TYPE
        1.8000        0.0000        0.0000                  ANTENNA: DELTA H/E/N
GUI15                                                       MARKER NAME
  5389297.0594 -1589868.9847  3009628.4300                  APPROX POSITION XYZ
  2024     5     8    13    50   25.0000000     GPS         TIME OF FIRST OBS
  2024     5     8    14     5   26.0000000     GPS         TIME OF LAST OBS
     1.000                                                  INTERVAL
   902 EPOCHS                                               COMMENT
G   16 C1C L1C D1C S1C C1W L1W D1W S1W C2W L2W D2W S2W C2X  SYS / # / OBS TYPES
       L2X D2X S2X                                          SYS / # / OBS TYPES
R   16 C1C L1C D1C S1C C1P L1P D1P S1P C2P L2P D2P S2P C2C  SYS / # / OBS TYPES
       L2C D2C S2C                                          SYS / # / OBS TYPES
    15                                                      # OF SATELLITES
   G02   903   903   903   903   903   903   903   903   903PRN / # OF OBS
         903   903   903     0     0     0     0            PRN / # OF OBS
   G03   903   903   903   903   903   903   903   903   903PRN / # OF OBS
         903   903   903   903   903   903   903            PRN / # OF OBS
   G08   903   903   903   903   903   903   903   903   903PRN / # OF OBS
         903   903   903   903   903   903   903            PRN / # OF OBS
   G10   903   903   903   903   903   903   903   903   903PRN / # OF OBS
         903   903   903   903   903   903   903            PRN / # OF OBS
   G16   903   903   903   903   903   903   903   903   903PRN / # OF OBS
         903   903   903     0     0     0     0            PRN / # OF OBS
   G21   903   903   903   903   903   903   903   903   903PRN / # OF OBS
         903   903   903     0     0     0     0            PRN / # OF OBS
   G27   823   823   823   823   816   816   816   816   816PRN / # OF OBS
         816   816   816   812   812   812   812            PRN / # OF OBS
   G32   431   431   431   431   427   427   427   427   427PRN / # OF OBS
         427   427   427   423   423   423   423            PRN / # OF OBS
   R05   903   903   903   903   903   903   903   903   903PRN / # OF OBS
         903   903   903   903   903   903   903            PRN / # OF OBS
   R07   903   903   903   903   903   903   903   903   903PRN / # OF OBS
         903   903   903   903   903   903   903            PRN / # OF OBS
   R10   903   903   903   903   903   903   903   903     0PRN / # OF OBS
           0     0     0     0     0     0     0            PRN / # OF OBS
   R11   903   903   903   903   903   903   903   903   903PRN / # OF OBS
         903   903   903   903   903   903   903            PRN / # OF OBS
   R12   808   808   808   808   802   802   802   802   802PRN / # OF OBS
         802   802   802   801   801   801   801            PRN / # OF OBS
   R21   804   804   804   804   798   798   798   798   798PRN / # OF OBS
         798   798   798   797   797   797   797            PRN / # OF OBS
   R22   705   705   705   705   699   699   699   699   686PRN / # OF OBS
         686   686   686   678   678   678   678            PRN / # OF OBS
G L1C                                                       SYS / PHASE SHIFT
G L1W -0.25000                                              SYS / PHASE SHIFT
G L2W  0.00000                                              SYS / PHASE SHIFT
G L2X  0.25000                                              SYS / PHASE SHIFT
R L1C                                                       SYS / PHASE SHIFT
R L1P -0.25000                                              SYS / PHASE SHIFT
R L2P -0.25000                                              SYS / PHASE SHIFT
R L2C                                                       SYS / PHASE SHIFT
  7 R05  1 R07  5 R10 -7 R11  0 R12 -1 R21  4 R22 -3        GLONASS SLOT / FRQ #
                                                            GLONASS COD/PHS/BIS
    18    18  1929     7GPS                                 LEAP SECONDS
                                                            END OF HEADER
> 2024 05 08 13 50 25.0000000  0 14
R07  23531817.840   125967665.950 6      6335.522          38.625    23531814.520   125967665.944 6      6335.522          37.062    23531841.660    97974949.276 7      4927.628          45.312    23531842.300    97974949.285 7      4927.628          45.562
G16  23212277.060   121981341.261 7      -892.374          42.437    23212275.080   121981341.279 4      -892.374          29.625    23212290.560    95050444.470 4      -695.356          29.500
R12  21947252.500   117238283.454 7      4739.632          43.500    21947252.920   117238283.460 7      4739.632          43.812    21947265.200    91185376.279 7      3686.381          43.500    21947264.780    91185379.284 7      3686.381          44.312
R05  23234993.500   124204351.782 6      1089.157          40.937    23234992.800   124204351.810 6      1089.157          40.562    23235006.380    96603442.964 7       847.122          43.937    23235007.260    96603444.960 7       847.122          43.875
R10  23127103.860   123280481.642 6     -1825.122          39.625    23127103.080   123280481.637 6     -1825.122          38.625
R11  20305616.140   108507056.581 8       471.810          50.437    20305615.660   108507056.588 8       471.810          48.875    20305626.140    84394413.163 8       366.964          50.625    20305625.580    84394415.165 8       366.964          51.000
R21  20963010.900   112177304.811 7      1657.843          44.437    20963010.520   112177304.821 7      1657.843          44.750    20963020.160    87249062.188 7      1289.433          43.062    20963021.000    87249062.196 7      1289.433          42.562
G10  23661952.220   124344395.828 7      -227.998          44.062    23661950.240   124344395.833 6      -227.998          40.062    23661961.420    96891778.342 6      -177.660          40.375    23661961.460    96891778.340 7      -177.660          43.500
G03  23489372.940   123437477.958 7      6164.497          44.625    23489372.760   123437477.965 5      6164.497          32.000    23489390.840    96185114.734 5      4803.504          31.625    23489391.960    96185131.753 7      4803.504          44.875
R22  21732353.180   116008792.236 6      3546.245          39.062    21732355.700   116008792.224 6      3546.245          39.437    21732369.760    90229094.801 5      2758.190          35.875    21732370.140    90229096.813 6      2758.190          36.187
G08  20830018.480   109462490.261 7      2600.627          47.250    20830016.760   109462490.269 7      2600.627          47.625    20830024.800    85295469.700 7      2026.462          47.812    20830025.680    85295487.703 8      2026.462          49.937
G02  21623303.740   113631231.191 7      2772.690          44.187    21623302.060   113631231.196 5      2772.690          34.312    21623305.760    88543821.377 5      2160.538          33.750
G27  22054949.600   115899543.693 7       901.662          42.312    22054949.360   115899543.703 5       901.662          31.687    22054957.700    90311363.678 5       702.594          31.937    22054958.140    90311367.632 6       702.594          37.000
G21  20907629.700   109870335.679 8      1780.251          49.187    20907628.340   109870335.676 6      1780.251          39.437    20907631.980    85613259.091 6      1387.208          39.500
> 2024 05 08 13 50 26.0000000  0 14
R07  23530635.040   125961330.654 6      6335.234          38.625    23530632.220   125961330.645 6      6335.234          37.062    23530658.220    97970021.820 7      4927.404          45.625    23530658.720    97970021.826 7      4927.404          44.937
G16  23212446.780   121982233.795 7      -892.733          43.000    23212444.940   121982233.813 4      -892.733          29.625    23212460.280    95051139.938 4      -695.636          29.500
R12  21946365.220   117233544.273 7      4738.773          44.375    21946366.000   117233544.274 7      4738.773          43.812    21946377.740    91181690.240 7      3685.712          43.562    21946377.520    91181693.244 7      3685.712          44.562
R05  23234789.780   124203263.068 6      1088.104          40.937    23234789.520   124203263.099 6      1088.104          40.562    23234802.900    96602596.194 7       846.303          43.437    23234803.980    96602598.195 7       846.303          44.312
R10  23127446.120   123282307.109 6     -1825.540          39.625    23127445.540   123282307.123 6     -1825.540          38.625
R11  20305527.960   108506585.147 8       471.065          50.312    20305527.760   108506585.151 8       471.065          49.062    20305537.860    84394046.483 8       366.384          50.937    20305537.420    84394048.481 8       366.384          51.125
R21  20962701.120   112175647.126 7      1657.589          44.625    20962700.420   112175647.147 7      1657.589          44.187    20962709.920    87247772.882 7      1289.236          43.312    20962711.100    87247772.888 7      1289.236          42.500
G10  23661995.600   124344624.120 7      -228.563          44.062    23661993.640   124344624.127 6      -228.563          39.937    23662004.980    96891956.228 6      -178.101          39.750    23662004.480    96891956.226 7      -178.101          43.625
G03  23488200.020   123431313.575 7      6164.185          44.312    23488199.780   123431313.582 5      6164.185          32.000    23488217.960    96180311.329 5      4803.261          31.937    23488218.920    96180328.352 7      4803.261          45.125
R22  21731688.660   116005246.131 6      3546.023          39.750    21731691.000   116005246.140 6      3546.023          39.437    21731705.060    90226336.721 5      2758.018          35.875    21731706.460    90226338.725 6      2758.018          36.187
G08  20829523.640   109459889.744 7      2600.290          46.562    20829522.020   109459889.752 7      2600.290          47.875    20829529.760    85293443.322 8      2026.200          48.000    20829530.840    85293461.326 8      2026.200          49.125
G02  21622776.180   113628458.700 7      2772.324          44.562    21622774.420   113628458.700 5      2772.324          34.250    21622778.200    88541660.995 5      2160.253          33.750
G27  22054778.480   115898642.386 6       901.197          41.500    22054777.880   115898642.402 5       901.197          31.750    22054786.600    90310661.359 5       702.231          31.937    22054787.060    90310665.317 6       702.231          37.000
G21  20907291.000   109868555.681 8      1779.791          48.125    20907289.580   109868555.678 6      1779.791          39.125    20907293.280    85611872.075 6      1386.850          39.375
> 2024 05 08 13 50 27.0000000  0 14
R07  23529452.380   125954995.324 6      6335.317          37.500    23529448.660   125954995.317 6      6335.317          37.062    23529474.800    97965094.338 7      4927.469          45.375    23529475.040    97965094.338 7      4927.469          45.687
G16  23212616.820   121983126.631 7      -892.966          42.375    23212615.000   121983126.646 4      -892.966          29.062    23212630.200    95051835.632 4      -695.817          29.500
R12  21945477.960   117228805.884 7      4737.976          44.250    21945478.880   117228805.887 7      4737.976          43.500    21945490.540    91178004.834 7      3685.093          43.187    21945490.440    91178007.843 7      3685.093          43.750
R05  23234585.920   124202175.177 6      1087.386          40.937    23234586.000   124202175.213 6      1087.386          40.312    23234599.340    96601750.057 7       845.745          43.937    23234600.020    96601752.057 7       845.745          44.062
R10  23127789.100   123284132.747 6     -1825.782          39.625    23127787.640   123284132.745 6     -1825.782          38.187
R11  20305439.840   108506114.565 8       470.201          50.375    20305439.540   108506114.572 8       470.201          49.375    20305449.640    84393680.469 8       365.712          50.562    20305449.700    84393682.467 8       365.712          50.750
R21  20962391.180   112173989.560 7      1657.589          44.250    20962390.780   112173989.569 7      1657.589          43.750    20962400.140    87246483.655 7      1289.236          43.062    20962401.540    87246483.659 7      1289.236          42.750
G10  23662039.000   124344852.819 7      -228.851          44.312    23662037.240   124344852.821 6      -228.851          40.187    23662048.540    96892134.425 6      -178.325          40.375    23662047.980    96892134.419 7      -178.325          43.562
G03  23487026.860   123425149.408 7      6164.119          44.875    23487026.760   123425149.418 5      6164.119          32.062    23487044.960    96175508.093 5      4803.209          31.937    23487045.940    96175525.113 7      4803.209          45.250
R22  21731024.160   116001700.252 6      3545.917          39.750    21731026.860   116001700.272 6      3545.917          39.750    21731040.180    90223578.812 5      2757.935          35.875    21731041.880    90223580.824 6      2757.935          36.187
G08  20829028.900   109457289.545 7      2600.076          47.750    20829027.220   109457289.552 7      2600.076          47.187    20829034.960    85291417.191 7      2026.033          47.625    20829036.080    85291435.194 8      2026.033          49.687
G02  21622248.680   113625686.543 7      2771.965          44.000    21622246.940   113625686.548 5      2771.965          34.250    21622250.780    88539500.876 5      2159.973          33.812
G27  22054606.760   115897741.405 6       900.891          41.312    22054606.340   115897741.415 5       900.891          31.750    22054615.160    90309959.290 5       701.993          32.062    22054616.280    90309963.252 6       701.993          37.000
G21  20906952.420   109866776.002 8      1779.514          48.562    20906950.860   109866776.002 6      1779.514          39.812    20906954.700    85610485.310 6      1386.634          39.875
> 2024 05 08 13 50 28.0000000  0 14
R07  23528268.380   125948659.808 6      6335.677          37.500    23528264.960   125948659.810 6      6335.677          37.062    23528291.000    97960166.730 7      4927.749          45.062    23528291.380    97960166.732 7      4927.749          45.125
G16  23212786.780   121984019.611 7      -893.091          42.437    23212785.000   121984019.629 4      -893.091          29.062    23212800.240    95052531.446 4      -695.915          29.500
R12  21944591.300   117224068.113 7      4737.478          44.125    21944592.040   117224068.120 7      4737.478          43.250    21944603.500    91174319.904 7      3684.705          43.562    21944603.520    91174322.912 7      3684.705          44.562
R05  23234382.480   124201088.002 6      1086.670          40.187    23234382.780   124201088.041 6      1086.670          40.312    23234395.840    96600904.475 7       845.188          43.312    23234396.920    96600906.475 7       845.188          43.125
R10  23128130.700   123285958.294 6     -1825.589          39.000    23128130.000   123285958.300 6     -1825.589          38.187
R11  20305352.180   108505644.646 8       469.584          50.000    20305351.780   108505644.652 8       469.584          49.125    20305361.660    84393314.974 8       365.232          50.875    20305361.680    84393316.974 8       365.232          50.875
R21  20962081.400   112172331.934 7      1657.613          44.250    20962080.580   112172331.954 7      1657.613          44.062    20962090.460    87245194.398 7      1289.255          43.250    20962091.380    87245194.395 7      1289.255          42.750
G10  23662082.540   124345081.805 7      -229.096          44.000    23662080.940   124345081.812 6      -229.096          40.125    23662092.080    96892312.853 6      -178.516          40.562    23662092.280    96892312.845 7      -178.516          43.562
G03  23485853.840   123418985.335 7      6164.015          43.937    23485853.680   123418985.348 5      6164.015          32.062    23485871.960    96170704.927 5      4803.128          31.937    23485872.580    96170721.948 7      4803.128          45.375
R22  21730360.520   115998154.476 6      3545.791          40.062    21730362.200   115998154.479 6      3545.791          39.750    21730375.940    90220820.962 5      2757.838          35.875    21730377.360    90220822.977 6      2757.838          36.187
G08  20828534.220   109454689.545 7      2599.865          47.562    20828532.440   109454689.552 7      2599.865          47.562    20828540.240    85289391.215 7      2025.869          47.500    20828541.240    85289409.220 8      2025.869          49.500
G02  21621721.520   113622914.567 7      2771.796          43.875    21621719.380   113622914.567 5      2771.796          33.937    21621723.280    88537340.893 5      2159.841          33.812
G27  22054435.420   115896840.579 7       900.783          42.062    22054434.840   115896840.589 5       900.783          31.750    22054443.900    90309257.339 5       701.909          32.062    22054446.140    90309261.297 6       701.909          37.000
G21  20906614.040   109864996.498 8      1779.400          48.500    20906612.260   109864996.497 6      1779.400          39.375    20906616.000    85609098.689 6      1386.545          39.500
> 2024 05 08 13 50 29.0000000  0 14
R07  23527084.720   125942324.266 6      6335.577          37.500    23527081.860   125942324.257 6      6335.577          36.000    23527107.400    97955239.082 7      4927.671          45.000    23527108.140    97955239.086 7      4927.671          45.500
G16  23212956.900   121984912.767 7      -893.136          43.125    23212955.120   121984912.785 4      -893.136          29.062    23212970.300    95053227.396 4      -695.950          29.500
R12  21943704.880   117219331.032 7      4736.843          44.125    21943705.320   117219331.041 7      4736.843          43.687    21943717.100    91170635.507 7      3684.211          43.312    21943716.720    91170638.518 7      3684.211          43.812
R05  23234179.120   124200001.480 6      1086.269          40.187    23234179.820   124200001.516 6      1086.269          40.250    23234192.560    96600059.408 7       844.876          43.687    23234193.460    96600061.412 7       844.876          43.875
R10  23128473.540   123287783.897 6     -1825.626          39.000    23128472.640   123287783.898 6     -1825.626          38.187
R11  20305264.260   108505175.445 8       468.930          50.312    20305264.080   108505175.454 8       468.930          49.687    20305273.960    84392950.036 8       364.723          50.312    20305273.760    84392952.038 8       364.723          50.437
R21  20961771.560   112170674.321 7      1657.664          44.312    20961770.940   112170674.339 7      1657.664          44.187    20961780.860    87243905.136 7      1289.294          43.125    20961781.880    87243905.136 7      1289.294          42.562
G10  23662126.260   124345311.129 7      -229.370          45.062    23662124.740   124345311.134 6      -229.370          39.875    23662135.680    96892491.539 6      -178.730          39.812    23662135.660    96892491.535 7      -178.730          43.687
G03  23484680.960   123412821.349 7      6164.060          44.687    23484680.540   123412821.362 5      6164.060          32.062    23484699.060    96165901.830 5      4803.164          32.187    23484699.880    96165918.846 7      4803.164          45.625
R22  21729696.360   115994608.808 6      3545.707          40.062    21729698.260   115994608.806 6      3545.707          39.750    21729711.600    90218063.227 5      2757.772          35.875    21729712.620    90218065.204 6      2757.772          36.187
G08  20828039.380   109452089.750 7      2599.734          46.437    20828037.740   109452089.758 7      2599.734          47.937    20828045.500    85287365.403 7      2025.767          47.750    20828046.500    85287383.410 8      2025.767          49.562
G02  21621193.680   113620142.775 7      2771.730          43.750    21621192.000   113620142.777 5      2771.730          33.937    21621195.860    88535181.053 5      2159.789          33.500
G27  22054264.020   115895939.960 6       900.634          41.125    22054263.440   115895939.971 5       900.634          32.062    22054272.740    90308555.548 5       701.793          32.062    22054273.480    90308559.504 6       701.793          36.562
G21  20906275.480   109863217.216 8      1779.198          48.937    20906273.640   109863217.216 6      1779.198          39.500    20906277.480    85607712.234 6      1386.388          39.625
> 2024 05 08 13 50 30.0000000  0 14
R07  23525901.400   125935988.820 6      6335.465          37.500    23525897.580   125935988.808 6      6335.465          36.000    23525924.160    97950311.515 7      4927.584          44.937    23525924.600    97950311.517 7      4927.584          45.375
G16  23213126.820   121985806.363 7      -893.607          43.625    23213125.240   121985806.383 4      -893.607          29.062    23213140.360    95053923.687 4      -696.317          29.187
R12  21942818.080   117214594.886 7      4735.901          43.187    21942818.900   117214594.895 7      4735.901          43.687    21942830.520    91166951.838 7      3683.479          43.375    21942830.020    91166954.843 7      3683.479          44.250
R05  23233975.700   124198915.936 6      1085.147          39.812    23233976.180   124198915.969 6      1085.147          40.250    23233989.340    96599215.106 7       844.003          43.937    23233990.760    96599217.106 7       844.003          43.625
R10  23128815.700   123289609.756 6     -1825.943          39.000    23128815.420   123289609.757 6     -1825.943          38.187
R11  20305176.660   108504707.212 8       467.988          50.437    20305176.420   108504707.218 8       467.988          49.375    20305186.340    84392585.848 8       363.990          50.812    20305186.040    84392587.848 8       363.990          50.500
R21  20961462.120   112169016.974 7      1657.382          44.812    20961461.080   112169016.989 7      1657.382          44.250    20961471.040    87242616.090 7      1289.075          43.062    20961471.780    87242616.094 7      1289.075          42.187
G10  23662169.820   124345540.984 7      -229.970          44.312    23662168.540   124345540.994 6      -229.970          40.375    23662179.400    96892670.647 6      -179.198          40.375    23662179.500    96892670.645 7      -179.198          43.312
G03  23483508.340   123406657.724 7      6163.674          44.562    23483507.600   123406657.734 5      6163.674          32.000    23483526.040    96161099.013 5      4802.863          32.187    23483526.960    96161116.031 7      4802.863          45.312
R22  21729032.440   115991063.445 6      3545.465          40.062    21729033.660   115991063.443 6      3545.465          39.750    21729046.760    90215305.727 5      2757.584          35.875    21729048.680    90215307.704 6      2757.584          36.187
G08  20827544.660   109449490.394 7      2599.320          46.500    20827543.020   109449490.404 7      2599.320          47.625    20827550.700    85285339.929 7      2025.444          47.625    20827551.780    85285357.934 8      2025.444          49.500
G02  21620666.440   113617371.440 7      2771.325          44.562    21620664.680   113617371.440 5      2771.325          33.875    21620668.520    88533021.571 5      2159.474          33.500
G27  22054092.980   115895039.765 6       900.154          41.125    22054091.980   115895039.773 5       900.154          32.062    22054101.240    90307854.091 5       701.419          32.187    22054102.060    90307858.039 6       701.419          36.562
G21  20905936.820   109861438.368 7      1778.801          47.875    20905935.200   109861438.370 6      1778.801          39.687    20905938.980    85606326.119 6      1386.078          40.062
> 2024 05 08 13 50 31.0000000  0 14
R07  23524717.900   125929653.345 6      6335.605          37.500    23524715.060   125929653.331 6      6335.605          36.000    23524740.280    97945383.910 7      4927.693          45.125    23524740.920    97945383.913 7      4927.693          44.937
G16  23213296.920   121986700.202 7      -893.899          42.937    23213295.340   121986700.223 4      -893.899          29.437    23213310.520    95054620.167 4      -696.545          29.187
R12  21941931.160   117209859.456 7      4735.096          43.500    21941932.260   117209859.470 7      4735.096          43.875    21941943.920    91163268.730 7      3682.853          43.500    21941943.740    91163271.741 7      3682.853          44.562
R05  23233773.400   124197831.100 6      1084.624          39.812    23233773.520   124197831.136 6      1084.624          40.250    23233786.320    96598371.343 7       843.596          43.625    23233787.340    96598373.347 7       843.596          43.625
R10  23129158.340   123291435.666 6     -1826.011          39.000    23129157.460   123291435.648 6     -1826.011          37.625
R11  20305089.320   108504239.774 8       467.167          50.250    20305089.180   108504239.784 8       467.167          49.625    20305098.920    84392222.274 8       363.352          50.437    20305098.600    84392224.271 8       363.352          50.625
R21  20961152.480   112167359.720 7      1657.243          43.187    20961151.780   112167359.732 7      1657.243          44.125    20961161.500    87241327.111 7      1288.966          43.187    20961162.320    87241327.115 7      1288.966          42.250
G10  23662213.620   124345771.205 7      -230.352          44.125    23662212.340   124345771.220 6      -230.352          40.187    23662223.340    96892850.042 6      -179.495          40.562    23662223.340    96892850.042 7      -179.495          43.312
G03  23482335.560   123400494.263 7      6163.473          44.750    23482334.860   123400494.268 5      6163.473          32.000    23482353.340    96156296.322 5      4802.706          32.312    23482354.620    96156313.343 7      4802.706          45.875
R22  21728368.160   115987518.290 6      3545.151          39.687    21728369.280   115987518.285 6      3545.151          39.750    21728382.760    90212548.361 5      2757.339          35.875    21728385.000    90212550.359 6      2757.339          36.187
G08  20827050.320   109446891.324 7      2599.019          47.250    20827048.500   109446891.335 7      2599.019          47.625    20827056.240    85283314.680 7      2025.209          47.187    20827057.380    85283332.685 8      2025.209          49.812
G02  21620138.960   113614600.373 7      2771.028          44.500    21620137.420   113614600.378 5      2771.028          34.000    21620141.220    88530862.298 5      2159.243          33.875
G27  22053921.620   115894139.824 6       899.946          41.437    22053920.680   115894139.832 5       899.946          32.062    22053930.160    90307152.835 5       701.257          32.187    22053931.560    90307156.788 6       701.257          36.562
G21  20905598.240   109859659.786 8      1778.602          49.062    20905596.640   109859659.788 6      1778.602          38.937    20905600.520    85604940.210 6      1385.923          39.625
> 2024 05 08 13 50 32.0000000  0 14
R07  23523533.600   125923317.677 6      6335.644          38.187    23523529.440   125923317.692 6      6335.644          36.000    23523557.120    97940456.210 7      4927.723          44.500    23523557.380    97940456.213 7      4927.723          44.875
G16  23213467.080   121987594.162 7      -893.883          42.437    23213465.520   121987594.180 4      -893.883          29.437    23213480.620    95055316.741 4      -696.532          29.187
R12  21941044.720   117205124.645 7      4734.665          43.625    21941046.240   117205124.654 7      4734.665          43.625    21941057.640    91159586.091 7      3682.517          43.500    21941057.620    91159589.097 7      3682.517          43.937
R05  23233570.540   124196746.948 6      1083.968          39.812    23233571.140   124196746.984 6      1083.968          40.000    23233583.700    96597528.109 7       843.086          43.625    23233584.580    96597530.112 7       843.086          43.875
R10  23129500.420   123293261.538 6     -1825.860          38.812    23129499.740   123293261.531 6     -1825.860          37.625
R11  20305002.180   108503772.989 8       466.561          50.937    20305001.800   108503772.993 8       466.561          49.750    20305011.460    84391859.208 8       362.881          50.250    20305011.280    84391861.206 8       362.881          50.250
R21  20960842.900   112165702.372 7      1657.467          44.437    20960841.940   112165702.379 7      1657.467          44.125    20960851.720    87240038.058 7      1289.141          43.000    20960852.640    87240038.059 7      1289.141          42.375
G10  23662257.380   124346001.706 7      -230.549          45.187    23662256.120   124346001.719 6      -230.549          39.875    23662267.140    96893029.653 6      -179.648          39.812    23662267.220    96893029.643 7      -179.648          43.312
G03  23481162.620   123394330.824 7      6163.619          45.062    23481162.040   123394330.829 5      6163.619          32.562    23481180.500    96151493.651 5      4802.820          32.312    23481181.540    96151510.663 7      4802.820          45.500
R22  21727704.660   115983973.196 6      3545.075          39.687    21727706.320   115983973.178 6      3545.075          40.062    21727718.680    90209791.051 5      2757.280          32.937    21727720.660    90209793.031 5      2757.280          33.562
G08  20826555.620   109444292.407 7      2598.938          47.312    20826553.960   109444292.415 7      2598.938          47.687    20826561.680    85281289.545 7      2025.146          47.437    20826562.460    85281307.551 8      2025.146          48.937
G02  21619611.820   113611829.485 7      2770.906          44.062    21619610.140   113611829.490 5      2770.906          34.000    21619614.040    88528703.167 5      2159.147          33.875
G27  22053750.160   115893240.039 6       899.720          41.625    22053749.440   115893240.049 5       899.720          31.937    22053759.100    90306451.701 5       701.080          32.187    22053759.740    90306455.661 6       701.080          36.562
G21  20905259.960   109857881.374 8      1778.483          49.125    20905258.340   109857881.374 6      1778.483          39.250    20905262.120    85603554.433 6      1385.831          39.750
> 2024 05 08 13 50 33.0000000  0 14
R07  23522349.940   125916982.036 6      6335.551          38.187    23522346.400   125916982.035 6      6335.551          36.000    23522373.940    97935528.479 7      4927.651          45.312    23522373.780    97935528.481 7      4927.651          45.500
G16  23213637.200   121988488.422 7      -894.352          43.062    23213635.660   121988488.438 4      -894.352          29.437    23213650.880    95056013.545 4      -696.897          29.187
R12  21940158.620   117200390.662 7      4733.482          43.937    21940160.140   117200390.666 7      4733.482          43.875    21940171.500    91155904.106 7      3681.597          43.750    21940171.220    91155907.109 7      3681.597          44.250
R05  23233367.760   124195663.628 6      1082.923          40.375    23233368.600   124195663.648 6      1082.923          40.000    23233381.480    96596685.521 7       842.274          44.000    23233382.040    96596687.519 7       842.274          43.750
R10  23129843.240   123295087.568 6     -1826.238          38.812    23129842.680   123295087.563 6     -1826.238          37.625
R11  20304914.860   108503307.030 8       465.376          50.250    20304914.620   108503307.036 8       465.376          49.437    20304924.240    84391496.805 8       361.959          50.187    20304923.960    84391498.805 8       361.959          50.875
R21  20960532.740   112164045.145 7      1657.049          43.937    20960532.060   112164045.152 7      1657.049          44.000    20960542.500    87238749.104 7      1288.816          43.250    20960543.200    87238749.104 7      1288.816          42.125
G10  23662301.580   124346232.642 7      -231.212          44.625    23662300.200   124346232.649 6      -231.212          39.250    23662311.380    96893209.593 6      -180.165          39.562    23662311.280    96893209.587 7      -180.165          43.187
G03  23479989.780   123388167.655 7      6162.995          44.812    23479989.400   123388167.655 5      6162.995          32.562    23480007.700    96146691.190 5      4802.334          32.312    23480008.660    96146708.208 7      4802.334          45.187
R22  21727040.380   115980428.316 6      3544.535          40.250    21727041.840   115980428.306 6      3544.535          40.062    21727053.980    90207033.945 5      2756.861          32.937    21727055.980    90207035.926 5      2756.861          33.562
G08  20826061.060   109441693.842 7      2598.271          47.375    20826059.580   109441693.850 7      2598.271          47.437    20826067.120    85279264.685 7      2024.626          47.375    20826068.180    85279282.686 8      2024.626          49.625
G02  21619084.760   113609058.920 7      2770.396          44.125    21619082.980   113609058.919 5      2770.396          33.625    21619086.680    88526544.281 5      2158.750          33.375
G27  22053579.340   115892340.553 6       899.348          41.062    22053578.180   115892340.563 5       899.348          31.937    22053588.160    90305750.797 5       700.791          32.187    22053587.500    90305754.757 6       700.791          36.562
G21  20904921.380   109856103.309 8      1777.783          48.937    20904919.940   109856103.311 6      1777.783          39.437    20904923.700    85602168.926 6      1385.286          39.562
> 2024 05 08 13 50 34.0000000  0 14
R07  23521166.500   125910646.264 6      6335.632          38.187    23521162.600   125910646.279 6      6335.632          36.000    23521190.240    97930600.656 7      4927.714          45.375    23521190.200    97930600.658 7      4927.714          45.875
G16  23213807.480   121989382.850 7      -894.535          42.812    23213805.900   121989382.863 4      -894.535          29.437    23213821.360    95056710.483 4      -697.040          29.250
R12  21939272.700   117195657.291 7      4732.999          43.250    21939274.180   117195657.300 7      4732.999          43.687    21939285.600    91152222.593 7      3681.222          44.062    21939285.240    91152225.600 7      3681.222          44.000
R05  23233164.760   124194580.973 6      1082.213          40.375    23233166.840   124194580.995 6      1082.213          40.312    23233178.900    96595843.456 7       841.722          44.437    23233179.160    96595845.462 7       841.722          44.125
R10  23130186.680   123296913.557 6     -1826.119          38.812    23130185.820   123296913.563 6     -1826.119          37.625
R11  20304827.640   108502841.751 8       464.867          50.812    20304827.340   108502841.763 8       464.867          49.625    20304837.240    84391134.905 8       361.563          50.437    20304836.840    84391136.905 8       361.563          50.750
R21  20960223.300   112162387.873 7      1657.225          44.375    20960222.320   112162387.885 7      1657.225          43.687    20960232.480    87237460.114 7      1288.952          42.750    20960233.480    87237460.114 7      1288.952          42.500
G10  23662345.500   124346463.871 7      -231.492          44.625    23662344.280   124346463.878 6      -231.492          40.000    23662355.240    96893389.765 6      -180.384          39.937    23662355.040    96893389.751 7      -180.384          43.187
G03  23478817.080   123382004.531 7      6162.939          44.812    23478816.400   123382004.542 5      6162.939          32.562    23478834.840    96141888.768 5      4802.290          32.250    23478836.120    96141905.790 7      4802.290          45.125
R22  21726376.600   115976883.457 6      3544.689          40.250    21726377.600   115976883.472 6      3544.689          40.312    21726389.400    90204276.843 5      2756.981          32.937    21726392.020    90204278.839 5      2756.981          33.562
G08  20825566.720   109439095.437 7      2598.250          47.500    20825564.960   109439095.442 7      2598.250          47.500    20825572.720    85277239.952 7      2024.610          47.312    20825573.700    85277257.957 8      2024.610          49.500
G02  21618557.740   113606288.552 7      2770.049          44.187    21618556.020   113606288.551 5      2770.049          33.625    21618559.440    88524385.554 5      2158.480          33.375
G27  22053407.900   115891441.248 6       899.149          41.000    22053407.040   115891441.258 5       899.149          31.875    22053417.200    90305050.034 5       700.636          32.187    22053416.200    90305053.991 6       700.636          36.875
G21  20904582.900   109854325.397 8      1777.725          49.437    20904581.680   109854325.396 6      1777.725          39.187    20904585.320    85600783.537 6      1385.240          39.312
> 2024 05 08 13 50 35.0000000  0 14
R07  23519982.480   125904310.628 6      6335.742          38.187    23519978.900   125904310.632 6      6335.742          36.000    23520006.780    97925672.933 7      4927.800          45.562    23520006.760    97925672.935 7      4927.800          45.750
G16  23213977.440   121990277.694 7      -894.852          42.687    23213976.160   121990277.709 4      -894.852          29.437    23213991.480    95057407.749 4      -697.287          29.250
R12  21938386.820   117190924.860 7      4732.172          43.937    21938388.280   117190924.864 7      4732.172          43.625    21938399.600    91148541.814 7      3680.579          43.875    21938399.080    91148544.818 7      3680.579          43.625
R05  23232962.140   124193499.280 6      1081.373          40.375    23232964.240   124193499.308 6      1081.373          40.312    23232976.460    96595002.139 7       841.068          43.937    23232977.060    96595004.148 7       841.068          44.375
R10  23130529.160   123298739.829 6     -1826.226          38.875    23130527.940   123298739.824 6     -1826.226          37.625
R11  20304740.860   108502377.464 8       463.953          50.437    20304740.460   108502377.471 8       463.953          49.625    20304750.500    84390773.791 8       360.852          50.250    20304750.100    84390775.791 8       360.852          50.937
R21  20959913.740   112160730.894 7      1657.070          44.500    20959912.760   112160730.907 7      1657.070          43.937    20959922.840    87236171.357 7      1288.832          42.937    20959923.520    87236171.358 7      1288.832          42.437
G10  23662389.760   124346695.642 7      -232.000          44.437    23662388.480   124346695.647 6      -232.000          39.687    23662399.200    96893570.364 6      -180.779          39.875    23662399.580    96893570.364 7      -180.779          43.250
G03  23477644.360   123375841.736 7      6162.927          45.562    23477643.840   123375841.746 5      6162.927          32.250    23477662.060    96137086.598 5      4802.280          32.250    23477663.000    96137103.618 7      4802.280          45.500
R22  21725712.440   115973338.975 6      3544.535          40.312    21725713.960   115973338.986 6      3544.535          40.312    21725725.920    90201520.030 5      2756.860          32.937    21725728.260    90201522.036 5      2756.860          33.562
G08  20825072.040   109436497.482 7      2597.963          47.000    20825070.680   109436497.487 7      2597.963          47.375    20825078.280    85275215.569 7      2024.387          47.187    20825079.500    85275233.572 8      2024.387          49.812
G02  21618030.540   113603518.588 7      2769.937          44.437    21618028.860   113603518.588 5      2769.937          33.875    21618032.400    88522227.139 5      2158.393          34.000
G27  22053236.640   115890542.393 6       898.717          41.187    22053236.060   115890542.403 5       898.717          31.875    22053246.180    90304349.621 5       700.299          32.187    22053246.300    90304353.578 6       700.299          36.875
G21  20904244.800   109852547.936 8      1777.427          49.437    20904243.380   109852547.938 6      1777.427          39.437    20904247.240    85599398.503 6      1385.008          39.500
> 2024 05 08 13 50 36.0000000  0 14
R07  23518798.600   125897974.877 6      6335.506          38.187    23518795.500   125897974.889 6      6335.506          36.000    23518823.340    97920745.131 7      4927.616          45.312    23518823.060    97920745.131 7      4927.616          45.875
G16  23214147.940   121991172.755 7      -895.343          42.687    23214146.560   121991172.770 4      -895.343          29.437    23214161.880    95058105.179 4      -697.670          29.250
R12  21937500.940   117186193.113 7      4731.253          43.937    21937502.280   117186193.122 7      4731.253          43.375    21937513.840    91144861.568 7      3679.864          43.375    21937513.180    91144864.575 7      3679.864          43.875
R05  23232760.340   124192418.333 6      1080.358          39.937    23232761.680   124192418.363 6      1080.358          40.312    23232774.580    96594161.409 7       840.278          43.687    23232774.860    96594163.424 7       840.278          44.250
R10  23130872.060   123300566.091 6     -1826.307          38.875    23130869.780   123300566.105 6     -1826.307          37.500
R11  20304654.100   108501913.912 8       463.024          51.000    20304653.540   108501913.918 8       463.024          49.062    20304663.760    84390413.244 8       360.130          50.625    20304663.360    84390415.240 8       360.130          51.187
R21  20959603.920   112159073.991 7      1656.778          43.125    20959603.000   112159073.995 7      1656.778          44.125    20959613.160    87234882.646 7      1288.605          42.875    20959614.000    87234882.643 7      1288.605          42.375
G10  23662433.660   124346927.707 7      -232.296          45.250    23662432.640   124346927.719 6      -232.296          40.312    23662443.260    96893751.196 6      -181.010          40.437    23662443.540    96893751.184 7      -181.010          43.375
G03  23476471.620   123369679.074 7      6162.616          45.375    23476471.220   123369679.079 5      6162.616          32.250    23476489.400    96132284.534 5      4802.038          32.250    23476490.440    96132301.554 7      4802.038          45.562
R22  21725048.340   115969794.674 6      3543.875          40.312    21725050.180   115969794.694 6      3543.875          40.375    21725062.300    90198763.345 5      2756.347          32.937    21725064.780    90198765.343 5      2756.347          33.562
G08  20824577.780   109433899.765 7      2597.505          47.750    20824576.500   109433899.770 7      2597.505          47.437    20824583.960    85273191.373 7      2024.030          47.812    20824585.300    85273209.376 8      2024.030          49.750
G02  21617503.300   113600748.877 7      2769.474          44.875    21617501.680   113600748.877 5      2769.474          33.875    21617505.460    88520068.929 5      2158.032          34.000
G27  22053066.000   115889643.711 6       898.542          40.437    22053064.880   115889643.716 5       898.542          31.875    22053075.260    90303649.339 5       700.163          31.875    22053075.800    90303653.299 6       700.163          36.875
G21  20903906.560   109850770.720 8      1776.926          49.125    20903905.140   109850770.717 6      1776.926          39.187    20903909.040    85598013.653 6      1384.617          39.250
> 2024 05 08 13 50 37.0000000  0 14
R07  23517614.860   125891639.072 6      6335.726          38.187    23517612.620   125891639.071 5      6335.726          35.500    23517639.600    97915817.281 7      4927.787          45.312    23517639.640    97915817.283 7      4927.787          46.312
G16  23214318.480   121992068.050 7      -895.520          42.187    23214316.820   121992068.068 4      -895.520          29.437    23214332.260    95058802.795 4      -697.808          29.250
R12  21936615.200   117181462.111 7      4730.574          42.937    21936616.640   117181462.131 7      4730.574          43.375    21936628.400    91141181.904 7      3679.336          43.812    21936627.680    91141184.913 7      3679.336          44.312
R05  23232557.980   124191338.201 6      1079.671          39.937    23232559.140   124191338.218 6      1079.671          40.187    23232572.840    96593321.294 7       839.744          44.000    23232572.800    96593323.304 7       839.744          44.375
R10  23131214.500   123302392.493 6     -1826.412          38.875    23131212.480   123302392.494 6     -1826.412          37.500
R11  20304567.120   108501451.156 8       462.235          50.250    20304567.040   108501451.162 8       462.235          49.562    20304577.120    84390053.308 8       359.516          50.500    20304576.880    84390055.306 8       359.516          51.000
R21  20959294.540   112157417.141 7      1656.779          43.125    20959293.280   112157417.153 7      1656.779          43.937    20959303.560    87233593.988 7      1288.606          43.312    20959304.360    87233593.990 7      1288.606          42.625
G10  23662478.220   124347160.208 7      -232.703          44.000    23662477.040   124347160.215 6      -232.703          40.125    23662487.480    96893932.355 6      -181.327          39.937    23662487.760    96893932.345 7      -181.327          43.375
G03  23475299.060   123363516.636 7      6162.209          44.937    23475298.480   123363516.644 5      6162.209          32.250    23475316.720    96127482.642 5      4801.722          32.625    23475317.880    96127499.658 7      4801.722          45.562
R22  21724384.340   115966250.490 6      3544.039          40.812    21724386.100   115966250.505 6      3544.039          40.375    21724399.000    90196006.762 5      2756.475          32.937    21724401.200    90196008.772 5      2756.475          33.562
G08  20824083.520   109431302.348 7      2597.218          47.812    20824082.280   109431302.353 7      2597.218          47.812    20824089.580    85271167.407 7      2023.806          47.937    20824090.760    85271185.410 8      2023.806          49.437
G02  21616976.560   113597979.437 7      2769.242          44.062    21616974.700   113597979.444 5      2769.242          33.750    21616978.540    88517910.932 5      2157.851          33.375
G27  22052895.040   115888745.331 6       898.245          41.250    22052893.760   115888745.344 5       898.245          31.687    22052904.320    90302949.300 5       699.931          31.875    22052904.480    90302953.266 6       699.931          36.875
G21  20903568.360   109848993.761 8      1776.747          48.437    20903567.060   109848993.761 6      1776.747          39.187    20903571.040    85596629.014 6      1384.478          39.562
> 2024 05 08 13 50 38.0000000  0 14
R07  23516430.940   125885303.252 6      6335.899          36.812    23516427.680   125885303.264 5      6335.899          35.500    23516456.180    97910889.423 7      4927.922          45.375    23516456.120    97910889.429 7      4927.922          45.812
G16  23214488.920   121992963.650 7      -895.739          42.062    23214487.280   121992963.668 4      -895.739          29.437    23214502.660    95059500.651 4      -697.978          29.375
R12  21935729.620   117176731.891 7      4729.883          43.875    21935731.260   117176731.909 7      4729.883          43.687    21935742.840    91137502.838 7      3678.798          43.687    21935742.300    91137505.849 7      3678.798          44.250
R05  23232355.840   124190258.844 6      1079.013          39.937    23232357.220   124190258.867 6      1079.013          40.187    23232370.620    96592481.808 7       839.232          43.875    23232371.160    96592483.811 7       839.232          44.250
R10  23131556.800   123304219.013 6     -1826.452          38.875    23131554.640   123304219.001 6     -1826.452          37.500
R11  20304481.100   108500989.185 8       461.682          50.437    20304480.480   108500989.189 8       461.682          49.437    20304490.660    84389693.994 8       359.086          50.437    20304490.420    84389695.987 8       359.086          50.750
R21  20958984.820   112155760.417 7      1656.745          43.250    20958983.660   112155760.424 7      1656.745          43.937    20958994.620    87232305.418 7      1288.580          43.312    20958994.880    87232305.418 7      1288.580          42.875
G10  23662522.480   124347393.093 7      -232.870          45.250    23662521.340   124347393.105 6      -232.870          39.812    23662531.860    96894113.824 6      -181.457          39.937    23662532.080    96894113.814 7      -181.457          43.312
G03  23474126.340   123357354.342 7      6162.291          45.437    23474125.920   123357354.350 5      6162.291          32.437    23474144.100    96122680.867 5      4801.785          32.625    23474145.160    96122697.896 7      4801.785          45.500
R22  21723720.240   115962706.542 6      3544.055          40.812    21723722.360   115962706.540 6      3544.055          40.375    21723735.840    90193250.360 5      2756.487          32.937    21723737.420    90193252.358 5      2756.487          33.562
G08  20823589.380   109428705.226 7      2597.027          47.875    20823588.060   109428705.233 7      2597.027          47.312    20823595.500    85269143.677 7      2023.657          47.062    20823596.540    85269161.679 8      2023.657          49.375
G02  21616449.760   113595210.317 7      2769.182          44.187    21616447.740   113595210.319 5      2769.182          33.750    21616451.680    88515753.172 5      2157.804          34.000
G27  22052724.520   115887847.253 6       897.970          40.687    22052722.760   115887847.266 5       897.970          31.687    22052733.520    90302249.493 5       699.717          31.875    22052734.180    90302253.457 6       699.717          36.875
G21  20903230.240   109847217.120 8      1776.603          48.687    20903228.880   109847217.120 6      1776.603          39.437    20903232.720    85595244.615 6      1384.366          39.500
> 2024 05 08 13 50 39.0000000  0 14
R07  23515247.280   125878967.375 6      6335.833          36.812    23515244.540   125878967.369 5      6335.833          35.500    23515272.800    97905961.506 7      4927.870          45.437    23515272.620    97905961.511 7      4927.870          45.937
G16  23214659.160   121993859.429 7      -895.945          42.937    23214657.660   121993859.449 4      -895.945          29.437    23214672.920    95060198.642 4      -698.139          29.375
R12  21934844.360   117172002.404 7      4728.926          43.312    21934845.800   117172002.413 7      4728.926          43.062    21934857.620    91133824.350 7      3678.053          43.625    21934857.040    91133827.356 7      3678.053          45.000
R05  23232154.620   124189180.233 6      1078.167          40.250    23232155.380   124189180.250 6      1078.167          40.187    23232168.900    96591642.880 7       838.574          44.687    23232169.120    96591644.887 7       838.574          44.000
R10  23131900.260   123306045.525 6     -1826.559          38.312    23131897.660   123306045.518 6     -1826.559          37.500
R11  20304394.280   108500527.997 8       460.666          49.437    20304394.360   108500527.998 8       460.666          49.062    20304404.220    84389335.282 8       358.296          50.625    20304404.240    84389337.275 8       358.296          51.562
R21  20958675.440   112154103.682 7      1656.708          43.750    20958674.000   112154103.689 7      1656.708          43.750    20958684.820    87231016.847 7      1288.551          43.062    20958685.200    87231016.851 7      1288.551          43.062
G10  23662566.680   124347626.358 7      -233.462          44.875    23662565.880   124347626.366 6      -233.462          40.250    23662576.260    96894295.585 6      -181.918          40.500    23662576.380    96894295.573 7      -181.918          43.187
G03  23472953.460   123351192.222 7      6161.912          45.250    23472953.460   123351192.232 5      6161.912          32.437    23472971.500    96117879.229 5      4801.490          32.687    23472972.960    96117896.250 7      4801.490          45.437
R22  21723056.260   115959162.735 6      3543.639          40.625    21723058.100   115959162.738 6      3543.639          40.437    21723071.340    90190494.044 5      2756.163          32.937    21723073.600    90190496.036 5      2756.163          33.562
G08  20823095.280   109426108.345 7      2596.687          47.187    20823093.880   109426108.350 7      2596.687          47.500    20823101.340    85267120.132 7      2023.393          47.187    20823102.440    85267138.131 8      2023.393          49.625
G02  21615922.680   113592441.441 7      2768.733          44.187    21615921.040   113592441.449 5      2768.733          34.125    21615924.780    88513595.608 5      2157.454          34.000
G27  22052553.340   115886949.378 6       897.737          40.750    22052551.940   115886949.393 5       897.737          32.125    22052562.640    90301549.846 5       699.535          32.312    22052562.720    90301553.820 6       699.535          37.562
G21  20902892.240   109845440.721 8      1776.175          48.125    20902890.820   109845440.723 6      1776.175          38.750    20902894.760    85593860.412 6      1384.033          39.000
> 2024 05 08 13 50 40.0000000  0 14
R07  23514064.260   125872631.595 6      6335.445          36.812    23514060.200   125872631.621 5      6335.445          35.500    23514088.920    97901033.710 7      4927.569          45.625    23514089.180    97901033.719 7      4927.569          45.687
G16  23214829.860   121994755.698 7      -896.627          42.187    23214828.260   121994755.719 4      -896.627          29.125    23214843.540    95060897.016 4      -698.670          29.375
R12  21933959.120   117167273.854 7      4727.938          43.750    21933960.820   117167273.871 7      4727.938          42.875    21933972.120    91130146.589 7      3677.285          43.625    21933971.880    91130149.593 7      3677.285          44.625
R05  23231952.860   124188102.558 6      1076.927          40.250    23231953.060   124188102.599 6      1076.927          39.687    23231967.260    96590804.715 7       837.610          43.687    23231967.720    96590806.724 7       837.610          44.312
R10  23132242.120   123307872.363 6     -1827.163          38.312    23132239.340   123307872.371 6     -1827.163          37.500
R11  20304308.500   108500067.769 8       459.538          49.812    20304308.080   108500067.775 8       459.538          49.437    20304318.280    84388977.332 8       357.419          50.687    20304318.020    84388979.328 8       357.419          51.312
R21  20958365.920   112152447.277 7      1656.141          43.562    20958364.420   112152447.291 7      1656.141          43.937    20958375.560    87229728.533 7      1288.110          43.250    20958375.480    87229728.535 7      1288.110          42.812
G10  23662611.560   124347860.197 7      -234.242          44.875    23662610.540   124347860.204 6      -234.242          40.000    23662620.780    96894477.797 6      -182.526          40.187    23662621.100    96894477.781 7      -182.526          43.187
G03  23471781.120   123345030.467 7      6161.440          44.500    23471780.780   123345030.472 5      6161.440          32.687    23471798.880    96113077.872 5      4801.122          32.687    23471800.280    96113094.882 7      4801.122          45.375
R22  21722392.840   115955619.307 6      3543.134          40.625    21722393.700   115955619.305 6      3543.134          40.437    21722407.400    90187738.041 5      2755.771          32.937    21722410.300    90187740.057 5      2755.771          33.562
G08  20822601.240   109423511.963 7      2596.032          47.125    20822599.920   109423511.966 7      2596.032          47.375    20822607.260    85265096.975 7      2022.882          47.625    20822608.620    85265114.978 8      2022.882          49.312
G02  21615395.720   113589673.062 7      2768.058          43.562    21615394.300   113589673.075 5      2768.058          34.125    21615397.800    88511438.436 5      2156.928          33.875
G27  22052382.280   115886052.031 6       896.965          40.312    22052381.020   115886052.046 5       896.965          32.125    22052392.140    90300850.613 5       698.934          32.312    22052391.780    90300854.597 6       698.934          37.562
G21  20902554.360   109843664.827 8      1775.447          48.500    20902552.940   109843664.826 6      1775.447          39.125    20902557.020    85592476.594 6      1383.465          38.812
> 2024 05 08 13 50 41.0000000  0 14
R07  23512881.420   125866295.753 6      6335.796          36.812    23512877.460   125866295.741 5      6335.796          35.500    23512905.980    97896105.808 7      4927.841          45.187    23512905.680    97896105.813 7      4927.841          45.562
G16  23215000.640   121995652.105 7      -896.458          42.375    23214998.940   121995652.126 4      -896.458          29.125    23215014.000    95061595.496 4      -698.538          29.375
R12  21933074.240   117162545.963 7      4727.498          43.687    21933075.580   117162545.967 7      4727.498          43.000    21933086.840    91126469.336 7      3676.943          43.625    21933086.660    91126472.339 7      3676.943          44.562
R05  23231751.100   124187025.593 6      1076.594          40.250    23231751.640   124187025.621 6      1076.594          39.687    23231766.440    96589967.072 7       837.351          44.000    23231766.560    96589969.083 7       837.351          44.437
R10  23132585.060   123309699.186 6     -1826.756          38.312    23132582.380   123309699.158 6     -1826.756          37.500
R11  20304222.320   108499608.235 8       459.179          50.000    20304221.940   108499608.247 8       459.179          50.062    20304232.220    84388619.909 8       357.139          50.437    20304232.160    84388621.904 8       357.139          51.187
