     3.05           OBSERVATION DATA    MIXED               RINEX VERSION / TYPE
TPS2RIN 1.0.29.3920 TPS-USER            20240511 192424 UTC PGM / RUN BY / DATE
Win64 build Feb 23, 2024 (c) Topcon Positioning Systems     COMMENT
SRC: 20240508_GUI17.tps                                     COMMENT
OPT: -S -v 3.05                                             COMMENT
Observer            Agency                                  OBSERVER / AGENCY
O0M3X53SBGM         TPS HIPER_SR        4.8 HSR Jul,08,2022 REC # / TYPE / VERS
FW: 4.8 HSR Jul,08,2022 p3                                  COMMENT
SN: HiPer SR 1212-12575                                     COMMENT
000                 TPSHIPER_SR     NONE                    ANT # / TYPE
        1.8000        0.0000        0.0000                  ANTENNA: DELTA H/E/N
GUI17                                                       MARKER NAME
  5389431.1284 -1591117.8602  3009316.5826                  APPROX POSITION XYZ
  2024     5     8    14    52    1.0000000     GPS         TIME OF FIRST OBS
  2024     5     8    15     7    1.0000000     GPS         TIME OF LAST OBS
     1.000                                                  INTERVAL
   901 EPOCHS                                               COMMENT
G   16 C1C L1C D1C S1C C1W L1W D1W S1W C2W L2W D2W S2W C2X  SYS / # / OBS TYPES
       L2X D2X S2X                                          SYS / # / OBS TYPES
R   16 C1C L1C D1C S1C C1P L1P D1P S1P C2P L2P D2P S2P C2C  SYS / # / OBS TYPES
       L2C D2C S2C                                          SYS / # / OBS TYPES
    13                                                      # OF SATELLITES
   G02   901   901   901   901   901   901   901   901   901PRN / # OF OBS
         901   901   901     0     0     0     0            PRN / # OF OBS
   G03   901   901   901   901   901   901   901   901   901PRN / # OF OBS
         901   901   901   901   901   901   901            PRN / # OF OBS
   G08   901   901   901   901   901   901   901   901   901PRN / # OF OBS
         901   901   901   901   901   901   901            PRN / # OF OBS
   G14   259   259   259   259   258   258   258   258   258PRN / # OF OBS
         258   258   258   253   253   253   253            PRN / # OF OBS
   G21   796   796   796   796   790   790   790   790   790PRN / # OF OBS
         790   790   790     0     0     0     0            PRN / # OF OBS
   G27   901   901   901   901   901   901   901   901   901PRN / # OF OBS
         901   901   901   901   901   901   901            PRN / # OF OBS
   G32   148   148   148   148   139   139   139   139   139PRN / # OF OBS
         139   139   139   132   132   132   132            PRN / # OF OBS
   R06   349   349   349   349   349   349   349   349     0PRN / # OF OBS
           0     0     0     0     0     0     0            PRN / # OF OBS
   R07   901   901   901   901   901   901   901   901   901PRN / # OF OBS
         901   901   901   901   901   901   901            PRN / # OF OBS
   R08    50    50    50    50    44    44    44    44    44PRN / # OF OBS
          44    44    44    43    43    43    43            PRN / # OF OBS
   R12   490   490   490   490   462   462   462   462   462PRN / # OF OBS
         462   462   462   446   446   446   446            PRN / # OF OBS
   R21   493   493   493   493   482   482   482   482   482PRN / # OF OBS
         482   482   482   480   480   480   480            PRN / # OF OBS
   R22   834   834   834   834   829   829   829   829   829PRN / # OF OBS
         829   829   829   828   828   828   828            PRN / # OF OBS
G L1C                                                       SYS / PHASE SHIFT
G L1W -0.25000                                              SYS / PHASE SHIFT
G L2W  0.00000                                              SYS / PHASE SHIFT
G L2X  0.25000                                              SYS / PHASE SHIFT
R L1C                                                       SYS / PHASE SHIFT
R L1P -0.25000                                              SYS / PHASE SHIFT
R L2P -0.25000                                              SYS / PHASE SHIFT
R L2C                                                       SYS / PHASE SHIFT
  6 R06 -4 R07  5 R08  6 R12 -1 R21  4 R22 -3               GLONASS SLOT / FRQ #
                                                            GLONASS COD/PHS/BIS
    18    18  1929     7GPS                                 LEAP SECONDS
                                                            END OF HEADER
> 2024 05 08 14 52  1.0000000  0 10
G27  23247637.980   122167146.506 7         9.720          44.250    23247636.540   122167146.509 7         9.720          42.250    23247655.180    95195248.600 7         7.574          42.250    23247656.020    95195250.596 7         7.574          45.000
R06  20805914.200   111024323.621 6      1978.746          38.250    20805914.340   111024323.622 6      1978.746          36.937
R12  21186248.900   113173110.460 7      1786.527          44.562    21186249.820   113173110.440 7      1786.527          44.375    21186261.640    88023609.239 6      1389.521          38.625    21186261.740    88023606.242 6      1389.521          39.312
R21  21360168.220   114302583.551 6      1577.543          38.437    21360171.640   114302583.612 6      1577.543          38.812    21360185.360    88902058.339 6      1226.978          41.812    21360182.880    88902058.320 6      1226.978          40.625
R07  20816528.460   111432517.246 7      5536.691          47.750    20816528.760   111432517.272 7      5536.691          47.062    20816549.240    86669828.623 8      4306.315          49.875    20816548.660    86669823.627 8      4306.315          50.312
G21  21383232.900   112369642.845 7      1297.781          46.937    21383231.880   112369642.858 5      1297.781          33.312    21383235.000    87560774.251 5      1011.258          33.187
G02  21424241.320   112585146.416 7      2198.953          46.812    21424238.920   112585146.418 6      2198.953          38.000    21424243.360    87728698.786 6      1713.470          38.125
R22  20904077.460   111587390.796 6      3288.867          41.937    20904076.360   111587390.776 7      3288.867          42.812    20904089.500    86790227.446 7      2558.007          43.312    20904087.940    86790226.448 7      2558.007          42.687
G03  21003860.800   110376038.460 7      4990.291          44.437    21003859.920   110376038.441 5      4990.291          33.750    21003871.200    86007330.592 5      3888.539          33.375    21003871.320    86007348.599 7      3888.539          47.812
G08  20892320.240   109789880.637 8      1450.398          49.187    20892318.780   109789880.637 8      1450.398          48.375    20892328.000    85550587.674 8      1130.180          48.625    20892330.260    85550596.677 8      1130.180          50.750
> 2024 05 08 14 52  2.0000000  0 10
G27  23247636.660   122167137.118 7         9.272          44.937    23247634.720   122167137.128 6         9.272          41.875    23247653.100    95195241.270 6         7.225          41.500    23247654.380    95195243.266 7         7.225          44.937
R06  20805546.420   111022345.281 6      1977.850          38.250    20805543.500   111022345.303 6      1977.850          37.125
R12  21185915.720   113171324.529 7      1785.429          44.875    21185915.820   113171324.517 7      1785.429          44.375    21185927.360    88022220.180 6      1388.667          39.000    21185928.540    88022217.189 6      1388.667          40.062
R21  21359872.600   114301006.162 6      1577.369          37.312    21359876.940   114301006.243 6      1577.369          38.812    21359889.940    88900831.474 6      1226.842          41.500    21359887.700    88900831.455 6      1226.842          40.625
R07  20815496.420   111426980.884 7      5536.071          47.937    20815494.060   111426980.907 7      5536.071          47.250    20815514.520    86665522.578 8      4305.833          49.250    20815516.480    86665517.582 8      4305.833          49.937
G21  21382986.240   112368345.303 7      1297.569          47.250    21382985.100   112368345.318 5      1297.569          33.312    21382988.060    87559763.186 5      1011.093          33.187
G02  21423822.260   112582947.656 7      2198.763          46.062    21423820.660   112582947.661 6      2198.763          37.750    21423825.000    87726985.477 6      1713.322          37.875
R22  20903461.620   111584102.156 7      3288.722          42.312    20903460.560   111584102.133 7      3288.722          42.812    20903473.120    86787669.621 7      2557.895          42.812    20903471.960    86787668.624 7      2557.895          42.875
G03  21002912.440   110371048.565 7      4989.614          45.187    21002910.380   110371048.535 5      4989.614          33.500    21002921.660    86003442.370 5      3888.011          33.375    21002922.560    86003460.386 7      3888.011          47.375
G08  20892044.540   109788430.628 8      1449.764          48.500    20892042.880   109788430.628 8      1449.764          49.000    20892052.160    85549457.795 8      1129.686          49.062    20892054.320    85549466.794 8      1129.686          50.500
> 2024 05 08 14 52  3.0000000  0 10
G27  23247634.540   122167127.996 7         8.792          45.750    23247632.980   122167128.003 7         8.792          42.312    23247651.360    95195234.151 7         6.851          42.250    23247651.940    95195236.139 7         6.851          44.562
R06  20805172.900   111020367.851 6      1976.756          38.250    20805173.480   111020367.863 6      1976.756          37.125
R12  21185580.580   113169539.429 7      1784.433          45.312    21185581.580   113169539.425 7      1784.433          44.687    21185593.160    88020831.771 6      1387.892          39.000    21185593.720    88020828.770 6      1387.892          40.062
R21  21359578.180   114299428.871 6      1577.171          37.312    21359582.440   114299428.953 6      1577.171          38.812    21359595.900    88899604.698 7      1226.689          42.312    21359593.800    88899604.680 6      1226.689          40.875
R07  20814460.420   111421445.097 8      5535.332          48.562    20814460.040   111421445.120 7      5535.332          47.687    20814480.580    86661216.977 8      4305.258          49.187    20814480.540    86661211.979 8      4305.258          49.937
G21  21382739.040   112367047.843 7      1297.185          47.687    21382738.280   112367047.853 5      1297.185          33.250    21382741.180    87558752.176 5      1010.793          33.187
G02  21423404.500   112580748.989 7      2198.443          47.500    21423402.240   112580748.994 6      2198.443          38.125    21423406.560    87725272.228 6      1713.072          37.875
R22  20902845.960   111580813.538 7      3288.222          42.312    20902844.900   111580813.531 7      3288.222          42.937    20902856.920    86785111.818 7      2557.506          43.000    20902855.820    86785110.814 7      2557.506          42.750
G03  21001962.100   110366059.156 7      4988.868          44.875    21001961.260   110366059.137 5      4988.868          33.500    21001971.940    85999554.527 5      3887.430          33.375    21001972.320    85999572.536 7      3887.430          47.250
G08  20891768.460   109786981.021 8      1449.229          48.250    20891767.040   109786981.016 8      1449.229          49.375    20891776.240    85548328.219 8      1129.269          49.062    20891778.440    85548337.218 8      1129.269          50.500
> 2024 05 08 14 52  4.0000000  0 10
G27  23247632.700   122167119.209 7         8.579          44.687    23247631.280   122167119.209 6         8.579          41.812    23247649.760    95195227.282 6         6.685          41.812    23247650.720    95195229.272 7         6.685          44.500
R06  20804802.320   111018391.339 6      1976.256          38.937    20804803.140   111018391.340 6      1976.256          37.125
R12  21185246.660   113167755.162 7      1783.846          45.625    21185247.640   113167755.155 7      1783.846          44.500    21185259.420    88019443.999 6      1387.436          39.000    21185259.720    88019441.000 6      1387.436          40.375
R21  21359283.620   114297851.708 6      1577.179          37.312    21359287.160   114297851.803 6      1577.179          38.812    21359301.200    88898378.031 7      1226.695          42.312    21359299.360    88898378.011 6      1226.695          41.375
R07  20813426.360   111415909.909 7      5534.878          47.937    20813425.880   111415909.940 7      5534.878          47.125    20813446.520    86656911.850 8      4304.905          49.687    20813446.280    86656906.847 8      4304.905          50.625
G21  21382492.260   112365750.498 7      1297.358          47.250    21382491.420   112365750.513 5      1297.358          33.250    21382494.400    87557741.256 5      1010.928          33.187
G02  21422986.220   112578550.513 7      2198.457          46.937    21422983.800   112578550.518 6      2198.457          38.250    21422988.260    87723559.130 6      1713.083          37.750
R22  20902229.600   111577525.056 7      3288.491          43.437    20902228.520   111577525.047 7      3288.491          43.500    20902240.620    86782554.103 7      2557.715          42.687    20902239.700    86782553.099 7      2557.715          42.750
G03  21001012.480   110361070.327 7      4988.462          44.750    21001012.060   110361070.316 5      4988.462          34.187    21001022.620    85995667.139 5      3887.113          33.937    21001022.820    85995685.154 7      3887.113          47.187
G08  20891492.580   109785531.872 8      1448.868          49.250    20891491.360   109785531.871 8      1448.868          49.312    20891500.480    85547199.008 8      1128.988          49.187    20891502.620    85547208.006 8      1128.988          50.375
> 2024 05 08 14 52  5.0000000  0 10
G27  23247631.140   122167110.749 7         8.168          43.875    23247630.080   122167110.748 7         8.168          42.062    23247648.140    95195220.667 6         6.365          41.750    23247649.180    95195222.659 7         6.365          44.750
R06  20804433.060   111016415.876 6      1974.723          38.937    20804432.520   111016415.884 6      1974.723          37.125
R12  21184912.560   113165971.795 7      1782.768          44.687    21184913.660   113165971.786 7      1782.768          44.687    21184925.800    88018056.930 6      1386.597          39.375    21184925.900    88018053.925 6      1386.597          40.750
R21  21358988.520   114296274.755 6      1576.733          37.312    21358991.740   114296274.834 6      1576.733          38.812    21359006.320    88897151.507 6      1226.348          41.750    21359004.680    88897151.487 6      1226.348          41.375
R07  20812392.400   111410375.386 8      5534.038          48.375    20812392.240   111410375.412 7      5534.038          46.687    20812412.720    86652607.239 8      4304.252          50.375    20812412.320    86652602.235 8      4304.252          50.812
G21  21382245.300   112364453.313 7      1297.045          46.875    21382244.540   112364453.326 5      1297.045          33.375    21382247.520    87556730.465 5      1010.685          33.812
G02  21422568.040   112576352.230 7      2198.042          46.437    21422565.540   112576352.234 6      2198.042          37.875    21422570.000    87721846.182 6      1712.760          37.875
R22  20901613.840   111574236.708 7      3288.166          42.687    20901612.400   111574236.709 7      3288.166          43.500    20901624.820    86779996.509 7      2557.462          42.562    20901623.580    86779995.503 7      2557.462          42.687
G03  21000063.100   110356082.087 7      4987.829          44.875    21000062.820   110356082.071 5      4987.829          34.187    21000073.180    85991780.205 5      3886.620          33.937    21000073.820    85991798.214 7      3886.620          47.500
G08  20891216.920   109784083.177 8      1448.294          49.687    20891215.640   109784083.179 8      1448.294          48.812    20891224.840    85546070.158 8      1128.541          48.750    20891226.860    85546079.157 8      1128.541          50.562
> 2024 05 08 14 52  6.0000000  0 10
G27  23247629.720   122167102.724 7         7.803          44.187    23247628.560   122167102.734 6         7.803          41.625    23247646.460    95195214.406 7         6.080          42.187    23247647.620    95195216.402 7         6.080          44.187
R06  20804063.040   111014441.413 6      1973.902          38.937    20804062.140   111014441.411 6      1973.902          38.125
R12  21184578.740   113164189.398 7      1782.023          44.562    21184579.760   113164189.389 7      1782.023          44.250    21184592.580    88016670.609 6      1386.018          39.375    21184592.060    88016667.620 6      1386.018          40.750
R21  21358694.240   114294698.036 6      1576.725          37.312    21358697.300   114294698.102 6      1576.725          38.125    21358712.440    88895925.167 6      1226.342          41.812    21358710.640    88895925.142 6      1226.342          41.437
R07  20811358.620   111404841.601 8      5533.482          48.500    20811357.900   111404841.632 7      5533.482          47.187    20811378.880    86648303.199 8      4303.819          49.812    20811378.700    86648298.194 8      4303.819          50.375
G21  21381998.600   112363156.379 7      1296.894          47.375    21381997.720   112363156.389 5      1296.894          33.312    21382000.720    87555719.862 5      1010.566          33.812
G02  21422149.720   112574154.219 7      2197.883          45.625    21422147.220   112574154.219 6      2197.883          38.000    21422151.660    87720133.444 6      1712.636          37.875
R22  20900997.860   111570948.591 7      3288.023          42.687    20900996.400   111570948.595 7      3288.023          42.562    20901008.340    86777439.089 7      2557.351          43.187    20901007.500    86777438.084 7      2557.351          43.125
G03  20999114.120   110351094.536 7      4987.260          43.812    20999113.880   110351094.517 5      4987.260          33.625    20999123.800    85987893.807 5      3886.177          33.625    20999124.640    85987911.816 7      3886.177          47.125
G08  20890941.440   109782635.052 8      1447.900          49.625    20890940.060   109782635.049 8      1447.900          49.250    20890949.300    85544941.745 8      1128.234          49.062    20890951.320    85544950.742 8      1128.234          50.125
> 2024 05 08 14 52  7.0000000  0 10
G27  23247628.320   122167094.923 7         7.920          45.062    23247627.200   122167094.933 7         7.920          42.000    23247644.980    95195208.308 6         6.172          41.937    23247645.620    95195210.303 7         6.172          44.187
R06  20803693.540   111012467.774 6      1973.580          38.937    20803692.780   111012467.786 6      1973.580          38.125
R12  21184245.240   113162407.805 7      1781.414          44.062    21184246.020   113162407.809 7      1781.414          44.250    21184259.720    88015284.929 6      1385.544          39.812    21184258.520    88015281.940 6      1385.544          41.437
R21  21358399.700   114293121.307 6      1577.218          37.312    21358401.400   114293121.360 6      1577.218          38.125    21358417.960    88894698.807 6      1226.725          41.250    21358415.940    88894698.789 6      1226.725          41.312
R07  20810324.940   111399308.360 8      5533.269          48.750    20810324.600   111399308.385 7      5533.269          46.750    20810345.060    86643999.571 8      4303.653          49.500    20810345.080    86643994.566 8      4303.653          50.125
G21  21381751.760   112361859.467 7      1297.042          47.375    21381750.980   112361859.480 5      1297.042          33.312    21381754.080    87554709.282 5      1010.682          33.437
G02  21421731.480   112571956.269 7      2198.156          46.187    21421729.080   112571956.276 6      2198.156          37.687    21421733.560    87718420.756 6      1712.849          38.062
R22  20900381.580   111567660.496 6      3288.254          41.937    20900380.240   111567660.495 7      3288.254          42.625    20900392.120    86774881.680 7      2557.531          42.937    20900391.480    86774880.680 7      2557.531          42.750
G03  20998164.880   110346107.441 7      4987.167          44.500    20998165.000   110346107.422 5      4987.167          33.625    20998174.880    85984007.763 5      3886.104          33.625    20998175.460    85984025.773 7      3886.104          47.125
G08  20890666.040   109781187.292 8      1447.830          49.875    20890664.680   109781187.294 8      1447.830          49.062    20890673.840    85543813.617 8      1128.180          49.250    20890675.900    85543822.613 8      1128.180          50.062
> 2024 05 08 14 52  8.0000000  0 10
G27  23247626.860   122167087.424 7         7.521          45.937    23247625.740   122167087.434 6         7.521          41.625    23247643.580    95195202.451 6         5.861          41.875    23247644.140    95195204.443 7         5.861          43.750
R06  20803323.500   111010495.112 6      1972.368          39.000    20803323.220   111010495.124 6      1972.368          38.125
R12  21183911.560   113160627.040 7      1780.459          44.812    21183912.760   113160627.049 7      1780.459          44.250    21183926.360    88013899.889 6      1384.802          39.812    21183925.060    88013896.897 6      1384.802          41.125
R21  21358104.960   114291544.667 6      1576.873          37.312    21358106.800   114291544.730 6      1576.873          38.125    21358123.520    88893472.544 6      1226.457          41.250    21358121.200    88893472.527 6      1226.457          41.437
R07  20809291.580   111393775.712 7      5532.476          47.750    20809290.940   111393775.733 7      5532.476          47.375    20809311.460    86639696.409 8      4303.037          49.500    20809311.460    86639691.402 8      4303.037          50.187
G21  21381504.940   112360562.643 7      1296.898          47.125    21381504.240   112360562.658 5      1296.898          33.375    21381507.380    87553698.769 5      1010.570          33.437
G02  21421313.260   112569758.469 7      2197.878          46.500    21421310.780   112569758.471 6      2197.878          37.875    21421315.260    87716708.182 6      1712.632          37.750
R22  20899765.480   111564372.455 6      3288.208          41.937    20899764.000   111564372.461 7      3288.208          42.625    20899776.260    86772324.325 7      2557.495          42.812    20899775.640    86772323.325 7      2557.495          42.687
G03  20997216.160   110341120.925 7      4986.340          45.250    20997216.180   110341120.906 5      4986.340          33.500    20997225.800    85980122.172 5      3885.460          33.250    20997226.200    85980140.190 7      3885.460          47.250
G08  20890390.540   109779739.956 8      1447.283          49.250    20890389.180   109779739.955 8      1447.283          49.375    20890398.380    85542685.820 8      1127.753          48.875    20890400.320    85542694.812 8      1127.753          50.437
> 2024 05 08 14 52  9.0000000  0 10
G27  23247625.260   122167080.112 7         7.449          45.937    23247624.420   122167080.119 7         7.449          42.312    23247642.160    95195196.732 7         5.805          42.500    23247642.760    95195198.727 7         5.805          43.937
R06  20802954.040   111008523.216 6      1971.910          39.000    20802953.080   111008523.228 6      1971.910          38.125
R12  21183578.700   113158847.003 7      1779.840          44.125    21183579.180   113158847.013 7      1779.840          44.187    21183593.620    88012515.415 6      1384.320          39.687    21183592.320    88012512.418 7      1384.320          42.000
R21  21357810.480   114289967.986 6      1577.048          37.312    21357812.700   114289968.062 6      1577.048          38.125    21357828.180    88892246.245 6      1226.593          41.437    21357826.480    88892246.224 6      1226.593          41.437
R07  20808257.680   111388243.501 8      5532.210          48.000    20808257.480   111388243.522 7      5532.210          47.375    20808278.020    86635393.588 8      4302.830          49.875    20808277.740    86635388.582 8      4302.830          50.312
G21  21381258.120   112359265.816 8      1297.074          48.000    21381257.500   112359265.828 5      1297.074          33.375    21381260.560    87552688.250 5      1010.707          33.500
G02  21420895.000   112567560.681 7      2197.962          46.687    21420892.540   112567560.684 6      2197.962          37.750    21420897.000    87714995.622 6      1712.697          37.562
R22  20899149.460   111561084.440 6      3288.196          41.687    20899147.780   111561084.441 7      3288.196          42.250    20899160.060    86769766.986 7      2557.486          42.812    20899159.740    86769765.988 7      2557.486          42.937
G03  20996267.220   110336134.800 7      4986.085          43.937    20996267.420   110336134.781 5      4986.085          33.500    20996276.800    85976236.889 5      3885.261          33.250    20996277.020    85976254.910 7      3885.261          46.562
G08  20890115.240   109778292.950 8      1446.983          49.750    20890113.800   109778292.950 8      1446.983          49.187    20890123.040    85541558.281 8      1127.519          49.125    20890125.140    85541567.278 8      1127.519          50.250
> 2024 05 08 14 52 10.0000000  0 10
G27  23247623.880   122167072.988 7         6.681          45.375    23247623.120   122167072.991 7         6.681          42.437    23247640.700    95195191.161 7         5.206          42.312    23247640.680    95195193.152 7         5.206          43.937
R06  20802584.320   111006552.179 6      1970.336          39.000    20802583.820   111006552.198 6      1970.336          38.125
R12  21183245.620   113157067.688 7      1778.667          44.125    21183246.060   113157067.700 7      1778.667          44.250    21183260.520    88011131.499 6      1383.407          39.687    21183259.520    88011128.508 7      1383.407          42.000
R21  21357515.580   114288391.361 5      1576.317          35.812    21357518.000   114288391.448 6      1576.317          38.125    21357534.080    88891019.989 6      1226.024          41.437    21357532.000    88891019.967 6      1226.024          41.187
R07  20807224.240   111382711.726 8      5531.214          48.062    20807223.720   111382711.749 7      5531.214          47.312    20807244.300    86631091.112 8      4302.055          50.000    20807244.280    86631086.103 8      4302.055          49.750
G21  21381011.480   112357968.989 7      1296.449          47.000    21381010.700   112357969.001 5      1296.449          32.937    21381013.940    87551677.734 5      1010.220          33.500
G02  21420476.720   112565362.926 7      2197.410          47.312    21420474.400   112565362.931 6      2197.410          37.937    21420478.660    87713283.090 6      1712.267          37.937
R22  20898533.180   111557796.361 6      3287.719          41.687    20898531.860   111557796.370 7      3287.719          42.250    20898543.780    86767209.600 7      2557.114          42.937    20898543.580    86767208.606 7      2557.114          42.812
G03  20995318.420   110331149.117 7      4985.123          44.312    20995318.560   110331149.103 5      4985.123          33.312    20995328.000    85972351.949 5      3884.512          33.312    20995328.220    85972369.974 7      3884.512          46.812
G08  20889840.100   109776846.231 8      1446.242          49.437    20889838.480   109776846.228 8      1446.242          49.312    20889847.680    85540430.963 8      1126.942          49.000    20889849.640    85540439.960 8      1126.942          50.187
> 2024 05 08 14 52 11.0000000  0 10
G27  23247622.760   122167066.125 7         6.764          45.500    23247621.840   122167066.130 6         6.764          41.500    23247639.500    95195185.801 6         5.270          41.500    23247639.560    95195187.800 7         5.270          44.062
R06  20802214.760   111004582.057 6      1969.621          39.000    20802214.780   111004582.058 6      1969.621          37.875
R12  21182912.480   113155289.223 7      1778.071          44.125    21182913.680   113155289.243 7      1778.071          44.937    21182927.000    88009748.256 6      1382.944          40.000    21182926.340    88009745.261 6      1382.944          41.937
R21  21357221.600   114286814.862 5      1576.692          35.812    21357223.940   114286814.936 6      1576.692          38.125    21357239.100    88889793.813 6      1226.316          41.062    21357237.640    88889793.799 6      1226.316          41.187
R07  20806191.040   111377180.522 7      5531.022          47.625    20806190.640   111377180.537 7      5531.022          46.375    20806211.040    86626789.074 8      4301.906          50.187    20806211.060    86626784.065 8      4301.906          50.000
G21  21380764.760   112356672.224 7      1296.804          47.375    21380763.860   112356672.237 5      1296.804          32.937    21380767.260    87550667.266 5      1010.497          33.187
G02  21420058.540   112563165.304 7      2197.609          46.812    21420056.280   112563165.309 6      2197.609          38.125    21420060.660    87711570.657 6      1712.422          37.562
R22  20897916.920   111554508.367 6      3287.948          41.375    20897915.940   111554508.373 6      3287.948          41.750    20897927.940    86764652.277 7      2557.293          42.750    20897927.800    86764651.288 7      2557.293          42.750
G03  20994369.880   110326163.956 7      4985.016          44.625    20994369.960   110326163.943 5      4985.016          33.312    20994379.260    85968467.416 5      3884.428          33.312    20994379.540    85968485.446 7      3884.428          46.250
G08  20889564.800   109775399.930 8      1446.183          48.812    20889563.380   109775399.932 8      1446.183          48.437    20889572.440    85539303.977 8      1126.896          48.500    20889574.660    85539312.974 8      1126.896          50.312
> 2024 05 08 14 52 12.0000000  0 10
G27  23247621.440   122167059.449 7         6.609          46.500    23247620.700   122167059.451 6         6.609          41.625    23247638.080    95195180.584 6         5.150          41.687    23247638.560    95195182.579 7         5.150          44.062
R06  20801845.940   111002612.679 6      1969.027          38.562    20801844.920   111002612.680 6      1969.027          37.875
R12  21182579.660   113153511.444 7      1777.450          44.562    21182580.900   113153511.466 7      1777.450          45.562    21182593.940    88008365.537 6      1382.461          40.000    21182593.480    88008362.546 6      1382.461          41.750
R21  21356927.500   114285238.374 5      1576.445          35.812    21356928.700   114285238.442 6      1576.445          37.187    21356944.380    88888567.647 6      1226.124          40.312    21356943.060    88888567.635 6      1226.124          40.250
R07  20805157.800   111371649.783 8      5530.553          48.562    20805157.180   111371649.801 7      5530.553          47.000    20805177.820    86622487.403 8      4301.541          50.062    20805177.780    86622482.392 8      4301.541          50.625
G21  21380517.960   112355375.466 7      1296.749          47.437    21380517.120   112355375.478 5      1296.749          33.500    21380520.540    87549656.803 5      1010.454          33.187
G02  21419640.380   112560967.688 7      2197.628          46.312    21419638.080   112560967.690 6      2197.628          38.125    21419642.340    87709858.231 6      1712.438          38.375
R22  20897301.180   111551220.328 6      3288.092          41.375    20897299.900   111551220.337 6      3288.092          41.750    20897311.720    86762094.918 7      2557.405          42.937    20897311.760    86762093.922 7      2557.405          43.250
G03  20993421.260   110321179.219 7      4984.607          44.375    20993421.400   110321179.205 5      4984.607          33.625    20993430.580    85964583.211 5      3884.109          33.375    20993430.900    85964601.231 7      3884.109          46.312
G08  20889289.620   109773953.946 8      1445.864          49.250    20889288.140   109773953.943 8      1445.864          49.062    20889297.320    85538177.231 8      1126.647          48.812    20889299.520    85538186.227 8      1126.647          50.187
> 2024 05 08 14 52 13.0000000  0 10
G27  23247620.260   122167052.938 7         6.390          45.500    23247619.400   122167052.945 6         6.390          41.812    23247636.760    95195175.497 7         4.979          42.187    23247637.320    95195177.497 7         4.979          43.812
R06  20801477.780   111000644.076 6      1968.311          38.562    20801476.420   111000644.079 6      1968.311          37.875
R12  21182247.060   113151734.391 7      1776.700          44.687    21182248.560   113151734.416 7      1776.700          45.000    21182261.180    88006983.378 6      1381.878          39.937    21182260.720    88006980.392 6      1381.878          41.750
R21  21356632.200   114283661.741 5      1576.917          35.812    21356634.180   114283661.802 6      1576.917          37.187    21356649.280    88887341.363 6      1226.491          40.312    21356648.560    88887341.357 6      1226.491          40.062
R07  20804124.720   111366119.547 7      5530.020          46.750    20804124.220   111366119.567 7      5530.020          47.125    20804144.680    86618186.121 8      4301.127          49.687    20804144.720    86618181.114 8      4301.127          50.250
G21  21380271.160   112354078.660 7      1296.894          46.937    21380270.420   112354078.670 5      1296.894          33.500    21380273.820    87548646.302 5      1010.567          33.625
G02  21419222.220   112558770.097 7      2197.606          46.937    21419219.900   112558770.102 6      2197.606          37.937    21419224.020    87708145.823 6      1712.420          37.750
R22  20896685.460   111547932.286 7      3287.965          42.000    20896684.080   111547932.295 6      3287.965          41.812    20896695.980    86759537.556 7      2557.306          42.937    20896695.600    86759536.567 7      2557.306          42.937
G03  20992472.920   110316194.910 7      4984.171          45.250    20992472.820   110316194.894 5      4984.171          33.625    20992481.920    85960699.340 5      3883.769          33.375    20992482.340    85960717.362 7      3883.769          46.187
G08  20889014.520   109772508.265 8      1445.552          49.312    20889013.100   109772508.267 8      1445.552          48.875    20889022.240    85537050.724 8      1126.405          48.625    20889024.420    85537059.723 8      1126.405          50.500
> 2024 05 08 14 52 14.0000000  0 10
G27  23247618.860   122167046.818 7         6.038          44.875    23247618.280   122167046.826 7         6.038          42.062    23247635.500    95195170.712 7         4.705          42.125    23247636.280    95195172.706 7         4.705          43.500
R06  20801109.220   110998676.515 6      1967.110          38.562    20801107.360   110998676.511 6      1967.110          37.875
R12  21181914.580   113149958.257 7      1775.801          44.937    21181916.300   113149958.285 7      1775.801          45.250    21181928.120    88005601.947 6      1381.179          39.937    21181928.720    88005598.956 6      1381.179          41.687
R21  21356338.440   114282085.331 5      1576.476          35.812    21356339.520   114282085.399 6      1576.476          37.187    21356354.840    88886115.264 6      1226.148          39.875    21356354.260    88886115.258 6      1226.148          40.062
R07  20803091.540   111360590.002 7      5529.272          47.750    20803091.240   111360590.020 7      5529.272          46.562    20803111.580    86613885.374 8      4300.545          49.750    20803111.420    86613880.365 8      4300.545          49.937
G21  21380024.500   112352782.061 7      1296.609          46.937    21380023.600   112352782.074 5      1296.609          33.750    21380027.260    87547635.970 5      1010.344          33.625
G02  21418804.000   112556572.733 7      2197.362          47.250    21418801.720   112556572.741 6      2197.362          37.875    21418806.000    87706433.593 6      1712.230          37.625
R22  20896069.760   111544644.405 7      3287.771          42.000    20896068.200   111544644.408 6      3287.771          41.812    20896079.980    86756980.346 7      2557.155          42.937    20896079.680    86756979.355 7      2557.155          42.750
G03  20991524.540   110311211.236 7      4983.390          44.437    20991524.700   110311211.220 5      4983.390          33.250    20991533.660    85956815.969 5      3883.161          32.937    20991533.960    85956833.992 7      3883.161          46.562
G08  20888739.540   109771063.093 8      1445.012          49.000    20888738.020   109771063.093 8      1445.012          49.000    20888747.200    85535924.612 8      1125.983          48.875    20888749.260    85535933.609 8      1125.983          50.312
> 2024 05 08 14 52 15.0000000  0 10
G27  23247617.920   122167040.914 7         5.561          44.875    23247617.160   122167040.919 6         5.561          41.875    23247634.380    95195166.091 7         4.333          42.062    23247635.160    95195168.091 7         4.333          43.500
R06  20800740.560   110996709.755 6      1966.010          38.562    20800739.180   110996709.758 6      1966.010          37.812
R12  21181582.080   113148182.903 7      1774.800          45.312    21181584.420   113148182.928 7      1774.800          45.250    21181595.100    88004221.108 6      1380.400          40.000    21181596.080    88004218.119 6      1380.400          40.875
R21  21356043.220   114280508.920 5      1576.230          35.812    21356044.120   114280508.991 6      1576.230          37.187    21356060.200    88884889.187 6      1225.957          39.875    21356059.420    88884889.188 6      1225.957          39.812
R07  20802058.540   111355060.960 7      5528.548          47.812    20802058.020   111355060.983 7      5528.548          46.500    20802078.460    86609585.022 8      4299.981          49.250    20802078.440    86609580.012 8      4299.981          49.937
G21  21379777.820   112351485.470 7      1296.388          47.312    21379776.900   112351485.483 5      1296.388          33.750    21379780.560    87546625.639 5      1010.173          33.812
G02  21418385.960   112554375.435 7      2197.070          46.312    21418383.660   112554375.434 6      2197.070          38.000    21418388.100    87704721.410 6      1712.003          38.312
R22  20895453.820   111541356.534 6      3287.580          41.687    20895451.920   111541356.527 6      3287.580          41.562    20895464.160    86754423.109 7      2557.007          42.937    20895463.720    86754422.120 7      2557.007          42.750
G03  20990576.080   110306227.994 7      4982.806          44.750    20990576.440   110306227.983 5      4982.806          33.250    20990585.260    85952932.927 5      3882.706          32.937    20990585.520    85952950.954 7      3882.706          46.125
G08  20888464.460   109769618.271 8      1444.430          49.187    20888462.980   109769618.273 8      1444.430          49.062    20888472.300    85534798.775 8      1125.530          48.812    20888474.240    85534807.769 8      1125.530          50.187
> 2024 05 08 14 52 16.0000000  0 10
G27  23247616.760   122167035.284 7         5.317          46.250    23247616.240   122167035.288 6         5.317          41.812    23247633.220    95195161.689 6         4.143          41.562    23247634.000    95195163.691 7         4.143          43.312
R06  20800372.380   110994743.889 6      1965.292          38.687    20800370.840   110994743.889 6      1965.292          37.812
R12  21181249.580   113146408.390 7      1774.031          45.312    21181252.260   113146408.407 7      1774.031          44.312    21181263.000    88002840.925 6      1379.802          40.000    21181263.600    88002837.934 6      1379.802          40.875
R21  21355748.200   114278932.651 5      1576.233          35.812    21355749.660   114278932.725 6      1576.233          37.187    21355765.760    88883663.188 6      1225.959          39.875    21355765.020    88883663.180 6      1225.959          39.812
R07  20801026.000   111349532.451 7      5528.157          44.687    20801025.300   111349532.476 7      5528.157          46.375    20801045.580    86605285.085 8      4299.678          50.125    20801045.760    86605280.077 8      4299.678          50.000
G21  21379531.060   112350188.969 7      1296.362          47.250    21379530.180   112350188.982 5      1296.362          33.687    21379534.080    87545615.379 5      1010.152          33.812
G02  21417967.680   112552178.239 7      2197.069          46.437    21417965.460   112552178.238 6      2197.069          37.937    21417969.980    87703009.308 6      1712.002          38.000
R22  20894837.940   111538068.709 6      3287.620          41.687    20894836.300   111538068.696 6      3287.620          41.562    20894848.300    86751865.916 7      2557.038          42.562    20894847.780    86751864.924 7      2557.038          42.812
G03  20989628.000   110301245.293 7      4982.361          44.062    20989628.220   110301245.285 5      4982.361          33.250    20989636.920    85949050.313 5      3882.359          32.937    20989637.340    85949068.340 7      3882.359          46.500
G08  20888189.680   109768173.841 8      1444.145          49.125    20888188.160   109768173.843 8      1444.145          49.062    20888197.440    85533673.242 8      1125.308          49.000    20888199.220    85533682.239 8      1125.308          50.312
> 2024 05 08 14 52 17.0000000  0 10
G27  23247615.520   122167029.926 7         5.049          46.000    23247615.200   122167029.931 6         5.049          41.250    23247632.100    95195157.496 6         3.934          41.312    23247632.400    95195159.496 7         3.934          42.875
R06  20800004.080   110992778.921 6      1964.433          38.687    20800002.320   110992778.914 6      1964.433          37.812
R12  21180917.520   113144634.671 7      1773.187          45.625    21180920.140   113144634.685 7      1773.187          44.937    21180930.540    88001461.366 6      1379.146          40.000    21180931.360    88001458.371 6      1379.146          40.500
R21  21355453.100   114277356.471 5      1575.820          35.812    21355455.160   114277356.547 6      1575.820          37.187    21355470.960    88882437.274 6      1225.638          39.500    21355470.420    88882437.270 6      1225.638          39.812
R07  20799993.160   111344004.517 7      5527.611          47.250    20799992.640   111344004.537 7      5527.611          46.375    20800012.800    86600985.587 8      4299.253          48.375    20800012.960    86600980.581 8      4299.253          48.250
G21  21379284.300   112348892.546 7      1296.297          46.937    21379283.460   112348892.562 5      1296.297          33.687    21379287.420    87544605.181 5      1010.102          33.625
G02  21417549.440   112549981.166 7      2196.938          46.812    21417547.500   112549981.171 6      2196.938          37.875    21417552.040    87701297.307 6      1711.899          38.000
R22  20894221.480   111534780.953 6      3287.547          41.937    20894220.620   111534780.948 6      3287.547          41.312    20894232.100    86749308.778 7      2556.981          42.562    20894231.740    86749307.793 7      2556.981          43.000
G03  20988680.020   110296263.122 7      4981.712          44.812    20988680.200   110296263.119 5      4981.712          33.187    20988688.800    85945168.110 5      3881.853          33.312    20988689.440    85945186.140 7      3881.853          45.875
G08  20887914.860   109766729.841 8      1443.734          49.187    20887913.380   109766729.838 8      1443.734          48.375    20887922.580    85532548.040 7      1124.987          47.750    20887924.340    85532557.038 8      1124.987          49.875
> 2024 05 08 14 52 18.0000000  0 10
G27  23247614.700   122167024.781 7         4.905          45.187    23247614.240   122167024.786 6         4.905          41.500    23247631.160    95195153.470 6         3.822          41.812    23247631.440    95195155.477 7         3.822          42.875
R06  20799635.340   110990814.832 6      1963.529          38.687    20799633.500   110990814.833 6      1963.529          37.812
R12  21180585.720   113142861.696 7      1772.431          45.750    21180587.860   113142861.716 7      1772.431          45.062    21180598.540    88000082.392 6      1378.558          40.000    21180599.540    88000079.399 6      1378.558          40.500
R21  21355158.740   114275780.277 5      1575.975          35.812    21355159.880   114275780.364 6      1575.975          37.187    21355175.940    88881211.350 6      1225.758          39.500    21355175.720    88881211.342 6      1225.758          39.250
R07  20798960.900   111338477.113 8      5526.958          48.000    20798960.000   111338477.128 7      5526.958          46.562    20798980.300    86596686.503 8      4298.745          49.312    20798980.400    86596681.497 8      4298.745          49.375
G21  21379037.660   112347596.150 7      1296.313          46.875    21379036.660   112347596.166 5      1296.313          33.437    21379040.700    87543595.000 5      1010.114          33.625
G02  21417131.440   112547784.167 7      2196.876          46.750    21417129.400   112547784.175 6      2196.876          37.812    21417133.920    87699585.364 6      1711.851          37.562
R22  20893605.740   111531493.223 6      3287.674          41.937    20893604.300   111531493.211 6      3287.674          41.312    20893616.340    86746751.658 7      2557.079          42.500    20893615.920    86746750.658 7      2557.079          42.375
G03  20987732.120   110291281.399 7      4981.409          44.562    20987732.240   110291281.398 5      4981.409          33.187    20987740.840    85941286.258 5      3881.617          33.312    20987741.100    85941304.286 7      3881.617          46.000
G08  20887640.200   109765286.183 8      1443.393          49.875    20887638.580   109765286.185 8      1443.393          48.812    20887647.900    85531423.111 8      1124.722          48.500    20887649.780    85531432.108 8      1124.722          50.187
> 2024 05 08 14 52 19.0000000  0 10
G27  23247613.600   122167019.997 7         4.555          45.562    23247613.400   122167020.007 6         4.555          41.687    23247630.320    95195149.728 6         3.549          41.750    23247630.320    95195151.732 7         3.549          42.937
R06  20799267.020   110988851.722 6      1962.496          38.687    20799265.360   110988851.717 6      1962.496          37.812
R12  21180253.880   113141089.628 7      1771.635          45.687    21180255.840   113141089.642 7      1771.635          44.812    21180266.660    87998704.116 6      1377.938          39.875    21180267.600    87998701.117 6      1377.938          40.062
R21  21354865.240   114274204.206 5      1576.197          35.812    21354866.240   114274204.277 6      1576.197          37.187    21354881.920    88879985.509 6      1225.931          39.500    21354881.440    88879985.505 6      1225.931          39.250
R07  20797928.580   111332950.338 7      5526.363          47.312    20797927.740   111332950.350 7      5526.363          46.562    20797947.820    86592387.911 8      4298.282          49.812    20797947.840    86592382.901 8      4298.282          49.375
G21  21378791.200   112346299.912 7      1296.147          47.062    21378790.000   112346299.927 5      1296.147          33.437    21378794.080    87542584.944 5      1009.985          33.437
G02  21416713.500   112545587.363 7      2196.728          46.875    21416711.320   112545587.370 6      2196.728          38.125    21416715.940    87697873.564 6      1711.736          38.437
R22  20892989.440   111528205.630 6      3287.418          41.812    20892988.580   111528205.628 6      3287.418          40.937    20893000.200    86744194.655 7      2556.880          42.625    20893000.300    86744193.666 7      2556.880          43.312
G03  20986784.000   110286300.298 7      4980.770          44.000    20986784.300   110286300.297 5      4980.770          33.187    20986792.780    85937404.887 5      3881.120          33.125    20986793.460    85937422.916 7      3881.120          46.375
G08  20887365.680   109763843.003 8      1443.000          49.562    20887363.860   109763843.003 8      1443.000          49.062    20887373.260    85530298.551 8      1124.416          48.687    20887375.240    85530307.550 8      1124.416          50.750
> 2024 05 08 14 52 20.0000000  0 10
G27  23247613.000   122167015.483 7         4.513          45.937    23247612.400   122167015.490 6         4.513          41.062    23247629.360    95195146.192 6         3.516          41.437    23247629.860    95195148.192 7         3.516          42.812
R06  20798898.620   110986889.481 6      1961.920          38.562    20798898.040   110986889.469 6      1961.920          37.687
R12  21179922.060   113139318.405 7      1770.903          45.500    21179924.260   113139318.415 7      1770.903          44.562    21179934.680    87997326.499 6      1377.369          39.875    21179935.980    87997323.496 6      1377.369          40.000
R21  21354570.400   114272628.288 5      1575.911          34.812    21354572.240   114272628.335 6      1575.911          36.125    21354587.400    88878759.774 6      1225.709          38.000    21354587.040    88878759.763 6      1225.709          38.375
R07  20796896.120   111327424.119 8      5526.062          48.125    20796895.020   111327424.142 7      5526.062          46.687    20796915.480    86588089.756 8      4298.048          49.625    20796915.320    86588084.752 8      4298.048          49.937
G21  21378544.480   112345003.744 7      1296.223          47.562    21378543.180   112345003.762 5      1296.223          33.750    21378547.620    87541574.942 5      1010.044          33.437
G02  21416295.460   112543390.671 7      2196.753          47.125    21416293.460   112543390.676 6      2196.753          37.875    21416297.860    87696161.857 6      1711.755          38.187
R22  20892373.180   111524918.093 6      3287.621          41.812    20892372.840   111524918.080 6      3287.621          40.937    20892384.440    86741637.680 7      2557.039          42.625    20892384.360    86741636.688 7      2557.039          42.937
G03  20985836.280   110281319.699 7      4980.420          44.062    20985836.320   110281319.698 5      4980.420          33.187    20985844.940    85933523.906 5      3880.847          33.125    20985846.080    85933541.940 7      3880.847          46.687
G08  20887090.980   109762400.238 8      1442.693          49.250    20887089.340   109762400.240 8      1442.693          48.875    20887098.760    85529174.319 8      1124.176          48.812    20887100.620    85529183.318 8      1124.176          50.375
> 2024 05 08 14 52 21.0000000  0 10
G27  23247612.420   122167011.105 7         4.162          44.812    23247611.740   122167011.113 6         4.162          41.687    23247628.680    95195142.767 6         3.243          41.812    23247628.680    95195144.771 7         3.243          42.812
R06  20798531.240   110984928.042 6      1960.785          38.562    20798530.120   110984928.021 6      1960.785          37.687
R12  21179590.620   113137547.854 7      1770.075          45.375    21179592.400   113137547.860 7      1770.075          44.437    21179602.800    87995949.397 6      1376.725          39.687    21179603.840    87995946.392 6      1376.725          40.000
R21  21354275.780   114271052.249 5      1575.878          34.812    21354276.580   114271052.328 6      1575.878          36.125    21354291.800    88877533.993 6      1225.683          38.000    21354292.260    88877533.989 6      1225.683          38.375
R07  20795863.760   111321898.375 8      5525.375          48.000    20795862.740   111321898.393 7      5525.375          46.625    20795883.240    86583791.963 8      4297.514          49.812    20795882.940    86583786.959 8      4297.514          49.375
G21  21378297.560   112343707.521 7      1296.105          46.625    21378296.420   112343707.537 5      1296.105          33.750    21378301.060    87540564.898 5      1009.952          33.687
G02  21415877.520   112541193.953 7      2196.660          47.187    21415875.400   112541193.956 6      2196.660          38.375    21415879.920    87694450.126 6      1711.684          38.000
R22  20891757.260   111521630.489 6      3287.439          40.937    20891756.840   111521630.495 6      3287.439          40.937    20891768.520    86739080.667 7      2556.897          43.000    20891768.580    86739079.671 7      2556.897          43.375
G03  20984888.720   110276339.491 7      4979.853          43.812    20984888.480   110276339.496 5      4979.853          32.687    20984897.160    85929643.235 5      3880.405          33.125    20984898.120    85929661.271 7      3880.405          46.875
G08  20886816.560   109760957.739 8      1442.233          49.187    20886814.680   109760957.741 8      1442.233          48.812    20886824.220    85528050.292 8      1123.818          48.812    20886826.260    85528059.290 8      1123.818          50.812
> 2024 05 08 14 52 22.0000000  0 10
G27  23247611.540   122167007.156 7         3.827          45.000    23247610.980   122167007.164 6         3.827          41.437    23247627.800    95195139.669 6         2.982          41.562    23247628.240    95195141.673 7         2.982          42.750
R06  20798163.620   110982967.591 6      1959.854          38.562    20798162.500   110982967.579 6      1959.854          37.687
R12  21179259.200   113135778.274 7      1769.211          45.062    21179260.700   113135778.267 7      1769.211          44.437    21179271.360    87994573.043 6      1376.053          39.687    21179272.540    87994570.048 6      1376.053          40.000
R21  21353979.960   114269476.475 5      1576.281          34.812    21353981.560   114269476.509 6      1576.281          36.125    21353997.900    88876308.362 6      1225.996          38.000    21353998.080    88876308.360 6      1225.996          38.375
R07  20794831.440   111316373.329 7      5524.791          47.937    20794830.900   111316373.355 7      5524.791          46.312    20794851.000    86579494.720 8      4297.059          49.812    20794850.600    86579489.715 8      4297.059          50.062
G21  21378051.060   112342411.540 7      1295.886          46.625    21378049.820   112342411.556 5      1295.886          33.250    21378054.620    87539555.040 5      1009.782          33.687
G02  21415459.320   112538997.511 7      2196.466          47.500    21415457.480   112538997.516 6      2196.466          38.375    21415462.040    87692738.615 6      1711.532          38.250
R22  20891141.840   111518343.104 6      3287.411          40.937    20891141.020   111518343.102 6      3287.411          41.062    20891152.660    86736523.806 7      2556.876          43.000    20891152.840    86736522.808 7      2556.876          43.187
G03  20983941.180   110271359.967 7      4979.167          43.312    20983940.880   110271359.974 5      4979.167          32.687    20983949.580    85925763.093 5      3879.871          32.625    20983950.260    85925781.126 7      3879.871          46.562
G08  20886542.000   109759515.804 8      1441.745          48.312    20886540.240   109759515.807 8      1441.745          48.812    20886549.800    85526926.702 8      1123.438          48.750    20886551.800    85526935.699 8      1123.438          50.312
> 2024 05 08 14 52 23.0000000  0 10
G27  23247610.680   122167003.488 7         3.584          45.312    23247610.280   122167003.495 6         3.584          41.312    23247627.180    95195136.794 6         2.793          41.375    23247627.620    95195138.799 7         2.793          42.750
R06  20797796.400   110981008.038 6      1959.268          38.562    20797795.400   110981008.036 6      1959.268          37.687
R12  21178928.020   113134009.536 7      1768.342          45.312    21178929.320   113134009.526 7      1768.342          44.125    21178940.580    87993197.359 6      1375.377          39.687    21178941.220    87993194.363 6      1375.377          39.687
R21  21353684.740   114267900.860 5      1575.555          34.812    21353687.200   114267900.888 6      1575.555          36.125    21353702.820    88875082.879 6      1225.432          38.000    21353703.500    88875082.871 6      1225.432          37.625
R07  20793799.680   111310848.837 8      5524.351          48.000    20793798.960   111310848.860 7      5524.351          46.500    20793818.960    86575197.901 8      4296.718          49.500    20793818.920    86575192.901 8      4296.718          50.250
G21  21377804.360   112341115.625 7      1295.931          46.187    21377803.260   112341115.640 5      1295.931          33.250    21377808.060    87538545.236 5      1009.816          33.750
G02  21415041.400   112536801.209 7      2196.296          46.500    21415039.560   112536801.214 6      2196.296          38.500    21415044.140    87691027.211 6      1711.399          38.312
R22  20890525.760   111515055.828 6      3287.201          40.937    20890525.240   111515055.821 6      3287.201          41.062    20890536.860    86733967.040 7      2556.712          42.937    20890537.140    86733966.034 7      2556.712          43.562
G03  20982993.100   110266380.947 7      4978.893          43.937    20982993.340   110266380.949 5      4978.893          32.687    20983002.060    85921883.345 5      3879.657          32.625    20983002.960    85921901.377 7      3879.657          46.062
G08  20886267.700   109758074.280 8      1441.388          48.937    20886265.860   109758074.282 8      1441.388          49.000    20886275.540    85525803.432 8      1123.160          48.875    20886277.580    85525812.435 8      1123.160          50.250
> 2024 05 08 14 52 24.0000000  0 10
G27  23247609.860   122167000.146 7         3.050          45.187    23247609.820   122167000.156 6         3.050          41.250    23247626.540    95195134.176 6         2.377          41.375    23247627.180    95195136.174 7         2.377          42.687
R06  20797430.240   110979049.527 6      1957.905          38.187    20797428.180   110979049.518 6      1957.905          37.687
R12  21178596.840   113132241.652 7      1767.368          44.687    21178597.780   113132241.643 7      1767.368          43.937    21178609.260    87991822.329 6      1374.620          39.687    21178610.140    87991819.340 6      1374.620          39.687
