     3.05           OBSERVATION DATA    MIXED               RINEX VERSION / TYPE
TPS2RIN 1.0.29.3920 TPS-USER            20240511 191602 UTC PGM / RUN BY / DATE
Win64 build Feb 23, 2024 (c) Topcon Positioning Systems     COMMENT
SRC: 20240508_GUI13.tps                                     COMMENT
OPT: -S -v 3.05                                             COMMENT
Observer            Agency                                  OBSERVER / AGENCY
O0M3X53SBGM         TPS HIPER_SR        4.8 HSR Jul,08,2022 REC # / TYPE / VERS
FW: 4.8 HSR Jul,08,2022 p3                                  COMMENT
SN: HiPer SR 1212-12575                                     COMMENT
000                 TPSHIPER_SR     NONE                    ANT # / TYPE
        1.8000        0.0000        0.0000                  ANTENNA: DELTA H/E/N
GUI13                                                       MARKER NAME
  5388144.9222 -1586590.4582  3013280.8403                  APPROX POSITION XYZ
  2024     5     8    12    45   55.0000000     GPS         TIME OF FIRST OBS
  2024     5     8    13     0   55.0000000     GPS         TIME OF LAST OBS
     1.000                                                  INTERVAL
   900 EPOCHS                                               COMMENT
G   16 C1C L1C D1C S1C C1W L1W D1W S1W C2W L2W D2W S2W C2X  SYS / # / OBS TYPES
       L2X D2X S2X                                          SYS / # / OBS TYPES
R   16 C1C L1C D1C S1C C1P L1P D1P S1P C2P L2P D2P S2P C2C  SYS / # / OBS TYPES
       L2C D2C S2C                                          SYS / # / OBS TYPES
    11                                                      # OF SATELLITES
   G02   900   900   900   900   900   900   900   900   900PRN / # OF OBS
         900   900   900     0     0     0     0            PRN / # OF OBS
   G08   900   900   900   900   900   900   900   900   900PRN / # OF OBS
         900   900   900   900   900   900   900            PRN / # OF OBS
   G10   900   900   900   900   900   900   900   900   900PRN / # OF OBS
         900   900   900   900   900   900   900            PRN / # OF OBS
   G16   900   900   900   900   900   900   900   900   900PRN / # OF OBS
         900   900   900     0     0     0     0            PRN / # OF OBS
   G21   900   900   900   900   900   900   900   900   900PRN / # OF OBS
         900   900   900     0     0     0     0            PRN / # OF OBS
   G26   670   670   670   670   665   665   665   665   665PRN / # OF OBS
         665   665   665   661   661   661   661            PRN / # OF OBS
   G27   900   900   900   900   900   900   900   900   900PRN / # OF OBS
         900   900   900   900   900   900   900            PRN / # OF OBS
   R05   900   900   900   900   900   900   900   900   900PRN / # OF OBS
         900   900   900   900   900   900   900            PRN / # OF OBS
   R10   900   900   900   900   900   900   900   900     0PRN / # OF OBS
           0     0     0     0     0     0     0            PRN / # OF OBS
   R11   900   900   900   900   900   900   900   900   900PRN / # OF OBS
         900   900   900   900   900   900   900            PRN / # OF OBS
   R21   900   900   900   900   900   900   900   900   900PRN / # OF OBS
         900   900   900   900   900   900   900            PRN / # OF OBS
G L1C                                                       SYS / PHASE SHIFT
G L1W -0.25000                                              SYS / PHASE SHIFT
G L2W  0.00000                                              SYS / PHASE SHIFT
G L2X  0.25000                                              SYS / PHASE SHIFT
R L1C                                                       SYS / PHASE SHIFT
R L1P -0.25000                                              SYS / PHASE SHIFT
R L2P -0.25000                                              SYS / PHASE SHIFT
R L2C                                                       SYS / PHASE SHIFT
  4 R05  1 R10 -7 R11  0 R21  4                             GLONASS SLOT / FRQ #
                                                            GLONASS COD/PHS/BIS
    18    18  1929     7GPS                                 LEAP SECONDS
                                                            END OF HEADER
> 2024 05 08 12 45 55.0000000  0 11
G27  21181479.600   111309422.933 7      1618.259          46.750    21181478.840   111309422.935 7      1618.259          45.687    21181484.580    86734633.660 7      1260.981          45.937    21181484.880    86734639.664 7      1260.981          46.500
R21  20478165.500   109582819.569 5      2178.680          34.500    20478166.920   109582819.600 5      2178.680          34.687    20478179.540    85231119.056 5      1694.529          35.750    20478177.940    85231131.058 6      1694.529          36.187
R11  20004475.920   106897836.571 6      3758.881          41.812    20004471.600   106897836.556 6      3758.881          41.437    20004483.360    83142829.446 8      2923.574          49.000    20004483.640    83142814.445 8      2923.574          49.437
R05  23233379.960   124195729.413 7      3825.643          47.812    23233379.300   124195729.427 7      3825.643          46.625    23233392.740    96596744.539 6      2975.500          37.875    23233393.340    96596756.542 6      2975.500          37.875
G10  22301156.480   117193374.580 8      1628.263          48.375    22301155.260   117193374.580 7      1628.263          46.375    22301163.300    91319547.585 7      1268.776          46.000    22301163.880    91319545.589 7      1268.776          47.500
G08  21194532.280   111378024.560 7      3245.869          47.625    21194535.480   111378024.557 5      3245.869          34.937    21194542.120    86788093.163 5      2529.248          35.000    21194542.920    86788106.176 7      2529.248          47.500
R10  20323413.640   108335222.966 7      -523.921          46.312    20323413.500   108335222.977 7      -523.921          45.437
G26  23540509.300   123706208.918 6      -931.193          36.312    23540507.980   123706208.920 5      -931.193          34.062    23540526.860    96394509.193 5      -725.605          33.562    23540527.460    96394518.181 7      -725.605          44.937
G16  21173306.000   111266474.887 7       440.622          46.687    21173305.480   111266474.894 6       440.622          38.250    21173310.160    86701163.600 6       343.342          38.312
G02  22264778.820   117002201.030 7      3979.160          46.500    22264776.880   117002201.035 6      3979.160          39.187    22264782.960    91170561.738 6      3100.644          39.125
G21  20860223.760   109621215.686 7      3170.034          47.562    20860222.140   109621215.693 6      3170.034          40.625    20860227.320    85419142.375 6      2470.156          40.750
> 2024 05 08 12 45 57.0000000  0 11
G27  21180863.520   111306186.609 8      1618.067          48.062    21180863.120   111306186.609 7      1618.067          45.187    21180868.660    86732111.845 7      1260.832          45.687    21180868.960    86732117.840 7      1260.832          46.562
R21  20477350.720   109578462.380 5      2178.383          34.500    20477352.800   109578462.403 5      2178.383          34.687    20477365.440    85227730.123 5      1694.298          35.750    20477363.740    85227742.120 6      1694.298          36.187
R11  20003069.420   106890320.234 6      3757.371          41.437    20003065.420   106890320.206 6      3757.371          40.937    20003076.980    83136983.392 8      2922.400          49.562    20003077.360    83136968.393 8      2922.400          49.937
R05  23231948.400   124188079.123 7      3824.551          47.812    23231947.600   124188079.137 7      3824.551          46.562    23231962.980    96590794.302 6      2974.651          37.937    23231962.460    96590806.300 6      2974.651          37.687
G10  22300536.820   117190119.107 8      1627.140          48.437    22300535.920   117190119.106 7      1627.140          46.062    22300543.740    91317010.856 7      1267.901          46.250    22300544.140    91317008.856 7      1267.901          47.437
G08  21193297.000   111371532.880 7      3245.726          47.250    21193300.040   111371532.875 5      3245.726          34.750    21193306.700    86783034.707 5      2529.137          34.875    21193307.740    86783047.719 7      2529.137          47.250
R10  20323610.460   108336271.978 7      -525.161          46.375    20323610.120   108336271.995 7      -525.161          45.375
G26  23540864.260   123708071.558 6      -931.635          37.125    23540862.520   123708071.555 5      -931.635          34.250    23540881.340    96395960.551 5      -725.949          34.250    23540881.520    96395969.540 7      -725.949          44.687
G16  21173138.540   111265594.471 7       439.668          47.000    21173138.140   111265594.479 6       439.668          38.687    21173142.600    86700477.558 6       342.599          38.312
G02  22263264.460   116994243.375 7      3978.378          46.625    22263262.440   116994243.379 6      3978.378          38.750    22263268.540    91164360.973 6      3100.035          38.750
G21  20859017.520   109614876.416 7      3169.104          47.187    20859015.780   109614876.423 6      3169.104          40.437    20859020.880    85414202.688 6      2469.432          40.687
> 2024 05 08 12 45 58.0000000  0 11
G27  21180555.660   111304568.794 7      1617.669          47.375    21180555.140   111304568.796 7      1617.669          45.625    21180560.800    86730851.210 7      1260.521          46.187    21180561.480    86730857.207 7      1260.521          46.500
R21  20476943.400   109576284.347 5      2177.583          34.500    20476945.940   109576284.354 5      2177.583          34.687    20476959.220    85226036.072 5      1693.676          35.562    20476956.740    85226048.080 6      1693.676          36.187
R11  20002366.380   106886563.415 6      3756.326          41.437    20002362.220   106886563.389 6      3756.326          40.937    20002374.040    83134061.427 8      2921.587          50.125    20002374.340    83134046.428 8      2921.587          49.687
R05  23231233.340   124184254.921 7      3823.842          47.437    23231232.320   124184254.930 7      3823.842          46.625    23231247.440    96587819.936 6      2974.099          37.937    23231246.980    96587831.925 6      2974.099          37.687
G10  22300227.300   117188492.350 8      1626.375          48.250    22300226.200   117188492.350 7      1626.375          45.937    22300234.320    91315743.250 7      1267.305          46.375    22300234.740    91315741.249 7      1267.305          47.812
G08  21192679.280   111368287.326 7      3245.389          47.312    21192682.380   111368287.320 5      3245.389          34.750    21192688.980    86780505.702 5      2528.875          34.687    21192690.140    86780518.723 7      2528.875          47.562
R10  20323708.820   108336797.550 7      -525.995          46.312    20323708.460   108336797.567 7      -525.995          46.000
G26  23541041.440   123709003.220 6      -931.920          37.500    23541040.060   123709003.222 5      -931.920          34.250    23541058.520    96396686.504 5      -726.172          34.250    23541058.600    96396695.502 7      -726.172          45.062
G16  21173054.920   111265155.042 7       439.084          46.625    21173054.640   111265155.050 6       439.084          38.937    21173058.840    86700135.140 6       342.144          38.625
G02  22262507.460   116990265.168 7      3977.966          46.187    22262505.420   116990265.178 6      3977.966          39.437    22262511.560    91161261.072 6      3099.714          38.687
G21  20858414.540   109611707.582 7      3168.529          47.562    20858412.580   109611707.590 6      3168.529          40.562    20858417.880    85411733.461 6      2468.984          40.937
> 2024 05 08 12 45 59.0000000  0 11
G27  21180247.980   111302951.149 7      1617.657          47.375    21180247.380   111302951.152 7      1617.657          45.750    21180253.120    86729590.706 7      1260.512          45.625    21180253.500    86729596.703 7      1260.512          46.625
R21  20476536.800   109574106.560 5      2177.519          34.500    20476538.560   109574106.578 5      2177.519          34.687    20476552.500    85224342.255 5      1693.626          35.562    20476549.540    85224354.262 6      1693.626          36.125
R11  20001663.380   106882807.456 6      3755.578          41.250    20001659.120   106882807.430 6      3755.578          40.500    20001671.280    83131140.128 8      2921.005          50.000    20001671.420    83131125.129 8      2921.005          49.687
R05  23230518.100   124180431.297 7      3823.445          47.812    23230516.960   124180431.301 7      3823.445          47.000    23230531.840    96584846.008 6      2973.790          37.937    23230531.880    96584858.012 6      2973.790          38.312
G10  22299917.760   117186866.177 8      1626.015          48.500    22299916.820   117186866.174 7      1626.015          46.625    22299924.760    91314476.093 7      1267.024          46.312    22299925.460    91314474.091 8      1267.024          48.000
G08  21192061.440   111365041.897 7      3245.437          47.625    21192064.860   111365041.897 5      3245.437          34.812    21192071.340    86777976.803 5      2528.912          34.937    21192072.560    86777989.822 7      2528.912          47.000
R10  20323807.560   108337323.768 7      -526.460          46.687    20323807.440   108337323.779 7      -526.460          45.562
G26  23541218.600   123709935.088 6      -931.774          37.562    23541217.440   123709935.090 5      -931.774          34.250    23541235.920    96397412.612 5      -726.057          33.750    23541236.060    96397421.606 7      -726.057          44.437
G16  21172971.400   111264716.071 7       438.887          47.687    21172970.980   111264716.076 6       438.887          38.625    21172975.320    86699793.078 6       341.990          38.687
G02  22261750.700   116986287.366 7      3977.737          45.812    22261748.420   116986287.377 6      3977.737          38.625    22261754.620    91158161.493 6      3099.535          38.687
G21  20857811.360   109608539.224 7      3168.239          47.500    20857809.780   109608539.232 6      3168.239          40.562    20857814.820    85409264.615 6      2468.758          40.312
> 2024 05 08 12 46  0.0000000  0 11
G27  21179940.300   111301333.770 7      1617.191          47.625    21179939.660   111301333.775 7      1617.191          45.500    21179945.280    86728330.406 7      1260.149          45.562    21179945.960    86728336.401 7      1260.149          46.687
R21  20476130.180   109571929.161 5      2177.072          34.500    20476132.960   109571929.184 5      2177.072          34.687    20476145.020    85222648.712 5      1693.278          35.562    20476142.720    85222660.715 6      1693.278          36.125
R11  20000960.600   106879052.448 6      3754.403          41.250    20000956.580   106879052.425 6      3754.403          40.500    20000968.820    83128219.558 8      2920.092          50.062    20000968.740    83128204.559 8      2920.092          49.937
R05  23229802.660   124176608.386 7      3822.505          46.875    23229801.780   124176608.390 7      3822.505          47.125    23229816.120    96581872.641 6      2973.059          38.125    23229816.640    96581884.645 6      2973.059          38.312
G10  22299608.300   117185240.697 8      1625.072          48.062    22299607.360   117185240.697 7      1625.072          45.937    22299615.420    91313209.486 7      1266.290          45.812    22299616.240    91313207.484 7      1266.290          47.812
G08  21191444.160   111361796.708 7      3244.994          47.500    21191447.320   111361796.708 5      3244.994          34.812    21191453.820    86775448.086 5      2528.567          34.937    21191455.160    86775461.103 7      2528.567          47.437
R10  20323906.420   108337850.718 7      -527.386          46.750    20323906.160   108337850.734 7      -527.386          45.812
G26  23541396.300   123710867.255 6      -932.223          37.562    23541394.880   123710867.252 5      -932.223          34.250    23541413.380    96398138.955 5      -726.407          33.500    23541413.940    96398147.954 7      -726.407          44.437
G16  21172887.960   111264277.698 7       437.997          47.062    21172887.740   111264277.701 6       437.997          38.875    21172892.100    86699451.487 6       341.297          38.937
G02  22260993.920   116982310.051 7      3977.015          45.187    22260991.640   116982310.058 6      3977.015          38.937    22260997.660    91155062.286 6      3098.973          38.562
G21  20857208.520   109605371.465 7      3167.375          46.687    20857206.800   109605371.470 6      3167.375          40.062    20857212.120    85406796.233 6      2468.084          39.750
> 2024 05 08 12 46  1.0000000  0 11
G27  21179632.740   111299716.362 7      1617.444          47.062    21179631.460   111299716.365 7      1617.444          45.312    21179637.580    86727070.088 7      1260.346          45.312    21179637.860    86727076.082 7      1260.346          46.687
R21  20475722.560   109569751.822 6      2177.166          36.812    20475727.040   109569751.855 6      2177.166          36.625    20475738.020    85220955.225 5      1693.351          35.562    20475735.960    85220967.237 6      1693.351          36.125
R11  20000258.080   106875298.033 6      3754.140          41.187    20000254.220   106875298.016 6      3754.140          40.812    20000266.300    83125299.468 8      2919.887          50.437    20000266.440    83125284.469 8      2919.887          50.125
R05  23229087.640   124172785.890 7      3822.246          46.687    23229086.560   124172785.891 7      3822.246          46.500    23229102.000    96578899.595 6      2972.858          38.125    23229101.840    96578911.588 6      2972.858          38.687
G10  22299299.240   117183615.593 8      1624.925          48.812    22299298.340   117183615.593 7      1624.925          46.250    22299306.420    91311943.173 7      1266.176          46.125    22299306.660    91311941.173 7      1266.176          47.812
G08  21190826.820   111358551.435 8      3245.308          48.312    21190829.840   111358551.437 5      3245.308          35.062    21190836.220    86772919.301 5      2528.811          34.875    21190837.300    86772932.321 7      2528.811          47.375
R10  20324005.300   108338378.105 7      -527.619          46.562    20324005.040   108338378.121 7      -527.619          45.437
G26  23541574.360   123711799.419 6      -932.082          38.312    23541572.180   123711799.414 5      -932.082          34.250    23541590.520    96398865.301 5      -726.297          33.500    23541591.420    96398874.297 7      -726.297          44.562
G16  21172804.560   111263839.570 7       438.002          47.687    21172804.340   111263839.575 6       438.002          39.000    21172808.540    86699110.085 6       341.300          38.687
G02  22260236.820   116978332.909 7      3977.069          46.375    22260234.660   116978332.913 6      3977.069          38.625    22260240.780    91151963.216 6      3099.015          38.562
G21  20856605.880   109602203.969 7      3167.388          47.625    20856604.120   109602203.974 6      3167.388          40.187    20856609.360    85404328.052 6      2468.094          40.187
> 2024 05 08 12 46  2.0000000  0 11
G27  21179324.920   111298099.178 7      1617.120          47.750    21179324.180   111298099.177 7      1617.120          45.875    21179329.700    86725809.945 7      1260.093          45.750    21179330.360    86725815.936 7      1260.093          46.625
R21  20475316.800   109567574.792 6      2176.707          36.812    20475319.400   109567574.836 6      2176.707          36.625    20475330.200    85219261.995 5      1692.994          35.562    20475328.960    85219274.013 6      1692.994          36.125
R11  19999556.080   106871544.570 6      3752.939          41.187    19999551.900   106871544.550 6      3752.939          40.812    19999564.140    83122380.110 8      2918.952          50.625    19999563.840    83122365.109 8      2918.952          50.125
R05  23228372.460   124168964.035 7      3821.590          46.750    23228371.560   124168964.039 7      3821.590          46.250    23228385.960    96575927.049 6      2972.348          38.312    23228386.680    96575939.045 6      2972.348          38.687
G10  22298990.100   117181991.157 8      1624.183          48.250    22298989.220   117181991.156 7      1624.183          46.125    22298996.940    91310677.372 7      1265.597          46.562    22298997.720    91310675.372 7      1265.597          47.750
G08  21190209.280   111355306.371 7      3245.009          47.875    21190212.240   111355306.368 5      3245.009          34.500    21190218.820    86770390.685 5      2528.579          34.875    21190219.840    86770403.696 7      2528.579          46.875
R10  20324104.480   108338906.204 7      -528.473          46.625    20324104.040   108338906.220 7      -528.473          45.562
G26  23541751.200   123712731.844 6      -932.397          38.562    23541749.820   123712731.838 5      -932.397          34.000    23541768.000    96399591.845 5      -726.543          33.500    23541768.560    96399600.842 7      -726.543          44.312
G16  21172721.620   111263401.981 7       437.373          47.375    21172720.920   111263401.981 6       437.373          39.312    21172725.300    86698769.100 6       340.810          39.062
G02  22259480.180   116974356.200 7      3976.536          45.562    22259477.920   116974356.205 6      3976.536          38.125    22259483.980    91148864.486 6      3098.600          38.125
G21  20856003.500   109599037.011 7      3166.700          46.562    20856001.340   109599037.016 6      3166.700          40.187    20856006.500    85401860.295 6      2467.558          39.937
> 2024 05 08 12 46  3.0000000  0 11
G27  21179017.040   111296482.224 7      1616.849          47.500    21179016.300   111296482.224 7      1616.849          45.187    21179022.020    86724549.973 7      1259.883          45.500    21179022.800    86724555.970 7      1259.883          46.625
R21  20474909.720   109565398.110 6      2176.425          36.812    20474913.680   109565398.144 6      2176.425          36.625    20474923.180    85217569.005 6      1692.775          36.000    20474921.900    85217581.017 6      1692.775          36.062
R11  19998853.580   106867791.959 6      3752.150          41.750    19998850.240   106867791.941 6      3752.150          40.937    19998861.800    83119461.406 8      2918.339          50.250    19998861.520    83119446.405 8      2918.339          50.125
R05  23227657.740   124165142.856 7      3820.800          46.562    23227656.520   124165142.860 7      3820.800          46.687    23227671.800    96572955.019 6      2971.733          38.312    23227671.800    96572967.013 6      2971.733          38.687
G10  22298681.280   117180367.343 8      1623.531          48.812    22298680.120   117180367.342 7      1623.531          46.375    22298688.080    91309412.059 7      1265.089          46.500    22298688.800    91309410.058 7      1265.089          47.875
G08  21189591.780   111352061.476 8      3244.745          48.000    21189595.020   111352061.473 5      3244.745          34.500    21189601.240    86767862.195 5      2528.373          34.875    21189602.600    86767875.204 7      2528.373          47.250
R10  20324203.640   108339434.966 7      -529.109          46.875    20324203.340   108339434.980 7      -529.109          45.562
G26  23541928.220   123713664.502 6      -932.700          38.562    23541927.380   123713664.497 5      -932.700          34.000    23541945.540    96400318.573 5      -726.779          33.500    23541946.440    96400327.566 7      -726.779          44.250
G16  21172638.340   111262964.907 7       436.812          47.375    21172637.680   111262964.911 6       436.812          39.187    21172642.180    86698428.516 6       340.373          38.812
G02  22258723.500   116970379.933 7      3975.997          45.562    22258721.260   116970379.940 6      3975.997          38.687    22258727.360    91145766.100 6      3098.179          38.312
G21  20855400.900   109595870.584 7      3166.160          47.562    20855398.960   109595870.592 6      3166.160          39.875    20855404.000    85399392.947 6      2467.138          39.500
> 2024 05 08 12 46  4.0000000  0 11
G27  21178709.380   111294865.515 7      1616.450          47.062    21178708.540   111294865.512 7      1616.450          45.375    21178714.300    86723290.199 7      1259.571          45.500    21178715.160    86723296.190 7      1259.571          46.875
R21  20474503.520   109563221.843 6      2175.871          36.812    20474506.820   109563221.890 6      2175.871          36.625    20474516.620    85215876.358 6      1692.344          36.000    20474515.360    85215888.372 6      1692.344          36.062
R11  19998151.520   106864040.304 6      3750.991          41.750    19998148.120   106864040.290 6      3750.991          40.937    19998159.880    83116543.455 8      2917.437          50.437    19998159.720    83116528.456 8      2917.437          50.437
R05  23226943.080   124161322.330 7      3820.066          46.875    23226942.060   124161322.331 7      3820.066          46.187    23226955.980    96569983.515 6      2971.162          38.312    23226957.420    96569995.507 6      2971.162          38.187
G10  22298372.560   117178744.223 8      1622.599          48.687    22298371.440   117178744.225 7      1622.599          46.437    22298379.200    91308147.294 7      1264.363          46.187    22298379.700    91308145.294 7      1264.363          47.875
G08  21188974.320   111348816.791 8      3244.449          48.250    21188977.340   111348816.788 5      3244.449          34.687    21188983.780    86765333.873 5      2528.142          34.562    21188985.140    86765346.883 7      2528.142          46.937
R10  20324302.760   108339964.443 7      -529.929          46.437    20324302.620   108339964.462 7      -529.929          45.437
G26  23542106.080   123714597.426 6      -933.254          37.812    23542104.700   123714597.434 5      -933.254          34.000    23542122.840    96401045.513 5      -727.211          33.437    23542124.040    96401054.517 7      -727.211          44.375
G16  21172555.200   111262528.381 8       436.154          48.187    21172554.760   111262528.383 6       436.154          38.937    21172559.200    86698088.362 6       339.860          38.437
G02  22257967.040   116966404.117 7      3975.432          46.687    22257964.620   116966404.122 6      3975.432          38.312    22257970.760    91142668.062 6      3097.740          38.187
G21  20854798.320   109592704.722 7      3165.417          47.937    20854796.540   109592704.727 6      3165.417          40.312    20854801.460    85396926.042 6      2466.559          40.187
> 2024 05 08 12 46  5.0000000  0 11
G27  21178401.860   111293248.906 7      1616.599          47.875    21178400.920   111293248.908 7      1616.599          45.125    21178406.980    86722030.504 7      1259.688          44.937    21178407.680    86722036.499 7      1259.688          46.875
R21  20474097.180   109561045.807 6      2175.970          36.812    20474099.940   109561045.840 6      2175.970          36.625    20474109.800    85214183.868 6      1692.421          36.000    20474108.880    85214195.878 6      1692.421          36.062
R11  19997449.500   106860289.403 7      3750.643          42.312    19997445.840   106860289.391 6      3750.643          40.937    19997457.940    83113626.098 8      2917.167          50.250    19997457.480    83113611.099 8      2917.167          50.187
R05  23226228.260   124157502.281 7      3819.866          47.250    23226227.060   124157502.291 7      3819.866          46.937    23226240.680    96567012.371 6      2971.007          38.437    23226242.340    96567024.364 6      2971.007          38.187
G10  22298063.500   117177121.604 8      1622.431          49.437    22298062.400   117177121.606 7      1622.431          46.000    22298070.340    91306882.916 7      1264.232          46.437    22298070.980    91306880.916 7      1264.232          47.812
G08  21188356.880   111345572.183 8      3244.660          48.187    21188359.980   111345572.180 5      3244.660          34.687    21188366.380    86762805.609 5      2528.307          34.562    21188367.820    86762818.620 7      2528.307          46.750
R10  20324402.340   108340494.490 7      -530.262          46.312    20324402.020   108340494.512 7      -530.262          45.312
G26  23542283.560   123715530.513 6      -932.950          38.125    23542282.360   123715530.518 5      -932.950          34.000    23542300.420    96401772.571 5      -726.974          33.437    23542301.400    96401781.557 7      -726.974          44.375
G16  21172472.180   111262092.263 7       436.038          47.562    21172471.760   111262092.268 6       436.038          38.875    21172476.120    86697748.526 6       339.769          39.000
G02  22257210.140   116962428.615 7      3975.511          45.750    22257208.300   116962428.620 6      3975.511          38.812    22257214.180    91139570.268 6      3097.801          38.500
G21  20854195.800   109589539.257 7      3165.399          47.625    20854194.120   109589539.259 6      3165.399          40.062    20854199.100    85394459.444 6      2466.545          40.250
> 2024 05 08 12 46  6.0000000  0 11
G27  21178094.160   111291632.305 7      1616.546          47.437    21178093.060   111291632.307 7      1616.546          45.312    21178099.220    86720770.811 7      1259.646          45.125    21178099.920    86720776.800 7      1259.646          47.000
R21  20473690.720   109558869.829 6      2175.841          38.062    20473693.440   109558869.867 6      2175.841          37.687    20473703.600    85212491.455 6      1692.321          36.000    20473702.280    85212503.471 6      1692.321          36.062
R11  19996748.160   106856539.210 6      3749.887          41.812    19996745.000   106856539.190 6      3749.887          40.937    19996756.440    83110709.264 8      2916.578          50.437    19996756.080    83110694.265 8      2916.578          50.812
R05  23225513.680   124153682.661 7      3819.320          46.875    23225512.480   124153682.660 7      3819.320          46.562    23225526.960    96564041.553 6      2970.582          38.437    23225527.800    96564053.540 6      2970.582          38.000
G10  22297754.860   117175499.419 8      1621.972          48.687    22297753.900   117175499.419 7      1621.972          46.000    22297761.720    91305618.872 7      1263.874          46.437    22297762.200    91305616.863 8      1263.874          48.062
G08  21187739.540   111342327.532 7      3244.588          47.625    21187742.540   111342327.526 5      3244.588          34.562    21187748.880    86760277.311 5      2528.250          34.500    21187750.260    86760290.327 7      2528.250          47.312
R10  20324501.840   108341024.999 7      -530.819          45.937    20324501.560   108341025.023 7      -530.819          45.937
G26  23542461.320   123716463.608 6      -933.032          38.125    23542460.060   123716463.605 5      -933.032          34.125    23542477.980    96402499.635 5      -727.038          33.375    23542478.920    96402508.617 7      -727.038          44.375
G16  21172389.360   111261656.447 8       435.644          48.500    21172388.880   111261656.450 6       435.644          38.875    21172392.960    86697408.929 6       339.463          38.812
G02  22256453.960   116958453.327 7      3975.183          45.500    22256451.700   116958453.335 6      3975.183          38.625    22256457.580    91136472.647 6      3097.545          38.500
G21  20853593.600   109586374.115 8      3164.975          48.062    20853591.820   109586374.117 6      3164.975          39.812    20853596.840    85391993.101 6      2466.214          40.187
> 2024 05 08 12 46  7.0000000  0 11
G27  21177786.780   111290015.995 7      1616.212          47.437    21177785.460   111290015.995 7      1616.212          45.000    21177791.700    86719511.346 7      1259.386          45.062    21177792.400    86719517.337 7      1259.386          46.875
R21  20473284.740   109556694.260 6      2175.324          38.062    20473286.960   109556694.299 6      2175.324          37.687    20473296.700    85210799.340 6      1691.918          36.375    20473295.700    85210811.352 6      1691.918          36.625
R11  19996046.760   106852789.952 6      3748.852          41.812    19996043.380   106852789.943 6      3748.852          41.437    19996054.780    83107793.187 8      2915.774          50.375    19996054.320    83107778.186 8      2915.774          50.875
R05  23224799.140   124149863.743 7      3818.591          46.937    23224797.860   124149863.755 7      3818.591          46.437    23224813.000    96561071.307 6      2970.015          38.437    23224813.440    96561083.298 6      2970.015          38.000
G10  22297446.200   117173877.962 8      1621.162          48.937    22297445.420   117173877.959 7      1621.162          46.125    22297453.260    91304355.399 7      1263.243          46.562    22297454.080    91304353.397 8      1263.243          48.000
G08  21187122.360   111339083.136 7      3244.331          47.875    21187125.080   111339083.136 5      3244.331          34.500    21187131.520    86757749.213 5      2528.050          34.437    21187132.520    86757762.222 7      2528.050          47.000
R10  20324601.700   108341556.272 7      -531.649          46.500    20324601.420   108341556.288 7      -531.649          46.000
G26  23542638.940   123717397.010 6      -933.503          37.875    23542637.580   123717397.007 5      -933.503          34.125    23542655.740    96403226.939 5      -727.405          33.375    23542656.540    96403235.939 7      -727.405          44.375
G16  21172306.380   111261221.223 8       435.019          48.187    21172306.200   111261221.228 6       435.019          39.062    21172310.220    86697069.787 6       338.975          38.687
G02  22255697.620   116954478.571 7      3974.532          46.437    22255695.320   116954478.576 6      3974.532          38.437    22255701.240    91133375.433 6      3097.038          38.062
G21  20852991.380   109583209.575 8      3164.281          48.437    20852989.640   109583209.577 6      3164.281          40.250    20852994.600    85389527.228 6      2465.674          40.312
> 2024 05 08 12 46  8.0000000  0 11
G27  21177479.100   111288399.972 7      1615.824          47.312    21177477.900   111288399.974 7      1615.824          44.937    21177484.220    86718252.108 7      1259.084          45.062    21177484.900    86718258.101 7      1259.084          47.312
R21  20472878.200   109554519.044 6      2175.160          38.062    20472880.320   109554519.094 6      2175.160          37.687    20472890.060    85209107.499 6      1691.791          36.375    20472888.980    85209119.526 6      1691.791          36.625
R11  19995344.680   106849041.659 7      3747.853          42.250    19995342.180   106849041.657 6      3747.853          41.437    19995353.500    83104877.852 8      2914.997          50.625    19995353.200    83104862.853 8      2914.997          51.125
R05  23224085.080   124146045.553 7      3817.875          45.937    23224083.740   124146045.565 7      3817.875          46.562    23224098.340    96558101.601 6      2969.459          38.062    23224099.600    96558113.590 6      2969.459          38.000
G10  22297137.900   117172257.191 8      1620.396          48.312    22297137.020   117172257.188 7      1620.396          45.812    22297144.880    91303092.460 7      1262.646          46.500    22297145.440    91303090.458 7      1262.646          47.812
G08  21186504.900   111335838.985 7      3244.083          46.875    21186507.540   111335838.990 5      3244.083          34.500    21186514.020    86755221.303 5      2527.857          34.437    21186515.300    86755234.310 7      2527.857          47.062
R10  20324701.660   108342088.289 7      -532.360          46.812    20324701.180   108342088.292 7      -532.360          45.375
G26  23542816.440   123718330.698 6      -933.683          37.875    23542815.220   123718330.698 5      -933.683          33.875    23542833.300    96403954.468 5      -727.545          33.687    23542834.060    96403963.456 7      -727.545          44.375
G16  21172223.920   111260786.573 7       434.412          47.812    21172223.480   111260786.581 6       434.412          38.687    21172227.540    86696731.097 6       338.503          38.375
G02  22254941.240   116950504.269 7      3974.101          46.312    22254938.960   116950504.274 6      3974.101          37.937    22254945.020    91130278.580 6      3096.702          37.750
G21  20852389.300   109580045.610 8      3163.727          48.375    20852387.620   109580045.615 6      3163.727          40.562    20852392.400    85387061.801 6      2465.242          40.437
> 2024 05 08 12 46  9.0000000  0 11
G27  21177171.700   111286784.041 7      1615.886          47.250    21177170.400   111286784.040 7      1615.886          45.375    21177176.660    86716992.938 7      1259.132          45.312    21177177.720    86716998.931 7      1259.132          47.125
R21  20472471.780   109552344.081 6      2174.874          38.062    20472473.680   109552344.146 6      2174.874          37.687    20472482.180    85207415.879 6      1691.568          36.375    20472482.360    85207427.893 6      1691.568          36.625
R11  19994642.860   106845294.162 7      3746.993          42.250    19994641.060   106845294.166 6      3746.993          41.562    19994652.300    83101963.132 8      2914.328          50.875    19994651.680    83101948.133 8      2914.328          50.437
R05  23223370.980   124142227.918 7      3817.358          46.250    23223369.400   124142227.922 7      3817.358          46.375    23223383.940    96555132.327 6      2969.056          38.062    23223385.080    96555144.306 6      2969.056          38.375
G10  22296829.220   117170636.948 8      1619.965          48.125    22296828.640   117170636.943 7      1619.965          46.125    22296836.480    91301829.923 7      1262.310          46.312    22296837.140    91301827.921 7      1262.310          47.687
G08  21185887.520   111332594.912 7      3243.995          46.937    21185890.260   111332594.912 5      3243.995          34.312    21185896.460    86752693.454 5      2527.788          34.437    21185897.980    86752706.467 7      2527.788          46.625
R10  20324801.580   108342620.886 7      -532.879          46.500    20324800.700   108342620.906 7      -532.879          45.937
G26  23542994.120   123719264.576 6      -934.018          37.750    23542992.920   123719264.575 5      -934.018          33.875    23543011.080    96404682.144 5      -727.806          33.687    23543012.120    96404691.136 7      -727.806          44.250
G16  21172141.140   111260352.334 7       434.024          47.500    21172140.820   111260352.344 6       434.024          38.750    21172144.860    86696392.725 6       338.201          38.812
G02  22254184.960   116946530.298 7      3973.814          45.937    22254182.640   116946530.301 6      3973.814          38.562    22254188.640    91127181.982 6      3096.478          37.750
G21  20851787.420   109576882.073 8      3163.355          48.250    20851785.640   109576882.078 6      3163.355          40.312    20851790.520    85384596.711 6      2464.952          39.875
> 2024 05 08 12 46 10.0000000  0 11
G27  21176864.260   111285168.372 7      1615.524          46.437    21176862.820   111285168.374 7      1615.524          44.500    21176869.260    86715733.972 7      1258.850          44.625    21176870.040    86715739.969 7      1258.850          47.125
R21  20472065.540   109550169.531 6      2174.357          37.750    20472066.920   109550169.578 6      2174.357          38.250    20472075.920    85205724.545 6      1691.166          36.375    20472076.220    85205736.554 6      1691.166          36.625
R11  19993941.820   106841547.557 7      3746.178          42.000    19993940.100   106841547.556 6      3746.178          41.562    19993951.180    83099049.100 8      2913.694          51.375    19993950.700    83099034.101 8      2913.694          51.375
R05  23222656.840   124138410.941 7      3816.706          47.187    23222655.560   124138410.943 7      3816.706          46.000    23222669.280    96552163.574 6      2968.549          38.062    23222671.000    96552175.550 6      2968.549          38.375
G10  22296521.140   117169017.362 8      1619.280          48.437    22296520.480   117169017.356 7      1619.280          46.312    22296528.360    91300567.914 7      1261.777          46.687    22296529.040    91300565.916 8      1261.777          48.312
G08  21185270.200   111329351.047 7      3243.718          47.062    21185273.120   111329351.049 5      3243.718          34.312    21185279.240    86750165.769 5      2527.573          34.437    21185280.720    86750178.780 7      2527.573          46.750
R10  20324901.580   108343154.217 7      -533.633          46.062    20324901.040   108343154.239 7      -533.633          45.875
G26  23543172.440   123720198.690 6      -934.366          37.625    23543170.400   123720198.689 5      -934.366          33.937    23543188.840    96405410.007 5      -728.077          33.312    23543189.560    96405418.995 7      -728.077          44.250
G16  21172058.720   111259918.649 7       433.374          47.312    21172058.360   111259918.654 6       433.374          39.250    21172062.320    86696054.778 6       337.694          38.562
G02  22253428.820   116942556.803 7      3973.206          46.125    22253426.660   116942556.803 6      3973.206          37.687    22253432.420    91124085.754 6      3096.005          37.687
G21  20851185.560   109573719.096 7      3162.688          47.875    20851183.700   109573719.101 6      3162.688          40.312    20851188.540    85382132.052 6      2464.432          40.187
> 2024 05 08 12 46 11.0000000  0 11
G27  21176556.900   111283552.943 7      1615.214          46.687    21176555.520   111283552.947 7      1615.214          45.000    21176561.900    86714475.198 7      1258.609          45.125    21176562.580    86714481.193 7      1258.609          47.250
R21  20471659.360   109547995.303 6      2174.071          37.750    20471660.320   109547995.342 6      2174.071          38.250    20471670.340    85204033.476 6      1690.944          36.187    20471669.340    85204045.488 6      1690.944          36.250
R11  19993240.940   106837801.901 7      3745.044          42.000    19993239.460   106837801.899 6      3745.044          41.500    19993250.200    83096135.814 8      2912.812          50.562    19993249.620    83096120.817 8      2912.812          51.187
R05  23221942.700   124134594.616 7      3815.998          46.500    23221941.620   124134594.623 7      3815.998          46.187    23221954.180    96549195.336 6      2967.998          37.375    23221957.120    96549207.316 6      2967.998          38.375
G10  22296213.220   117167398.477 8      1618.452          48.500    22296212.260   117167398.469 7      1618.452          46.562    22296220.280    91299306.441 7      1261.131          46.750    22296221.180    91299304.443 8      1261.131          48.187
G08  21184652.860   111326107.374 7      3243.538          47.875    21184655.800   111326107.371 5      3243.538          34.437    21184661.860    86747638.235 5      2527.432          34.500    21184663.240    86747651.247 7      2527.432          46.750
R10  20325001.900   108343688.297 7      -534.516          46.125    20325001.100   108343688.319 7      -534.516          45.750
G26  23543349.760   123721133.080 6      -934.628          37.625    23543348.160   123721133.077 5      -934.628          33.937    23543366.600    96406138.078 5      -728.282          33.312    23543367.660    96406147.067 7      -728.282          44.250
G16  21171976.140   111259485.487 7       432.894          47.312    21171975.840   111259485.492 6       432.894          38.687    21171979.900    86695717.245 6       337.320          38.437
G02  22252672.980   116938583.731 7      3972.817          45.500    22252670.560   116938583.731 6      3972.817          38.375    22252676.360    91120989.851 6      3095.702          38.125
G21  20850583.680   109570556.679 7      3162.036          47.750    20850581.840   109570556.684 6      3162.036          39.875    20850586.720    85379667.833 6      2463.924          40.125
> 2024 05 08 12 46 12.0000000  0 11
G27  21176249.600   111281937.763 7      1615.124          46.500    21176248.020   111281937.760 7      1615.124          45.375    21176254.580    86713216.614 7      1258.538          45.125    21176255.320    86713222.607 7      1258.538          47.000
R21  20471253.240   109545821.484 6      2173.691          37.750    20471253.580   109545821.521 6      2173.691          38.250    20471262.420    85202342.732 6      1690.648          36.187    20471263.080    85202354.753 6      1690.648          36.250
R11  19992540.480   106834057.129 7      3744.407          42.500    19992539.060   106834057.127 6      3744.407          41.500    19992549.520    83093223.205 8      2912.317          50.750    19992549.020    83093208.206 8      2912.317          51.062
R05  23221228.640   124130778.960 7      3815.395          47.062    23221227.900   124130778.964 7      3815.395          46.375    23221241.000    96546227.611 6      2967.530          37.375    23221242.600    96546239.606 6      2967.530          36.687
G10  22295905.260   117165780.216 7      1618.032          47.937    22295904.160   117165780.215 7      1618.032          46.812    22295912.320    91298045.460 7      1260.804          46.875    22295913.280    91298043.466 8      1260.804          48.562
G08  21184035.540   111322863.924 7      3243.400          47.375    21184038.600   111322863.921 5      3243.400          34.500    21184044.560    86745110.872 5      2527.325          34.437    21184046.420    86745123.881 7      2527.325          46.312
R10  20325101.980   108344223.075 7      -535.036          46.312    20325101.500   108344223.094 7      -535.036          45.875
G26  23543527.780   123722067.711 6      -934.586          37.562    23543525.820   123722067.703 5      -934.586          33.437    23543544.580    96406866.334 5      -728.249          33.312    23543545.360    96406875.320 7      -728.249          44.062
G16  21171893.780   111259052.893 7       432.401          47.562    21171893.600   111259052.897 6       432.401          38.750    21171897.560    86695380.159 6       336.936          38.625
G02  22251916.840   116934611.134 7      3972.431          44.875    22251914.600   116934611.137 6      3972.431          37.875    22251920.520    91117894.325 6      3095.400          37.937
G21  20849981.860   109567394.795 8      3161.669          48.187    20849980.140   109567394.800 6      3161.669          40.250    20849985.100    85377204.027 6      2463.638          39.875
> 2024 05 08 12 46 13.0000000  0 11
G27  21175942.140   111280322.699 7      1614.979          46.687    21175940.860   111280322.698 7      1614.979          44.625    21175947.280    86711958.116 7      1258.425          45.125    21175948.000    86711964.113 7      1258.425          46.937
R21  20470846.440   109543647.839 6      2173.527          37.750    20470846.840   109543647.881 6      2173.527          38.250    20470856.080    85200652.120 6      1690.521          36.187    20470856.740    85200664.142 6      1690.521          36.250
R11  19991839.520   106830313.145 7      3743.614          42.750    19991838.340   106830313.146 7      3743.614          42.000    19991848.900    83090311.218 8      2911.699          51.062    19991848.360    83090296.217 8      2911.699          50.812
R05  23220515.300   124126963.843 7      3814.714          47.000    23220514.160   124126963.847 7      3814.714          46.250    23220527.480    96543260.304 6      2967.000          37.375    23220529.040    96543272.291 6      2967.000          36.687
G10  22295597.480   117164162.534 7      1617.335          47.812    22295596.400   117164162.534 7      1617.335          46.687    22295604.540    91296784.933 7      1260.261          47.062    22295605.520    91296782.933 7      1260.261          47.812
G08  21183418.320   111319620.561 7      3243.210          46.562    21183421.480   111319620.558 5      3243.210          34.500    21183427.420    86742583.576 5      2527.177          34.437    21183429.040    86742596.585 7      2527.177          46.687
R10  20325202.760   108344758.455 7      -535.684          46.062    20325201.900   108344758.469 7      -535.684          45.750
G26  23543705.700   123723002.509 6      -934.897          37.562    23543703.780   123723002.503 5      -934.897          33.437    23543722.300    96407594.729 5      -728.491          33.312    23543723.260    96407603.719 7      -728.491          43.750
G16  21171811.600   111258620.708 8       431.964          48.000    21171811.420   111258620.710 6       431.964          39.250    21171815.140    86695043.383 6       336.595          38.625
G02  22251160.760   116930638.869 7      3971.941          46.187    22251158.540   116930638.874 6      3971.941          38.000    22251164.420    91114799.060 6      3095.019          37.625
G21  20849380.420   109564233.358 8      3161.175          48.062    20849378.640   109564233.360 6      3161.175          40.375    20849383.440    85374740.569 6      2463.253          40.250
> 2024 05 08 12 46 14.0000000  0 11
G27  21175634.880   111278707.808 7      1615.013          46.625    21175633.660   111278707.810 7      1615.013          45.187    21175639.920    86710699.766 7      1258.452          45.437    21175640.580    86710705.761 7      1258.452          46.937
R21  20470440.660   109541474.484 6      2173.472          37.750    20470440.340   109541474.525 6      2173.472          38.250    20470448.860    85198961.728 6      1690.478          36.187    20470450.800    85198973.742 6      1690.478          36.250
R11  19991139.000   106826570.051 7      3742.857          42.750    19991138.540   106826570.058 7      3742.857          42.000    19991148.640    83087399.922 8      2911.111          50.875    19991148.040    83087384.921 8      2911.111          51.250
R05  23219801.600   124123149.309 7      3814.397          47.000    23219800.420   124123149.307 7      3814.397          45.875    23219813.440    96540293.450 6      2966.753          37.375    23219815.520    96540305.429 6      2966.753          36.687
G10  22295289.680   117162545.418 8      1617.032          48.875    22295288.700   117162545.415 7      1617.032          46.500    22295296.920    91295524.836 7      1260.025          46.562    22295297.640    91295522.842 8      1260.025          48.437
G08  21182801.140   111316377.318 7      3243.356          47.312    21182804.360   111316377.315 5      3243.356          34.062    21182810.260    86740056.374 5      2527.290          33.937    21182811.460    86740069.377 7      2527.290          46.375
R10  20325302.960   108345294.470 7      -536.074          46.062    20325302.400   108345294.481 7      -536.074          45.250
G26  23543883.160   123723937.506 6      -934.932          37.312    23543881.780   123723937.505 5      -934.932          32.937    23543900.260    96408323.286 5      -728.518          32.375    23543900.800    96408332.264 7      -728.518          43.750
G16  21171729.500   111258188.996 7       431.646          46.875    21171729.120   111258189.004 6       431.646          39.312    21171733.240    86694706.983 6       336.348          38.937
G02  22250404.860   116926666.987 7      3971.761          45.437    22250402.520   116926666.989 6      3971.761          37.625    22250408.700    91111704.087 6      3094.879          37.312
G21  20848778.900   109561072.391 7      3160.912          47.750    20848777.160   109561072.396 6      3160.912          40.125    20848781.920    85372277.482 6      2463.049          40.312
> 2024 05 08 12 46 15.0000000  0 11
G27  21175327.520   111277092.838 7      1615.039          46.875    21175326.240   111277092.840 7      1615.039          45.187    21175332.520    86709441.340 7      1258.472          45.562    21175333.400    86709447.341 7      1258.472          46.625
R21  20470035.100   109539301.160 6      2173.239          37.750    20470033.940   109539301.204 6      2173.239          37.875    20470042.400    85197271.365 6      1690.297          36.187    20470043.860    85197283.381 6      1690.297          36.250
R11  19990438.800   106822827.532 7      3742.204          43.187    19990438.020   106822827.538 7      3742.204          42.062    19990448.320    83084489.080 8      2910.603          50.687    19990447.720    83084474.083 8      2910.603          51.125
R05  23219088.060   124119335.106 7      3813.974          46.000    23219087.060   124119335.105 7      3813.974          45.437    23219101.380    96537326.846 6      2966.424          36.812    23219102.300    96537338.827 6      2966.424          36.812
G10  22294982.360   117160928.649 8      1616.589          48.250    22294981.300   117160928.648 7      1616.589          46.500    22294988.980    91294265.032 7      1259.679          46.875    22294989.900    91294263.030 8      1259.679          48.250
G08  21182184.080   111313133.952 7      3243.448          47.812    21182187.100   111313133.952 5      3243.448          34.062    21182192.980    86737529.080 5      2527.362          33.937    21182194.100    86737542.087 7      2527.362          46.125
R10  20325403.680   108345830.879 7      -536.607          46.250    20325402.880   108345830.896 7      -536.607          45.250
G26  23544060.900   123724872.432 6      -934.961          37.312    23544059.680   123724872.434 5      -934.961          32.937    23544078.200    96409051.785 5      -728.541          32.375    23544078.740    96409060.769 7      -728.541          43.687
G16  21171647.660   111257757.516 8       431.308          48.812    21171647.160   111257757.526 6       431.308          38.937    21171651.100    86694370.762 6       336.084          38.875
G02  22249649.140   116922695.223 7      3971.690          44.937    22249646.520   116922695.228 6      3971.690          37.375    22249652.660    91108609.206 6      3094.823          37.125
G21  20848177.440   109557911.666 8      3160.596          48.375    20848175.600   109557911.671 6      3160.596          39.562    20848180.500    85369814.578 6      2462.802          40.187
> 2024 05 08 12 46 16.0000000  0 11
G27  21175020.080   111275477.953 7      1614.558          47.125    21175018.640   111275477.955 7      1614.558          45.875    21175025.120    86708182.994 7      1258.097          45.750    21175026.040    86708188.989 7      1258.097          46.437
R21  20469628.740   109537128.066 6      2172.447          37.375    20469629.160   109537128.102 6      2172.447          37.875    20469636.420    85195581.179 5      1689.681          35.500    20469637.940    85195593.201 5      1689.681          35.125
R11  19989738.980   106819085.784 7      3740.940          43.687    19989738.180   106819085.788 7      3740.940          42.000    19989748.080    83081578.826 8      2909.620          50.875    19989747.740    83081563.827 8      2909.620          51.062
R05  23218374.900   124115521.430 7      3813.005          46.687    23218373.460   124115521.420 7      3813.005          46.125    23218387.960    96534360.652 6      2965.670          36.812    23218389.020    96534372.643 6      2965.670          36.812
G10  22294674.680   117159312.397 8      1615.621          48.250    22294673.320   117159312.396 7      1615.621          46.500    22294681.420    91293005.603 7      1258.925          46.937    22294682.300    91293003.601 8      1258.925          48.250
G08  21181567.000   111309890.671 7      3242.905          46.875    21181569.780   111309890.668 5      3242.905          33.875    21181575.760    86735001.843 5      2526.939          33.875    21181577.380    86735014.842 7      2526.939          45.875
R10  20325504.140   108346367.827 7      -537.535          46.937    20325503.800   108346367.846 7      -537.535          45.875
G26  23544238.640   123725807.455 6      -935.543          37.375    23544237.640   123725807.465 5      -935.543          33.250    23544256.240    96409780.358 5      -728.995          32.812    23544256.680    96409789.355 7      -728.995          43.750
G16  21171565.600   111257326.403 7       430.564          47.125    21171565.160   111257326.411 6       430.564          38.625    21171568.860    86694034.824 6       335.505          38.812
G02  22248893.880   116918723.749 7      3971.028          45.375    22248890.840   116918723.753 6      3971.028          37.250    22248896.720    91105514.557 6      3094.307          37.000
G21  20847576.040   109554751.324 8      3159.880          48.062    20847574.180   109554751.324 6      3159.880          39.687    20847579.080    85367351.972 6      2462.244          39.750
> 2024 05 08 12 46 17.0000000  0 11
G27  21174712.880   111273863.629 7      1614.485          46.937    21174711.440   111273863.624 7      1614.485          45.000    21174718.020    86706925.073 7      1258.040          44.875    21174718.880    86706931.064 7      1258.040          46.687
R21  20469222.740   109534955.604 6      2172.625          37.375    20469222.680   109534955.616 6      2172.625          37.875    20469230.200    85193891.467 5      1689.819          35.500    20469232.140    85193903.479 5      1689.819          35.125
R11  19989038.460   106815345.226 7      3740.352          43.562    19989038.400   106815345.230 7      3740.352          42.000    19989048.100    83078669.505 8      2909.162          51.062    19989047.720    83078654.504 8      2909.162          50.875
R05  23217661.860   124111708.743 7      3812.561          47.187    23217660.320   124111708.736 7      3812.561          46.375    23217674.380    96531395.241 6      2965.325          36.812    23217676.040    96531407.230 6      2965.325          36.812
G10  22294367.200   117157697.117 7      1615.153          47.812    22294366.040   117157697.122 7      1615.153          46.500    22294374.040    91291746.946 7      1258.561          46.062    22294374.840    91291744.950 8      1258.561          48.750
G08  21180949.920   111306647.875 7      3242.863          47.562    21180952.800   111306647.872 5      3242.863          33.875    21180958.660    86732474.989 5      2526.906          33.875    21180959.900    86732487.999 7      2526.906          46.125
R10  20325604.900   108346905.822 7      -538.138          46.500    20325604.620   108346905.833 7      -538.138          45.687
