     3.05           OBSERVATION DATA    MIXED               RINEX VERSION / TYPE
TPS2RIN 1.0.29.3920 TPS-USER            20240511 191203 UTC PGM / RUN BY / DATE
Win64 build Feb 23, 2024 (c) Topcon Positioning Systems     COMMENT
SRC: 20240508_GUI11.tps                                     COMMENT
OPT: -S -v 3.05                                             COMMENT
Observer            Agency                                  OBSERVER / AGENCY
O0M3X53SBGM         TPS HIPER_SR        4.8 HSR Jul,08,2022 REC # / TYPE / VERS
FW: 4.8 HSR Jul,08,2022 p3                                  COMMENT
SN: HiPer SR 1212-12575                                     COMMENT
000                 TPSHIPER_SR     NONE                    ANT # / TYPE
        1.8000        0.0000        0.0000                  ANTENNA: DELTA H/E/N
GUI11                                                       MARKER NAME
  5387580.8501 -1584766.7820  3015038.8715                  APPROX POSITION XYZ
  2024     5     8    11    21   40.0000000     GPS         TIME OF FIRST OBS
  2024     5     8    11    36   41.0000000     GPS         TIME OF LAST OBS
     1.000                                                  INTERVAL
   902 EPOCHS                                               COMMENT
G   16 C1C L1C D1C S1C C1W L1W D1W S1W C2W L2W D2W S2W C2X  SYS / # / OBS TYPES
       L2X D2X S2X                                          SYS / # / OBS TYPES
R   16 C1C L1C D1C S1C C1P L1P D1P S1P C2P L2P D2P S2P C2C  SYS / # / OBS TYPES
       L2C D2C S2C                                          SYS / # / OBS TYPES
    11                                                      # OF SATELLITES
   G10   902   902   902   902   902   902   902   902   902PRN / # OF OBS
         902   902   902   902   902   902   902            PRN / # OF OBS
   G16   902   902   902   902   902   902   902   902   902PRN / # OF OBS
         902   902   902     0     0     0     0            PRN / # OF OBS
   G21   902   902   902   902   902   902   902   902   902PRN / # OF OBS
         902   902   902     0     0     0     0            PRN / # OF OBS
   G23   902   902   902   902   902   902   902   902   902PRN / # OF OBS
         902   902   902   902   902   902   902            PRN / # OF OBS
   G26   902   902   902   902   902   902   902   902   902PRN / # OF OBS
         902   902   902   902   902   902   902            PRN / # OF OBS
   G27   902   902   902   902   902   902   902   902   902PRN / # OF OBS
         902   902   902   902   902   902   902            PRN / # OF OBS
   G31   902   902   902   902   902   902   902   902   902PRN / # OF OBS
         902   902   902   902   902   902   902            PRN / # OF OBS
   R09   902   902   902   902   902   902   902   902   902PRN / # OF OBS
         902   902   902   902   902   902   902            PRN / # OF OBS
   R10   902   902   902   902   902   902   902   902     0PRN / # OF OBS
           0     0     0     0     0     0     0            PRN / # OF OBS
   R11    92    92    92    92    86    86    86    86    86PRN / # OF OBS
          86    86    86    85    85    85    85            PRN / # OF OBS
   R21   902   902   902   902   902   902   902   902   902PRN / # OF OBS
         902   902   902   902   902   902   902            PRN / # OF OBS
G L1C                                                       SYS / PHASE SHIFT
G L1W -0.25000                                              SYS / PHASE SHIFT
G L2W  0.00000                                              SYS / PHASE SHIFT
G L2X  0.25000                                              SYS / PHASE SHIFT
R L1C                                                       SYS / PHASE SHIFT
R L1P -0.25000                                              SYS / PHASE SHIFT
R L2P -0.25000                                              SYS / PHASE SHIFT
R L2C                                                       SYS / PHASE SHIFT
  4 R09 -2 R10 -7 R11  0 R21  4                             GLONASS SLOT / FRQ #
                                                            GLONASS COD/PHS/BIS
    18    18  1929     7GPS                                 LEAP SECONDS
                                                            END OF HEADER
> 2024 05 08 11 21 40.0000000  0 10
R21  21168619.940   113277564.501 7      4531.970          44.875    21168618.560   113277564.516 7      4531.970          45.437    21168630.720    88104816.316 8      3524.866          49.000    21168630.720    88104815.315 7      3524.866          47.812
G23  23057373.000   121167318.828 6      2761.183          40.937    23057371.540   121167318.831 5      2761.183          32.125    23057379.660    94416112.144 5      2151.572          32.062    23057380.260    94416116.145 7      2151.572          47.125
G31  23376598.160   122844861.980 7      -886.760          45.062    23376597.360   122844861.984 7      -886.760          42.187    23376604.780    95723298.443 6      -690.982          41.875    23376605.400    95723300.440 7      -690.982          46.125
R10  19371773.760   103262474.763 7      3623.355          46.875    19371773.320   103262474.780 7      3623.355          45.312
G26  21046673.220   110601020.667 7       884.115          47.187    21046671.900   110601020.675 7       884.115          47.875    21046678.980    86182630.875 7       688.921          47.625    21046679.400    86182634.878 8       688.921          48.812
G21  22788584.840   119754819.466 7      5684.640          45.062    22788584.420   119754819.476 5      5684.640          30.750    22788590.000    93315466.583 5      4429.590          31.125
G16  20454507.160   107489160.379 7      2943.993          45.625    20454505.380   107489160.384 6      2943.993          39.812    20454508.540    83757791.225 6      2294.020          39.312
G27  20814627.780   109381614.243 8      2589.558          48.125    20814626.680   109381614.251 7      2589.558          42.250    20814632.140    85232435.835 7      2017.837          42.250    20814632.400    85232440.835 8      2017.837          52.062
G10  22905995.120   120371815.703 7      4350.310          44.375    22905993.580   120371815.710 7      4350.310          42.875    22906003.220    93796253.278 7      3389.852          42.937    22906003.260    93796257.283 7      3389.852          45.000
R09  19880381.360   106160132.611 8       178.082          48.875    19880381.820   106160132.617 8       178.082          48.875    19880389.100    82569021.227 8       138.509          51.750    19880389.180    82569029.225 8       138.509          52.375
> 2024 05 08 11 21 41.0000000  0 10
R21  21167773.180   113273032.900 7      4531.487          44.875    21167772.240   113273032.915 7      4531.487          44.187    21167784.080    88101291.735 8      3524.490          48.250    21167784.000    88101290.734 7      3524.490          47.937
G23  23056847.780   121164558.038 6      2760.639          40.937    23056846.340   121164558.043 5      2760.639          32.125    23056854.300    94413960.879 5      2151.147          32.062    23056854.700    94413964.880 7      2151.147          47.250
G31  23376766.860   122845748.890 7      -886.833          45.125    23376766.260   122845748.900 6      -886.833          41.625    23376773.800    95723989.534 6      -691.039          41.062    23376774.160    95723991.535 7      -691.039          46.500
R10  19371094.040   103258851.929 7      3622.576          46.687    19371093.560   103258851.943 7      3622.576          45.625
G26  21046505.020   110600136.857 7       883.645          47.437    21046503.740   110600136.867 7       883.645          47.062    21046510.700    86181942.192 7       688.554          47.062    21046511.480    86181946.193 8       688.554          48.562
G21  22787503.100   119749135.078 7      5684.245          44.562    22787502.780   119749135.081 5      5684.245          31.000    22787508.280    93311037.196 5      4429.282          31.125
G16  20453947.020   107486216.647 7      2943.606          46.000    20453945.260   107486216.652 6      2943.606          39.937    20453948.140    83755497.408 6      2293.719          39.250
G27  20814135.020   109379024.914 8      2589.380          48.437    20814133.880   109379024.916 7      2589.380          42.500    20814139.240    85230418.174 7      2017.698          42.437    20814139.960    85230423.168 8      2017.698          51.625
G10  22905167.360   120367465.808 7      4349.904          44.625    22905165.700   120367465.810 7      4349.904          43.437    22905175.480    93792863.748 7      3389.536          43.125    22905175.160    93792867.755 7      3389.536          44.875
R09  19880348.200   106159954.964 8       177.434          48.062    19880348.520   106159954.962 8       177.434          48.187    19880355.760    82568883.043 8       138.005          51.750    19880355.840    82568891.045 8       138.005          51.937
> 2024 05 08 11 21 42.0000000  0 10
R21  21166926.260   113268501.989 7      4530.677          43.937    21166925.920   113268502.004 7      4530.677          44.000    21166937.260    88097767.691 7      3523.860          47.937    21166937.120    88097766.688 7      3523.860          46.937
G23  23056322.640   121161797.959 6      2759.782          41.562    23056320.960   121161797.964 5      2759.782          31.812    23056329.160    94411810.168 5      2150.480          31.937    23056329.440    94411814.169 7      2150.480          46.625
G31  23376935.620   122846636.066 7      -887.204          44.875    23376934.920   122846636.079 6      -887.204          41.500    23376942.580    95724680.830 6      -691.328          41.437    23376943.080    95724682.829 7      -691.328          46.000
R10  19370414.840   103255229.998 7      3621.599          46.187    19370413.660   103255230.009 7      3621.599          45.437
G26  21046336.860   110599253.619 7       882.967          47.250    21046335.700   110599253.627 7       882.967          46.687    21046342.780    86181253.951 7       688.026          46.687    21046343.540    86181257.954 8       688.026          48.312
G21  22786421.700   119743451.206 7      5683.702          44.812    22786420.880   119743451.213 5      5683.702          31.000    22786426.780    93306608.213 5      4428.859          31.125
G16  20453387.120   107483273.465 7      2943.007          46.375    20453385.260   107483273.467 6      2943.007          39.812    20453388.080    83753204.015 6      2293.252          39.250
G27  20813642.360   109376435.931 8      2588.896          48.250    20813641.200   109376435.936 6      2588.896          41.812    20813646.580    85228400.781 6      2017.322          41.750    20813647.360    85228405.779 8      2017.322          50.812
G10  22904339.560   120363116.394 7      4349.205          45.500    22904338.060   120363116.398 7      4349.205          42.500    22904347.860    93789474.596 7      3388.991          42.312    22904347.680    93789478.597 7      3388.991          44.500
R09  19880315.260   106159778.124 8       176.468          48.875    19880315.400   106159778.127 8       176.468          48.187    19880322.620    82568745.501 8       137.253          49.875    19880322.860    82568753.501 8       137.253          51.000
> 2024 05 08 11 21 43.0000000  0 10
R21  21166079.320   113263971.595 7      4530.040          44.000    21166079.620   113263971.602 7      4530.040          44.812    21166090.960    88094244.047 8      3523.364          48.625    21166090.480    88094243.042 8      3523.364          48.125
G23  23055797.760   121159038.380 7      2759.282          42.000    23055795.960   121159038.387 5      2759.282          31.812    23055803.960    94409659.851 5      2150.090          31.937    23055804.280    94409663.848 7      2150.090          47.000
G31  23377104.300   122847523.292 7      -887.299          44.937    23377103.800   122847523.300 6      -887.299          41.875    23377111.420    95725372.165 6      -691.402          41.562    23377112.200    95725374.159 7      -691.402          46.375
R10  19369735.360   103251608.773 7      3620.800          46.562    19369734.740   103251608.782 7      3620.800          45.437
G26  21046168.700   110598370.766 7       882.504          46.812    21046167.760   110598370.776 7       882.504          47.500    21046174.760    86180566.011 7       687.666          47.125    21046175.380    86180570.014 8       687.666          49.187
G21  22785340.080   119737767.662 7      5683.377          45.000    22785339.340   119737767.669 5      5683.377          31.000    22785345.260    93302179.479 5      4428.605          31.125
G16  20452826.880   107480330.645 7      2942.561          46.875    20452825.460   107480330.647 6      2942.561          39.937    20452828.100    83750910.909 6      2292.904          39.812
G27  20813149.940   109373847.104 8      2588.660          49.187    20813148.680   109373847.111 7      2588.660          42.625    20813154.000    85226383.517 7      2017.137          42.875    20813154.720    85226388.517 8      2017.137          52.000
G10  22903511.940   120358767.253 7      4348.945          45.375    22903510.440   120358767.252 7      4348.945          43.000    22903520.180    93786085.655 7      3388.788          43.250    22903520.340    93786089.658 7      3388.788          45.125
R09  19880282.280   106159601.964 8       175.752          49.187    19880282.340   106159601.979 7       175.752          47.750    19880289.700    82568608.494 8       136.696          51.500    19880290.000    82568616.490 8       136.696          52.312
> 2024 05 08 11 21 44.0000000  0 10
R21  21165233.180   113259441.588 7      4529.879          45.062    21165232.900   113259441.598 7      4529.879          44.812    21165244.560    88090720.710 8      3523.239          48.937    21165243.920    88090719.712 8      3523.239          48.687
G23  23055272.700   121156279.242 7      2759.014          42.625    23055270.940   121156279.244 5      2759.014          32.312    23055279.040    94407509.867 5      2149.881          31.937    23055279.180    94407513.862 7      2149.881          47.000
G31  23377273.180   122848410.490 7      -887.159          45.125    23377272.660   122848410.500 7      -887.159          42.062    23377280.220    95726063.481 6      -691.292          41.625    23377280.620    95726065.475 7      -691.292          46.125
R10  19369056.260   103247988.143 7      3620.444          46.187    19369055.320   103247988.157 7      3620.444          45.250
G26  21046000.860   110597488.196 7       882.497          46.500    21045999.780   110597488.198 7       882.497          47.312    21046006.800    86179878.283 7       687.660          47.062    21046007.420    86179882.284 8       687.660          48.937
G21  22784258.620   119732084.380 7      5683.220          44.437    22784257.960   119732084.385 5      5683.220          30.875    22784263.780    93297750.952 5      4428.483          31.125
G16  20452267.040   107477388.077 7      2942.534          45.437    20452265.340   107477388.085 6      2942.534          39.625    20452268.200    83748617.999 6      2292.884          39.250
G27  20812657.260   109371258.345 8      2588.809          49.000    20812656.060   109371258.352 7      2588.809          42.500    20812661.380    85224366.304 7      2017.254          42.375    20812661.960    85224371.306 8      2017.254          51.562
G10  22902684.440   120354418.327 7      4348.899          44.750    22902682.860   120354418.327 7      4348.899          42.937    22902692.540    93782696.880 7      3388.753          43.000    22902692.780    93782700.885 7      3388.753          45.062
R09  19880249.200   106159426.384 8       175.366          48.437    19880249.600   106159426.401 8       175.366          48.625    19880256.760    82568471.930 8       136.396          51.812    19880257.100    82568479.924 8       136.396          52.937
> 2024 05 08 11 21 45.0000000  0 10
R21  21164386.860   113254911.991 7      4529.253          45.625    21164386.560   113254912.003 7      4529.253          45.125    21164398.340    88087197.693 8      3522.752          49.125    21164397.480    88087196.698 8      3522.752          48.687
G23  23054747.740   121153520.524 7      2758.313          43.125    23054745.920   121153520.537 5      2758.313          32.312    23054754.000    94405360.221 5      2149.335          32.062    23054754.220    94405364.228 7      2149.335          46.687
G31  23377442.320   122849297.655 7      -887.270          44.250    23377441.440   122849297.663 6      -887.270          41.562    23377448.940    95726754.765 6      -691.379          41.250    23377449.440    95726756.759 7      -691.379          45.937
R10  19368377.260   103244368.169 7      3619.542          46.187    19368376.180   103244368.183 7      3619.542          45.312
G26  21045833.180   110596605.917 7       882.061          47.187    21045831.920   110596605.927 7       882.061          47.437    21045839.000    86179190.798 7       687.320          47.000    21045839.460    86179194.799 8       687.320          49.312
G21  22783177.100   119726401.333 7      5682.845          44.812    22783176.420   119726401.337 5      5682.845          30.875    22783182.300    93293322.607 5      4428.191          31.125
G16  20451707.040   107474445.809 7      2941.991          46.750    20451705.500   107474445.819 6      2941.991          39.562    20451708.360    83746325.326 6      2292.461          38.875
G27  20812164.660   109368669.675 8      2588.506          48.875    20812163.460   109368669.682 7      2588.506          42.687    20812168.740    85222349.160 7      2017.017          42.375    20812169.240    85222354.158 8      2017.017          51.437
G10  22901856.960   120350069.609 7      4348.437          46.062    22901855.260   120350069.614 7      4348.437          42.625    22901865.200    93779308.274 7      3388.393          42.500    22901865.300    93779312.286 7      3388.393          45.437
R09  19880216.420   106159251.386 7       174.539          47.812    19880216.700   106159251.395 8       174.539          48.562    19880224.240    82568335.812 8       135.753          51.625    19880224.320    82568343.802 8       135.753          52.375
> 2024 05 08 11 21 46.0000000  0 10
R21  21163540.760   113250383.068 7      4528.586          45.062    21163539.940   113250383.075 7      4528.586          44.937    21163551.860    88083675.193 8      3522.233          49.187    21163551.380    88083674.202 8      3522.233          48.437
G23  23054222.980   121150762.513 7      2757.717          42.500    23054221.120   121150762.524 5      2757.717          32.312    23054229.080    94403211.124 5      2148.870          32.062    23054229.340    94403215.131 7      2148.870          47.312
G31  23377611.060   122850185.097 7      -887.666          44.375    23377610.300   122850185.104 6      -887.666          41.937    23377617.840    95727446.271 6      -691.688          41.625    23377618.320    95727448.255 7      -691.688          46.187
R10  19367698.200   103240749.106 7      3618.539          46.250    19367697.180   103240749.120 7      3618.539          45.437
G26  21045665.260   110595724.246 7       881.418          47.125    21045664.160   110595724.251 7       881.418          47.437    21045671.160    86178503.777 7       686.819          47.312    21045671.640    86178507.776 8       686.819          49.062
G21  22782096.000   119720718.816 7      5682.298          44.750    22782095.060   119720718.821 5      5682.298          30.875    22782101.140    93288894.678 5      4427.764          30.625
G16  20451147.160   107471504.103 7      2941.361          46.187    20451145.740   107471504.108 6      2941.361          39.875    20451148.400    83744033.082 6      2291.970          39.500
G27  20811672.220   109366081.368 8      2588.072          49.437    20811670.840   109366081.375 7      2588.072          42.437    20811676.120    85220332.291 7      2016.679          42.437    20811676.840    85220337.289 8      2016.679          51.750
G10  22901029.580   120345721.380 7      4348.037          45.687    22901027.860   120345721.388 7      4348.037          43.187    22901037.760    93775920.050 7      3388.081          42.812    22901037.620    93775924.057 7      3388.081          45.437
R09  19880184.040   106159077.243 8       173.746          49.062    19880184.040   106159077.254 7       173.746          47.437    19880191.300    82568200.363 8       135.136          52.187    19880191.860    82568208.357 8       135.136          52.437
> 2024 05 08 11 21 47.0000000  0 10
R21  21162694.240   113245854.744 7      4528.185          45.062    21162693.520   113245854.762 7      4528.185          44.437    21162705.820    88080153.174 8      3521.922          49.125    21162705.420    88080152.186 8      3521.922          48.875
G23  23053698.400   121148005.160 7      2757.225          42.812    23053696.300   121148005.172 5      2757.225          32.062    23053704.560    94401062.532 5      2148.487          32.062    23053704.800    94401066.541 7      2148.487          47.250
G31  23377779.980   122851072.691 7      -887.570          43.875    23377779.180   122851072.693 6      -887.570          41.562    23377786.560    95728137.887 6      -691.613          41.125    23377787.140    95728139.879 7      -691.613          46.250
R10  19367019.040   103237130.858 7      3617.943          46.562    19367018.260   103237130.880 7      3617.943          45.000
G26  21045497.400   110594843.068 7       881.047          47.062    21045496.500   110594843.073 7       881.047          47.125    21045503.520    86177817.141 7       686.530          46.937    21045503.700    86177821.140 8       686.530          49.312
G21  22781014.840   119715036.759 7      5681.985          44.187    22781013.640   119715036.766 5      5681.985          30.875    22781020.020    93284467.105 5      4427.521          30.625
G16  20450587.520   107468562.839 7      2941.212          46.500    20450585.900   107468562.847 6      2941.212          39.187    20450588.740    83741741.186 6      2291.854          38.812
G27  20811179.840   109363493.326 8      2588.045          49.125    20811178.380   109363493.331 7      2588.045          42.125    20811183.520    85218315.633 7      2016.658          42.125    20811184.160    85218320.629 8      2016.658          51.437
G10  22900202.300   120341373.585 7      4347.736          44.375    22900200.460   120341373.589 7      4347.736          42.812    22900210.320    93772532.157 7      3387.846          42.812    22900210.440    93772536.164 7      3387.846          45.375
R09  19880151.560   106158903.914 7       173.064          47.875    19880151.540   106158903.925 7       173.064          47.937    19880159.100    82568065.543 8       134.605          52.000    19880159.400    82568073.541 8       134.605          52.500
> 2024 05 08 11 21 48.0000000  0 10
R21  21161847.700   113241327.111 7      4527.360          44.250    21161847.620   113241327.123 7      4527.360          44.937    21161859.880    88076631.683 8      3521.280          49.000    21161859.220    88076630.687 8      3521.280          48.750
G23  23053173.560   121145248.476 7      2756.354          42.375    23053171.760   121145248.488 5      2756.354          32.062    23053180.060    94398914.465 5      2147.808          31.750    23053180.100    94398918.474 7      2147.808          47.062
G31  23377948.720   122851960.489 7      -887.928          44.562    23377948.020   122851960.494 6      -887.928          41.875    23377955.460    95728829.674 6      -691.892          41.187    23377955.840    95728831.672 7      -691.892          45.500
R10  19366340.800   103233513.499 7      3616.901          46.250    19366339.820   103233513.510 7      3616.901          45.437
G26  21045329.940   110593962.424 7       880.430          47.562    21045328.900   110593962.424 7       880.430          47.312    21045335.960    86177130.919 7       686.049          47.375    21045336.220    86177134.922 8       686.049          49.187
G21  22779933.960   119709355.190 7      5681.377          44.750    22779932.540   119709355.198 5      5681.377          30.625    22779938.960    93280039.909 5      4427.047          30.625
G16  20450027.600   107465622.116 7      2940.526          46.562    20450026.400   107465622.123 6      2940.526          39.625    20450029.140    83739449.713 6      2291.319          39.250
G27  20810687.380   109360905.602 8      2587.596          50.062    20810686.000   109360905.612 7      2587.596          42.875    20810691.160    85216299.231 7      2016.309          42.625    20810691.520    85216304.231 8      2016.309          51.312
G10  22899375.180   120337026.220 7      4347.189          46.125    22899373.280   120337026.225 7      4347.189          43.125    22899383.120    93769144.602 7      3387.420          43.000    22899383.700    93769148.611 7      3387.420          45.187
R09  19880119.120   106158731.383 7       172.148          47.625    19880119.200   106158731.389 8       172.148          48.625    19880126.780    82567931.346 8       133.893          52.312    19880127.000    82567939.348 8       133.893          52.875
> 2024 05 08 11 21 49.0000000  0 10
R21  21161001.800   113236799.976 7      4526.699          46.125    21161001.800   113236799.993 7      4526.699          44.937    21161013.800    88073110.584 8      3520.766          49.500    21161013.180    88073109.583 8      3520.766          49.125
G23  23052648.900   121142492.328 7      2755.705          42.125    23052647.340   121142492.341 5      2755.705          32.062    23052655.600    94396766.819 5      2147.303          31.750    23052655.660    94396770.820 7      2147.303          46.750
G31  23378117.840   122852848.357 7      -888.029          44.562    23378116.980   122852848.364 6      -888.029          41.500    23378124.340    95729521.512 6      -691.971          41.437    23378124.780    95729523.517 7      -691.971          45.937
R10  19365662.100   103229896.856 7      3616.131          46.375    19365661.300   103229896.867 7      3616.131          45.562
G26  21045162.460   110593082.182 7       879.826          47.687    21045161.340   110593082.189 7       879.826          47.937    21045168.480    86176445.020 7       685.579          47.812    21045168.800    86176449.021 8       685.579          49.375
G21  22778852.820   119703673.977 7      5680.834          44.375    22778851.340   119703673.984 5      5680.834          30.625    22778857.800    93275612.994 5      4426.624          30.625
G16  20449468.340   107462681.763 7      2940.021          46.750    20449466.760   107462681.773 6      2940.021          40.187    20449469.680    83737158.533 6      2290.926          39.687
G27  20810195.020   109358318.064 8      2587.286          49.875    20810193.620   109358318.072 7      2587.286          42.562    20810198.820    85214282.964 7      2016.067          42.187    20810199.080    85214287.966 8      2016.067          51.125
G10  22898547.820   120332679.197 7      4346.657          45.312    22898545.980   120332679.202 7      4346.657          43.437    22898555.780    93765757.312 7      3387.005          43.125    22898556.300    93765761.317 7      3387.005          45.687
R09  19880086.940   106158559.514 8       171.381          49.000    19880087.080   106158559.517 7       171.381          47.875    19880094.700    82567797.664 8       133.297          52.187    19880094.840    82567805.662 8       133.297          53.062
> 2024 05 08 11 21 50.0000000  0 10
R21  21160156.000   113232273.402 7      4526.200          45.437    21160156.540   113232273.419 7      4526.200          45.437    21160167.900    88069589.913 8      3520.378          48.937    21160167.320    88069588.913 8      3520.378          48.875
G23  23052124.500   121139736.774 7      2755.285          42.000    23052123.060   121139736.784 5      2755.285          32.000    23052131.300    94394619.634 5      2146.975          32.000    23052131.400    94394623.635 7      2146.975          47.250
G31  23378286.700   122853736.397 7      -888.141          44.062    23378285.840   122853736.407 6      -888.141          41.250    23378293.380    95730213.484 6      -692.058          41.000    23378293.840    95730215.482 7      -692.058          45.937
R10  19364983.600   103226281.047 7      3615.288          46.187    19364983.140   103226281.064 7      3615.288          45.375
G26  21044995.140   110592202.408 7       879.475          47.312    21044993.920   110592202.412 7       879.475          47.625    21045001.080    86175759.473 7       685.305          47.750    21045001.420    86175763.474 8       685.305          49.000
G21  22777771.680   119697993.176 7      5680.477          45.125    22777770.120   119697993.181 5      5680.477          30.625    22777776.720    93271186.398 5      4426.346          30.312
G16  20448908.780   107459741.868 7      2939.606          47.125    20448907.420   107459741.878 6      2939.606          39.687    20448910.180    83734867.706 6      2290.602          39.187
G27  20809702.560   109355730.779 8      2587.113          49.375    20809701.360   109355730.784 7      2587.113          42.750    20809706.620    85212266.896 7      2015.933          42.625    20809706.620    85212271.898 8      2015.933          51.250
G10  22897720.640   120328332.536 7      4346.459          46.187    22897718.900   120328332.536 7      4346.459          43.437    22897728.720    93762370.308 7      3386.851          43.250    22897729.460    93762374.310 7      3386.851          45.687
R09  19880055.000   106158388.411 8       170.690          48.750    19880054.900   106158388.418 8       170.690          48.500    19880062.700    82567664.588 8       132.759          51.812    19880062.840    82567672.580 8       132.759          53.000
> 2024 05 08 11 21 51.0000000  0 10
R21  21159310.500   113227747.513 7      4525.448          46.125    21159311.080   113227747.520 7      4525.448          45.000    21159322.000    88066069.772 8      3519.793          49.125    21159321.580    88066068.769 8      3519.793          48.687
G23  23051600.440   121136981.932 6      2754.483          41.750    23051598.740   121136981.937 5      2754.483          32.000    23051607.060    94392473.000 5      2146.350          32.000    23051607.060    94392477.013 7      2146.350          47.312
G31  23378455.620   122854624.685 7      -888.529          44.125    23378454.900   122854624.695 6      -888.529          41.250    23378462.360    95730905.643 6      -692.360          40.812    23378463.240    95730907.644 7      -692.360          46.000
R10  19364305.540   103222666.121 7      3614.434          46.375    19364304.820   103222666.134 7      3614.434          45.250
G26  21044827.740   110591323.206 8       878.905          48.687    21044826.520   110591323.211 7       878.905          47.437    21044833.820    86175074.381 7       684.861          47.437    21044834.020    86175078.384 8       684.861          49.500
G21  22776690.880   119692312.892 7      5680.017          44.375    22776689.260   119692312.897 5      5680.017          30.062    22776695.860    93266760.211 5      4425.988          30.312
G16  20448349.720   107456802.522 7      2939.004          46.375    20448347.980   107456802.532 6      2939.004          40.125    20448350.820    83732577.304 6      2290.133          39.812
G27  20809210.320   109353143.830 8      2586.716          48.875    20809209.040   109353143.840 7      2586.716          42.562    20809214.300    85210251.093 7      2015.623          42.375    20809214.360    85210256.093 8      2015.623          51.125
G10  22896893.560   120323986.375 7      4345.855          45.687    22896891.860   120323986.380 7      4345.855          43.562    22896901.740    93758983.694 7      3386.381          43.437    22896901.840    93758987.697 7      3386.381          45.500
R09  19880023.160   106158218.139 8       169.768          49.437    19880023.020   106158218.151 8       169.768          48.500    19880030.580    82567532.152 8       132.041          51.812    19880031.080    82567540.140 8       132.041          52.875
> 2024 05 08 11 21 52.0000000  0 10
R21  21158464.740   113223222.213 7      4524.989          45.500    21158465.320   113223222.220 7      4524.989          45.437    21158476.460    88062550.089 8      3519.436          48.437    21158475.880    88062549.093 7      3519.436          47.937
G23  23051076.580   121134227.712 6      2753.851          41.750    23051074.780   121134227.720 5      2753.851          32.375    23051082.880    94390326.855 5      2145.858          32.000    23051083.220    94390330.866 7      2145.858          47.250
G31  23378625.000   122855513.080 7      -888.481          43.937    23378623.920   122855513.090 6      -888.481          40.875    23378631.460    95731597.891 6      -692.323          40.687    23378632.200    95731599.894 7      -692.323          45.937
R10  19363627.380   103219052.010 7      3613.757          46.312    19363626.680   103219052.021 7      3613.757          44.875
G26  21044660.360   110590444.483 7       878.479          47.312    21044659.280   110590444.487 7       878.479          46.687    21044666.600    86174389.655 7       684.529          46.500    21044666.760    86174393.656 8       684.529          48.437
G21  22775609.840   119686633.032 7      5679.724          44.500    22775608.540   119686633.037 5      5679.724          30.062    22775614.880    93262334.350 5      4425.759          30.312
G16  20447790.340   107453863.619 7      2938.686          46.625    20447788.640   107453863.627 6      2938.686          39.812    20447791.680    83730287.246 6      2289.885          39.250
G27  20808718.120   109350557.139 8      2586.550          48.562    20808716.720   109350557.144 7      2586.550          42.437    20808722.000    85208235.484 7      2015.494          42.250    20808721.980    85208240.486 8      2015.494          50.687
G10  22896066.460   120319640.592 7      4345.542          46.375    22896064.860   120319640.597 7      4345.542          42.562    22896074.780    93755597.370 7      3386.137          42.375    22896074.560    93755601.381 7      3386.137          45.500
R09  19879991.140   106158048.641 8       169.125          48.375    19879991.320   106158048.656 7       169.125          47.812    19879999.020    82567400.317 8       131.541          50.125    19879999.220    82567408.306 8       131.541          50.750
> 2024 05 08 11 21 53.0000000  0 10
R21  21157618.760   113218697.218 7      4524.854          45.437    21157619.740   113218697.217 7      4524.854          45.312    21157630.660    88059030.647 8      3519.331          48.875    21157630.500    88059029.652 8      3519.331          48.750
G23  23050552.660   121131473.787 7      2753.716          42.687    23050550.620   121131473.792 5      2753.716          32.375    23050558.840    94388180.937 5      2145.752          32.187    23050559.400    94388184.949 7      2145.752          47.500
G31  23378793.980   122856401.354 7      -888.237          44.625    23378792.980   122856401.364 6      -888.237          41.312    23378800.580    95732290.045 6      -692.133          41.125    23378801.800    95732292.045 7      -692.133          46.187
R10  19362949.500   103215438.427 7      3613.258          45.625    19362948.840   103215438.440 7      3613.258          45.250
G26  21044493.200   110589565.938 7       878.411          47.250    21044492.140   110589565.943 7       878.411          47.500    21044499.460    86173705.075 7       684.476          47.312    21044499.500    86173709.074 8       684.476          49.062
G21  22774529.200   119680953.337 7      5679.535          44.812    22774527.760   119680953.339 5      5679.535          30.062    22774533.820    93257908.617 5      4425.612          30.312
G16  20447231.020   107450924.885 7      2938.561          46.875    20447229.420   107450924.888 6      2938.561          39.937    20447232.460    83727997.324 6      2289.788          39.312
G27  20808225.800   109347970.413 8      2586.654          48.687    20808224.580   109347970.421 7      2586.654          42.500    20808229.700    85206219.855 7      2015.575          42.312    20808230.060    85206224.860 8      2015.575          52.000
G10  22895239.420   120315294.911 7      4345.544          44.625    22895237.800   120315294.914 7      4345.544          42.750    22895247.680    93752211.130 7      3386.138          42.687    22895247.940    93752215.143 7      3386.138          45.000
R09  19879959.840   106157879.624 8       168.772          49.437    19879959.760   106157879.625 8       168.772          48.125    19879967.340    82567268.848 8       131.267          51.062    19879967.820    82567276.840 8       131.267          51.562
> 2024 05 08 11 21 54.0000000  0 10
R21  21156772.960   113214172.867 7      4524.200          45.250    21156774.180   113214172.885 7      4524.200          45.250    21156785.260    88055511.726 8      3518.823          49.125    21156785.020    88055510.732 8      3518.823          48.812
G23  23050028.600   121128720.577 7      2752.968          43.000    23050026.720   121128720.585 5      2752.968          32.187    23050035.000    94386035.579 5      2145.170          32.187    23050035.340    94386039.592 7      2145.170          47.687
G31  23378963.140   122857289.884 7      -888.596          44.312    23378961.860   122857289.894 6      -888.596          41.562    23378969.760    95732982.395 6      -692.413          41.250    23378970.760    95732984.396 7      -692.413          46.250
R10  19362271.700   103211825.734 7      3612.368          45.625    19362271.220   103211825.748 7      3612.368          45.625
G26  21044326.260   110588687.976 7       877.778          47.000    21044325.060   110588687.981 7       877.778          47.562    21044332.360    86173020.949 7       683.983          47.125    21044332.760    86173024.950 8       683.983          48.812
G21  22773448.360   119675274.136 7      5678.990          43.875    22773446.980   119675274.144 5      5678.990          30.062    22773453.140    93253483.264 5      4425.187          30.187
G16  20446672.040   107447986.692 7      2938.025          46.500    20446670.460   107447986.700 6      2938.025          40.125    20446673.380    83725707.823 6      2289.370          39.562
G27  20807733.580   109345384.022 8      2586.369          49.062    20807732.360   109345384.034 7      2586.369          42.937    20807737.440    85204204.489 7      2015.353          42.500    20807738.080    85204209.495 8      2015.353          51.500
G10  22894412.460   120310949.733 7      4344.930          45.125    22894411.100   120310949.735 7      4344.930          43.312    22894420.860    93748825.274 7      3385.659          43.062    22894420.860    93748829.281 7      3385.659          45.562
R09  19879927.940   106157711.451 7       167.890          47.437    19879928.140   106157711.449 8       167.890          48.000    19879935.940    82567138.041 8       130.581          52.062    19879936.060    82567146.036 8       130.581          52.812
> 2024 05 08 11 21 55.0000000  0 10
R21  21155927.700   113209648.900 7      4523.769          45.875    21155928.900   113209648.917 7      4523.769          45.312    21155939.880    88051993.083 8      3518.487          49.000    21155939.680    88051992.086 8      3518.487          49.437
G23  23049504.700   121125967.798 7      2752.518          43.937    23049502.880   121125967.805 5      2752.518          32.187    23049511.240    94383890.554 5      2144.819          31.750    23049511.280    94383894.559 7      2144.819          47.687
G31  23379132.080   122858178.368 7      -888.590          44.437    23379131.060   122858178.373 6      -888.590          41.312    23379138.800    95733674.709 6      -692.408          41.187    23379139.420    95733676.705 7      -692.408          46.000
R10  19361594.220   103208213.675 7      3611.694          46.562    19361593.700   103208213.678 7      3611.694          44.875
G26  21044159.340   110587810.288 8       877.560          48.562    21044158.040   110587810.293 8       877.560          48.062    21044165.280    86172337.030 7       683.813          47.750    21044165.580    86172341.029 8       683.813          48.875
G21  22772367.520   119669595.169 7      5678.877          44.062    22772366.240   119669595.174 4      5678.877          29.875    22772372.320    93249058.099 5      4425.099          30.187
G16  20446112.960   107445048.765 7      2937.825          45.937    20446111.360   107445048.770 6      2937.825          39.500    20446114.320    83723418.527 6      2289.214          39.187
G27  20807241.420   109342797.716 8      2586.249          49.437    20807240.260   109342797.729 7      2586.249          42.125    20807245.420    85202189.185 7      2015.259          42.000    20807245.900    85202194.189 8      2015.259          51.437
G10  22893585.740   120306604.712 7      4344.923          44.875    22893584.320   120306604.714 7      4344.923          43.375    22893594.020    93745439.544 7      3385.654          42.812    22893593.920    93745443.551 7      3385.654          44.937
R09  19879896.520   106157543.840 8       167.308          48.062    19879896.800   106157543.847 8       167.308          48.062    19879904.480    82567007.679 8       130.129          52.250    19879904.720    82567015.673 8       130.129          52.750
> 2024 05 08 11 21 56.0000000  0 10
R21  21155082.540   113205125.392 7      4523.090          44.937    21155083.520   113205125.410 7      4523.090          45.250    21155094.460    88048474.799 8      3517.959          49.250    21155094.200    88048473.800 8      3517.959          49.125
G23  23048980.880   121123215.505 7      2751.937          43.500    23048979.260   121123215.515 5      2751.937          32.187    23048987.520    94381745.912 5      2144.366          31.750    23048987.620    94381749.927 7      2144.366          47.625
G31  23379301.220   122859066.869 7      -888.604          43.687    23379300.060   122859066.881 6      -888.604          41.187    23379307.940    95734367.040 6      -692.419          41.250    23379308.460    95734369.041 7      -692.419          46.187
R10  19360916.700   103204602.283 7      3610.856          46.125    19360916.080   103204602.294 7      3610.856          45.562
G26  21043992.580   110586932.981 7       877.084          47.687    21043991.120   110586932.983 7       877.084          47.687    21043998.460    86171653.412 7       683.442          47.562    21043998.840    86171657.411 8       683.442          48.625
G21  22771287.020   119663916.525 7      5678.496          44.062    22771285.740   119663916.530 4      5678.496          29.875    22771291.740    93244633.188 5      4424.802          30.187
G16  20445553.900   107442111.200 7      2937.357          46.375    20445552.300   107442111.208 6      2937.357          39.687    20445555.320    83721129.515 6      2288.850          39.250
G27  20806749.360   109340211.556 8      2585.993          48.937    20806748.100   109340211.566 7      2585.993          42.687    20806753.360    85200173.994 7      2015.059          42.250    20806753.820    85200178.999 8      2015.059          52.000
G10  22892758.920   120302260.006 7      4344.503          44.937    22892757.480   120302260.014 7      4344.503          42.812    22892767.280    93742054.065 7      3385.327          43.062    22892767.020    93742058.074 7      3385.327          45.250
R09  19879865.220   106157376.892 8       166.513          48.750    19879865.440   106157376.901 8       166.513          48.062    19879873.260    82566877.829 8       129.510          52.375    19879873.480    82566885.822 8       129.510          53.062
> 2024 05 08 11 21 57.0000000  0 10
R21  21154237.360   113200602.567 7      4522.594          46.062    21154238.360   113200602.574 7      4522.594          45.250    21154249.040    88044957.036 8      3517.573          48.437    21154249.060    88044956.039 8      3517.573          48.625
G23  23048457.140   121120463.931 7      2751.335          43.000    23048455.480   121120463.944 5      2751.335          32.187    23048463.960    94379601.833 5      2143.897          31.750    23048464.240    94379605.832 7      2143.897          47.250
G31  23379470.260   122859955.621 7      -888.684          44.125    23379469.060   122859955.637 6      -888.684          41.250    23379477.260    95735059.567 6      -692.481          41.187    23379477.940    95735061.567 7      -692.481          46.500
R10  19360239.520   103200991.781 7      3610.139          46.312    19360238.800   103200991.787 7      3610.139          45.062
G26  21043825.800   110586056.231 7       876.641          47.562    21043824.240   110586056.239 7       876.641          47.562    21043831.460    86170970.233 7       683.097          47.500    21043831.820    86170974.231 8       683.097          49.312
G21  22770206.700   119658238.417 7      5677.900          43.437    22770205.120   119658238.422 4      5677.900          29.875    22770211.180    93240208.698 5      4424.337          30.187
G16  20444995.140   107439174.174 7      2936.914          45.875    20444993.400   107439174.176 6      2936.914          39.937    20444996.440    83718840.919 6      2288.504          39.312
G27  20806257.320   109337625.737 8      2585.849          48.562    20806256.040   109337625.742 7      2585.849          42.375    20806261.140    85198159.064 7      2014.948          42.125    20806261.860    85198164.069 8      2014.948          51.562
G10  22891932.340   120297915.760 7      4344.246          44.687    22891930.700   120297915.768 7      4344.246          43.625    22891940.500    93738668.940 7      3385.127          43.250    22891940.640    93738672.945 7      3385.127          45.125
R09  19879834.340   106157210.753 8       165.898          48.750    19879834.300   106157210.760 8       165.898          48.187    19879842.080    82566748.601 8       129.032          51.375    19879842.220    82566756.597 8       129.032          52.437
> 2024 05 08 11 21 58.0000000  0 10
R21  21153392.280   113196080.494 7      4521.769          44.437    21153393.680   113196080.517 7      4521.769          44.937    21153403.640    88041439.874 8      3516.932          48.750    21153403.700    88041438.871 8      3516.932          48.375
G23  23047933.420   121117713.104 7      2750.631          43.750    23047932.120   121117713.114 5      2750.631          32.187    23047940.380    94377458.327 5      2143.349          32.000    23047940.760    94377462.328 7      2143.349          47.562
G31  23379639.320   122860844.692 7      -889.086          44.562    23379638.460   122860844.704 6      -889.086          40.875    23379646.420    95735752.335 6      -692.794          40.812    23379647.160    95735754.333 7      -692.794          46.500
R10  19359562.260   103197382.217 7      3609.217          46.500    19359561.660   103197382.231 7      3609.217          45.375
G26  21043659.000   110585180.130 7       875.905          47.187    21043657.580   110585180.140 7       875.905          47.375    21043664.860    86170287.552 7       682.523          47.187    21043665.180    86170291.547 8       682.523          49.125
G21  22769126.000   119652560.859 7      5677.435          43.750    22769124.480   119652560.866 4      5677.435          29.875    22769130.600    93235784.635 4      4423.976          29.312
G16  20444436.340   107436237.747 7      2936.261          46.187    20444434.680   107436237.752 6      2936.261          39.562    20444437.680    83716552.794 6      2287.995          39.375
G27  20805765.400   109335040.325 8      2585.348          48.312    20805763.980   109335040.335 7      2585.348          42.250    20805769.240    85196144.462 7      2014.557          42.250    20805769.760    85196149.466 8      2014.557          51.625
G10  22891105.700   120293572.100 7      4343.428          45.312    22891104.260   120293572.108 7      4343.428          43.062    22891113.900    93735284.274 7      3384.489          42.875    22891114.140    93735288.277 7      3384.489          45.437
R09  19879803.180   106157045.552 8       164.868          48.437    19879803.420   106157045.555 8       164.868          48.312    19879811.100    82566620.111 8       128.231          52.437    19879811.460    82566628.107 8       128.231          53.125
> 2024 05 08 11 21 59.0000000  0 10
R21  21152547.620   113191558.886 7      4521.322          45.125    21152548.820   113191558.911 7      4521.322          44.875    21152558.480    88037923.068 8      3516.583          48.937    21152558.860    88037922.063 8      3516.583          48.625
G23  23047410.000   121114962.768 7      2750.080          43.625    23047408.680   121114962.776 5      2750.080          32.125    23047416.960    94375315.206 5      2142.920          32.000    23047416.980    94375319.203 7      2142.920          47.375
G31  23379808.620   122861733.765 7      -889.152          44.687    23379807.700   122861733.778 6      -889.152          41.437    23379815.780    95736445.113 6      -692.846          41.500    23379816.460    95736447.111 7      -692.846          46.562
R10  19358885.460   103193773.341 7      3608.531          46.062    19358884.900   103193773.354 7      3608.531          45.312
G26  21043492.280   110584304.352 7       875.566          47.125    21043490.860   110584304.362 7       875.566          47.625    21043498.180    86169605.126 7       682.259          47.562    21043498.560    86169609.123 8       682.259          49.125
G21  22768045.460   119646883.615 7      5677.079          44.250    22768044.160   119646883.620 4      5677.079          28.937    22768049.980    93231360.809 4      4423.698          29.312
G16  20443877.580   107433301.635 7      2935.917          46.500    20443875.940   107433301.643 6      2935.917          40.062    20443878.880    83714264.917 6      2287.728          39.375
G27  20805273.460   109332455.031 8      2585.193          48.812    20805271.980   109332455.039 7      2585.193          42.750    20805277.320    85194129.943 7      2014.436          42.500    20805277.820    85194134.952 8      2014.436          51.875
G10  22890279.340   120289228.672 7      4343.171          45.500    22890277.680   120289228.674 7      4343.171          43.250    22890287.400    93731899.784 7      3384.289          43.250    22890287.760    93731903.785 7      3384.289          45.812
R09  19879772.460   106156880.948 8       164.286          49.625    19879772.420   106156880.954 8       164.286          48.437    19879780.380    82566492.081 8       127.778          51.562    19879780.740    82566500.077 8       127.778          52.875
> 2024 05 08 11 22  0.0000000  0 10
R21  21151702.860   113187037.770 7      4521.017          44.125    21151703.920   113187037.790 7      4521.017          45.000    21151713.380    88034406.638 8      3516.347          48.187    21151713.620    88034405.635 8      3516.347          48.500
G23  23046886.960   121112212.947 7      2749.723          43.375    23046885.220   121112212.952 5      2749.723          32.125    23046893.820    94373172.487 5      2142.641          32.000    23046893.440    94373176.489 7      2142.641          47.250
G31  23379977.880   122862622.891 7      -888.950          45.000    23379976.980   122862622.903 6      -888.950          41.687    23379984.840    95737137.928 6      -692.688          41.312    23379985.500    95737139.922 7      -692.688          46.250
R10  19358208.640   103190165.184 7      3607.999          46.062    19358207.960   103190165.187 7      3607.999          45.375
G26  21043325.800   110583428.968 7       875.326          47.562    21043324.220   110583428.976 7       875.326          46.937    21043331.560    86168923.007 7       682.072          47.062    21043331.820    86168927.003 8       682.072          49.750
G21  22766965.360   119641206.716 7      5676.870          43.187    22766963.780   119641206.721 4      5676.870          28.937    22766969.600    93226937.255 4      4423.535          29.312
G16  20443318.900   107430365.899 7      2935.704          45.937    20443317.340   107430365.904 6      2935.704          39.375    20443320.340    83711977.328 6      2287.562          39.000
G27  20804781.400   109329869.898 8      2585.255          48.250    20804780.040   109329869.903 7      2585.255          42.750    20804785.300    85192115.554 7      2014.485          42.187    20804785.960    85192120.558 8      2014.485          51.312
G10  22889452.900   120284885.532 7      4343.093          45.437    22889451.240   120284885.537 7      4343.093          43.437    22889460.880    93728515.522 7      3384.228          43.312    22889461.800    93728519.522 7      3384.228          45.687
R09  19879741.900   106156716.993 7       163.855          47.500    19879741.860   106156717.002 8       163.855          48.062    19879749.600    82566364.559 8       127.443          52.062    19879750.080    82566372.557 8       127.443          52.562
> 2024 05 08 11 22  1.0000000  0 10
R21  21150857.960   113182517.182 7      4520.377          45.625    21150858.380   113182517.197 7      4520.377          45.000    21150868.860    88030890.621 8      3515.849          48.500    21150869.020    88030889.618 8      3515.849          48.375
G23  23046363.820   121109463.684 7      2749.049          44.062    23046362.300   121109463.694 5      2749.049          32.125    23046370.620    94371030.203 5      2142.116          32.000    23046370.820    94371034.212 7      2142.116          47.562
G31  23380146.880   122863512.161 7      -889.313          44.437    23380146.220   122863512.166 6      -889.313          41.562    23380154.060    95737830.849 6      -692.971          41.187    23380154.660    95737832.848 7      -692.971          46.250
R10  19357532.000   103186557.806 7      3607.022          46.187    19357531.180   103186557.809 7      3607.022          45.375
G26  21043159.180   110582554.015 7       874.776          47.625    21043157.740   110582554.020 7       874.776          47.937    21043165.120    86168241.219 7       681.643          47.687    21043165.260    86168245.216 8       681.643          48.875
G21  22765885.020   119635530.187 7      5676.379          44.062    22765883.580   119635530.192 4      5676.379          28.937    22765889.620    93222513.996 4      4423.152          29.312
G16  20442760.280   107427430.565 7      2935.206          46.937    20442758.720   107427430.572 6      2935.206          39.937    20442761.800    83709690.059 6      2287.173          39.500
G27  20804289.520   109327284.994 8      2584.810          49.062    20804288.160   109327285.004 7      2584.810          42.312    20804293.440    85190101.344 7      2014.138          42.500    20804293.920    85190106.349 8      2014.138          51.437
G10  22888626.580   120280542.757 7      4342.604          44.937    22888624.800   120280542.765 7      4342.604          43.312    22888634.520    93725131.546 7      3383.847          43.000    22888635.260    93725135.546 7      3383.847          45.625
R09  19879711.020   106156553.804 8       162.804          48.625    19879711.260   106156553.805 7       162.804          47.937    19879719.080    82566237.624 8       126.626          52.000    19879719.240    82566245.624 8       126.626          52.250
> 2024 05 08 11 22  2.0000000  0 10
R21  21150013.440   113177997.225 7      4519.557          45.250    21150013.480   113177997.237 7      4519.557          45.000    21150024.080    88027375.099 7      3515.211          47.500    21150024.100    88027374.096 8      3515.211          48.375
G23  23045841.080   121106715.108 7      2748.263          43.312    23045839.360   121106715.118 5      2748.263          32.187    23045847.700    94368888.454 5      2141.503          32.000    23045847.920    94368892.449 7      2141.503          47.000
G31  23380316.260   122864401.584 7      -889.595          43.812    23380315.680   122864401.591 6      -889.595          41.375    23380323.240    95738523.898 6      -693.191          41.312    23380324.180    95738525.898 7      -693.191          45.687
R10  19356855.620   103182951.264 7      3606.103          46.187    19356854.420   103182951.270 7      3606.103          45.312
G26  21042992.840   110581679.583 7       874.165          46.687    21042991.420   110581679.590 7       874.165          47.000    21042998.780    86167559.841 7       681.167          46.250    21042998.780    86167563.833 8       681.167          48.812
G21  22764804.580   119629854.147 7      5675.745          43.000    22764803.440   119629854.155 4      5675.745          28.937    22764809.500    93218091.116 4      4422.658          29.312
G16  20442201.820   107424495.751 7      2934.532          46.500    20442200.220   107424495.759 6      2934.532          39.812    20442203.220    83707403.183 6      2286.648          39.375
G27  20803797.560   109324700.373 8      2584.458          48.500    20803796.360   109324700.380 7      2584.458          42.312    20803801.440    85188087.352 7      2013.863          42.437    20803802.320    85188092.356 8      2013.863          50.562
G10  22887800.300   120276200.414 7      4342.008          45.125    22887798.420   120276200.424 7      4342.008          42.750    22887808.420    93721747.905 7      3383.383          42.687    22887808.840    93721751.910 7      3383.383          45.312
R09  19879680.520   106156391.414 8       161.919          48.687    19879680.700   106156391.407 7       161.919          47.812    19879688.620    82566111.310 8       125.937          50.812    19879688.800    82566119.308 8       125.937          51.812
> 2024 05 08 11 22  3.0000000  0 10
R21  21149169.160   113173477.873 7      4519.019          44.875    21149168.160   113173477.879 7      4519.019          44.500    21149179.800    88023860.047 8      3514.792          48.250    21149179.520    88023859.044 8      3514.792          48.875
G23  23045318.340   121103967.166 7      2747.596          43.062    23045316.460   121103967.174 5      2747.596          32.187    23045324.800    94366747.198 5      2140.984          31.812    23045325.180    94366751.201 7      2140.984          47.250
G31  23380485.540   122865291.201 7      -889.674          44.312    23380484.940   122865291.213 6      -889.674          41.187    23380492.400    95739217.100 6      -693.253          40.750    23380493.500    95739219.104 7      -693.253          45.937
R10  19356179.280   103179345.594 7      3605.222          45.250    19356178.300   103179345.597 7      3605.222          45.500
