     3.05           OBSERVATION DATA    MIXED               RINEX VERSION / TYPE
TPS2RIN 1.0.29.3920 TPS-USER            20240511 191323 UTC PGM / RUN BY / DATE
Win64 build Feb 23, 2024 (c) Topcon Positioning Systems     COMMENT
SRC: 20240508_GUI12.tps                                     COMMENT
OPT: -S -v 3.05                                             COMMENT
Observer            Agency                                  OBSERVER / AGENCY
O0M3X53SBGM         TPS HIPER_SR        4.8 HSR Jul,08,2022 REC # / TYPE / VERS
FW: 4.8 HSR Jul,08,2022 p3                                  COMMENT
SN: HiPer SR 1212-12575                                     COMMENT
000                 TPSHIPER_SR     NONE                    ANT # / TYPE
        1.8000        0.0000        0.0000                  ANTENNA: DELTA H/E/N
GUI12                                                       MARKER NAME
  5388716.9452 -1585354.9732  3012156.0204                  APPROX POSITION XYZ
  2024     5     8    12     4   24.0000000     GPS         TIME OF FIRST OBS
  2024     5     8    12    21   31.0000000     GPS         TIME OF LAST OBS
     1.000                                                  INTERVAL
  1028 EPOCHS                                               COMMENT
G   16 C1C L1C D1C S1C C1W L1W D1W S1W C2W L2W D2W S2W C2X  SYS / # / OBS TYPES
       L2X D2X S2X                                          SYS / # / OBS TYPES
R   16 C1C L1C D1C S1C C1P L1P D1P S1P C2P L2P D2P S2P C2C  SYS / # / OBS TYPES
       L2C D2C S2C                                          SYS / # / OBS TYPES
    15                                                      # OF SATELLITES
   G02  1028  1028  1028  1028  1028  1028  1028  1028  1028PRN / # OF OBS
        1028  1028  1028     0     0     0     0            PRN / # OF OBS
   G07   654   654   654   654   654   654   654   654   654PRN / # OF OBS
         654   654   654   650   650   650   650            PRN / # OF OBS
   G08  1028  1028  1028  1028  1028  1028  1028  1028  1028PRN / # OF OBS
        1028  1028  1028  1028  1028  1028  1028            PRN / # OF OBS
   G10  1028  1028  1028  1028  1028  1028  1028  1028  1028PRN / # OF OBS
        1028  1028  1028  1028  1028  1028  1028            PRN / # OF OBS
   G16  1028  1028  1028  1028  1028  1028  1028  1028  1028PRN / # OF OBS
        1028  1028  1028     0     0     0     0            PRN / # OF OBS
   G21  1028  1028  1028  1028  1028  1028  1028  1028  1028PRN / # OF OBS
        1028  1028  1028     0     0     0     0            PRN / # OF OBS
   G23  1028  1028  1028  1028  1028  1028  1028  1028  1028PRN / # OF OBS
        1028  1028  1028  1028  1028  1028  1028            PRN / # OF OBS
   G26  1028  1028  1028  1028  1028  1028  1028  1028  1028PRN / # OF OBS
        1028  1028  1028  1028  1028  1028  1028            PRN / # OF OBS
   G27  1028  1028  1028  1028  1028  1028  1028  1028  1028PRN / # OF OBS
        1028  1028  1028  1028  1028  1028  1028            PRN / # OF OBS
   G31   893   893   893   893   893   893   893   893   893PRN / # OF OBS
         893   893   893   893   893   893   893            PRN / # OF OBS
   R09  1028  1028  1028  1028  1028  1028  1028  1028  1028PRN / # OF OBS
        1028  1028  1028  1028  1028  1028  1028            PRN / # OF OBS
   R10  1028  1028  1028  1028  1028  1028  1028  1028     0PRN / # OF OBS
           0     0     0     0     0     0     0            PRN / # OF OBS
   R11  1028  1028  1028  1028  1028  1028  1028  1028  1028PRN / # OF OBS
        1028  1028  1028  1028  1028  1028  1028            PRN / # OF OBS
   R21  1028  1028  1028  1028  1028  1028  1028  1028  1028PRN / # OF OBS
        1028  1028  1028  1028  1028  1028  1028            PRN / # OF OBS
   R22   361   361   361   361   350   350   350   350   350PRN / # OF OBS
         350   350   350   348   348   348   348            PRN / # OF OBS
G L1C                                                       SYS / PHASE SHIFT
G L1W -0.25000                                              SYS / PHASE SHIFT
G L2W  0.00000                                              SYS / PHASE SHIFT
G L2X  0.25000                                              SYS / PHASE SHIFT
R L1C                                                       SYS / PHASE SHIFT
R L1P -0.25000                                              SYS / PHASE SHIFT
R L2P -0.25000                                              SYS / PHASE SHIFT
R L2C                                                       SYS / PHASE SHIFT
  5 R09 -2 R10 -7 R11  0 R21  4 R22 -3                      GLONASS SLOT / FRQ #
                                                            GLONASS COD/PHS/BIS
    18    18  1929     7GPS                                 LEAP SECONDS
                                                            END OF HEADER
> 2024 05 08 12 04 24.0000000  0 13
G08  21625753.780   113644103.422 7      3662.525          45.312    21625752.760   113644103.424 5      3662.525          33.875    21625759.180    88553868.965 5      2853.915          34.062    21625761.040    88553878.963 7      2853.915          46.875
R09  21373550.780   114133569.247 7     -1307.924          44.812    21373551.880   114133569.243 7     -1307.924          43.687    21373564.240    88770599.065 7     -1017.274          46.000    21373564.220    88770601.057 7     -1017.274          47.375
G16  20488325.840   107666879.745 7      1780.565          46.562    20488324.260   107666879.753 6      1780.565          37.125    20488327.640    83896271.545 6      1387.453          37.312
G02  23193646.360   121883437.402 7      5024.449          44.937    23193643.640   121883437.402 4      5024.449          27.750    23193649.720    94974114.959 4      3915.155          28.125
R11  21013472.140   112289627.003 8      5619.963          49.250    21013471.920   112289627.006 8      5619.963          48.125    21013480.720    87336405.156 8      4371.083          48.375    21013480.100    87336405.156 8      4371.083          48.750
G10  22238934.740   116866392.095 7      3192.659          46.625    22238933.080   116866392.097 7      3192.659          43.562    22238942.000    91064762.285 7      2487.786          43.812    22238941.380    91064745.289 7      2487.786          45.312
G27  20863795.180   109639984.550 8      2134.957          48.500    20863794.500   109639984.554 7      2134.957          46.312    20863799.580    85433772.701 7      1663.603          46.625    20863800.500    85433775.701 7      1663.603          46.500
R21  20511947.720   109763565.554 7      3227.887          46.562    20511948.120   109763565.569 7      3227.887          46.562    20511958.920    85371712.312 7      2510.578          47.312    20511958.580    85371714.308 7      2510.578          46.875
G31  25010036.220   131428621.405 7      -816.257          42.187    25010035.560   131428621.420 5      -816.257          32.687    25010049.740   102411969.083 5      -636.045          32.500    25010051.820   102411981.059 6      -636.045          38.812
R10  19323615.260   103005749.153 7      1505.709          45.000    19323614.860   103005749.157 7      1505.709          44.125
G23  23269856.520   122283922.394 7      1266.089          45.500    23269856.260   122283922.396 4      1266.089          27.750    23269862.040    95286198.041 4       986.563          27.687    23269863.220    95286206.038 6       986.563          41.250
G21  21476061.900   112857467.782 7      4533.517          45.812    21476059.860   112857467.790 5      4533.517          32.125    21476064.940    87940894.260 5      3532.611          32.437
G26  22064324.640   115948806.463 7      -127.264          44.812    22064323.400   115948806.466 6      -127.264          40.812    22064332.420    90349753.534 6       -99.167          40.875    22064333.220    90349755.533 7       -99.167          44.437
> 2024 05 08 12 04 25.0000000  0 13
G08  21625056.820   113640441.001 7      3662.433          45.437    21625055.800   113640441.001 5      3662.433          34.062    21625062.280    88551015.131 5      2853.844          34.062    21625064.260    88551025.132 7      2853.844          46.750
R09  21373795.880   114134877.507 7     -1308.319          44.500    21373796.920   114134877.513 7     -1308.319          43.875    21373809.040    88771616.594 7     -1017.582          46.750    21373809.240    88771618.584 7     -1017.582          47.312
G16  20487987.120   107665099.508 7      1780.075          45.625    20487985.520   107665099.510 6      1780.075          37.250    20487988.820    83894884.345 6      1387.071          36.937
G02  23192690.500   121878413.249 7      5024.101          44.437    23192687.660   121878413.249 4      5024.101          27.750    23192693.660    94970200.041 4      3914.884          28.250
R11  21012420.480   112284007.376 8      5619.522          48.375    21012420.140   112284007.383 8      5619.522          48.000    21012428.960    87332034.343 8      4370.739          48.000    21012428.780    87332034.348 8      4370.739          48.875
G10  22238327.140   116863199.779 7      3192.134          46.875    22238325.640   116863199.782 7      3192.134          43.750    22238334.520    91062274.768 7      2487.377          43.812    22238334.020    91062257.770 7      2487.377          45.437
G27  20863388.960   109637849.681 8      2134.868          48.312    20863388.260   109637849.683 7      2134.868          46.062    20863393.260    85432109.165 7      1663.534          46.625    20863394.040    85432112.165 7      1663.534          46.437
R21  20511345.040   109760337.979 7      3227.356          45.750    20511345.180   109760337.997 7      3227.356          46.937    20511355.900    85369201.980 7      2510.166          46.812    20511355.440    85369203.978 7      2510.166          46.812
G31  25010191.720   131429437.573 7      -816.003          42.187    25010190.940   131429437.591 5      -816.003          32.687    25010205.260   102412605.047 5      -635.847          32.500    25010206.700   102412617.043 6      -635.847          38.812
R10  19323332.820   103004243.853 7      1504.958          44.812    19323332.360   103004243.856 7      1504.958          43.687
G23  23269615.520   122282656.627 7      1265.560          45.125    23269615.380   122282656.629 4      1265.560          27.750    23269621.240    95285211.729 4       986.150          27.687    23269622.320    95285219.730 6       986.150          41.625
G21  21475199.420   112852934.555 7      4532.994          45.437    21475197.120   112852934.562 5      4532.994          32.125    21475202.260    87937361.877 5      3532.203          32.437
G26  22064348.860   115948933.906 7      -127.510          44.875    22064347.580   115948933.911 6      -127.510          41.000    22064356.660    90349852.836 6       -99.359          41.250    22064357.320    90349854.831 7       -99.359          44.562
> 2024 05 08 12 04 26.0000000  0 13
G08  21624359.760   113636778.722 7      3662.118          45.250    21624358.900   113636778.722 5      3662.118          34.062    21624365.480    88548161.411 5      2853.598          34.062    21624367.280    88548171.407 7      2853.598          46.812
R09  21374040.980   114136186.218 7     -1308.940          44.687    21374041.840   114136186.219 7     -1308.940          44.250    21374054.220    88772634.463 7     -1018.064          45.750    21374054.320    88772636.460 7     -1018.064          47.125
G16  20487648.580   107663319.782 7      1779.374          45.312    20487646.740   107663319.787 6      1779.374          37.062    20487650.300    83893497.543 6      1386.526          37.000
G02  23191734.520   121873389.480 7      5023.494          44.500    23191731.660   121873389.485 4      5023.494          28.187    23191737.640    94966285.422 4      3914.411          28.250
R11  21011369.260   112278388.343 8      5618.684          49.125    21011368.840   112278388.349 7      5618.684          47.875    21011377.480    87327663.978 8      4370.087          48.500    21011377.240    87327663.983 8      4370.087          48.437
G10  22237719.800   116860008.042 7      3191.411          47.312    22237718.340   116860008.047 7      3191.411          43.375    22237727.200    91059787.702 7      2486.814          43.875    22237726.760    91059770.702 7      2486.814          45.062
G27  20862982.760   109635714.988 8      2134.587          48.750    20862982.040   109635714.991 7      2134.587          46.312    20862987.060    85430445.770 7      1663.314          46.750    20862987.740    85430448.766 7      1663.314          46.312
R21  20510742.080   109757110.880 7      3226.751          47.125    20510742.360   109757110.895 7      3226.751          47.625    20510752.920    85366692.011 7      2509.695          46.812    20510752.320    85366694.011 7      2509.695          46.437
G31  25010346.880   131430253.645 7      -816.157          42.187    25010346.180   131430253.663 5      -816.157          33.062    25010360.460   102413240.934 5      -635.966          33.312    25010361.940   102413252.922 6      -635.966          38.812
R10  19323050.600   103002739.424 7      1503.932          44.812    19323050.200   103002739.428 7      1503.932          44.125
G23  23269374.780   122281391.477 7      1264.743          45.750    23269374.580   122281391.479 4      1264.743          27.750    23269380.640    95284225.898 4       985.514          27.687    23269381.580    95284233.897 6       985.514          41.625
G21  21474337.020   112848401.832 7      4532.396          46.250    21474334.560   112848401.837 5      4532.396          32.375    21474339.840    87933829.887 5      3531.737          32.437
G26  22064373.100   115949061.721 7      -128.025          44.562    22064371.900   115949061.726 6      -128.025          40.375    22064381.000    90349952.423 6       -99.760          40.312    22064381.480    90349954.425 7       -99.760          44.562
> 2024 05 08 12 04 27.0000000  0 13
G08  21623662.920   113633116.724 7      3661.573          44.687    21623661.980   113633116.724 5      3661.573          34.125    21623668.720    88545307.906 5      2853.174          34.062    21623670.460    88545317.908 7      2853.174          46.875
R09  21374286.460   114137495.530 7     -1309.796          43.937    21374287.280   114137495.531 7     -1309.796          43.937    21374299.300    88773652.807 7     -1018.730          45.625    21374299.400    88773654.803 7     -1018.730          47.375
G16  20487309.780   107661540.695 7      1778.557          45.812    20487308.180   107661540.703 6      1778.557          37.187    20487311.780    83892111.244 6      1385.888          37.250
G02  23190778.620   121868366.212 7      5022.768          44.562    23190775.660   121868366.215 4      5022.768          28.187    23190781.700    94962371.192 4      3913.845          28.250
R11  21010317.940   112272769.980 8      5617.778          49.312    21010317.340   112272769.981 8      5617.778          48.437    21010326.140    87323294.140 7      4369.383          47.625    21010325.860    87323294.145 8      4369.383          48.562
G10  22237112.420   116856817.005 7      3190.469          46.875    22237111.200   116856817.008 7      3190.469          44.062    22237119.920    91057301.182 7      2486.080          44.687    22237119.460    91057284.180 7      2486.080          45.500
G27  20862576.740   109633580.621 8      2133.978          48.937    20862575.860   109633580.624 7      2133.978          46.187    20862580.860    85428782.625 7      1662.840          46.750    20862581.520    85428785.627 7      1662.840          46.500
R21  20510138.820   109753884.424 7      3225.915          47.437    20510139.260   109753884.436 7      3225.915          47.250    20510149.900    85364182.540 7      2509.045          46.687    20510149.220    85364184.536 7      2509.045          46.625
G31  25010502.300   131431069.716 7      -816.343          42.312    25010501.540   131431069.734 5      -816.343          33.062    25010515.900   102413876.825 5      -636.112          33.312    25010517.180   102413888.823 6      -636.112          39.187
R10  19322768.800   103001236.016 7      1502.548          45.062    19322768.120   103001236.014 7      1502.548          44.125
G23  23269133.880   122280127.031 7      1263.911          45.562    23269133.820   122280127.028 4      1263.911          27.750    23269139.980    95283240.611 4       984.866          27.937    23269141.100    95283248.613 6       984.866          41.625
G21  21473474.460   112843869.763 7      4531.543          45.625    21473472.020   112843869.771 5      4531.543          32.375    21473477.440    87930298.409 5      3531.073          32.437
G26  22064397.640   115949190.049 7      -128.758          44.875    22064396.360   115949190.060 6      -128.758          40.625    22064405.380    90350052.416 6      -100.331          41.125    22064405.940    90350054.415 7      -100.331          44.187
> 2024 05 08 12 04 28.0000000  0 13
G08  21622966.080   113629455.063 7      3661.494          45.562    21622965.120   113629455.063 5      3661.494          33.750    21622971.820    88542454.663 5      2853.112          33.687    21622973.720    88542464.659 7      2853.112          47.062
R09  21374531.880   114138805.511 7     -1310.288          44.187    21374532.540   114138805.520 7     -1310.288          43.812    21374544.720    88774671.677 7     -1019.113          46.437    21374544.760    88774673.672 7     -1019.113          46.875
G16  20486971.640   107659762.320 7      1778.191          45.937    20486969.800   107659762.328 6      1778.191          37.687    20486973.360    83890725.495 6      1385.603          37.500
G02  23189823.000   121863343.502 7      5022.471          44.875    23189819.920   121863343.504 4      5022.471          28.187    23189825.920    94958457.400 4      3913.614          28.250
R11  21009266.620   112267152.376 8      5617.309          49.562    21009266.340   112267152.374 7      5617.309          47.750    21009274.680    87318924.893 8      4369.018          48.500    21009274.440    87318924.893 8      4369.018          48.312
G10  22236505.460   116853626.731 7      3189.862          46.750    22236503.920   116853626.736 7      3189.862          43.437    22236512.680    91054815.254 7      2485.606          43.687    22236512.440    91054798.254 7      2485.606          45.500
G27  20862170.560   109631446.638 8      2133.777          48.625    20862169.860   109631446.641 7      2133.777          46.125    20862174.840    85427119.783 7      1662.683          46.687    20862175.440    85427122.781 7      1662.683          46.875
R21  20509536.020   109750658.655 8      3225.515          48.250    20509536.700   109750658.673 7      3225.515          47.500    20509546.940    85361673.605 7      2508.734          47.437    20509546.440    85361675.607 7      2508.734          46.937
G31  25010657.440   131431885.862 7      -816.112          42.500    25010656.960   131431885.875 5      -816.112          32.875    25010671.300   102414512.769 5      -635.932          33.000    25010671.700   102414524.761 6      -635.932          39.187
R10  19322486.980   102999733.632 7      1501.872          45.187    19322486.180   102999733.641 7      1501.872          43.625
G23  23268893.680   122278863.408 7      1263.224          45.750    23268893.500   122278863.405 4      1263.224          28.000    23268899.580    95282255.968 4       984.330          27.937    23268900.500    95282263.963 6       984.330          41.625
G21  21472612.000   112839338.433 7      4530.945          45.875    21472609.720   112839338.440 5      4530.945          32.062    21472615.280    87926767.502 5      3530.607          32.437
G26  22064422.180   115949318.945 7      -129.100          44.812    22064421.000   115949318.958 6      -129.100          41.625    22064430.020    90350152.850 7      -100.597          42.062    22064430.780    90350154.849 7      -100.597          44.062
> 2024 05 08 12 04 29.0000000  0 13
G08  21622269.400   113625793.585 7      3661.524          45.750    21622268.360   113625793.585 5      3661.524          33.750    21622275.060    88539601.564 5      2853.136          33.687    21622276.920    88539611.564 7      2853.136          47.062
R09  21374777.220   114140115.987 7     -1310.618          44.312    21374777.780   114140115.993 7     -1310.618          43.750    21374790.180    88775690.924 7     -1019.369          45.812    21374790.320    88775692.916 7     -1019.369          47.062
G16  20486633.180   107657984.539 7      1777.691          45.687    20486631.640   107657984.544 6      1777.691          37.375    20486635.120    83889340.209 6      1385.214          37.312
G02  23188866.940   121858321.228 7      5022.133          44.812    23188864.340   121858321.228 4      5022.133          28.187    23188870.320    94954543.943 4      3913.350          28.250
R11  21008215.480   112261535.397 8      5616.746          48.875    21008214.860   112261535.406 8      5616.746          48.250    21008223.640    87314556.142 8      4368.580          48.437    21008223.340    87314556.144 8      4368.580          48.812
G10  22235898.600   116850437.067 7      3189.463          47.000    22235896.980   116850437.071 7      3189.463          43.500    22235905.780    91052329.801 7      2485.296          43.812    22235905.080    91052312.801 7      2485.296          45.312
G27  20861764.580   109629312.884 8      2133.702          48.812    20861763.800   109629312.889 7      2133.702          45.875    20861768.740    85425457.115 7      1662.625          46.500    20861769.500    85425460.119 7      1662.625          46.687
R21  20508933.480   109747433.392 8      3225.123          48.812    20508934.020   109747433.407 7      3225.123          46.750    20508944.300    85359165.067 7      2508.429          46.812    20508943.660    85359167.065 7      2508.429          46.625
G31  25010812.580   131432701.953 6      -816.013          41.937    25010812.340   131432701.961 5      -816.013          32.875    25010826.560   102415148.665 5      -635.854          33.000    25010827.280   102415160.657 6      -635.854          39.187
R10  19322205.220   102998232.191 7      1501.042          44.687    19322204.640   102998232.208 7      1501.042          43.750
G23  23268653.600   122277600.410 7      1262.793          45.562    23268653.100   122277600.410 4      1262.793          28.000    23268659.200    95281271.818 4       983.994          27.937    23268660.360    95281279.815 7       983.994          42.062
G21  21471749.760   112834807.665 7      4530.548          45.812    21471747.420   112834807.670 5      4530.548          32.062    21471753.020    87923237.034 5      3530.297          32.437
G26  22064446.820   115949448.277 7      -129.515          45.000    22064445.540   115949448.287 6      -129.515          41.250    22064454.700    90350253.620 6      -100.921          40.812    22064455.460    90350255.616 7      -100.921          44.375
> 2024 05 08 12 04 30.0000000  0 13
G08  21621572.540   113622132.174 7      3661.359          46.062    21621571.620   113622132.173 5      3661.359          33.937    21621578.300    88536748.516 5      2853.007          33.875    21621580.300    88536758.520 7      2853.007          47.250
R09  21375022.720   114141426.823 7     -1311.022          44.062    21375023.240   114141426.824 7     -1311.022          43.625    21375035.420    88776710.446 7     -1019.683          46.125    21375035.680    88776712.445 7     -1019.683          47.500
G16  20486294.860   107656207.170 7      1777.158          45.062    20486293.340   107656207.175 6      1777.158          37.500    20486296.880    83887955.247 6      1384.799          37.312
G02  23187911.500   121853299.227 7      5021.830          44.937    23187908.740   121853299.229 4      5021.830          28.625    23187914.820    94950630.696 4      3913.114          28.625
R11  21007164.400   112255918.891 8      5616.168          49.062    21007163.780   112255918.895 7      5616.168          47.875    21007172.500    87310187.746 8      4368.131          48.937    21007172.280    87310187.747 8      4368.131          49.187
G10  22235291.660   116847247.888 7      3188.878          47.062    22235290.180   116847247.893 7      3188.878          43.875    22235298.800    91049844.729 7      2484.840          44.187    22235298.660    91049827.729 7      2484.840          45.187
G27  20861358.540   109627179.213 8      2133.545          48.750    20861357.740   109627179.221 7      2133.545          46.250    20861362.680    85423794.515 7      1662.503          47.000    20861363.260    85423797.519 7      1662.503          46.875
R21  20508330.560   109744208.485 7      3224.654          47.625    20508331.260   109744208.508 7      3224.654          47.437    20508341.580    85356656.812 7      2508.064          47.562    20508341.040    85356658.810 7      2508.064          47.625
G31  25010967.840   131433517.811 6      -815.819          41.187    25010967.620   131433517.818 5      -815.819          33.062    25010981.800   102415784.388 5      -635.703          33.500    25010983.060   102415796.380 6      -635.703          39.375
R10  19321923.740   102996731.542 7      1500.163          44.750    19321923.200   102996731.550 7      1500.163          43.750
G23  23268413.520   122276337.938 7      1262.150          45.750    23268413.040   122276337.940 4      1262.150          28.000    23268418.860    95280288.071 4       983.493          27.937    23268420.060    95280296.066 7       983.493          42.062
G21  21470887.460   112830277.325 7      4530.088          45.500    21470885.380   112830277.330 5      4530.088          32.750    21470890.920    87919706.901 5      3529.939          32.687
G26  22064471.280   115949577.868 7      -129.800          44.875    22064470.140   115949577.876 6      -129.800          41.625    22064479.420    90350354.594 6      -101.143          41.687    22064480.320    90350356.597 7      -101.143          44.625
> 2024 05 08 12 04 31.0000000  0 13
G08  21620875.660   113618470.938 7      3661.296          46.187    21620874.900   113618470.937 5      3661.296          33.937    21620881.620    88533895.607 5      2852.958          34.500    21620883.640    88533905.611 7      2852.958          47.750
R09  21375268.400   114142738.132 7     -1311.334          44.187    21375268.740   114142738.141 7     -1311.334          44.000    21375281.180    88777730.347 7     -1019.927          47.250    21375281.300    88777732.341 7     -1019.927          47.437
G16  20485956.660   107654430.364 7      1776.665          45.375    20485955.140   107654430.372 6      1776.665          38.375    20485958.840    83886570.720 6      1384.414          38.062
G02  23186955.960   121848277.649 7      5021.508          44.500    23186953.220   121848277.654 4      5021.508          28.625    23186959.260    94946717.784 4      3912.863          28.625
R11  21006113.300   112250302.954 8      5615.815          49.125    21006112.940   112250302.958 8      5615.815          48.437    21006121.520    87305819.795 8      4367.856          49.250    21006121.520    87305819.794 8      4367.856          49.687
G10  22234684.840   116844059.288 7      3188.533          47.125    22234683.400   116844059.292 7      3188.533          44.625    22234692.100    91047360.107 7      2484.571          44.875    22234691.640    91047343.112 7      2484.571          45.687
G27  20860952.560   109625045.777 8      2133.439          48.125    20860951.760   109625045.781 7      2133.439          47.062    20860956.740    85422132.095 7      1662.420          47.437    20860957.820    85422135.090 7      1662.420          47.000
R21  20507728.220   109740984.124 7      3224.273          47.687    20507729.000   109740984.141 7      3224.273          47.500    20507739.140    85354148.973 8      2507.768          48.000    20507738.600    85354150.969 8      2507.768          48.125
G31  25011123.040   131434333.576 7      -815.636          42.437    25011122.780   131434333.591 5      -815.636          33.062    25011137.040   102416420.039 5      -635.561          33.500    25011138.600   102416432.031 6      -635.561          39.375
R10  19321642.740   102995231.772 7      1499.520          44.875    19321641.800   102995231.775 7      1499.520          43.687
G23  23268173.260   122275076.093 7      1261.640          45.375    23268172.800   122275076.096 4      1261.640          28.000    23268178.660    95279304.820 4       983.096          27.937    23268180.220    95279312.813 7       983.096          42.437
G21  21470025.540   112825747.550 7      4529.667          45.562    21470023.380   112825747.557 5      4529.667          32.750    21470028.820    87916177.208 5      3529.611          32.687
G26  22064496.120   115949707.867 7      -129.997          44.125    22064494.800   115949707.878 6      -129.997          41.625    22064504.040    90350455.886 6      -101.296          41.625    22064505.340    90350457.883 7      -101.296          45.000
> 2024 05 08 12 04 32.0000000  0 13
G08  21620179.100   113614809.752 7      3661.245          45.687    21620178.240   113614809.749 5      3661.245          34.562    21620185.140    88531042.733 5      2852.918          34.500    21620186.920    88531052.737 8      2852.918          48.312
R09  21375513.960   114144049.849 7     -1311.787          43.937    21375514.220   114144049.856 7     -1311.787          44.000    21375526.840    88778750.555 7     -1020.279          47.062    21375526.900    88778752.553 8     -1020.279          48.937
G16  20485618.840   107652653.973 7      1776.210          45.562    20485617.180   107652653.975 6      1776.210          38.687    20485620.740    83885186.513 6      1384.059          38.250
G02  23186000.240   121843256.339 7      5021.281          45.312    23185997.780   121843256.344 4      5021.281          28.625    23186003.660    94942805.077 4      3912.687          28.625
R11  21005062.460   112244687.466 8      5615.372          48.687    21005062.060   112244687.470 8      5615.372          48.000    21005070.640    87301452.196 8      4367.512          49.750    21005070.640    87301452.190 8      4367.512          50.375
G10  22234078.080   116840871.207 7      3187.891          47.000    22234076.740   116840871.212 7      3187.891          44.812    22234085.380    91044875.889 7      2484.071          45.000    22234084.860    91044858.887 7      2484.071          46.250
G27  20860546.700   109622912.413 8      2133.415          48.375    20860545.800   109622912.418 7      2133.415          47.500    20860550.720    85420469.734 7      1662.402          47.750    20860551.500    85420472.735 7      1662.402          47.875
R21  20507125.700   109737760.171 8      3223.851          48.375    20507126.500   109737760.197 7      3223.851          47.500    20507136.600    85351641.461 8      2507.440          48.375    20507136.100    85351643.459 8      2507.440          48.437
G31  25011278.180   131435149.110 7      -815.255          42.187    25011278.020   131435149.128 5      -815.255          33.625    25011292.320   102417055.510 5      -635.264          33.875    25011293.380   102417067.496 6      -635.264          39.375
R10  19321361.440   102993732.818 7      1498.703          45.000    19321360.460   102993732.818 7      1498.703          43.750
G23  23267933.220   122273814.756 7      1261.123          45.312    23267932.820   122273814.756 4      1261.123          28.625    23267938.840    95278321.956 4       982.693          28.625    23267940.300    95278329.951 7       982.693          42.937
G21  21469163.820   112821218.190 7      4529.320          46.187    21469161.460   112821218.192 5      4529.320          33.500    21469166.820    87912647.839 5      3529.340          33.437
G26  22064520.880   115949838.177 7      -130.357          44.125    22064519.660   115949838.181 7      -130.357          42.187    22064528.840    90350557.416 7      -101.577          42.312    22064529.800    90350559.408 7      -101.577          45.250
> 2024 05 08 12 04 33.0000000  0 13
G08  21619482.620   113611148.708 7      3660.978          45.937    21619481.540   113611148.705 5      3660.978          35.125    21619488.400    88528189.973 5      2852.710          34.937    21619490.280    88528199.975 8      2852.710          48.437
R09  21375759.840   114145361.983 7     -1312.354          44.250    21375760.100   114145361.987 7     -1312.354          43.625    21375772.640    88779771.087 8     -1020.720          48.250    21375772.820    88779773.083 8     -1020.720          49.500
G16  20485280.700   107650878.097 7      1775.582          45.750    20485279.320   107650878.104 6      1775.582          39.000    20485282.820    83883802.715 6      1383.570          38.875
G02  23185044.700   121838235.429 7      5020.732          45.062    23185042.300   121838235.431 4      5020.732          28.625    23185048.200    94938892.683 4      3912.259          28.625
R11  21004011.620   112239072.553 8      5614.627          49.000    21004011.240   112239072.559 8      5614.627          48.312    21004020.060    87297085.041 8      4366.932          50.437    21004019.860    87297085.041 8      4366.932          50.375
G10  22233471.480   116837683.687 7      3187.159          47.187    22233470.180   116837683.694 7      3187.159          45.125    22233478.780    91042392.106 7      2483.500          45.187    22233478.400    91042375.105 7      2483.500          46.250
G27  20860140.580   109620779.253 8      2133.093          48.000    20860139.800   109620779.257 7      2133.093          47.562    20860144.820    85418807.526 8      1662.151          48.000    20860145.540    85418810.528 8      1662.151          48.312
R21  20506523.480   109734536.739 7      3223.230          47.000    20506524.160   109734536.761 7      3223.230          47.187    20506534.100    85349134.343 8      2506.956          49.500    20506533.880    85349136.343 8      2506.956          49.250
G31  25011433.140   131435964.568 6      -815.352          41.187    25011433.040   131435964.584 5      -815.352          33.625    25011447.320   102417690.916 5      -635.339          33.875    25011448.140   102417702.906 6      -635.339          40.062
R10  19321080.580   102992234.746 7      1497.644          44.750    19321079.540   102992234.738 7      1497.644          43.750
G23  23267693.440   122272554.015 7      1260.445          45.312    23267692.760   122272554.018 4      1260.445          28.625    23267699.060    95277339.560 4       982.165          28.625    23267700.700    95277347.549 7       982.165          42.937
G21  21468301.800   112816689.398 7      4528.510          45.937    21468299.700   112816689.398 5      4528.510          33.500    21468305.180    87909118.910 5      3528.709          33.437
G26  22064545.660   115949968.851 7      -130.925          44.500    22064544.420   115949968.856 7      -130.925          42.375    22064553.680    90350659.230 7      -102.019          42.312    22064554.520    90350661.226 7      -102.019          45.562
> 2024 05 08 12 04 34.0000000  0 13
G08  21618786.080   113607487.990 7      3660.654          46.000    21618785.000   113607487.987 5      3660.654          35.750    21618791.800    88525337.468 5      2852.458          35.250    21618793.760    88525347.468 8      2852.458          49.187
R09  21376005.460   114146674.750 7     -1312.963          44.000    21376006.000   114146674.745 7     -1312.963          43.625    21376018.400    88780792.115 8     -1021.193          48.437    21376018.420    88780794.107 8     -1021.193          49.500
G16  20484943.020   107649102.917 7      1774.990          46.000    20484941.420   107649102.927 6      1774.990          39.375    20484944.940    83882419.458 6      1383.109          39.125
G02  23184089.360   121833215.046 7      5020.284          45.000    23184086.940   121833215.049 4      5020.284          29.937    23184092.780    94934980.701 5      3911.910          30.125
R11  21002961.180   112233458.353 8      5614.012          49.062    21002960.720   112233458.357 8      5614.012          48.062    21002969.360    87292718.455 8      4366.454          50.437    21002969.080    87292718.456 8      4366.454          51.375
G10  22232865.200   116834496.889 7      3186.623          47.250    22232863.720   116834496.888 7      3186.623          45.750    22232872.420    91039908.885 7      2483.083          45.812    22232871.740    91039891.884 7      2483.083          47.062
G27  20859734.760   109618646.444 8      2132.805          48.000    20859733.940   109618646.446 7      2132.805          47.500    20859738.940    85417145.598 7      1661.926          47.812    20859739.420    85417148.599 8      1661.926          48.062
R21  20505921.160   109731313.956 7      3222.679          47.000    20505921.640   109731313.976 7      3222.679          47.250    20505931.840    85346627.736 8      2506.528          49.500    20505931.600    85346629.732 8      2506.528          48.875
G31  25011588.400   131436780.060 6      -815.500          41.937    25011588.160   131436780.078 5      -815.500          34.312    25011602.520   102418326.352 5      -635.455          34.812    25011603.460   102418338.350 6      -635.455          40.062
R10  19320799.940   102990737.700 7      1496.716          44.437    19320798.820   102990737.698 7      1496.716          43.937
G23  23267453.520   122271294.047 7      1259.703          45.750    23267452.940   122271294.049 4      1259.703          28.625    23267459.300    95276357.767 4       981.586          28.625    23267460.200    95276365.768 7       981.586          43.562
G21  21467440.240   112812161.273 7      4527.884          46.000    21467438.120   112812161.278 5      4527.884          34.312    21467443.560    87905590.507 5      3528.221          34.187
G26  22064570.760   115950100.048 7      -131.284          43.875    22064569.480   115950100.053 7      -131.284          42.250    22064578.760    90350761.459 7      -102.299          42.187    22064579.460    90350763.462 7      -102.299          45.875
> 2024 05 08 12 04 35.0000000  0 13
G08  21618089.580   113603827.456 7      3660.508          46.437    21618088.380   113603827.453 5      3660.508          35.750    21618095.260    88522485.106 5      2852.344          35.250    21618097.020    88522495.101 8      2852.344          49.187
R09  21376251.880   114147987.986 7     -1313.336          44.000    21376252.080   114147987.987 7     -1313.336          43.937    21376264.420    88781813.508 8     -1021.483          48.687    21376264.500    88781815.505 8     -1021.483          49.750
G16  20484605.260   107647328.294 7      1774.499          44.875    20484603.760   107647328.299 6      1774.499          38.875    20484607.320    83881036.631 6      1382.726          38.312
G02  23183134.040   121828195.087 7      5019.880          43.500    23183131.660   121828195.092 4      5019.880          29.937    23183137.460    94931069.053 5      3911.595          30.125
R11  21001910.780   112227844.778 8      5613.372          48.625    21001910.160   112227844.782 8      5613.372          48.250    21001918.860    87288352.331 8      4365.956          50.875    21001918.500    87288352.330 8      4365.956          51.437
G10  22232258.800   116831310.716 7      3185.972          46.812    22232257.380   116831310.724 7      3185.972          45.937    22232265.960    91037426.153 7      2482.575          45.875    22232265.760    91037409.158 7      2482.575          46.812
G27  20859328.760   109616513.864 8      2132.646          48.562    20859328.080   109616513.866 8      2132.646          48.125    20859333.120    85415483.845 8      1661.802          48.000    20859333.820    85415486.844 8      1661.802          48.500
R21  20505319.080   109728091.655 8      3222.207          48.562    20505319.940   109728091.677 7      3222.207          47.562    20505329.780    85344121.497 8      2506.161          49.250    20505329.360    85344123.496 8      2506.161          49.687
G31  25011744.000   131437595.474 7      -815.323          42.000    25011743.360   131437595.489 5      -815.323          35.125    25011757.660   102418961.731 5      -635.316          34.812    25011758.580   102418973.717 6      -635.316          40.812
R10  19320518.960   102989241.587 7      1495.775          44.562    19320518.000   102989241.590 7      1495.775          43.937
G23  23267214.080   122270034.717 7      1259.135          45.000    23267213.220   122270034.725 4      1259.135          28.625    23267219.600    95275376.471 4       981.144          28.625    23267220.740    95275384.472 7       981.144          43.687
G21  21466578.600   112807633.711 7      4527.437          45.937    21466576.560   112807633.716 5      4527.437          34.312    21466581.940    87902062.539 5      3527.873          35.000
G26  22064595.800   115950231.687 7      -131.750          44.562    22064594.540   115950231.692 7      -131.750          42.687    22064603.760    90350864.029 7      -102.662          42.875    22064604.580    90350866.025 7      -102.662          46.187
> 2024 05 08 12 04 36.0000000  0 13
G08  21617393.000   113600167.211 7      3660.025          45.437    21617392.000   113600167.208 6      3660.025          36.062    21617398.860    88519632.966 5      2851.968          35.625    21617400.680    88519642.964 8      2851.968          49.250
R09  21376497.900   114149301.869 7     -1314.244          43.562    21376497.760   114149301.872 7     -1314.244          43.562    21376510.520    88782835.409 8     -1022.190          49.125    21376510.500    88782837.407 8     -1022.190          49.937
G16  20484267.700   107645554.344 7      1773.592          45.250    20484266.240   107645554.351 6      1773.592          38.812    20484269.740    83879654.332 6      1382.019          38.312
G02  23182179.040   121823175.669 7      5019.148          44.625    23182176.500   121823175.676 4      5019.148          29.937    23182182.240    94927157.822 5      3911.024          30.125
R11  21000860.240   112222231.898 8      5612.516          49.187    21000859.940   112222231.907 8      5612.516          48.312    21000868.360    87283986.762 8      4365.290          50.812    21000868.320    87283986.762 8      4365.290          51.500
G10  22231652.780   116828125.276 7      3184.939          46.437    22231651.300   116828125.284 7      3184.939          45.437    22231659.820    91034943.999 7      2481.770          45.187    22231659.420    91034926.999 7      2481.770          47.187
G27  20858923.080   109614381.633 8      2132.017          48.437    20858922.380   109614381.638 8      2132.017          48.312    20858927.340    85413822.368 8      1661.312          48.312    20858928.260    85413825.370 8      1661.312          48.687
R21  20504716.860   109724869.958 7      3221.404          46.812    20504717.980   109724869.978 7      3221.404          47.125    20504727.780    85341615.738 8      2505.537          49.375    20504727.140    85341617.732 8      2505.537          49.625
G31  25011898.900   131438410.892 6      -815.445          41.312    25011898.480   131438410.905 5      -815.445          35.125    25011912.900   102419597.108 5      -635.412          35.000    25011913.760   102419609.100 6      -635.412          40.812
R10  19320238.300   102987746.492 7      1494.524          44.375    19320237.640   102987746.503 7      1494.524          43.437
G23  23266974.480   122268776.141 7      1258.244          44.125    23266973.780   122268776.144 4      1258.244          29.812    23266980.080    95274395.760 4       980.450          29.687    23266981.180    95274403.760 7       980.450          43.687
G21  21465717.260   112803106.850 7      4526.472          46.375    21465715.080   112803106.855 5      4526.472          34.625    21465720.340    87898535.116 5      3527.121          35.000
G26  22064620.960   115950363.827 7      -132.416          44.312    22064619.740   115950363.835 7      -132.416          42.687    22064628.960    90350966.989 7      -103.182          42.375    22064629.720    90350968.987 7      -103.182          46.125
> 2024 05 08 12 04 37.0000000  0 13
G08  21616696.440   113596507.254 7      3659.872          46.375    21616695.600   113596507.249 5      3659.872          35.562    21616702.400    88516781.053 5      2851.848          35.437    21616704.400    88516791.050 8      2851.848          49.562
R09  21376744.220   114150616.341 7     -1314.773          44.062    21376744.200   114150616.342 7     -1314.773          43.625    21376756.600    88783857.762 8     -1022.601          48.500    21376756.600    88783859.758 8     -1022.601          49.375
G16  20483930.340   107643781.066 7      1772.968          46.312    20483928.760   107643781.074 6      1772.968          39.000    20483932.320    83878272.558 6      1381.534          38.312
G02  23181224.080   121818156.758 7      5018.680          44.437    23181221.260   121818156.765 5      5018.680          30.750    23181227.060    94923246.984 5      3910.660          30.937
R11  20999810.100   112216619.739 8      5611.900          48.937    20999809.840   112216619.745 8      5611.900          48.000    20999818.100    87279621.749 8      4364.811          50.875    20999818.000    87279621.748 8      4364.811          51.500
G10  22231046.720   116824940.525 7      3184.401          46.062    22231045.260   116824940.533 7      3184.401          45.500    22231053.720    91032462.376 7      2481.351          45.625    22231053.560    91032445.379 7      2481.351          47.062
G27  20858517.380   109612249.728 8      2131.746          48.125    20858516.700   109612249.736 8      2131.746          48.125    20858521.660    85412161.144 8      1661.101          48.062    20858522.480    85412164.144 8      1661.101          48.500
R21  20504114.980   109721648.917 7      3220.749          46.625    20504115.880   109721648.935 7      3220.749          47.062    20504125.800    85339110.484 8      2505.027          49.687    20504125.080    85339112.482 8      2505.027          49.500
G31  25012054.160   131439226.345 6      -815.319          41.250    25012053.620   131439226.361 5      -815.319          35.125    25012068.200   102420232.513 5      -635.314          35.437    25012069.020   102420244.507 6      -635.314          41.187
R10  19319958.200   102986252.436 7      1493.509          44.437    19319957.100   102986252.442 7      1493.509          43.812
G23  23266735.200   122267518.328 7      1257.433          45.062    23266734.480   122267518.327 4      1257.433          29.812    23266740.760    95273415.646 4       979.818          29.687    23266742.100    95273423.647 7       979.818          44.187
G21  21464856.040   112798580.656 7      4525.851          45.562    21464853.800   112798580.661 5      4525.851          34.625    21464859.060    87895008.214 5      3526.637          34.625
G26  22064646.260   115950496.509 7      -132.894          44.687    22064644.900   115950496.514 7      -132.894          42.562    22064654.160    90351070.369 7      -103.554          42.437    22064654.780    90351072.366 7      -103.554          46.500
> 2024 05 08 12 04 38.0000000  0 13
G08  21616000.180   113592847.527 7      3659.534          46.125    21615999.140   113592847.524 5      3659.534          35.687    21616005.960    88513929.317 5      2851.585          35.437    21616008.220    88513939.321 8      2851.585          50.062
R09  21376990.280   114151931.302 7     -1315.223          43.812    21376990.080   114151931.298 7     -1315.223          43.437    21377002.860    88784880.495 8     -1022.951          48.500    21377002.800    88784882.493 8     -1022.951          49.687
G16  20483592.940   107642008.380 7      1772.256          46.937    20483591.440   107642008.387 6      1772.256          39.375    20483594.960    83876891.240 6      1380.979          39.000
G02  23180268.920   121813138.309 7      5018.112          44.187    23180266.300   121813138.320 5      5018.112          30.750    23180272.100    94919336.513 5      3910.217          30.937
R11  20998760.180   112211008.211 8      5611.143          49.125    20998759.600   112211008.215 8      5611.143          48.375    20998768.160    87275257.229 8      4364.222          51.000    20998767.760    87275257.226 8      4364.222          51.312
G10  22230440.920   116821756.431 7      3183.706          46.875    22230439.260   116821756.441 7      3183.706          45.625    22230447.860    91029981.264 7      2480.810          45.437    22230447.300    91029964.266 7      2480.810          46.937
G27  20858111.800   109610118.068 8      2131.482          48.687    20858110.920   109610118.078 8      2131.482          48.312    20858116.060    85410500.108 8      1660.895          48.000    20858116.820    85410503.111 8      1660.895          48.500
R21  20503513.000   109718428.465 7      3220.076          46.687    20503513.780   109718428.480 7      3220.076          47.625    20503523.880    85336605.685 8      2504.504          49.625    20503523.600    85336607.683 8      2504.504          49.500
G31  25012209.180   131440041.774 6      -815.492          41.312    25012208.700   131440041.790 5      -815.492          35.187    25012223.400   102420867.900 5      -635.448          35.437    25012223.760   102420879.890 6      -635.448          41.187
R10  19319678.080   102984759.322 7      1492.559          44.687    19319677.180   102984759.325 7      1492.559          43.875
G23  23266495.740   122266261.163 7      1256.765          44.937    23266495.200   122266261.162 4      1256.765          29.812    23266501.440    95272436.037 4       979.297          29.687    23266502.860    95272444.038 7       979.297          43.937
G21  21463994.820   112794055.046 7      4525.160          45.562    21463992.720   112794055.048 5      4525.160          34.625    21463997.880    87891481.765 5      3526.099          34.625
G26  22064671.400   115950629.640 7      -133.466          44.625    22064670.260   115950629.640 7      -133.466          43.062    22064679.520    90351174.097 7      -103.999          42.625    22064680.320    90351176.094 7      -103.999          46.062
> 2024 05 08 12 04 39.0000000  0 13
G08  21615303.740   113589187.949 7      3659.623          45.062    21615302.800   113589187.946 5      3659.623          35.687    21615309.640    88511077.700 5      2851.654          35.562    21615311.820    88511087.706 8      2851.654          49.500
R09  21377236.640   114153246.776 7     -1315.686          43.000    21377236.620   114153246.791 7     -1315.686          43.312    21377249.200    88785903.643 8     -1023.311          48.937    21377249.240    88785905.642 8     -1023.311          49.625
G16  20483255.680   107640236.216 7      1771.966          46.000    20483254.300   107640236.219 6      1771.966          38.937    20483257.840    83875510.331 6      1380.753          38.500
G02  23179314.000   121808120.245 7      5017.951          44.500    23179311.360   121808120.255 5      5017.951          30.750    23179317.240    94915426.335 5      3910.091          30.937
R11  20997710.080   112205397.268 8      5610.706          48.750    20997709.680   112205397.277 8      5610.706          48.062    20997718.000    87270893.167 8      4363.882          51.187    20997717.780    87270893.167 8      4363.882          51.187
G10  22229835.200   116818572.954 7      3183.165          46.250    22229833.460   116818572.959 7      3183.165          45.375    22229842.040    91027500.631 7      2480.389          45.437    22229841.420    91027483.635 7      2480.389          47.000
G27  20857706.020   109607986.647 8      2131.346          48.000    20857705.460   109607986.649 8      2131.346          48.000    20857710.340    85408839.258 8      1660.789          48.250    20857711.100    85408842.262 8      1660.789          48.625
R21  20502911.360   109715208.547 7      3219.700          47.312    20502912.340   109715208.568 7      3219.700          46.937    20502922.320    85334101.309 8      2504.211          49.750    20502922.080    85334103.309 8      2504.211          49.687
G31  25012364.400   131440857.085 6      -815.214          41.125    25012363.960   131440857.098 5      -815.214          35.187    25012378.460   102421503.191 5      -635.232          35.062    25012379.480   102421515.187 6      -635.232          41.187
R10  19319398.100   102983267.103 7      1491.833          44.500    19319397.020   102983267.106 7      1491.833          43.875
G23  23266256.560   122265004.634 7      1256.263          44.625    23266256.240   122265004.634 5      1256.263          30.125    23266262.420    95271456.923 4       978.906          29.687    23266264.200    95271464.923 7       978.906          44.062
G21  21463133.800   112789529.987 7      4524.833          45.687    21463131.480   112789529.992 5      4524.833          34.625    21463136.820    87887955.749 5      3525.844          34.750
G26  22064696.660   115950763.150 7      -133.665          44.187    22064695.640   115950763.154 7      -133.665          43.375    22064704.820    90351278.127 7      -104.154          43.000    22064705.720    90351280.129 7      -104.154          46.312
> 2024 05 08 12 04 40.0000000  0 13
G08  21614607.460   113585528.437 7      3659.449          45.812    21614606.480   113585528.434 5      3659.449          35.687    21614613.220    88508226.134 5      2851.519          35.562    21614615.280    88508236.142 8      2851.519          49.687
R09  21377482.840   114154562.587 7     -1316.085          43.500    21377483.060   114154562.601 7     -1316.085          43.312    21377495.440    88786927.043 8     -1023.622          48.687    21377495.660    88786929.042 8     -1023.622          49.750
G16  20482918.620   107638464.468 7      1771.527          45.812    20482917.160   107638464.473 6      1771.527          38.937    20482920.620    83874129.748 6      1380.410          38.625
G02  23178359.180   121803102.445 7      5017.644          45.062    23178356.420   121803102.455 5      5017.644          30.875    23178362.440    94911516.367 5      3909.852          31.000
R11  20996660.240   112199786.781 8      5610.205          48.750    20996659.840   112199786.785 8      5610.205          48.375    20996668.100    87266529.459 8      4363.493          51.250    20996667.800    87266529.458 8      4363.493          51.687
G10  22229229.640   116815389.911 7      3182.739          47.312    22229227.740   116815389.916 7      3182.739          45.687    22229236.280    91025020.339 7      2480.056          45.625    22229235.500    91025003.342 7      2480.056          47.187
G27  20857300.600   109605855.272 8      2131.280          48.437    20857299.820   109605855.275 8      2131.280          48.500    20857304.860    85407178.447 8      1660.737          48.562    20857305.560    85407181.449 8      1660.737          48.937
R21  20502309.940   109711988.989 7      3219.306          46.312    20502310.680   109711989.014 7      3219.306          47.375    20502320.560    85331597.212 8      2503.905          49.687    20502320.260    85331599.210 8      2503.905          49.500
G31  25012519.680   131441672.152 6      -814.981          41.500    25012519.000   131441672.167 5      -814.981          34.812    25012533.620   102422138.299 5      -635.050          35.062    25012534.880   102422150.287 6      -635.050          41.187
R10  19319118.080   102981775.643 7      1491.055          44.875    19319117.640   102981775.646 7      1491.055          43.500
G23  23266017.420   122263748.588 7      1255.768          44.750    23266017.060   122263748.588 5      1255.768          30.125    23266023.420    95270478.187 5       978.520          30.125    23266024.680    95270486.188 7       978.520          44.000
G21  21462272.660   112785005.352 7      4524.369          46.000    21462270.500   112785005.354 5      4524.369          34.437    21462275.800    87884430.061 5      3525.482          34.750
G26  22064722.280   115950896.937 7      -134.006          44.437    22064721.220   115950896.937 7      -134.006          42.937    22064730.480    90351382.367 7      -104.421          42.500    22064731.040    90351384.371 7      -104.421          46.062
> 2024 05 08 12 04 41.0000000  0 13
G08  21613911.100   113581869.314 7      3659.103          45.562    21613910.040   113581869.313 5      3659.103          35.500    21613916.840    88505374.873 5      2851.249          35.375    21613918.720    88505384.873 8      2851.249          49.125
R09  21377729.360   114155879.105 7     -1316.773          43.375    21377729.500   114155879.119 7     -1316.773          43.625    21377742.200    88787950.985 8     -1024.157          48.500    21377742.180    88787952.983 8     -1024.157          49.687
G16  20482581.600   107636693.500 7      1770.854          46.125    20482580.200   107636693.505 6      1770.854          39.500    20482583.540    83872749.771 6      1379.886          38.812
G02  23177404.400   121798085.295 7      5017.091          44.187    23177401.700   121798085.307 5      5017.091          30.875    23177407.760    94907606.908 5      3909.422          31.000
R11  20995610.280   112194177.150 8      5609.331          48.687    20995610.120   112194177.157 8      5609.331          48.187    20995618.340    87262166.415 8      4362.813          50.812    20995618.200    87262166.414 8      4362.813          51.062
G10  22228624.020   116812207.708 7      3181.949          46.812    22228622.240   116812207.716 7      3181.949          45.812    22228630.780    91022540.703 7      2479.441          45.750    22228630.100    91022523.705 7      2479.441          47.562
G27  20856895.180   109603724.350 8      2130.885          48.250    20856894.260   109603724.355 7      2130.885          47.937    20856899.360    85405517.990 7      1660.430          47.937    20856899.880    85405520.990 8      1660.430          48.250
R21  20501708.100   109708770.158 7      3218.664          47.500    20501708.920   109708770.178 7      3218.664          46.937    20501719.180    85329093.673 8      2503.405          49.750    20501718.580    85329095.669 8      2503.405          49.437
G31  25012675.320   131442487.392 6      -815.223          40.812    25012674.080   131442487.410 5      -815.223          34.812    25012688.760   102422773.539 5      -635.239          34.750    25012689.920   102422785.539 6      -635.239          41.062
R10  19318838.620   102980285.319 7      1489.916          44.562    19318838.040   102980285.328 7      1489.916          43.312
G23  23265778.820   122262493.400 7      1255.061          44.375    23265778.240   122262493.397 5      1255.061          30.125    23265784.560    95269500.115 5       977.970          30.125    23265786.040    95269508.113 7       977.970          44.000
