     3.05           OBSERVATION DATA    MIXED               RINEX VERSION / TYPE
TPS2RIN 1.0.28.3459 TPS-USER            20260427 162845 UTC PGM / RUN BY / DATE
Win64 build Jun 01, 2022 (c) Topcon Positioning Systems     COMMENT
SRC: 20240603_GUI25.tps                                     COMMENT
Observer            Agency                                  OBSERVER / AGENCY
O0M3X53SBGM         TPS HIPER_SR        4.8 HSR Jul,08,2022 REC # / TYPE / VERS
FW: 4.8 HSR Jul,08,2022 p3                                  COMMENT
SN: HiPer SR 1212-12575                                     COMMENT
000                 TPSHIPER_SR     NONE                    ANT # / TYPE
        1.8000        0.0000        0.0000                  ANTENNA: DELTA H/E/N
GUI25                                                       MARKER NAME
  5391574.0173 -1591694.7368  3005942.7785                  APPROX POSITION XYZ
  2024     6     3    14    37   27.0000000     GPS         TIME OF FIRST OBS
  2024     6     3    14    52   31.0000000     GPS         TIME OF LAST OBS
     1.000                                                  INTERVAL
   905 EPOCHS                                               COMMENT
G   12 C1C L1C D1C C1W L1W D1W C2W L2W D2W C2X L2X D2X      SYS / # / OBS TYPES
R   12 C1C L1C D1C C1P L1P D1P C2P L2P D2P C2C L2C D2C      SYS / # / OBS TYPES
    16                                                      # OF SATELLITES
   G02   905   905   905   905   905   905   905   905   905PRN / # OF OBS
           0     0     0                                    PRN / # OF OBS
   G03   905   905   905   905   905   905   905   905   905PRN / # OF OBS
         905   905   905                                    PRN / # OF OBS
   G04   905   905   905   905   905   905   905   905   905PRN / # OF OBS
         905   905   905                                    PRN / # OF OBS
   G08   905   905   905   905   905   905   905   905   905PRN / # OF OBS
         905   905   905                                    PRN / # OF OBS
   G09   905   905   905   905   905   905   905   905   905PRN / # OF OBS
         905   905   905                                    PRN / # OF OBS
   G14   905   905   905   905   905   905   905   905   905PRN / # OF OBS
         905   905   905                                    PRN / # OF OBS
   G17   905   905   905   905   905   905   905   905   905PRN / # OF OBS
         905   905   905                                    PRN / # OF OBS
   G21   905   905   905   905   905   905   905   905   905PRN / # OF OBS
           0     0     0                                    PRN / # OF OBS
   G22   905   905   905   905   905   905   905   905   905PRN / # OF OBS
           0     0     0                                    PRN / # OF OBS
   R01   905   905   905   905   905   905   905   905   905PRN / # OF OBS
         905   905   905                                    PRN / # OF OBS
   R02   905   905   905   905   905   905   905   905   905PRN / # OF OBS
         905   905   905                                    PRN / # OF OBS
   R03   279   279   279   275   275   275   275   275   275PRN / # OF OBS
         274   274   274                                    PRN / # OF OBS
   R14    26    26    26    22    22    22    22    22    22PRN / # OF OBS
          21    21    21                                    PRN / # OF OBS
   R17   905   905   905   905   905   905   905   905   905PRN / # OF OBS
         905   905   905                                    PRN / # OF OBS
   R23   905   905   905   905   905   905     0     0     0PRN / # OF OBS
           0     0     0                                    PRN / # OF OBS
   R24   905   905   905   905   905   905   905   905   905PRN / # OF OBS
         905   905   905                                    PRN / # OF OBS
G L1C                                                       SYS / PHASE SHIFT
G L1W -0.25000                                              SYS / PHASE SHIFT
G L2W  0.00000                                              SYS / PHASE SHIFT
G L2X  0.25000                                              SYS / PHASE SHIFT
R L1C                                                       SYS / PHASE SHIFT
R L1P -0.25000                                              SYS / PHASE SHIFT
R L2P -0.25000                                              SYS / PHASE SHIFT
R L2C                                                       SYS / PHASE SHIFT
  7 R01  1 R02 -4 R03  5 R14 -7 R17  4 R23  3 R24  2        GLONASS SLOT / FRQ #
                                                            GLONASS COD/PHS/BIS
               *** Undefined LeapSeconds ***                COMMENT
                                                            END OF HEADER
> 2024 06 03 14 37 27.0000000  0 14
G08  23114441.440   121467211.879 7      -381.732    23114440.740   121467211.878 6      -381.732    23114453.120    94649812.071 6      -297.454    23114454.100    94649822.051 7      -297.454
G22  23223039.440   122037900.254 7      3239.514    23223038.140   122037900.270 5      3239.514    23223044.200    95094457.702 5      2524.297
R01  19777182.960   105720374.565 7      1221.819    19777182.980   105720374.575 7      1221.819    19777193.880    82227010.344 7       950.304    19777193.780    82227007.336 7       950.304
R23  22976770.840   122910217.060 6       743.960    22976770.840   122910217.062 6       743.960
R24  20290198.940   108500804.551 8      2996.740    20290198.700   108500804.560 7      2996.740    20290209.200    84389566.891 8      2330.798    20290209.640    84389564.895 8      2330.798
G09  24460825.580   128542507.753 6      6161.306    24460824.640   128542507.760 5      6161.306    24460843.300   100163060.371 5      4801.017    24460842.740   100163063.395 6      4801.017
G21  22697959.980   119278589.938 7      1341.114    22697957.780   119278589.943 5      1341.114    22697965.100    92944359.944 5      1045.024
G02  21908255.880   115128659.812 8      2026.255    21908254.460   115128659.820 6      2026.255    21908257.940    89710651.552 6      1578.900
R17  21768299.840   116486579.164 7      5125.159    21768299.080   116486579.184 7      5125.159    21768314.780    90600727.447 7      3986.235    21768313.660    90600725.443 7      3986.235
G14  22162499.580   116464716.730 7      1823.376    22162499.660   116464716.743 4      1823.376    22162506.440    90751752.604 4      1420.812    22162506.800    90751757.583 7      1420.812
R02  19975296.040   106592003.510 8      5314.849    19975295.480   106592003.511 8      5314.849    19975305.700    82904935.838 8      4133.771    19975305.800    82904934.839 8      4133.771
G17  22440177.860   117923935.562 7      5358.355    22440177.440   117923935.567 6      5358.355    22440183.000    91888786.533 6      4175.341    22440183.560    91888804.546 8      4175.341
G04  22256924.700   116960935.741 7      5423.873    22256924.220   116960935.751 5      5423.873    22256932.840    91138415.844 5      4226.394    22256933.360    91138420.857 7      4226.394
G03  20002506.680   105113880.117 8      2085.535    20002505.840   105113880.116 8      2085.535    20002511.240    81906940.543 8      1625.092    20002512.160    81906944.546 8      1625.092
> 2024 06 03 14 37 28.0000000  0 14
G08  23114514.060   121467593.733 7      -381.724    23114513.320   121467593.736 6      -381.724    23114525.660    94650109.616 6      -297.448    23114526.880    94650119.597 7      -297.448
G22  23222423.040   122034661.087 7      3238.958    23222421.800   122034661.097 4      3238.958    23222428.000    95091933.670 5      2523.864
R01  19776954.640   105719153.305 7      1221.151    19776954.540   105719153.314 7      1221.151    19776966.100    82226060.471 7       949.784    19776965.340    82226057.463 7       949.784
R23  22976631.960   122909473.467 6       743.830    22976631.260   122909473.460 6       743.830
R24  20289638.300   108497808.065 8      2996.591    20289638.960   108497808.079 8      2996.591    20289648.960    84387236.303 8      2330.682    20289649.360    84387234.307 8      2330.682
G09  24459653.340   128536346.442 6      6161.533    24459652.260   128536346.444 5      6161.533    24459670.960   100158259.346 5      4801.195    24459670.940   100158262.343 6      4801.195
G21  22697704.780   119277248.958 7      1341.309    22697702.660   119277248.955 5      1341.309    22697709.940    92943315.012 5      1045.176
G02  21907870.200   115126633.673 8      2026.347    21907868.880   115126633.683 6      2026.347    21907872.440    89709072.750 6      1578.971
R17  21767342.580   116481454.154 7      5125.170    21767341.960   116481454.175 7      5125.170    21767357.340    90596741.322 7      3986.243    21767356.000    90596739.316 8      3986.243
G14  22162152.940   116462893.708 7      1822.740    22162152.980   116462893.724 4      1822.740    22162159.360    90750332.061 4      1420.317    22162160.080    90750337.049 7      1420.317
R02  19974300.100   106586689.055 8      5314.199    19974299.940   106586689.053 8      5314.199    19974309.920    82900802.377 8      4133.266    19974309.960    82900801.378 8      4133.266
G17  22439158.400   117918577.307 7      5358.212    22439157.680   117918577.315 6      5358.212    22439163.600    91884611.279 6      4175.230    22439164.260    91884629.291 8      4175.230
G04  22255892.720   116955512.081 7      5423.612    22255892.040   116955512.097 5      5423.612    22255900.700    91134189.627 5      4226.191    22255901.520    91134194.657 7      4226.191
G03  20002109.880   105111794.937 8      2085.009    20002108.840   105111794.942 8      2085.009    20002114.420    81905315.736 8      1624.682    20002115.440    81905319.743 8      1624.682
> 2024 06 03 14 37 29.0000000  0 14
G08  23114587.240   121467975.809 7      -382.188    23114585.980   121467975.811 6      -382.188    23114598.220    94650407.327 6      -297.809    23114599.380    94650417.308 7      -297.809
G22  23221807.100   122031422.664 7      3238.320    23221805.780   122031422.677 4      3238.320    23221811.880    95089410.219 4      2523.366
R01  19776725.820   105717932.790 7      1220.131    19776726.200   105717932.805 7      1220.131    19776737.520    82225111.184 7       948.991    19776737.020    82225108.178 7       948.991
R23  22976492.760   122908729.913 6       743.319    22976491.960   122908729.931 6       743.319
R24  20289078.140   108494811.752 8      2996.267    20289078.980   108494811.759 7      2996.267    20289088.520    84384905.825 8      2330.430    20289088.880    84384903.830 8      2330.430
G09  24458480.800   128530185.212 6      6161.216    24458479.780   128530185.217 5      6161.216    24458498.660   100153458.389 5      4800.947    24458498.780   100153461.395 6      4800.947
G21  22697449.460   119275907.823 7      1341.104    22697447.480   119275907.823 5      1341.104    22697454.700    92942269.962 5      1045.016
G02  21907484.700   115124607.512 8      2026.216    21907483.380   115124607.520 6      2026.216    21907486.940    89707493.920 6      1578.870
R17  21766384.820   116476329.212 7      5125.099    21766384.600   116476329.232 7      5125.099    21766399.320    90592755.254 7      3986.188    21766398.300    90592753.248 7      3986.188
G14  22161806.260   116461071.467 7      1822.089    22161806.240   116461071.482 4      1822.089    22161812.500    90748912.125 4      1419.810    22161812.880    90748917.118 7      1419.810
R02  19973304.480   106581375.361 8      5313.396    19973303.980   106581375.359 8      5313.396    19973314.020    82896669.512 8      4132.642    19973314.140    82896668.513 8      4132.642
G17  22438138.880   117913219.336 7      5358.093    22438138.220   117913219.336 6      5358.093    22438144.120    91880436.243 6      4175.137    22438144.740    91880454.248 8      4175.137
G04  22254860.780   116950088.709 7      5423.251    22254860.020   116950088.724 5      5423.251    22254868.780    91129963.634 5      4225.910    22254869.360    91129968.655 7      4225.910
G03  20001713.100   105109710.296 8      2084.497    20001712.360   105109710.298 8      2084.497    20001717.840    81903691.338 8      1624.283    20001718.660    81903695.343 8      1624.283
> 2024 06 03 14 37 30.0000000  0 14
G08  23114659.740   121468358.147 7      -382.370    23114658.780   121468358.151 6      -382.370    23114670.900    94650705.244 6      -297.951    23114672.380    94650715.240 7      -297.951
G22  23221190.860   122028184.582 7      3237.851    23221189.540   122028184.595 4      3237.851    23221195.760    95086887.034 4      2523.001
R01  19776498.020   105716713.128 7      1219.522    19776497.880   105716713.143 7      1219.522    19776509.620    82224162.558 7       948.517    19776508.920    82224159.550 7       948.517
R23  22976354.040   122907986.731 6       743.398    22976352.520   122907986.743 6       743.398
R24  20288517.900   108491815.734 8      2996.012    20288518.540   108491815.749 7      2996.012    20288528.140    84382575.602 8      2330.232    20288528.620    84382573.602 8      2330.232
G09  24457308.460   128524023.720 6      6161.588    24457307.060   128524023.722 5      6161.588    24457326.300   100148657.231 5      4801.237    24457325.860   100148660.239 6      4801.237
G21  22697194.360   119274566.840 7      1341.146    22697192.580   119274566.843 5      1341.146    22697199.380    92941225.038 5      1045.049
G02  21907099.080   115122581.499 8      2026.045    21907097.760   115122581.504 6      2026.045    21907101.340    89705915.213 6      1578.736
R17  21765427.020   116471204.136 7      5125.121    21765427.000   116471204.156 7      5125.121    21765441.220    90588769.088 7      3986.205    21765440.860    90588767.080 7      3986.205
G14  22161459.620   116459249.549 7      1821.715    22161459.500   116459249.567 4      1821.715    22161465.740    90747492.444 4      1419.518    22161466.500    90747497.438 7      1419.518
R02  19972308.660   106576062.275 8      5312.901    19972308.120   106576062.263 8      5312.901    19972318.400    82892537.112 8      4132.257    19972318.600    82892536.115 8      4132.257
G17  22437119.520   117907861.423 7      5357.873    22437118.720   117907861.425 6      5357.873    22437124.860    91876261.252 6      4174.966    22437125.460    91876279.259 8      4174.966
G04  22253828.820   116944665.546 7      5423.085    22253827.900   116944665.562 5      5423.085    22253836.780    91125737.808 5      4225.780    22253837.500    91125742.824 7      4225.780
G03  20001316.520   105107626.102 8      2084.012    20001315.740   105107626.107 8      2084.012    20001321.280    81902067.297 8      1623.906    20001322.440    81902071.304 8      1623.906
> 2024 06 03 14 37 31.0000000  0 14
G08  23114732.440   121468740.550 7      -382.659    23114731.400   121468740.558 6      -382.659    23114743.500    94651003.215 6      -298.176    23114745.120    94651013.213 7      -298.176
G22  23220574.660   122024946.852 7      3237.378    23220573.580   122024946.870 4      3237.378    23220579.700    95084364.126 4      2522.632
R01  19776270.300   105715494.044 7      1218.609    19776270.120   105715494.058 7      1218.609    19776281.640    82223214.379 7       947.807    19776280.920    82223211.371 7       947.807
R23  22976214.620   122907243.571 6       742.914    22976213.540   122907243.602 6       742.914
R24  20287957.500   108488819.687 8      2995.919    20287958.140   108488819.699 7      2995.919    20287967.820    84380245.336 8      2330.159    20287968.340    84380243.338 8      2330.159
G09  24456135.440   128517862.096 6      6161.439    24456134.420   128517862.099 5      6161.439    24456153.980   100143855.970 5      4801.121    24456153.760   100143858.969 6      4801.121
G21  22696939.340   119273225.566 7      1341.263    22696937.580   119273225.568 5      1341.263    22696944.060    92940179.889 6      1045.140
G02  21906713.580   115120555.244 8      2026.158    21906712.100   115120555.252 6      2026.158    21906715.800    89704336.313 6      1578.824
R17  21764469.400   116466078.738 7      5125.345    21764469.460   116466078.767 7      5125.345    21764483.380    90584782.682 7      3986.380    21764482.860    90584780.674 7      3986.380
G14  22161112.700   116457428.075 7      1821.054    22161112.840   116457428.088 4      1821.054    22161118.980    90746073.103 4      1419.003    22161119.580    90746078.087 7      1419.003
R02  19971313.040   106570749.691 8      5312.184    19971312.560   106570749.684 8      5312.184    19971322.880    82888405.106 8      4131.699    19971323.060    82888404.107 8      4131.699
G17  22436099.800   117902503.468 7      5357.773    22436099.100   117902503.467 6      5357.773    22436105.260    91872086.226 6      4174.888    22436105.960    91872104.231 8      4174.888
G04  22252796.600   116939242.468 7      5422.859    22252796.060   116939242.483 5      5422.859    22252804.680    91121512.041 5      4225.604    22252805.360    91121517.055 7      4225.604
G03  20000920.020   105105542.188 8      2083.596    20000919.120   105105542.191 8      2083.596    20000924.760    81900443.462 8      1623.581    20000925.720    81900447.469 8      1623.581
> 2024 06 03 14 37 32.0000000  0 14
G08  23114805.100   121469123.324 7      -383.166    23114804.180   121469123.327 6      -383.166    23114816.540    94651301.466 6      -298.571    23114818.160    94651311.456 7      -298.571
G22  23219958.420   122021709.847 7      3236.626    23219957.560   122021709.865 4      3236.626    23219963.760    95081841.776 4      2522.046
R01  19776042.760   105714275.806 7      1217.532    19776042.000   105714275.818 7      1217.532    19776053.200    82222266.863 7       946.969    19776053.020    82222263.857 7       946.969
R23  22976076.020   122906500.726 6       742.362    22976075.380   122906500.727 6       742.362
R24  20287397.520   108485823.981 8      2995.218    20287398.140   108485823.988 7      2995.218    20287407.400    84377915.331 8      2329.614    20287408.020    84377913.333 8      2329.614
G09  24454962.940   128511700.559 6      6161.730    24454962.040   128511700.556 5      6161.730    24454981.360   100139054.774 5      4801.348    24454980.760   100139057.784 6      4801.348
G21  22696684.260   119271884.350 7      1340.696    22696682.140   119271884.357 5      1340.696    22696689.040    92939134.794 5      1044.698
G02  21906328.040   115118529.113 7      2025.683    21906326.420   115118529.118 6      2025.683    21906330.180    89702757.499 6      1578.454
R17  21763511.660   116460953.432 7      5125.131    21763510.220   116460953.450 7      5125.131    21763525.660    90580796.345 7      3986.213    21763525.020    90580794.345 7      3986.213
G14  22160766.380   116455607.323 7      1820.625    22160766.420   116455607.336 4      1820.625    22160772.520    90744654.334 4      1418.669    22160773.240    90744659.315 7      1418.669
R02  19970317.680   106565437.958 8      5311.356    19970316.920   106565437.958 8      5311.356    19970327.620    82884273.765 8      4131.055    19970327.520    82884272.763 8      4131.055
G17  22435080.100   117897145.794 7      5357.437    22435079.580   117897145.796 6      5357.437    22435085.620    91867911.415 6      4174.626    22435086.360    91867929.416 8      4174.626
G04  22251764.660   116933819.800 6      5422.524    22251764.180   116933819.812 5      5422.524    22251772.760    91117286.583 5      4225.344    22251773.800    91117291.595 7      4225.344
G03  20000523.400   105103458.906 8      2082.827    20000522.720   105103458.903 8      2082.827    20000528.260    81898820.119 8      1622.982    20000529.120    81898824.118 8      1622.982
> 2024 06 03 14 37 33.0000000  0 14
G08  23114877.960   121469506.353 7      -383.236    23114877.200   121469506.353 6      -383.236    23114889.620    94651599.920 6      -298.626    23114890.920    94651609.914 7      -298.626
G22  23219342.640   122018473.297 7      3236.215    23219341.800   122018473.310 4      3236.215    23219347.960    95079319.787 4      2521.726
R01  19775814.580   105713058.563 7      1216.933    19775814.480   105713058.581 7      1216.933    19775825.480    82221320.120 7       946.504    19775825.300    82221317.123 7       946.504
R23  22975937.100   122905758.309 6       742.339    22975936.240   122905758.308 6       742.339
R24  20286837.260   108482828.688 8      2995.311    20286837.760   108482828.697 8      2995.311    20286847.440    84375585.666 8      2329.686    20286847.680    84375583.666 8      2329.686
G09  24453790.540   128505538.836 6      6161.500    24453789.440   128505538.835 5      6161.500    24453808.780   100134253.439 5      4801.169    24453808.000   100134256.439 6      4801.169
G21  22696428.860   119270543.365 7      1341.153    22696426.780   119270543.369 5      1341.153    22696433.840    92938089.864 5      1045.054
G02  21905942.400   115116503.215 7      2025.970    21905940.820   115116503.225 6      2025.970    21905944.680    89701178.881 6      1578.678
R17  21762553.800   116455828.168 7      5125.380    21762552.380   116455828.191 7      5125.380    21762567.740    90576810.029 7      3986.407    21762567.140    90576808.031 7      3986.407
G14  22160419.780   116453787.003 7      1819.958    22160419.880   116453787.018 4      1819.958    22160426.160    90743235.894 4      1418.149    22160426.880    90743240.888 7      1418.149
R02  19969322.360   106560126.913 8      5310.634    19969321.780   106560126.914 8      5310.634    19969332.240    82880142.958 8      4130.493    19969332.160    82880141.959 8      4130.493
G17  22434060.600   117891788.332 7      5357.357    22434060.220   117891788.329 6      5357.357    22434066.160    91863736.774 6      4174.564    22434066.980    91863754.773 8      4174.564
G04  22250732.780   116928397.344 6      5422.299    22250732.160   116928397.359 5      5422.299    22250740.760    91113061.301 5      4225.168    22250741.700    91113066.321 7      4225.168
G03  20000127.160   105101376.149 8      2082.467    20000126.400   105101376.148 8      2082.467    20000131.880    81897197.196 8      1622.702    20000132.700    81897201.201 8      1622.702
> 2024 06 03 14 37 34.0000000  0 14
G08  23114951.060   121469889.882 7      -383.606    23114950.100   121469889.887 6      -383.606    23114962.420    94651898.769 6      -298.914    23114963.740    94651908.759 7      -298.914
G22  23218726.980   122015237.304 7      3235.887    23218726.040   122015237.314 4      3235.887    23218732.080    95076798.232 4      2521.470
R01  19775587.440   105711842.221 7      1215.990    19775587.640   105711842.230 7      1215.990    19775597.940    82220374.066 7       945.770    19775597.660    82220371.064 7       945.770
R23  22975798.500   122905016.315 6       741.740    22975796.440   122905016.327 6       741.740
R24  20286277.160   108479833.678 7      2994.971    20286277.740   108479833.695 7      2994.971    20286287.520    84373256.214 8      2329.422    20286287.600    84373254.216 8      2329.422
G09  24452618.240   128499377.301 6      6161.455    24452616.960   128499377.312 5      6161.455    24452636.360   100129452.252 5      4801.134    24452635.060   100129455.280 6      4801.134
G21  22696173.920   119269202.474 7      1340.912    22696171.480   119269202.481 5      1340.912    22696178.780    92937045.014 6      1044.867
G02  21905556.980   115114477.436 8      2025.800    21905555.540   115114477.446 6      2025.800    21905559.160    89699600.348 6      1578.545
R17  21761595.720   116450702.782 7      5125.610    21761594.260   116450702.799 7      5125.610    21761610.020    90572823.642 7      3986.586    21761609.400    90572821.649 7      3986.586
G14  22160073.520   116451967.365 7      1819.516    22160073.780   116451967.373 4      1819.516    22160079.660    90741817.988 4      1417.805    22160080.700    90741822.982 7      1417.805
R02  19968327.380   106554816.815 8      5309.894    19968326.700   106554816.811 8      5309.894    19968337.400    82876012.878 8      4129.918    19968337.140    82876011.881 8      4129.918
G17  22433040.780   117886431.023 7      5357.319    22433040.720   117886431.018 6      5357.319    22433046.580    91859562.247 6      4174.534    22433047.400    91859580.257 8      4174.534
G04  22249700.980   116922975.414 6      5421.973    22249700.320   116922975.432 5      5421.973    22249708.960    91108836.426 5      4224.914    22249709.560    91108841.430 7      4224.914
G03  19999731.000   105099293.959 8      2082.023    19999729.880   105099293.961 8      2082.023    19999735.640    81895574.712 8      1622.356    19999736.420    81895578.715 8      1622.356
> 2024 06 03 14 37 35.0000000  0 14
G08  23115024.040   121470273.581 7      -383.706    23115023.200   121470273.586 6      -383.706    23115035.100    94652197.749 6      -298.992    23115036.440    94652207.743 7      -298.992
G22  23218111.000   122012001.826 7      3235.161    23218110.400   122012001.839 4      3235.161    23218116.360    95074277.082 4      2520.905
R01  19775359.800   105710626.707 7      1215.353    19775360.280   105710626.722 7      1215.353    19775370.620    82219428.674 7       945.275    19775369.980    82219425.671 7       945.275
R23  22975660.280   122904274.556 6       741.919    22975657.880   122904274.549 6       741.919
R24  20285717.160   108476838.980 8      2994.755    20285717.740   108476838.992 7      2994.755    20285727.400    84370927.001 8      2329.254    20285727.500    84370925.001 8      2329.254
G09  24451445.700   128493215.512 6      6161.927    24451444.660   128493215.528 5      6161.927    24451463.860   100124650.856 5      4801.501    24451463.600   100124653.865 6      4801.501
G21  22695918.900   119267861.673 7      1340.988    22695916.440   119267861.678 5      1340.988    22695923.580    92936000.232 5      1044.926
G02  21905171.680   115112451.798 8      2025.733    21905170.140   115112451.803 6      2025.733    21905173.660    89698021.931 6      1578.493
R17  21760638.020   116445577.465 7      5125.457    21760636.700   116445577.466 7      5125.457    21760652.540    90568837.270 7      3986.466    21760651.860    90568835.279 7      3986.466
G14  22159727.360   116450148.156 7      1818.922    22159727.560   116450148.166 4      1818.922    22159733.380    90740400.425 4      1417.342    22159734.380    90740405.429 7      1417.342
R02  19967332.300   106549507.299 8      5309.262    19967331.940   106549507.297 8      5309.262    19967342.680    82871883.265 8      4129.426    19967342.180    82871882.270 8      4129.426
G17  22432021.480   117881073.898 7      5357.068    22432021.080   117881073.895 6      5357.068    22432026.880    91855387.870 6      4174.339    22432027.760    91855405.878 8      4174.339
G04  22248669.180   116917553.641 6      5421.854    22248668.520   116917553.651 5      5421.854    22248677.160    91104611.675 5      4224.821    22248677.480    91104616.664 7      4224.821
G03  19999334.680   105097212.285 8      2081.445    19999333.620   105097212.287 8      2081.445    19999339.540    81893952.632 8      1621.905    19999340.140    81893956.637 8      1621.905
> 2024 06 03 14 37 36.0000000  0 14
G08  23115097.040   121470657.537 7      -384.083    23115096.260   121470657.547 6      -384.083    23115108.240    94652496.934 6      -299.285    23115109.400    94652506.924 7      -299.285
G22  23217495.540   122008767.018 7      3234.465    23217494.820   122008767.031 4      3234.465    23217500.820    95071756.455 4      2520.362
R01  19775132.840   105709412.006 7      1214.147    19775132.720   105709412.020 7      1214.147    19775143.080    82218483.904 7       944.337    19775142.740    82218480.905 7       944.337
R23  22975521.760   122903533.003 6       741.309    22975519.100   122903533.002 6       741.309
R24  20285157.160   108473844.494 7      2994.168    20285157.700   108473844.512 8      2994.168    20285167.440    84368597.960 8      2328.797    20285167.520    84368595.960 8      2328.797
G09  24450273.000   128487053.783 6      6161.883    24450272.240   128487053.801 5      6161.883    24450291.260   100119849.513 5      4801.467    24450291.440   100119852.545 6      4801.467
G21  22695663.620   119266520.798 7      1340.743    22695661.220   119266520.805 5      1340.743    22695668.400    92934955.392 5      1044.735
G02  21904786.080   115110426.174 8      2025.456    21904784.700   115110426.179 6      2025.456    21904788.120    89696443.516 6      1578.277
R17  21759680.080   116440452.142 7      5125.134    21759678.960   116440452.155 7      5125.134    21759693.960    90564850.939 7      3986.215    21759694.080    90564848.952 7      3986.215
G14  22159381.360   116448329.680 6      1818.144    22159381.440   116448329.685 4      1818.144    22159387.360    90738983.428 4      1416.735    22159388.200    90738988.439 7      1416.735
R02  19966337.400   106544198.554 8      5308.368    19966337.000   106544198.558 8      5308.368    19966347.780    82867754.245 8      4128.730    19966347.560    82867753.252 8      4128.730
G17  22431002.080   117875717.023 7      5356.684    22431001.740   117875717.028 6      5356.684    22431007.440    91851213.686 6      4174.040    22431008.100    91851231.693 7      4174.040
G04  22247637.400   116912132.166 6      5421.355    22247636.900   116912132.176 5      5421.355    22247645.520    91100387.154 5      4224.432    22247645.540    91100392.148 7      4224.432
G03  19998938.860   105095131.141 8      2080.796    19998937.660   105095131.146 8      2080.796    19998943.700    81892330.956 8      1621.400    19998944.440    81892334.959 8      1621.400
> 2024 06 03 14 37 37.0000000  0 14
G08  23115170.020   121471041.567 7      -384.406    23115169.300   121471041.572 6      -384.406    23115181.360    94652796.168 6      -299.537    23115182.700    94652806.154 7      -299.537
G22  23216880.040   122005532.809 7      3233.870    23216879.380   122005532.825 4      3233.870    23216885.560    95069236.290 5      2519.899
R01  19774905.640   105708198.109 7      1213.368    19774905.880   105708198.124 7      1213.368    19774915.680    82217539.767 7       943.730    19774915.700    82217536.761 7       943.730
R23  22975383.040   122902791.552 6       741.093    22975381.120   122902791.550 6       741.093
R24  20284597.200   108470850.321 7      2993.852    20284597.440   108470850.333 7      2993.852    20284607.400    84366269.159 8      2328.552    20284607.500    84366267.156 8      2328.552
G09  24449100.520   128480891.792 6      6161.824    24449099.620   128480891.807 5      6161.824    24449118.680   100115047.971 5      4801.421    24449118.080   100115050.999 6      4801.421
G21  22695408.160   119265179.941 7      1340.718    22695405.880   119265179.946 5      1340.718    22695413.480    92933910.565 5      1044.715
G02  21904400.720   115108400.641 7      2025.266    21904399.220   115108400.646 6      2025.266    21904402.740    89694865.181 6      1578.129
R17  21758722.100   116435326.946 7      5125.056    21758721.040   116435326.953 7      5125.056    21758736.160    90560864.679 7      3986.155    21758736.000    90560862.686 7      3986.155
G14  22159035.440   116446511.695 7      1817.631    22159035.480   116446511.703 4      1817.631    22159041.540    90737566.821 4      1416.336    22159042.420    90737571.829 7      1416.336
R02  19965342.640   106538890.362 8      5307.595    19965342.180   106538890.362 8      5307.595    19965353.040    82863625.655 8      4128.129    19965352.800    82863624.658 8      4128.129
G17  22429982.780   117870360.447 7      5356.402    22429982.440   117870360.444 6      5356.402    22429988.080    91847039.733 6      4173.820    22429988.680    91847057.738 7      4173.820
G04  22246605.800   116906710.753 7      5421.012    22246605.200   116906710.766 5      5421.012    22246613.700    91096162.681 5      4224.165    22246613.780    91096167.693 7      4224.165
G03  19998542.940   105093050.517 8      2080.261    19998542.020   105093050.522 8      2080.261    19998547.800    81890709.697 8      1620.982    19998548.440    81890713.695 8      1620.982
> 2024 06 03 14 37 38.0000000  0 14
G08  23115242.980   121471425.894 7      -384.618    23115242.580   121471425.907 6      -384.618    23115254.680    94653095.636 6      -299.702    23115256.320    94653105.625 7      -299.702
G22  23216264.720   122002298.902 7      3233.631    23216263.980   122002298.915 4      3233.631    23216270.300    95066716.357 5      2519.713
R01  19774678.840   105706984.979 7      1212.683    19774678.780   105706984.988 7      1212.683    19774689.160    82216596.217 7       943.198    19774688.600    82216593.214 7       943.198
R23  22975244.560   122902050.416 6       741.042    22975242.780   122902050.417 6       741.042
R24  20284037.400   108467856.327 7      2993.891    20284037.620   108467856.336 7      2993.891    20284047.520    84363940.492 8      2328.582    20284047.520    84363938.496 8      2328.582
G09  24447928.080   128474729.690 6      6162.142    24447927.100   128474729.700 5      6162.142    24447945.940   100110246.345 5      4801.669    24447945.320   100110249.366 6      4801.669
G21  22695153.180   119263839.085 7      1340.850    22695150.620   119263839.087 5      1340.850    22695158.440    92932865.740 5      1044.818
G02  21904015.360   115106375.093 7      2025.492    21904013.660   115106375.103 6      2025.492    21904017.260    89693286.838 6      1578.306
R17  21757764.580   116430201.463 7      5125.520    21757763.200   116430201.467 7      5125.520    21757778.440    90556878.188 7      3986.516    21757778.080    90556876.197 7      3986.516
G14  22158689.580   116444694.102 6      1817.317    22158689.500   116444694.112 4      1817.317    22158695.640    90736150.515 4      1416.091    22158697.360    90736155.519 7      1416.091
R02  19964348.180   106533582.799 8      5307.235    19964347.620   106533582.799 8      5307.235    19964358.420    82859497.555 8      4127.849    19964358.000    82859496.560 8      4127.849
G17  22428963.520   117865003.782 7      5356.580    22428963.100   117865003.776 6      5356.580    22428968.760    91842865.714 6      4173.958    22428969.420    91842883.725 8      4173.958
G04  22245574.580   116901289.640 7      5420.798    22245573.480   116901289.650 5      5420.798    22245581.800    91091938.449 5      4223.999    22245582.980    91091943.454 7      4223.999
G03  19998147.080   105090970.254 8      2080.028    19998146.160   105090970.256 8      2080.028    19998151.960    81889088.712 8      1620.801    19998152.780    81889092.709 8      1620.801
> 2024 06 03 14 37 39.0000000  0 14
G08  23115316.520   121471810.644 7      -384.879    23115315.900   121471810.655 6      -384.879    23115327.880    94653395.435 6      -299.905    23115328.840    94653405.422 7      -299.905
G22  23215649.440   121999065.639 7      3232.919    23215648.580   121999065.652 4      3232.919    23215655.160    95064196.923 5      2519.158
R01  19774451.940   105705772.790 7      1211.905    19774451.880   105705772.792 7      1211.905    19774462.400    82215653.397 7       942.593    19774461.600    82215650.394 7       942.593
R23  22975106.240   122901309.700 6       740.700    22975104.240   122901309.704 6       740.700
R24  20283477.500   108464862.752 7      2993.452    20283477.820   108464862.759 7      2993.452    20283487.700    84361612.150 8      2328.241    20283487.920    84361610.152 8      2328.241
G09  24446755.420   128468567.691 6      6162.012    24446754.560   128468567.703 5      6162.012    24446773.260   100105444.796 5      4801.568    24446772.600   100105447.818 6      4801.568
G21  22694897.880   119262498.410 7      1340.684    22694895.440   119262498.415 5      1340.684    22694903.340    92931821.062 5      1044.689
G02  21903629.960   115104349.774 7      2025.285    21903628.100   115104349.779 6      2025.285    21903631.900    89691708.661 6      1578.144
R17  21756806.740   116425076.041 7      5125.395    21756805.560   116425076.046 7      5125.395    21756820.480    90552891.754 7      3986.418    21756820.120    90552889.764 7      3986.418
G14  22158344.380   116442877.181 6      1816.587    22158343.720   116442877.189 4      1816.587    22158349.880    90734734.730 4      1415.522    22158351.400    90734739.738 7      1415.522
R02  19963353.400   106528276.103 8      5306.436    19963353.140   106528276.109 8      5306.436    19963363.860    82855370.139 8      4127.228    19963363.580    82855369.144 8      4127.228
G17  22427944.640   117859647.416 7      5356.177    22427943.720   117859647.416 6      5356.177    22427949.360    91838691.929 6      4173.644    22427950.220    91838709.944 7      4173.644
G04  22244542.880   116895868.929 7      5420.598    22244542.020   116895868.942 4      5420.598    22244550.100    91087714.527 5      4223.843    22244551.520    91087719.523 7      4223.843
G03  19997751.260   105088890.634 8      2079.415    19997750.340   105088890.636 8      2079.415    19997756.260    81887468.223 8      1620.323    19997756.940    81887472.222 8      1620.323
> 2024 06 03 14 37 40.0000000  0 14
G08  23115390.080   121472195.710 7      -385.122    23115389.100   121472195.717 6      -385.122    23115401.280    94653695.476 6      -300.095    23115401.980    94653705.469 7      -300.095
G22  23215034.320   121995833.044 7      3232.453    23215033.340   121995833.057 4      3232.453    23215039.900    95061678.015 5      2518.795
R01  19774225.200   105704561.558 7      1210.865    19774225.200   105704561.565 7      1210.865    19774235.600    82214711.334 7       941.784    19774234.880    82214708.327 7       941.784
R23  22974967.220   122900569.327 6       740.249    22974965.960   122900569.328 6       740.249
R24  20282917.880   108461869.518 8      2993.087    20282917.800   108461869.530 7      2993.087    20282927.600    84359284.081 8      2327.956    20282927.940    84359282.085 8      2327.956
G09  24445582.840   128462405.675 6      6162.367    24445581.980   128462405.688 5      6162.367    24445600.660   100100643.227 5      4801.844    24445600.520   100100646.248 6      4801.844
G21  22694642.820   119261157.848 7      1340.560    22694640.320   119261157.852 5      1340.560    22694648.080    92930776.470 5      1044.593
G02  21903244.400   115102324.622 7      2025.121    21903242.760   115102324.630 6      2025.121    21903246.580    89690130.615 6      1578.016
R17  21755849.140   116419950.756 7      5125.319    21755848.280   116419950.763 7      5125.319    21755862.420    90548905.433 7      3986.359    21755862.700    90548903.444 7      3986.359
G14  22157998.680   116441060.915 7      1816.246    22157998.020   116441060.925 4      1816.246    22158004.360    90733319.456 4      1415.256    22158005.360    90733324.466 7      1415.256
R02  19962359.260   106522970.253 8      5305.695    19962358.860   106522970.251 8      5305.695    19962369.460    82851243.355 8      4126.652    19962369.260    82851242.361 8      4126.652
G17  22426925.460   117854291.368 7      5356.064    22426924.420   117854291.365 6      5356.064    22426930.180    91834518.389 6      4173.557    22426930.780    91834536.388 7      4173.557
G04  22243511.740   116890448.562 7      5420.418    22243510.360   116890448.575 4      5420.418    22243518.620    91083490.871 5      4223.703    22243519.740    91083495.867 7      4223.703
G03  19997355.680   105086811.637 8      2078.896    19997354.800   105086811.639 8      2078.896    19997360.700    81885848.227 8      1619.919    19997361.420    81885852.220 8      1619.919
> 2024 06 03 14 37 41.0000000  0 14
G08  23115463.300   121472580.980 7      -385.445    23115462.400   121472580.990 6      -385.445    23115474.580    94653995.678 6      -300.346    23115475.640    94654005.672 7      -300.346
G22  23214419.340   121992600.879 7      3231.805    23214418.340   121992600.889 4      3231.805    23214424.840    95059159.441 4      2518.289
R01  19773998.940   105703351.072 7      1210.073    19773998.760   105703351.076 7      1210.073    19774009.080    82213769.847 7       941.168    19774008.520    82213766.835 7       941.168
R23  22974829.380   122899829.154 6       740.109    22974827.900   122899829.158 6       740.109
R24  20282358.320   108458876.459 8      2992.913    20282357.860   108458876.463 7      2992.913    20282368.120    84356956.147 8      2327.821    20282368.280    84356954.149 8      2327.821
G09  24444410.080   128456243.537 6      6161.921    24444409.280   128456243.550 5      6161.921    24444428.040   100095841.563 5      4801.497    24444427.580   100095844.595 6      4801.497
G21  22694387.600   119259817.262 7      1340.608    22694385.280   119259817.264 5      1340.608    22694392.920    92929731.858 5      1044.629
G02  21902859.080   115100299.479 7      2025.122    21902857.340   115100299.491 6      2025.122    21902861.340    89688552.583 6      1578.017
R17  21754891.420   116414825.338 7      5125.499    21754890.380   116414825.331 7      5125.499    21754904.600    90544918.988 7      3986.499    21754904.860    90544916.995 7      3986.499
G14  22157653.040   116439245.092 7      1815.572    22157652.460   116439245.105 4      1815.572    22157659.000    90731904.529 4      1414.732    22157659.740    90731909.537 7      1414.732
R02  19961365.040   106517665.019 8      5304.788    19961364.820   106517665.023 8      5304.788    19961375.400    82847117.074 8      4125.946    19961375.060    82847116.081 8      4125.946
G17  22425906.180   117848935.368 7      5355.881    22425905.140   117848935.370 6      5355.881    22425910.900    91830344.886 6      4173.414    22425911.800    91830362.895 7      4173.414
G04  22242480.180   116885028.401 7      5419.946    22242478.880   116885028.413 4      5419.946    22242487.140    91079267.372 4      4223.335    22242488.480    91079272.370 7      4223.335
G03  19996959.980   105084733.052 8      2078.358    19996959.340   105084733.057 8      2078.358    19996965.140    81884228.555 8      1619.500    19996965.760    81884232.546 8      1619.500
> 2024 06 03 14 37 42.0000000  0 14
G08  23115536.740   121472966.763 7      -386.157    23115535.940   121472966.773 6      -386.157    23115547.880    94654296.278 6      -300.902    23115549.160    94654306.267 7      -300.902
G22  23213804.320   121989369.484 7      3230.774    23213803.240   121989369.494 4      3230.774    23213809.880    95056641.471 4      2517.486
R01  19773772.660   105702141.660 7      1208.721    19773772.160   105702141.661 7      1208.721    19773783.060    82212829.187 7       940.116    19773782.320    82212826.175 7       940.116
R23  22974690.960   122899089.513 6       739.283    22974689.880   122899089.518 6       739.283
R24  20281798.580   108455883.882 7      2992.097    20281798.220   108455883.892 7      2992.097    20281808.320    84354628.585 8      2327.186    20281808.580    84354626.591 8      2327.186
G09  24443237.700   128450081.566 6      6161.755    24443236.760   128450081.576 5      6161.755    24443255.420   100091040.030 5      4801.368    24443255.260   100091043.062 6      4801.368
G21  22694132.800   119258476.949 7      1339.873    22694130.200   119258476.957 5      1339.873    22694137.880    92928687.458 5      1044.057
G02  21902473.840   115098274.643 7      2024.532    21902472.000   115098274.650 6      2024.532    21902475.960    89686974.784 6      1577.557
R17  21753933.540   116409700.114 7      5124.875    21753932.940   116409700.116 7      5124.875    21753946.760    90540932.710 7      3986.014    21753946.960    90540930.723 7      3986.014
G14  22157307.320   116437430.111 7      1814.293    22157306.820   116437430.124 4      1814.293    22157313.680    90730490.252 4      1413.735    22157314.600    90730495.262 7      1413.735
R02  19960370.880   106512360.773 8      5303.589    19960370.760   106512360.773 8      5303.589    19960381.240    82842991.551 8      4125.013    19960381.340    82842990.558 8      4125.013
G17  22424886.900   117843579.788 7      5355.202    22424885.920   117843579.787 6      5355.202    22424891.620    91826171.707 6      4172.885    22424892.580    91826189.718 7      4172.885
G04  22241448.520   116879608.746 7      5419.190    22241447.340   116879608.759 4      5419.190    22241456.040    91075044.271 4      4222.746    22241456.860    91075049.271 7      4222.746
G03  19996564.740   105082655.219 8      2077.296    19996563.920   105082655.226 8      2077.296    19996569.900    81882609.462 8      1618.672    19996570.440    81882613.453 8      1618.672
> 2024 06 03 14 37 43.0000000  0 14
G08  23115610.440   121473352.766 7      -385.789    23115609.420   121473352.771 6      -385.789    23115621.440    94654597.051 6      -300.614    23115622.840    94654607.047 7      -300.614
G22  23213189.540   121986138.649 7      3230.783    23213188.400   121986138.654 4      3230.783    23213195.100    95054123.935 4      2517.493
R01  19773546.440   105700933.063 7      1208.411    19773545.960   105700933.067 7      1208.411    19773556.940    82211889.172 7       939.875    19773556.100    82211886.156 7       939.875
R23  22974552.400   122898350.108 6       739.493    22974551.720   122898350.120 6       739.493
R24  20281238.900   108452891.546 7      2992.431    20281238.520   108452891.563 7      2992.431    20281248.620    84352301.214 8      2327.447    20281248.960    84352299.216 8      2327.447
G09  24442065.160   128443919.551 6      6162.075    24442064.240   128443919.564 5      6162.075    24442082.760   100086238.472 5      4801.617    24442082.500   100086241.510 6      4801.617
G21  22693877.820   119257136.592 7      1340.639    22693875.060   119257136.597 5      1340.639    22693882.860    92927643.022 5      1044.654
G02  21902088.440   115096249.859 7      2025.029    21902086.860   115096249.864 6      2025.029    21902090.600    89685397.025 6      1577.945
R17  21752975.460   116404574.851 7      5125.406    21752975.720   116404574.866 7      5125.406    21752989.000    90536946.406 7      3986.427    21752989.100    90536944.415 7      3986.427
G14  22156962.100   116435615.652 6      1814.361    22156961.300   116435615.662 4      1814.361    22156968.320    90729076.388 4      1413.788    22156969.600    90729081.394 7      1413.788
R02  19959377.220   106507057.193 8      5303.488    19959376.680   106507057.194 8      5303.488    19959387.380    82838866.549 8      4124.935    19959387.440    82838865.554 8      4124.935
G17  22423867.880   117838224.384 7      5355.559    22423866.840   117838224.386 6      5355.559    22423872.500    91821998.673 6      4173.163    22423873.500    91822016.684 7      4173.163
G04  22240417.340   116874189.330 7      5419.592    22240416.040   116874189.343 4      5419.592    22240424.540    91070821.356 4      4223.059    22240425.240    91070826.352 7      4223.059
G03  19996169.320   105080577.864 8      2077.388    19996168.760   105080577.869 8      2077.388    19996174.840    81880990.742 8      1618.744    19996175.360    81880994.731 8      1618.744
> 2024 06 03 14 37 44.0000000  0 14
G08  23115683.640   121473738.827 7      -386.319    23115682.820   121473738.837 6      -386.319    23115694.920    94654897.870 6      -301.028    23115696.040    94654907.866 7      -301.028
G22  23212574.900   121982908.095 7      3230.289    23212573.560   121982908.100 4      3230.289    23212580.500    95051606.624 4      2517.109
R01  19773320.440   105699725.164 7      1207.378    19773320.020   105699725.168 7      1207.378    19773331.160    82210949.690 7       939.072    19773330.420    82210946.681 7       939.072
R23  22974414.140   122897610.807 6       739.081    22974414.100   122897610.825 6       739.081
R24  20280679.320   108449899.394 7      2991.968    20280679.180   108449899.406 7      2991.968    20280689.300    84349973.983 8      2327.087    20280689.260    84349971.985 8      2327.087
G09  24440892.420   128437757.137 6      6162.321    24440891.460   128437757.147 5      6162.321    24440910.020   100081436.598 5      4801.809    24440909.860   100081439.620 6      4801.809
G21  22693622.640   119255796.174 7      1340.433    22693620.040   119255796.179 5      1340.433    22693627.780    92926598.541 5      1044.493
G02  21901703.040   115094225.028 7      2024.758    21901701.640   115094225.036 6      2024.758    21901705.280    89683819.237 6      1577.733
R17  21752017.540   116399449.389 7      5125.424    21752017.760   116399449.401 7      5125.424    21752031.380    90532959.932 7      3986.441    21752031.220    90532957.936 7      3986.441
G14  22156616.720   116433801.475 6      1813.785    22156616.000   116433801.487 4      1813.785    22156623.300    90727662.745 4      1413.339    22156624.420    90727667.759 7      1413.339
R02  19958383.660   106501754.057 8      5302.726    19958383.040   106501754.052 8      5302.726    19958393.380    82834741.885 8      4124.343    19958393.580    82834740.894 8      4124.343
G17  22422848.700   117832868.966 7      5355.343    22422847.680   117832868.969 6      5355.343    22422853.380    91817825.623 6      4172.995    22422854.000    91817843.630 7      4172.995
G04  22239386.260   116868769.962 7      5419.170    22239384.900   116868769.967 4      5419.170    22239393.320    91066598.477 4      4222.730    22239393.860    91066603.471 7      4222.730
G03  19995774.080   105078500.848 8      2076.749    19995773.540   105078500.853 8      2076.749    19995779.560    81879372.286 8      1618.246    19995780.140    81879376.276 8      1618.246
> 2024 06 03 14 37 45.0000000  0 14
G08  23115757.220   121474125.254 6      -386.527    23115756.380   121474125.264 6      -386.527    23115768.560    94655198.971 6      -301.190    23115769.440    94655208.967 7      -301.190
G22  23211959.900   121979678.221 7      3229.707    23211959.000   121979678.226 4      3229.707    23211965.820    95049089.837 4      2516.655
R01  19773094.320   105698518.206 7      1206.470    19773094.020   105698518.210 7      1206.470    19773105.400    82210010.947 7       938.366    19773104.760    82210007.931 7       938.366
R23  22974276.080   122896871.908 6       738.688    22974275.620   122896871.922 6       738.688
R24  20280119.740   108446907.624 7      2991.483    20280119.660   108446907.644 7      2991.483    20280129.840    84347647.059 8      2326.709    20280129.960    84347645.065 8      2326.709
G09  24439720.100   128431594.814 6      6162.540    24439718.740   128431594.819 5      6162.540    24439737.440   100076634.790 5      4801.980    24439737.560   100076637.815 6      4801.980
G21  22693367.540   119254455.920 7      1340.111    22693365.040   119254455.924 6      1340.111    22693372.700    92925554.185 5      1044.243
G02  21901317.920   115092200.392 7      2024.472    21901316.120   115092200.399 6      2024.472    21901319.960    89682241.596 6      1577.511
R17  21751059.880   116394324.021 7      5125.299    21751060.040   116394324.034 7      5125.299    21751073.480    90528973.537 7      3986.344    21751073.680    90528971.539 7      3986.344
G14  22156271.540   116431987.994 6      1813.359    22156270.780   116431988.004 4      1813.359    22156278.160    90726249.643 4      1413.007    22156279.020    90726254.643 7      1413.007
R02  19957389.680   106496451.726 8      5302.069    19957389.440   106496451.727 8      5302.069    19957399.700    82830617.860 8      4123.831    19957400.020    82830616.867 8      4123.831
G17  22421829.680   117827513.836 7      5355.129    22421828.700   117827513.835 6      5355.129    22421834.160    91813652.798 6      4172.828    22421834.860    91813670.809 7      4172.828
G04  22238355.020   116863350.956 7      5419.044    22238353.780   116863350.961 4      5419.044    22238362.100    91062375.880 4      4222.632    22238362.920    91062380.880 7      4222.632
G03  19995378.940   105076424.452 8      2076.129    19995378.380   105076424.457 8      2076.129    19995384.400    81877754.317 8      1617.763    19995385.040    81877758.306 8      1617.763
> 2024 06 03 14 37 46.0000000  0 14
G08  23115830.620   121474511.822 7      -386.643    23115829.960   121474511.830 6      -386.643    23115842.240    94655500.185 6      -301.280    23115843.080    94655510.187 7      -301.280
G22  23211345.220   121976448.676 7      3229.294    23211344.160   121976448.681 4      3229.294    23211351.220    95046573.309 4      2516.333
R01  19772868.900   105697311.954 7      1205.849    19772868.020   105697311.941 7      1205.849    19772879.160    82209072.742 7       937.883    19772878.880    82209069.731 7       937.883
R23  22974138.540   122896133.144 6       738.820    22974137.740   122896133.151 6       738.820
R24  20279560.000   108443915.970 7      2991.634    20279560.320   108443915.982 7      2991.634    20279570.840    84345320.219 8      2326.826    20279570.700    84345318.223 8      2326.826
G09  24438547.320   128425432.247 6      6162.508    24438545.940   128425432.244 5      6162.508    24438564.800   100071832.786 5      4801.954    24438565.120   100071835.806 6      4801.954
G21  22693112.320   119253115.554 7      1340.470    22693109.980   119253115.559 5      1340.470    22693117.620    92924509.738 6      1044.522
G02  21900932.540   115090175.684 7      2024.776    21900930.720   115090175.687 6      2024.776    21900934.800    89680663.904 6      1577.748
R17  21750102.240   116389198.418 7      5125.730    21750101.520   116389198.433 7      5125.730    21750115.580    90524986.963 7      3986.679    21750115.700    90524984.961 7      3986.679
G14  22155926.940   116430174.851 6      1812.790    22155925.540   116430174.859 4      1812.790    22155933.120    90724836.801 4      1412.563    22155933.700    90724841.809 7      1412.563
R02  19956396.040   106491149.955 8      5301.373    19956395.880   106491149.959 8      5301.373    19956406.060    82826494.272 8      4123.290    19956406.420    82826493.281 8      4123.290
G17  22420810.780   117822158.700 7      5355.133    22420809.700   117822158.702 6      5355.133    22420815.240    91809479.975 6      4172.831    22420816.160    91809497.988 7      4172.831
G04  22237323.800   116857932.111 7      5418.760    22237322.680   116857932.118 4      5418.760    22237330.980    91058153.411 4      4222.410    22237331.380    91058158.411 7      4222.410
G03  19994984.080   105074348.395 8      2075.823    19994983.260   105074348.403 8      2075.823    19994989.240    81876136.617 8      1617.524    19994990.100    81876140.607 8      1617.524
> 2024 06 03 14 37 47.0000000  0 14
G08  23115904.520   121474898.587 7      -386.938    23115903.600   121474898.595 6      -386.938    23115915.820    94655801.552 6      -301.510    23115916.720    94655811.556 7      -301.510
G22  23210731.060   121973219.586 7      3228.659    23210729.560   121973219.591 4      3228.659    23210736.900    95044057.134 4      2515.838
R01  19772643.300   105696106.334 7      1205.103    19772642.120   105696106.333 7      1205.103    19772654.240    82208135.045 7       937.302    19772653.320    82208132.029 7       937.302
R23  22974000.600   122895394.520 6       738.487    22973999.340   122895394.530 6       738.487
R24  20279000.760   108440924.387 8      2991.404    20279000.660   108440924.394 7      2991.404    20279011.240    84342993.422 8      2326.647    20279011.140    84342991.428 8      2326.647
G09  24437374.240   128419269.572 6      6162.753    24437373.080   128419269.575 5      6162.753    24437392.100   100067030.706 5      4802.145    24437392.400   100067033.732 6      4802.145
G21  22692857.320   119251775.066 7      1340.442    22692854.740   119251775.073 5      1340.442    22692862.560    92923465.201 5      1044.500
G02  21900547.160   115088150.904 8      2024.768    21900545.480   115088150.911 6      2024.768    21900549.480    89679086.157 6      1577.742
R17  21749144.480   116384072.684 7      5125.591    21749144.340   116384072.693 7      5125.591    21749157.980    90521000.280 7      3986.571    21749157.980    90520998.287 7      3986.571
G14  22155581.940   116428362.213 6      1812.150    22155580.700   116428362.224 4      1812.150    22155588.000    90723424.354 4      1412.065    22155588.160    90723429.374 7      1412.065
R02  19955402.640   106485848.836 8      5300.757    19955402.360   106485848.834 8      5300.757    19955412.360    82822371.177 8      4122.811    19955412.820    82822370.181 8      4122.811
G17  22419791.580   117816803.616 7      5354.934    22419790.500   117816803.621 6      5354.934    22419796.280    91805307.188 6      4172.676    22419797.220    91805325.200 7      4172.676
G04  22236292.420   116852513.439 7      5418.629    22236291.560   116852513.449 5      5418.629    22236299.860    91053931.077 4      4222.309    22236300.380    91053936.083 7      4222.309
G03  19994589.020   105072272.735 8      2075.320    19994588.380   105072272.740 8      2075.320    19994594.380    81874519.215 8      1617.132    19994594.940    81874523.203 8      1617.132
> 2024 06 03 14 37 48.0000000  0 14
G08  23115978.100   121475285.631 6      -387.117    23115977.200   121475285.639 6      -387.117    23115989.540    94656103.141 6      -301.650    23115990.280    94656113.143 7      -301.650
G22  23210116.620   121969991.136 7      3228.214    23210115.300   121969991.138 4      3228.214    23210122.500    95041541.457 4      2515.491
R01  19772417.860   105694901.688 7      1204.142    19772416.740   105694901.687 7      1204.142    19772428.840    82207198.094 7       936.555    19772428.020    82207195.078 7       936.555
R23  22973862.080   122894656.249 6       738.114    22973861.360   122894656.253 6       738.114
R24  20278441.260   108437933.195 7      2991.048    20278441.420   108437933.202 7      2991.048    20278451.800    84340666.937 8      2326.371    20278451.880    84340664.943 8      2326.371
G09  24436201.380   128413106.863 6      6162.952    24436200.240   128413106.866 5      6162.952    24436219.300   100062228.601 5      4802.300    24436220.440   100062231.624 6      4802.300
G21  22692602.280   119250434.764 7      1340.218    22692599.680   119250434.771 5      1340.218    22692607.480    92922420.810 5      1044.325
G02  21900161.940   115086126.354 8      2024.509    21900160.240   115086126.361 6      2024.509    21900164.080    89677508.579 6      1577.540
R17  21748186.720   116378947.040 7      5125.718    21748186.720   116378947.047 7      5125.718    21748200.320    90517013.669 7      3986.670    21748200.240    90517011.673 7      3986.670
G14  22155237.300   116426550.172 6      1811.913    22155235.800   116426550.180 4      1811.913    22155243.160    90722012.369 4      1411.880    22155243.480    90722017.377 7      1411.880
R02  19954409.160   106480548.487 8      5300.080    19954409.260   106480548.488 8      5300.080    19954419.080    82818248.687 8      4122.284    19954419.620    82818247.694 8      4122.284
