     3.05           OBSERVATION DATA    MIXED               RINEX VERSION / TYPE
TPS2RIN 1.0.28.3459 TPS-USER            20260427 162717 UTC PGM / RUN BY / DATE
Win64 build Jun 01, 2022 (c) Topcon Positioning Systems     COMMENT
SRC: 20240603_GUI21.tps                                     COMMENT
Observer            Agency                                  OBSERVER / AGENCY
O0M3X53SBGM         TPS HIPER_SR        4.8 HSR Jul,08,2022 REC # / TYPE / VERS
FW: 4.8 HSR Jul,08,2022 p3                                  COMMENT
SN: HiPer SR 1212-12575                                     COMMENT
000                 TPSHIPER_SR     NONE                    ANT # / TYPE
        1.8000        0.0000        0.0000                  ANTENNA: DELTA H/E/N
GUI21                                                       MARKER NAME
  5390609.9046 -1596048.4102  3007172.7839                  APPROX POSITION XYZ
  2024     6     3    12    30    6.0000000     GPS         TIME OF FIRST OBS
  2024     6     3    12    45    6.0000000     GPS         TIME OF LAST OBS
     1.000                                                  INTERVAL
   901 EPOCHS                                               COMMENT
G   12 C1C L1C D1C C1W L1W D1W C2W L2W D2W C2X L2X D2X      SYS / # / OBS TYPES
R   12 C1C L1C D1C C1P L1P D1P C2P L2P D2P C2C L2C D2C      SYS / # / OBS TYPES
    17                                                      # OF SATELLITES
   G02   901   901   901   901   901   901   901   901   901PRN / # OF OBS
           0     0     0                                    PRN / # OF OBS
   G03   901   901   901   901   901   901   901   901   901PRN / # OF OBS
         901   901   901                                    PRN / # OF OBS
   G08   901   901   901   901   901   901   901   901   901PRN / # OF OBS
         901   901   901                                    PRN / # OF OBS
   G10   901   901   901   901   901   901   901   901   901PRN / # OF OBS
         901   901   901                                    PRN / # OF OBS
   G14   901   901   901   901   901   901   901   901   901PRN / # OF OBS
         901   901   901                                    PRN / # OF OBS
   G16   190   190   190   185   185   185   184   184   184PRN / # OF OBS
           0     0     0                                    PRN / # OF OBS
   G21   901   901   901   901   901   901   901   901   901PRN / # OF OBS
           0     0     0                                    PRN / # OF OBS
   G27   901   901   901   901   901   901   901   901   901PRN / # OF OBS
         901   901   901                                    PRN / # OF OBS
   G32   901   901   901   901   901   901   901   901   901PRN / # OF OBS
         901   901   901                                    PRN / # OF OBS
   R01   899   899   899   899   899   899   899   899   899PRN / # OF OBS
         899   899   899                                    PRN / # OF OBS
   R07   901   901   901   901   901   901   901   901   901PRN / # OF OBS
         901   901   901                                    PRN / # OF OBS
   R08   901   901   901   901   901   901   901   901   901PRN / # OF OBS
         901   901   901                                    PRN / # OF OBS
   R13   580   580   580   575   575   575   575   575   575PRN / # OF OBS
         574   574   574                                    PRN / # OF OBS
   R14   901   901   901   901   901   901   901   901   901PRN / # OF OBS
         901   901   901                                    PRN / # OF OBS
   R22   500   500   500   500   500   500   500   500   500PRN / # OF OBS
         500   500   500                                    PRN / # OF OBS
   R23   901   901   901   901   901   901     0     0     0PRN / # OF OBS
           0     0     0                                    PRN / # OF OBS
   R24   901   901   901   901   901   901   901   901   901PRN / # OF OBS
         901   901   901                                    PRN / # OF OBS
G L1C                                                       SYS / PHASE SHIFT
G L1W -0.25000                                              SYS / PHASE SHIFT
G L2W  0.00000                                              SYS / PHASE SHIFT
G L2X  0.25000                                              SYS / PHASE SHIFT
R L1C                                                       SYS / PHASE SHIFT
R L1P -0.25000                                              SYS / PHASE SHIFT
R L2P -0.25000                                              SYS / PHASE SHIFT
R L2C                                                       SYS / PHASE SHIFT
  8 R01  1 R07  5 R08  6 R13 -2 R14 -7 R22 -3 R23  3 R24  2 GLONASS SLOT / FRQ #
                                                            GLONASS COD/PHS/BIS
               *** Undefined LeapSeconds ***                COMMENT
                                                            END OF HEADER
> 2024 06 03 12 30  6.0000000  0 16
G02  21309635.080   111982885.025 7      2714.428    21309633.360   111982885.033 6      2714.428    21309636.320    87259395.705 6      2115.139
R24  21371439.000   114282689.794 7      3782.504    21371438.680   114282689.801 7      3782.504    21371450.600    88886585.193 7      2941.948    21371450.560    88886582.189 7      2941.948
G16  23881488.620   125498066.209 5      -864.666    23881487.560   125498066.203 1      -864.666    23881498.040    97790739.040 1      -673.766
R22  23817915.240   127141653.511 7       671.038    23817916.540   127141653.512 7       671.038    23817932.060    98888017.055 6       521.919    23817932.160    98888018.054 6       521.919
G08  20580603.880   108151800.198 7      2394.213    20580602.660   108151800.201 8      2394.213    20580609.480    84274151.821 8      1865.620    20580610.520    84274156.824 8      1865.620
G32  24814151.300   130399241.113 6      3245.855    24814150.180   130399241.113 6      3245.855    24814165.280   101609857.563 6      2529.238    24814166.520   101609862.561 7      2529.238
G14  24076209.460   126521336.942 6      5859.279    24076207.680   126521336.949 3      5859.279    24076218.700    98588080.393 3      4565.672    24076220.240    98588092.414 7      4565.672
G21  20881597.580   109733521.745 7      1737.246    20881595.880   109733521.753 6      1737.246    20881599.820    85506656.610 6      1353.698
G03  22209356.520   116710953.023 6      6104.043    22209356.080   116710953.020 4      6104.043    22209364.880    90943638.051 4      4756.397    22209365.920    90943638.059 7      4756.397
G27  22301442.360   117194862.882 7       781.920    22301441.240   117194862.882 7       781.920    22301450.400    91320669.679 7       609.288    22301449.400    91320700.682 7       609.288
G10  24250312.980   127436251.951 6      -402.384    24250311.580   127436251.956 6      -402.384    24250324.540    99301024.797 6      -313.546    24250324.460    99301021.792 7      -313.546
R08  21110357.560   113045007.713 7      3616.146    21110356.840   113045007.747 7      3616.146    21110368.820    87923939.149 8      2812.558    21110368.360    87923939.153 8      2812.558
R01  22065107.220   117950645.239 5      6578.699    22065108.440   117950645.288 5      6578.699    22065124.240    91739462.467 5      5116.766    22065123.760    91739458.449 5      5116.766
R23  21057033.100   112640925.202 6      1729.265    21057032.360   112640925.201 6      1729.265
R14  21219550.460   113112142.801 7      3791.866    21219550.040   113112142.807 7      3791.866    21219560.360    87976154.655 7      2949.229    21219561.160    87976157.654 7      2949.229
R07  23094817.640   123628346.668 6       617.614    23094815.980   123628346.683 6       617.614    23094833.000    96155458.008 7       480.366    23094832.960    96155456.011 7       480.366
> 2024 06 03 12 30  7.0000000  0 16
G02  21309118.660   111980170.831 7      2713.815    21309116.800   111980170.838 6      2713.815    21309119.780    87257280.753 6      2114.661
R24  21370731.840   114278907.455 7      3782.026    21370731.560   114278907.467 7      3782.026    21370743.360    88883643.380 7      2941.576    21370743.100    88883640.369 7      2941.576
G16  23881654.240   125498931.458 5      -865.595    23881652.420   125498931.455 1      -865.595    23881662.720    97791413.244 1      -674.490
R22  23817789.760   127140982.516 7       670.792    23817791.080   127140982.512 7       670.792    23817806.160    98887495.163 6       521.727    23817806.320    98887496.158 6       521.727
G08  20580148.400   108149406.322 7      2393.439    20580147.120   108149406.327 8      2393.439    20580153.920    84272286.465 8      1865.017    20580154.860    84272291.465 8      1865.017
G32  24813533.680   130395995.687 7      3244.813    24813532.640   130395995.689 6      3244.813    24813547.720   101607328.664 6      2528.426    24813548.380   101607333.664 7      2528.426
G14  24075094.260   126515477.971 6      5858.542    24075093.020   126515477.979 3      5858.542    24075103.780    98583514.968 3      4565.098    24075105.300    98583526.983 7      4565.098
G21  20881266.860   109731784.762 8      1736.603    20881265.320   109731784.769 6      1736.603    20881269.080    85505303.114 6      1353.197
G03  22208195.300   116704849.299 6      6103.339    22208194.540   116704849.296 4      6103.339    22208203.500    90938881.911 4      4755.849    22208204.260    90938881.921 7      4755.849
G27  22301293.780   117194081.162 7       781.275    22301292.580   117194081.159 7       781.275    22301301.600    91320060.540 7       608.786    22301300.660    91320091.543 7       608.786
G10  24250389.560   127436654.611 6      -403.078    24250388.140   127436654.621 6      -403.078    24250401.260    99301338.554 6      -314.087    24250401.000    99301335.550 7      -314.087
R08  21109682.540   113041392.118 7      3614.948    21109681.840   113041392.151 7      3614.948    21109693.620    87921127.021 8      2811.626    21109693.140    87921127.021 8      2811.626
R01  22063876.320   117944066.533 5      6578.535    22063878.140   117944066.558 5      6578.535    22063892.920    91734345.685 5      5116.638    22063893.480    91734341.673 5      5116.638
R23  21056709.660   112639196.060 6      1728.739    21056708.500   112639196.074 6      1728.739
R14  21218839.840   113108351.465 7      3790.608    21218838.840   113108351.463 7      3790.608    21218849.040    87973205.834 7      2948.251    21218849.980    87973208.835 7      2948.251
R07  23094702.660   123627729.535 6       616.373    23094701.160   123627729.556 6       616.373    23094717.840    96154978.008 7       479.401    23094717.700    96154976.001 7       479.401
> 2024 06 03 12 30  8.0000000  0 16
G02  21308602.100   111977456.863 7      2713.984    21308600.240   111977456.873 6      2713.984    21308603.420    87255165.974 6      2114.793
R24  21370024.480   114275125.255 7      3782.226    21370024.000   114275125.272 7      3782.226    21370036.020    88880701.677 7      2941.731    21370035.680    88880698.662 7      2941.731
G16  23881819.380   125499796.818 5      -865.341    23881816.720   125499796.818 1      -865.341    23881827.800    97792087.549 1      -674.292
R22  23817663.920   127140311.508 7       671.106    23817665.240   127140311.498 7       671.106    23817680.740    98886973.259 6       521.971    23817680.820    98886974.257 6       521.971
G08  20579692.920   108147012.795 8      2393.521    20579691.700   108147012.798 8      2393.521    20579698.540    84270421.378 8      1865.082    20579699.460    84270426.380 8      1865.082
G32  24812916.400   130392750.684 6      3244.861    24812915.140   130392750.689 6      3244.861    24812930.320   101604800.090 6      2528.463    24812930.920   101604805.096 7      2528.463
G14  24073979.600   126509619.303 6      5858.495    24073978.300   126509619.311 4      5858.495    24073989.160    98578949.778 3      4565.061    24073990.640    98578961.795 7      4565.061
G21  20880936.420   109730047.957 8      1736.894    20880934.820   109730047.961 6      1736.894    20880938.660    85503949.756 6      1353.424
G03  22207033.500   116698745.925 6      6103.447    22207032.880   116698745.922 4      6103.447    22207042.080    90934126.035 4      4755.932    22207042.960    90934126.043 7      4755.932
G27  22301145.220   117193299.741 7       781.355    22301143.980   117193299.743 7       781.355    22301152.960    91319451.647 7       608.848    22301151.560    91319482.645 7       608.848
G10  24250466.400   127437057.546 6      -402.991    24250464.860   127437057.551 6      -402.991    24250477.980    99301652.515 6      -314.019    24250478.260    99301649.515 7      -314.019
R08  21109007.320   113037777.373 7      3614.403    21109006.560   113037777.413 7      3614.403    21109018.620    87918315.562 8      2811.202    21109018.220    87918315.562 8      2811.202
R01  22062646.620   117937488.113 5      6578.683    22062647.240   117937488.117 5      6578.683    22062662.660    91729229.130 5      5116.754    22062662.640    91729225.120 5      5116.754
R23  21056386.660   112637466.997 6      1729.126    21056386.000   112637467.004 6      1729.126
R14  21218128.560   113104560.977 8      3790.156    21218127.760   113104560.975 7      3790.156    21218138.260    87970257.679 7      2947.899    21218138.760    87970260.679 7      2947.899
R07  23094587.400   123627113.094 6       616.165    23094585.540   123627113.106 6       616.165    23094602.520    96154498.551 7       479.240    23094602.440    96154496.561 7       479.240
> 2024 06 03 12 30  9.0000000  0 16
G02  21308085.700   111974743.120 7      2713.313    21308083.940   111974743.128 6      2713.313    21308087.040    87253051.366 6      2114.270
R24  21369317.300   114271343.186 7      3781.666    21369316.760   114271343.201 7      3781.666    21369328.740    88877760.068 7      2941.296    21369328.680    88877757.057 7      2941.296
G16  23881984.260   125500662.317 5      -865.928    23881981.440   125500662.312 1      -865.928    23881993.600    97792761.951 1      -674.749
R22  23817538.180   127139640.438 7       670.704    23817539.480   127139640.444 7       670.704    23817555.120    98886451.314 6       521.659    23817555.400    98886452.311 6       521.659
G08  20579237.660   108144619.639 8      2392.666    20579236.220   108144619.644 8      2392.666    20579243.120    84268556.578 8      1864.415    20579244.220    84268561.580 8      1864.415
G32  24812298.820   130389506.160 6      3243.950    24812297.820   130389506.165 6      3243.950    24812312.760   101602271.893 6      2527.753    24812313.620   101602276.897 7      2527.753
G14  24072864.900   126503760.924 6      5857.952    24072863.740   126503760.926 4      5857.952    24072874.340    98574384.813 3      4564.638    24072875.540    98574396.822 7      4564.638
G21  20880606.040   109728311.378 8      1736.154    20880604.360   109728311.382 6      1736.154    20880608.220    85502596.579 6      1352.847
G03  22205872.080   116692642.900 6      6102.456    22205871.600   116692642.900 4      6102.456    22205880.620    90929370.435 4      4755.161    22205881.240    90929370.456 7      4755.161
G27  22300996.560   117192518.637 7       780.629    22300995.280   117192518.634 7       780.629    22301004.300    91318842.983 7       608.282    22301002.820    91318873.985 7       608.282
G10  24250542.880   127437460.702 6      -403.568    24250541.600   127437460.704 6      -403.568    24250554.720    99301966.658 6      -314.469    24250555.020    99301963.661 7      -314.469
R08  21108332.700   113034163.448 7      3613.183    21108331.840   113034163.493 7      3613.183    21108343.640    87915504.733 7      2810.254    21108343.320    87915504.736 7      2810.254
R01  22061415.440   117930909.952 5      6577.671    22061416.840   117930909.945 5      6577.671    22061432.240    91724112.783 5      5115.966    22061432.280    91724108.773 5      5115.966
R23  21056063.200   112635737.991 6      1728.634    21056062.560   112635738.005 6      1728.634
R14  21217417.720   113100771.338 8      3788.868    21217416.740   113100771.339 7      3788.868    21217427.280    87967310.186 7      2946.897    21217427.900    87967313.191 7      2946.897
R07  23094472.200   123626497.404 6       615.056    23094470.160   123626497.414 6       615.056    23094487.340    96154019.673 7       478.377    23094487.520    96154017.668 7       478.377
> 2024 06 03 12 30 10.0000000  0 16
G02  21307569.220   111972029.793 7      2713.368    21307567.540   111972029.803 6      2713.368    21307570.700    87250937.089 6      2114.312
R24  21368610.080   114267561.416 7      3781.884    21368609.800   114267561.426 7      3781.884    21368621.740    88874818.689 7      2941.465    21368621.360    88874815.683 7      2941.465
G16  23882149.000   125501528.184 5      -865.739    23882146.500   125501528.181 1      -865.739    23882158.280    97793436.641 1      -674.601
R22  23817412.440   127138969.566 7       671.027    23817414.040   127138969.569 7       671.027    23817429.540    98885929.518 6       521.910    23817429.680    98885930.518 6       521.910
G08  20578782.300   108142227.042 8      2392.532    20578780.940   108142227.047 8      2392.532    20578787.900    84266692.217 8      1864.311    20578788.900    84266697.224 8      1864.311
G32  24811680.840   130386262.300 6      3243.746    24811680.620   130386262.302 6      3243.746    24811695.600   101599744.208 6      2527.594    24811695.980   101599749.208 7      2527.594
G14  24071750.080   126497903.060 6      5857.992    24071749.160   126497903.064 4      5857.992    24071759.880    98569820.250 4      4564.669    24071760.800    98569832.271 7      4564.669
G21  20880275.600   109726575.190 7      1736.183    20880274.020   109726575.198 6      1736.183    20880277.820    85501243.704 6      1352.870
G03  22204711.080   116686540.424 6      6102.339    22204710.460   116686540.424 4      6102.339    22204719.280    90924615.263 4      4755.070    22204720.060    90924615.278 7      4755.070
G27  22300847.980   117191738.018 7       780.608    22300846.740   117191738.017 7       780.608    22300855.800    91318234.710 7       608.266    22300854.400    91318265.712 7       608.266
G10  24250619.620   127437864.357 6      -403.573    24250618.320   127437864.361 6      -403.573    24250631.660    99302281.188 6      -314.473    24250631.840    99302278.191 7      -314.473
R08  21107658.320   113030550.560 7      3612.661    21107657.260   113030550.599 7      3612.661    21107669.000    87912694.707 7      2809.847    21107668.700    87912694.709 8      2809.847
R01  22060183.520   117924332.168 5      6577.841    22060186.140   117924332.204 5      6577.841    22060201.920    91718996.768 5      5116.098    22060202.160    91718992.759 5      5116.098
R23  21055740.200   112634009.278 6      1728.860    21055739.340   112634009.285 6      1728.860
R14  21216706.960   113096982.798 8      3788.155    21216706.000   113096982.804 7      3788.155    21216716.660    87964363.550 7      2946.343    21216717.280    87964366.555 7      2946.343
R07  23094357.080   123625882.670 6       614.320    23094355.480   123625882.685 6       614.320    23094372.680    96153541.552 7       477.805    23094372.820    96153539.554 7       477.805
> 2024 06 03 12 30 11.0000000  0 16
G02  21307053.060   111969316.684 7      2712.945    21307051.300   111969316.691 6      2712.945    21307054.420    87248822.974 6      2113.983
R24  21367902.880   114263779.719 7      3781.559    21367902.480   114263779.728 7      3781.559    21367914.600    88871877.369 7      2941.213    21367914.580    88871874.364 8      2941.213
G16  23882313.780   125502394.151 5      -865.880    23882311.660   125502394.138 1      -865.880    23882323.280    97794111.410 1      -674.712
R22  23817286.860   127138298.632 7       670.981    23817287.920   127138298.633 7       670.981    23817303.980    98885407.683 6       521.874    23817304.160    98885408.680 7       521.874
G08  20578327.000   108139834.772 7      2392.057    20578325.760   108139834.779 7      2392.057    20578332.560    84264828.112 8      1863.940    20578333.540    84264833.116 8      1863.940
G32  24811064.340   130383018.855 6      3243.314    24811063.380   130383018.857 6      3243.314    24811078.320   101597216.851 6      2527.258    24811078.940   101597221.861 7      2527.258
G14  24070635.400   126492045.532 6      5857.265    24070634.620   126492045.539 4      5857.265    24070645.300    98565255.947 4      4564.103    24070646.420    98565267.976 7      4564.103
G21  20879945.100   109724839.168 8      1735.882    20879943.640   109724839.176 6      1735.882    20879947.440    85499890.962 6      1352.636
G03  22203549.500   116680438.254 6      6102.010    22203549.400   116680438.256 4      6102.010    22203557.920    90919860.327 4      4754.813    22203558.820    90919860.340 7      4754.813
G27  22300699.620   117190957.687 7       780.142    22300698.320   117190957.689 7       780.142    22300707.260    91317626.660 7       607.903    22300706.020    91317657.658 7       607.903
G10  24250696.620   127438268.238 6      -404.080    24250695.220   127438268.237 6      -404.080    24250708.620    99302595.894 6      -314.868    24250708.420    99302592.897 7      -314.868
R08  21106983.640   113026938.493 7      3611.630    21106982.460   113026938.532 7      3611.630    21106994.360    87909885.330 8      2809.046    21106994.240    87909885.334 7      2809.046
R01  22058953.020   117917754.614 5      6577.691    22058955.720   117917754.648 5      6577.691    22058971.220    91713880.903 5      5115.982    22058971.620    91713876.883 5      5115.982
R23  21055416.680   112632280.625 6      1728.463    21055416.200   112632280.632 6      1728.463
R14  21215996.080   113093195.127 8      3787.195    21215995.380   113093195.133 7      3787.195    21216006.280    87961417.588 7      2945.596    21216006.840    87961420.591 7      2945.596
R07  23094241.660   123625268.629 6       613.470    23094241.400   123625268.649 6       613.470    23094257.860    96153063.963 7       477.144    23094257.620    96153061.960 7       477.144
> 2024 06 03 12 30 12.0000000  0 16
G02  21306536.820   111966603.809 7      2712.647    21306535.020   111966603.819 6      2712.647    21306538.240    87246709.047 6      2113.751
R24  21367195.780   114259998.150 7      3781.387    21367195.340   114259998.156 7      3781.387    21367207.320    88868936.144 7      2941.079    21367207.700    88868933.144 8      2941.079
G16  23882477.480   125503260.323 5      -866.419    23882476.220   125503260.307 1      -866.419    23882488.360    97794786.347 1      -675.131
R22  23817160.900   127137627.725 7       670.648    23817162.460   127137627.739 7       670.648    23817178.200    98884885.871 6       521.615    23817178.380    98884886.870 6       521.615
G08  20577871.920   108137442.903 8      2391.569    20577870.540   108137442.905 8      2391.569    20577877.380    84262964.318 8      1863.560    20577878.560    84262969.323 8      1863.560
G32  24810446.960   130379775.960 7      3242.470    24810446.420   130379775.965 6      3242.470    24810461.260   101594689.919 6      2526.600    24810461.920   101594694.919 7      2526.600
G14  24069520.500   126486188.316 6      5856.929    24069520.120   126486188.329 4      5856.929    24069530.880    98560691.891 4      4563.841    24069532.040    98560703.912 7      4563.841
G21  20879614.780   109723103.383 8      1735.581    20879613.400   109723103.387 6      1735.581    20879617.120    85498538.399 6      1352.400
G03  22202388.860   116674336.456 6      6101.543    22202388.280   116674336.455 4      6101.543    22202396.760    90915105.682 4      4754.449    22202398.240    90915105.694 7      4754.449
G27  22300551.100   117190177.685 7       779.799    22300549.800   117190177.687 7       779.799    22300558.880    91317018.862 7       607.636    22300557.620    91317049.864 7       607.636
G10  24250773.740   127438672.389 6      -404.281    24250772.240   127438672.397 6      -404.281    24250785.480    99302910.816 6      -315.024    24250785.600    99302907.814 7      -315.024
R08  21106308.920   113023327.285 7      3610.726    21106308.160   113023327.333 7      3610.726    21106320.160    87907076.617 8      2808.342    21106319.880    87907076.619 7      2808.342
R01  22057723.380   117911177.384 5      6576.892    22057724.760   117911177.404 5      6576.892    22057741.420    91708765.275 5      5115.361    22057740.800    91708761.260 5      5115.361
R23  21055093.980   112630552.023 7      1728.449    21055092.840   112630552.029 6      1728.449
R14  21215285.700   113089408.364 8      3786.242    21215284.900   113089408.368 7      3786.242    21215295.900    87958472.328 7      2944.855    21215296.420    87958475.331 7      2944.855
R07  23094127.420   123624655.391 6       612.735    23094126.360   123624655.411 6       612.735    23094143.420    96152586.996 7       476.572    23094143.280    96152584.996 7       476.572
> 2024 06 03 12 30 13.0000000  0 16
G02  21306020.560   111963891.183 7      2712.645    21306018.960   111963891.190 6      2712.645    21306022.020    87244595.309 6      2113.749
R24  21366488.300   114256216.744 7      3781.513    21366488.440   114256216.748 7      3781.513    21366500.440    88865995.051 7      2941.177    21366500.420    88865992.050 7      2941.177
G16  23882642.460   125504126.615 5      -866.310    23882641.100   125504126.599 1      -866.310    23882653.340    97795461.365 1      -675.047
R22  23817035.600   127136956.772 7       671.086    23817036.680   127136956.779 7       671.086    23817052.360    98884364.008 6       521.956    23817052.960    98884365.008 6       521.956
G08  20577416.640   108135051.391 8      2391.490    20577415.480   108135051.396 8      2391.490    20577422.400    84261100.799 8      1863.499    20577423.480    84261105.803 8      1863.499
G32  24809829.980   130376533.477 7      3242.359    24809829.340   130376533.484 6      3242.359    24809844.280   101592163.305 6      2526.514    24809844.860   101592168.309 7      2526.514
G14  24068406.060   126480331.416 6      5856.988    24068405.720   126480331.429 4      5856.988    24068416.320    98556128.079 4      4563.886    24068417.320    98556140.102 7      4563.886
G21  20879284.520   109721367.812 7      1735.554    20879283.160   109721367.820 6      1735.554    20879287.000    85497186.007 6      1352.380
G03  22201227.560   116668235.029 6      6101.398    22201227.260   116668235.026 4      6101.398    22201235.720    90910351.323 4      4754.336    22201237.220    90910351.333 7      4754.336
G27  22300402.860   117189397.985 7       779.769    22300401.480   117189397.992 7       779.769    22300410.360    91316411.301 7       607.612    22300409.340    91316442.301 7       607.612
G10  24250850.720   127439076.861 6      -404.477    24250849.140   127439076.864 6      -404.477    24250862.400    99303225.977 6      -315.177    24250862.360    99303222.977 7      -315.177
R08  21105634.660   113019716.921 7      3610.146    21105634.180   113019716.961 7      3610.146    21105645.960    87904268.550 8      2807.891    21105645.600    87904268.552 8      2807.891
R01  22056493.440   117904600.343 5      6577.069    22056493.900   117904600.355 5      6577.069    22056510.480    91703649.803 5      5115.498    22056510.600    91703645.790 5      5115.498
R23  21054771.040   112628823.490 7      1728.740    21054769.620   112628823.491 6      1728.740
R14  21214575.880   113085622.471 8      3785.634    21214574.400   113085622.471 7      3785.634    21214585.680    87955527.746 7      2944.382    21214586.200    87955530.751 7      2944.382
R07  23094013.380   123624042.868 6       612.301    23094011.900   123624042.885 6       612.301    23094029.100    96152110.583 7       476.234    23094028.840    96152108.584 7       476.234
> 2024 06 03 12 30 14.0000000  0 16
G02  21305504.500   111961178.641 7      2712.154    21305502.760   111961178.644 6      2712.154    21305505.780    87242481.640 6      2113.366
R24  21365781.720   114252435.324 7      3781.161    21365781.140   114252435.331 7      3781.161    21365793.140    88863053.955 7      2940.903    21365793.080    88863050.957 8      2940.903
G16  23882807.380   125504992.982 5      -866.872    23882805.600   125504992.973 1      -866.872    23882818.580    97796136.440 1      -675.485
R22  23816910.080   127136285.678 7       670.790    23816911.280   127136285.679 7       670.790    23816926.980    98883842.036 6       521.725    23816927.100    98883843.027 6       521.725
G08  20576961.820   108132660.135 8      2390.805    20576960.500   108132660.137 8      2390.805    20576967.320    84259237.480 8      1862.965    20576968.440    84259242.482 8      1862.965
G32  24809212.880   130373291.351 6      3241.627    24809212.420   130373291.356 6      3241.627    24809227.360   101589636.973 6      2525.943    24809228.220   101589641.973 7      2525.943
G14  24067291.560   126474474.735 6      5856.355    24067291.300   126474474.750 4      5856.355    24067301.760    98551564.443 4      4563.393    24067302.800    98551576.454 7      4563.393
G21  20878954.180   109719632.298 7      1735.164    20878952.920   109719632.302 6      1735.164    20878956.720    85495833.656 6      1352.076
G03  22200066.620   116662133.788 6      6100.826    22200066.160   116662133.785 4      6100.826    22200074.580    90905597.115 4      4753.890    22200075.700    90905597.136 7      4753.890
G27  22300254.480   117188618.484 7       779.114    22300253.040   117188618.489 7       779.114    22300262.140    91315803.896 7       607.102    22300261.100    91315834.892 7       607.102
G10  24250927.580   127439481.426 6      -404.939    24250926.220   127439481.428 6      -404.939    24250939.380    99303541.219 6      -315.537    24250939.080    99303538.214 7      -315.537
R08  21104960.600   113016107.262 7      3608.959    21104959.960   113016107.298 7      3608.959    21104971.700    87901461.039 8      2806.968    21104971.500    87901461.039 8      2806.968
R01  22055263.500   117898023.401 5      6576.626    22055264.320   117898023.402 5      6576.626    22055280.780    91698534.402 5      5115.154    22055279.720    91698530.392 5      5115.154
R23  21054447.520   112627094.868 6      1728.359    21054446.860   112627094.881 6      1728.359
R14  21213865.880   113081837.318 8      3784.404    21213864.480   113081837.321 7      3784.404    21213875.580    87952583.739 7      2943.425    21213876.140    87952586.750 7      2943.425
R07  23093899.160   123623430.877 6       611.401    23093897.560   123623430.905 6       611.401    23093914.520    96151634.600 7       475.534    23093914.680    96151632.598 7       475.534
> 2024 06 03 12 30 15.0000000  0 16
G02  21304988.320   111958466.384 8      2711.985    21304986.500   111958466.388 6      2711.985    21304989.680    87240368.194 6      2113.235
R24  21365074.420   114248654.105 7      3780.994    21365074.060   114248654.109 7      3780.994    21365085.980    88860113.003 7      2940.773    21365086.160    88860110.007 7      2940.773
G16  23882972.160   125505859.482 5      -866.783    23882969.720   125505859.479 1      -866.783    23882982.980    97796811.632 1      -675.415
R22  23816784.260   127135614.611 7       670.841    23816785.240   127135614.620 7       670.841    23816801.220    98883320.099 7       521.765    23816801.400    98883321.098 7       521.765
G08  20576506.800   108130269.278 8      2390.553    20576505.460   108130269.285 8      2390.553    20576512.440    84257374.477 8      1862.769    20576513.400    84257379.481 8      1862.769
G32  24808596.160   130370049.761 7      3241.106    24808595.520   130370049.766 6      3241.106    24808610.280   101587111.059 6      2525.537    24808611.360   101587116.061 7      2525.537
G14  24066177.380   126468618.421 6      5855.891    24066176.840   126468618.436 4      5855.891    24066187.360    98547001.086 4      4563.032    24066188.400    98547013.100 7      4563.032
G21  20878624.140   109717897.061 7      1734.993    20878622.580   109717897.064 6      1734.993    20878626.420    85494481.520 6      1351.943
G03  22198905.500   116656032.978 6      6100.519    22198905.340   116656032.978 4      6100.519    22198913.640    90900843.244 4      4753.651    22198914.840    90900843.260 7      4753.651
G27  22300106.160   117187839.336 7       778.885    22300104.840   117187839.338 7       778.885    22300113.860    91315196.763 7       606.923    22300112.700    91315227.766 7       606.923
G10  24251004.740   127439886.316 6      -405.101    24251003.340   127439886.313 6      -405.101    24251016.540    99303856.708 6      -315.663    24251016.240    99303853.715 7      -315.663
R08  21104286.940   113012498.480 7      3608.230    21104286.020   113012498.525 7      3608.230    21104297.960    87898654.213 8      2806.401    21104297.600    87898654.215 8      2806.401
R01  22054032.960   117891446.721 5      6576.521    22054033.560   117891446.730 5      6576.521    22054050.160    91693419.219 5      5115.072    22054049.040    91693415.209 5      5115.072
R23  21054124.600   112625366.365 6      1728.401    21054123.440   112625366.385 6      1728.401
R14  21213155.620   113078053.064 8      3783.649    21213154.620   113078053.070 7      3783.649    21213165.580    87949640.440 7      2942.838    21213166.080    87949643.451 7      2942.838
R07  23093784.600   123622819.729 6       610.560    23093783.440   123622819.774 6       610.560    23093800.520    96151159.274 7       474.880    23093800.300    96151157.273 7       474.880
> 2024 06 03 12 30 16.0000000  0 16
G02  21304472.300   111955754.462 7      2711.702    21304470.560   111955754.470 6      2711.702    21304473.580    87238255.011 6      2113.014
R24  21364367.280   114244873.097 7      3780.760    21364366.880   114244873.099 7      3780.760    21364378.980    88857172.219 7      2940.591    21364379.140    88857169.229 8      2940.591
G16  23883137.120   125506726.258 5      -866.761    23883134.740   125506726.250 1      -866.761    23883147.800    97797487.032 1      -675.398
R22  23816658.260   127134943.616 7       670.995    23816659.680   127134943.614 7       670.995    23816675.700    98882798.201 7       521.885    23816675.440    98882799.205 7       521.885
G08  20576051.800   108127878.901 8      2390.106    20576050.640   108127878.903 8      2390.106    20576057.420    84255511.846 8      1862.420    20576058.380    84255516.852 8      1862.420
G32  24807979.480   130366808.702 6      3240.755    24807978.760   130366808.707 6      3240.755    24807993.600   101584585.561 6      2525.264    24807994.040   101584590.563 7      2525.264
G14  24065063.140   126462762.506 6      5855.627    24065062.320   126462762.524 4      5855.627    24065073.000    98542438.046 4      4562.826    24065073.940    98542450.058 7      4562.826
G21  20878293.840   109716162.119 7      1734.691    20878292.380   109716162.124 6      1734.691    20878296.440    85493129.621 6      1351.707
G03  22197744.880   116649932.641 6      6099.962    22197744.440   116649932.641 4      6099.962    22197752.740    90896089.736 4      4753.217    22197754.100    90896089.743 7      4753.217
G27  22299957.900   117187060.587 7       778.558    22299956.700   117187060.589 7       778.558    22299965.760    91314589.944 7       606.669    22299964.500    91314620.944 8       606.669
G10  24251082.240   127440291.566 6      -405.417    24251080.520   127440291.570 6      -405.417    24251093.660    99304172.491 6      -315.909    24251093.440    99304169.490 7      -315.909
R08  21103613.340   113008890.676 7      3607.320    21103612.440   113008890.715 7      3607.320    21103624.100    87895848.139 8      2805.693    21103623.820    87895848.143 8      2805.693
R01  22052802.160   117884870.423 5      6575.970    22052803.920   117884870.451 5      6575.970    22052819.080    91688304.341 5      5114.643    22052819.120    91688300.326 5      5114.643
R23  21053801.720   112623638.038 6      1728.207    21053800.640   112623638.045 6      1728.207
R14  21212445.720   113074269.798 7      3782.680    21212444.920   113074269.812 7      3782.680    21212455.580    87946697.902 7      2942.085    21212456.300    87946700.909 7      2942.085
R07  23093670.800   123622209.417 6       609.868    23093670.260   123622209.448 6       609.868    23093686.520    96150684.570 7       474.342    23093686.280    96150682.565 7       474.342
> 2024 06 03 12 30 17.0000000  0 16
G02  21303956.300   111953042.646 7      2711.779    21303954.640   111953042.653 6      2711.779    21303957.520    87236141.907 6      2113.075
R24  21363660.180   114241092.023 7      3781.187    21363659.520   114241092.022 7      3781.187    21363671.880    88854231.387 7      2940.923    21363672.180    88854228.395 7      2940.923
G16  23883302.160   125507593.084 5      -866.672    23883299.080   125507593.086 1      -866.672    23883312.540    97798162.469 1      -675.328
R22  23816532.260   127134272.496 7       671.254    23816533.780   127134272.494 7       671.254    23816550.060    98882276.215 7       522.086    23816549.940    98882277.218 7       522.086
G08  20575597.040   108125488.759 8      2390.110    20575595.720   108125488.764 7      2390.110    20575602.680    84253649.395 7      1862.424    20575603.700    84253654.399 8      1862.424
G32  24807362.940   130363568.017 7      3240.615    24807362.100   130363568.016 6      3240.615    24807376.960   101582060.347 6      2525.155    24807377.060   101582065.343 7      2525.155
G14  24063948.760   126456906.799 6      5855.628    24063948.100   126456906.814 4      5855.628    24063958.560    98537875.159 4      4562.827    24063959.620    98537887.176 7      4562.827
G21  20877963.780   109714427.264 7      1734.849    20877962.360   109714427.271 6      1734.849    20877966.280    85491777.783 6      1351.831
G03  22196583.940   116643832.491 6      6100.015    22196583.660   116643832.493 4      6100.015    22196591.980    90891336.377 4      4753.258    22196592.740    90891336.389 7      4753.258
G27  22299809.500   117186282.027 7       778.526    22299808.480   117186282.029 7       778.526    22299817.540    91313983.274 7       606.644    22299816.120    91314014.274 7       606.644
G10  24251159.440   127440696.978 6      -405.489    24251157.640   127440696.989 6      -405.489    24251170.920    99304488.393 6      -315.966    24251170.580    99304485.398 7      -315.966
R08  21102939.520   113005283.568 7      3606.757    21102938.860   113005283.610 7      3606.757    21102950.440    87893042.616 8      2805.255    21102950.400    87893042.619 7      2805.255
R01  22051572.460   117878294.187 5      6576.230    22051573.960   117878294.207 5      6576.230    22051588.780    91683189.503 5      5114.846    22051588.780    91683185.490 5      5114.846
R23  21053478.600   112621909.625 6      1728.656    21053477.620   112621909.621 6      1728.656
R14  21211735.980   113070487.321 7      3782.079    21211735.380   113070487.333 7      3782.079    21211745.920    87943755.980 7      2941.617    21211746.880    87943758.987 7      2941.617
R07  23093556.980   123621599.741 6       609.404    23093555.980   123621599.764 6       609.404    23093572.660    96150210.373 7       473.981    23093572.400    96150208.373 7       473.981
> 2024 06 03 12 30 18.0000000  0 16
G02  21303440.540   111950331.187 7      2711.254    21303438.520   111950331.197 6      2711.254    21303441.600    87234029.086 6      2112.666
R24  21362953.240   114237311.178 7      3780.768    21362952.460   114237311.188 7      3780.768    21362964.860    88851290.739 7      2940.597    21362965.080    88851287.745 7      2940.597
G16  23883468.480   125508460.173 5      -866.864    23883464.340   125508460.183 1      -866.864    23883477.560    97798838.110 1      -675.479
R22  23816406.460   127133601.474 7       670.984    23816408.280   127133601.467 7       670.984    23816424.140    98881754.305 6       521.877    23816424.260    98881755.304 7       521.877
G08  20575142.380   108123099.136 8      2389.277    20575141.080   108123099.141 8      2389.277    20575147.900    84251787.356 8      1861.774    20575149.080    84251792.360 8      1861.774
G32  24806746.920   130360327.917 6      3239.927    24806745.500   130360327.911 6      3239.927    24806760.460   101579535.592 6      2524.618    24806761.100   101579540.590 7      2524.618
G14  24062834.560   126451051.562 6      5854.921    24062833.840   126451051.583 4      5854.921    24062844.460    98533312.649 4      4562.276    24062845.220    98533324.664 7      4562.276
G21  20877633.720   109712692.753 8      1734.262    20877632.280   109712692.758 6      1734.262    20877636.220    85490426.214 6      1351.373
G03  22195423.420   116637732.845 6      6099.296    22195422.920   116637732.842 4      6099.296    22195431.340    90886583.410 4      4752.698    22195432.200    90886583.423 7      4752.698
G27  22299661.740   117185503.917 7       777.913    22299660.500   117185503.924 7       777.913    22299669.480    91313376.952 7       606.166    22299668.340    91313407.950 7       606.166
G10  24251236.540   127441102.804 6      -406.156    24251234.760   127441102.809 6      -406.156    24251248.060    99304804.610 6      -316.485    24251247.860    99304801.607 7      -316.485
R08  21102265.860   113001677.442 7      3605.541    21102265.780   113001677.481 7      3605.541    21102277.080    87890237.856 8      2804.309    21102276.860    87890237.856 8      2804.309
R01  22050341.500   117871718.360 5      6575.482    22050343.480   117871718.377 5      6575.482    22050358.760    91678074.981 5      5114.264    22050358.680    91678070.966 5      5114.264
R23  21053155.360   112620181.421 6      1727.993    21053154.540   112620181.436 6      1727.993
R14  21211026.740   113066705.876 7      3780.830    21211026.100   113066705.879 7      3780.830    21211036.540    87940814.848 7      2940.646    21211036.800    87940817.855 7      2940.646
R07  23093442.780   123620990.947 6       608.298    23093442.600   123620990.975 6       608.298    23093458.800    96149736.866 7       473.120    23093458.700    96149734.868 7       473.120
> 2024 06 03 12 30 19.0000000  0 16
G02  21302924.460   111947620.116 7      2711.114    21302922.560   111947620.124 6      2711.114    21302925.600    87231916.562 6      2112.556
R24  21362246.560   114233530.628 7      3780.651    21362245.440   114233530.637 7      3780.651    21362257.760    88848350.313 7      2940.506    21362257.500    88848347.317 7      2940.506
G16  23883632.580   125509327.566 5      -867.400    23883629.540   125509327.576 1      -867.400    23883642.020    97799513.985 1      -675.896
R22  23816281.260   127132930.583 7       671.200    23816282.480   127132930.578 7       671.200    23816298.460    98881232.498 6       522.044    23816298.620    98881233.494 7       522.044
G08  20574687.640   108120710.024 8      2389.080    20574686.460   108120710.026 8      2389.080    20574693.280    84249925.705 8      1861.621    20574694.100    84249930.709 8      1861.621
G32  24806130.680   130357088.456 6      3239.389    24806129.020   130357088.458 6      3239.389    24806144.020   101577011.338 6      2524.199    24806144.980   101577016.338 7      2524.199
G14  24061720.180   126445196.788 6      5854.704    24061719.580   126445196.806 4      5854.704    24061730.440    98528750.492 4      4562.107    24061731.260    98528762.512 7      4562.107
G21  20877303.700   109710958.596 8      1734.195    20877302.280   109710958.601 6      1734.195    20877306.100    85489074.923 6      1351.320
G03  22194262.800   116631633.714 6      6098.943    22194262.140   116631633.711 4      6098.943    22194270.680    90881830.843 4      4752.423    22194271.060    90881830.847 7      4752.423
G27  22299513.640   117184726.279 7       777.557    22299512.400   117184726.286 7       777.557    22299521.520    91312770.999 7       605.889    22299520.360    91312802.001 7       605.889
G10  24251313.700   127441509.026 6      -406.238    24251312.020   127441509.025 6      -406.238    24251325.400    99305121.135 6      -316.549    24251325.320    99305118.129 7      -316.549
R08  21101592.940   112998072.332 7      3604.776    21101592.240   112998072.371 7      3604.776    21101603.880    87887433.881 8      2803.714    21101603.680    87887433.884 8      2803.714
R01  22049112.460   117865142.920 5      6575.469    22049113.400   117865142.924 5      6575.469    22049128.960    91672960.742 5      5114.254    22049128.260    91672956.735 5      5114.254
R23  21052832.420   112618453.434 6      1728.175    21052831.220   112618453.446 6      1728.175
R14  21210317.700   113062925.438 8      3780.165    21210316.840   113062925.434 7      3780.165    21210327.180    87937874.503 7      2940.129    21210327.740    87937877.512 7      2940.129
R07  23093328.920   123620383.046 6       607.709    23093328.840   123620383.082 6       607.709    23093345.120    96149264.057 7       472.663    23093345.180    96149262.064 7       472.663
> 2024 06 03 12 30 20.0000000  0 16
G02  21302408.700   111944909.125 7      2710.805    21302406.640   111944909.133 6      2710.805    21302409.680    87229804.101 6      2112.315
R24  21361538.820   114229750.075 7      3780.334    21361538.340   114229750.097 7      3780.334    21361551.040    88845409.893 7      2940.260    21361550.700    88845406.893 7      2940.260
G16  23883798.240   125510195.031 5      -867.548    23883794.100   125510195.041 1      -867.548    23883807.780    97800189.925 1      -676.011
R22  23816155.980   127132259.513 7       671.182    23816156.800   127132259.508 7       671.182    23816172.720    98880710.553 7       522.031    23816172.880    98880711.544 6       522.031
G08  20574233.120   108118321.124 8      2388.608    20574231.860   108118321.132 8      2388.608    20574238.660    84248064.233 8      1861.253    20574239.440    84248069.235 8      1861.253
G32  24805513.640   130353849.291 6      3238.889    24805512.680   130353849.293 6      3238.889    24805527.600   101574487.320 6      2523.809    24805528.400   101574492.320 7      2523.809
G14  24060606.040   126439342.182 6      5854.385    24060605.380   126439342.200 4      5854.385    24060616.120    98524188.471 4      4561.858    24060616.600    98524200.492 7      4561.858
G21  20876973.880   109709224.498 8      1733.827    20876972.360   109709224.502 6      1733.827    20876976.180    85487723.682 6      1351.034
G03  22193102.000   116625534.749 6      6098.598    22193101.440   116625534.746 4      6098.598    22193110.100    90877078.402 4      4752.155    22193110.780    90877078.419 7      4752.155
G27  22299365.860   117183948.789 7       777.142    22299364.640   117183948.799 7       777.142    22299373.560    91312165.162 7       605.565    22299372.480    91312196.162 7       605.565
G10  24251390.920   127441915.377 6      -406.620    24251389.460   127441915.366 6      -406.620    24251402.560    99305437.766 6      -316.847    24251402.900    99305434.769 7      -316.847
R08  21100919.780   112994467.888 7      3603.873    21100918.940   112994467.927 7      3603.873    21100930.580    87884630.431 7      2803.012    21100930.500    87884630.433 8      2803.012
R01  22047881.760   117858567.560 5      6575.228    22047884.080   117858567.548 5      6575.228    22047899.400    91667846.576 5      5114.066    22047897.520    91667842.562 5      5114.066
R23  21052509.060   112616725.361 7      1728.042    21052508.740   112616725.376 6      1728.042
R14  21209608.460   113059145.715 8      3779.229    21209607.940   113059145.710 7      3779.229    21209618.180    87934934.720 7      2939.400    21209618.920    87934937.729 7      2939.400
R07  23093215.300   123619775.723 6       606.937    23093215.840   123619775.754 6       606.937    23093231.920    96148791.686 7       472.062    23093231.800    96148789.688 7       472.062
> 2024 06 03 12 30 21.0000000  0 16
G02  21301892.760   111942198.297 7      2711.077    21301890.880   111942198.302 6      2711.077    21301893.780    87227691.767 6      2112.527
R24  21360832.000   114225969.602 7      3780.736    21360831.340   114225969.614 7      3780.736    21360844.040    88842469.521 7      2940.572    21360843.740    88842466.519 7      2940.572
G16  23883963.280   125511062.566 5      -867.319    23883958.100   125511062.579 1      -867.319    23883973.440    97800865.914 1      -675.833
R22  23816029.940   127131588.390 7       671.505    23816031.080   127131588.393 7       671.505    23816047.000    98880188.570 7       522.282    23816046.800    98880189.574 7       522.282
G08  20573778.600   108115932.542 8      2388.707    20573777.300   108115932.552 8      2388.707    20573784.140    84246203.001 8      1861.330    20573785.160    84246208.003 8      1861.330
G32  24804897.220   130350610.558 6      3238.835    24804896.340   130350610.562 6      3238.835    24804911.340   101571963.630 6      2523.767    24804911.980   101571968.628 7      2523.767
G14  24059492.280   126433487.878 6      5854.211    24059491.240   126433487.896 4      5854.211    24059501.960    98519626.684 4      4561.723    24059502.540    98519638.709 7      4561.723
G21  20876643.720   109707490.533 8      1734.184    20876642.360   109707490.538 6      1734.184    20876646.200    85486372.538 6      1351.312
G03  22191941.020   116619436.073 6      6098.834    22191940.940   116619436.073 4      6098.834    22191949.680    90872326.197 4      4752.338    22191949.780    90872326.214 7      4752.338
G27  22299217.760   117183171.550 7       777.313    22299216.660   117183171.558 7       777.313    22299225.600    91311559.520 7       605.698    22299224.340    91311590.518 7       605.698
G10  24251468.320   127442321.912 6      -406.458    24251466.780   127442321.911 6      -406.458    24251479.940    99305754.546 6      -316.721    24251480.040    99305751.545 7      -316.721
R08  21100246.720   112990864.228 7      3603.500    21100246.180   112990864.265 7      3603.500    21100257.760    87881827.587 8      2802.722    21100257.600    87881827.587 8      2802.722
R01  22046651.680   117851992.348 5      6575.622    22046653.220   117851992.354 5      6575.622    22046669.380    91662732.542 5      5114.372    22046667.760    91662728.531 5      5114.372
R23  21052185.920   112614997.331 7      1728.324    21052185.200   112614997.340 6      1728.324
R14  21208899.840   113055366.818 8      3778.787    21208899.040   113055366.816 7      3778.787    21208909.260    87931995.580 7      2939.056    21208909.760    87931998.591 7      2939.056
R07  23093102.540   123619169.048 6       606.714    23093102.480   123619169.076 6       606.714    23093118.140    96148319.828 7       471.888    23093118.400    96148317.831 7       471.888
> 2024 06 03 12 30 22.0000000  0 16
G02  21301376.900   111939487.799 7      2710.179    21301375.040   111939487.807 6      2710.179    21301378.080    87225579.691 6      2111.828
R24  21360125.020   114222189.295 7      3780.058    21360124.420   114222189.307 7      3780.058    21360136.840    88839529.284 7      2940.045    21360136.620    88839526.284 7      2940.045
G16  23884127.280   125511930.272 5      -868.041    23884123.360   125511930.280 1      -868.041    23884139.200    97801542.041 1      -676.395
R22  23815904.240   127130917.304 7       670.990    23815905.280   127130917.313 7       670.990    23815921.220    98879666.611 7       521.881    23815921.420    98879667.610 7       521.881
G08  20573324.100   108113544.399 8      2387.806    20573322.820   108113544.404 8      2387.806    20573329.780    84244342.106 8      1860.628    20573330.480    84244347.110 8      1860.628
G32  24804281.240   130347372.349 6      3237.771    24804280.140   130347372.354 6      3237.771    24804295.120   101569440.355 6      2522.938    24804295.640   101569445.363 7      2522.938
G14  24058378.300   126427633.918 6      5853.502    24058377.200   126427633.934 4      5853.502    24058387.900    98515065.163 4      4561.171    24058388.380    98515077.177 7      4561.171
G21  20876313.880   109705756.849 8      1733.444    20876312.380   109705756.854 6      1733.444    20876316.340    85485021.614 6      1350.735
G03  22190780.500   116613337.854 6      6097.925    22190780.640   116613337.856 4      6097.925    22190789.360    90867574.340 4      4751.630    22190790.020    90867574.353 7      4751.630
G27  22299069.840   117182394.685 7       776.546    22299068.840   117182394.688 7       776.546    22299077.820    91310954.162 7       605.101    22299076.440    91310985.163 7       605.101
G10  24251545.680   127442728.785 6      -407.153    24251544.260   127442728.790 6      -407.153    24251557.360    99306071.591 6      -317.262    24251557.580    99306068.587 7      -317.262
R08  21099574.180   112987261.481 7      3602.173    21099573.480   112987261.515 7      3602.173    21099584.980    87879025.442 8      2801.690    21099584.880    87879025.445 8      2801.690
R01  22045422.080   117845417.547 5      6574.549    22045423.260   117845417.543 5      6574.549    22045438.920    91657618.812 5      5113.538    22045438.320    91657614.790 5      5113.538
R23  21051863.140   112613269.448 6      1727.543    21051862.560   112613269.449 6      1727.543
R14  21208190.600   113051588.869 8      3777.337    21208190.500   113051588.870 7      3777.337    21208200.400    87929057.180 7      2937.928    21208201.060    87929060.181 7      2937.928
R07  23092989.220   123618563.181 6       605.411    23092988.840   123618563.201 6       605.411    23093004.960    96147848.594 7       470.875    23093004.940    96147846.589 7       470.875
> 2024 06 03 12 30 23.0000000  0 16
G02  21300861.280   111936777.478 7      2710.302    21300859.320   111936777.485 6      2710.302    21300862.240    87223467.753 6      2111.923
R24  21359418.160   114218409.054 7      3780.212    21359417.580   114218409.069 7      3780.212    21359430.100    88836589.101 7      2940.165    21359429.880    88836586.101 8      2940.165
G16  23884293.400   125512798.076 5      -867.409    23884288.740   125512798.078 1      -867.409    23884304.840    97802218.247 1      -675.903
R22  23815778.660   127130246.199 7       671.122    23815779.540   127130246.211 7       671.122    23815795.360    98879144.636 7       521.984    23815795.980    98879145.638 7       521.984
G08  20572869.620   108111156.595 8      2387.752    20572868.540   108111156.603 8      2387.752    20572875.240    84242481.479 8      1860.586    20572876.100    84242486.481 8      1860.586
G32  24803664.740   130344134.599 6      3237.536    24803664.040   130344134.601 6      3237.536    24803678.940   101566917.432 6      2522.756    24803679.720   101566922.432 7      2522.756
G14  24057264.180   126421780.271 6      5853.455    24057263.120   126421780.284 4      5853.455    24057273.900    98510503.886 4      4561.134    24057274.580    98510515.900 7      4561.134
G21  20875984.080   109704023.347 8      1733.471    20875982.580   109704023.349 6      1733.471    20875986.500    85483670.833 6      1350.756
G03  22189619.740   116607239.992 6      6097.615    22189620.420   116607239.992 4      6097.615    22189628.900    90862822.766 4      4751.388    22189629.240    90862822.770 7      4751.388
G27  22298922.280   117181618.091 7       776.626    22298921.020   117181618.093 7       776.626    22298930.080    91310349.020 7       605.163    22298928.820    91310380.020 7       605.163
G10  24251623.280   127443135.898 6      -407.010    24251621.780   127443135.900 6      -407.010    24251635.000    99306388.815 6      -317.150    24251635.080    99306385.812 7      -317.150
R08  21098901.740   112983659.530 7      3601.698    21098900.700   112983659.564 7      3601.698    21098912.280    87876223.929 7      2801.321    21098912.180    87876223.933 8      2801.321
R01  22044191.640   117838842.911 5      6574.658    22044194.800   117838842.891 5      6574.658    22044209.080    91652505.205 5      5113.623    22044208.240    91652501.183 5      5113.623
R23  21051540.260   112611541.560 6      1727.849    21051539.440   112611541.569 6      1727.849
R14  21207482.220   113047811.774 7      3776.750    21207481.980   113047811.782 7      3776.750    21207492.140    87926119.447 7      2937.472    21207492.220    87926122.444 7      2937.472
R07  23092876.140   123617958.032 6       604.928    23092875.580   123617958.039 6       604.928    23092891.820    96147377.912 7       470.500    23092891.960    96147375.913 7       470.500
> 2024 06 03 12 30 24.0000000  0 16
G02  21300345.580   111934067.503 7      2709.564    21300343.560   111934067.508 6      2709.564    21300346.580    87221356.084 6      2111.349
R24  21358711.560   114214629.044 7      3779.650    21358710.620   114214629.051 7      3779.650    21358723.320    88833649.091 7      2939.728    21358723.180    88833646.087 7      2939.728
G16  23884457.900   125513666.278 5      -868.740    23884453.820   125513666.278 1      -868.740    23884469.440    97802894.754 1      -676.940
R22  23815652.980   127129575.143 7       670.720    23815653.680   127129575.154 7       670.720    23815670.080    98878622.703 7       521.671    23815670.240    98878623.705 7       521.671
G08  20572415.480   108108769.277 8      2386.846    20572414.260   108108769.282 8      2386.846    20572421.040    84240621.230 8      1859.880    20572421.800    84240626.234 8      1859.880
G32  24803048.840   130340897.407 7      3236.602    24803048.000   130340897.407 6      3236.602    24803062.980   101564394.948 6      2522.028    24803063.620   101564399.944 7      2522.028
G14  24056150.760   126415927.039 6      5852.744    24056149.140   126415927.049 4      5852.744    24056160.000    98505942.936 4      4560.580    24056160.300    98505954.961 7      4560.580
G21  20875654.380   109702290.139 8      1732.813    20875652.680   109702290.144 6      1732.813    20875656.680    85482320.284 6      1350.244
G03  22188459.740   116601142.504 6      6097.016    22188460.060   116601142.506 4      6097.016    22188468.580    90858071.480 4      4750.922    22188469.040    90858071.489 7      4750.922
G27  22298774.880   117180841.925 7       775.803    22298773.520   117180841.932 7       775.803    22298782.300    91309744.217 7       604.522    22298781.320    91309775.221 7       604.522
G10  24251701.000   127443543.424 6      -407.938    24251699.340   127443543.426 6      -407.938    24251712.400    99306706.361 6      -317.874    24251712.680    99306703.360 7      -317.874
R08  21098229.360   112980058.527 7      3600.412    21098228.000   112980058.566 7      3600.412    21098239.780    87873423.153 8      2800.321    21098239.640    87873423.155 7      2800.321
R01  22042962.140   117832268.599 5      6573.862    22042963.540   117832268.617 5      6573.862    22042978.660    91647391.889 5      5113.004    22042977.780    91647387.877 5      5113.004
R23  21051216.800   112609813.861 6      1727.273    21051216.480   112609813.871 6      1727.273
