     3.05           OBSERVATION DATA    MIXED               RINEX VERSION / TYPE
TPS2RIN 1.0.28.3459 TPS-USER            20260427 162754 UTC PGM / RUN BY / DATE
Win64 build Jun 01, 2022 (c) Topcon Positioning Systems     COMMENT
SRC: 20240603_GUI23.tps                                     COMMENT
Observer            Agency                                  OBSERVER / AGENCY
O0M3X53SBGM         TPS HIPER_SR        4.8 HSR Jul,08,2022 REC # / TYPE / VERS
FW: 4.8 HSR Jul,08,2022 p3                                  COMMENT
SN: HiPer SR 1212-12575                                     COMMENT
000                 TPSHIPER_SR     NONE                    ANT # / TYPE
        1.8000        0.0000        0.0000                  ANTENNA: DELTA H/E/N
GUI23                                                       MARKER NAME
  5391008.9361 -1594270.2489  3006649.9811                  APPROX POSITION XYZ
  2024     6     3    13    30   27.0000000     GPS         TIME OF FIRST OBS
  2024     6     3    13    49   57.0000000     GPS         TIME OF LAST OBS
     1.000                                                  INTERVAL
  1171 EPOCHS                                               COMMENT
G   12 C1C L1C D1C C1W L1W D1W C2W L2W D2W C2X L2X D2X      SYS / # / OBS TYPES
R   12 C1C L1C D1C C1P L1P D1P C2P L2P D2P C2C L2C D2C      SYS / # / OBS TYPES
    18                                                      # OF SATELLITES
   G02  1171  1171  1171  1171  1171  1171  1171  1171  1171PRN / # OF OBS
           0     0     0                                    PRN / # OF OBS
   G03  1171  1171  1171  1171  1171  1171  1171  1171  1171PRN / # OF OBS
        1171  1171  1171                                    PRN / # OF OBS
   G04   354   354   354   354   354   354   354   354   354PRN / # OF OBS
         354   354   354                                    PRN / # OF OBS
   G08  1171  1171  1171  1171  1171  1171  1171  1171  1171PRN / # OF OBS
        1171  1171  1171                                    PRN / # OF OBS
   G14  1171  1171  1171  1171  1171  1171  1171  1171  1171PRN / # OF OBS
        1171  1171  1171                                    PRN / # OF OBS
   G17  1171  1171  1171  1171  1171  1171  1171  1171  1171PRN / # OF OBS
        1171  1171  1171                                    PRN / # OF OBS
   G21  1171  1171  1171  1171  1171  1171  1171  1171  1171PRN / # OF OBS
           0     0     0                                    PRN / # OF OBS
   G22  1171  1171  1171  1171  1171  1171  1171  1171  1171PRN / # OF OBS
           0     0     0                                    PRN / # OF OBS
   G27   613   613   613   613   613   613   613   613   613PRN / # OF OBS
         613   613   613                                    PRN / # OF OBS
   G32  1171  1171  1171  1171  1171  1171  1171  1171  1171PRN / # OF OBS
        1171  1171  1171                                    PRN / # OF OBS
   R01  1171  1171  1171  1171  1171  1171  1171  1171  1171PRN / # OF OBS
        1171  1171  1171                                    PRN / # OF OBS
   R02  1075  1075  1075  1070  1070  1070  1070  1070  1070PRN / # OF OBS
        1069  1069  1069                                    PRN / # OF OBS
   R08  1171  1171  1171  1171  1171  1171  1171  1171  1171PRN / # OF OBS
        1171  1171  1171                                    PRN / # OF OBS
   R14  1171  1171  1171  1171  1171  1171  1171  1171  1171PRN / # OF OBS
        1171  1171  1171                                    PRN / # OF OBS
   R15  1109  1109  1109  1104  1104  1104  1104  1104  1104PRN / # OF OBS
        1103  1103  1103                                    PRN / # OF OBS
   R17  1171  1171  1171  1171  1171  1171  1171  1171  1171PRN / # OF OBS
        1171  1171  1171                                    PRN / # OF OBS
   R23  1171  1171  1171  1171  1171  1171     0     0     0PRN / # OF OBS
           0     0     0                                    PRN / # OF OBS
   R24  1171  1171  1171  1171  1171  1171  1171  1171  1171PRN / # OF OBS
        1171  1171  1171                                    PRN / # OF OBS
G L1C                                                       SYS / PHASE SHIFT
G L1W -0.25000                                              SYS / PHASE SHIFT
G L2W  0.00000                                              SYS / PHASE SHIFT
G L2X  0.25000                                              SYS / PHASE SHIFT
R L1C                                                       SYS / PHASE SHIFT
R L1P -0.25000                                              SYS / PHASE SHIFT
R L2P -0.25000                                              SYS / PHASE SHIFT
R L2C                                                       SYS / PHASE SHIFT
  8 R01  1 R02 -4 R08  6 R14 -7 R15  0 R17  4 R23  3 R24  2 GLONASS SLOT / FRQ #
                                                            GLONASS COD/PHS/BIS
               *** Undefined LeapSeconds ***                COMMENT
                                                            END OF HEADER
> 2024 06 03 13 30 27.0000000  0 16
G02  21726879.060   114175522.425 7      2239.395    21726877.340   114175522.430 6      2239.395    21726880.200    88967943.510 6      1744.983
R17  23677558.960   126703390.995 7      4770.432    23677559.500   126703391.002 7      4770.432    23677576.380    98547164.803 6      3710.336    23677576.120    98547162.793 6      3710.336
G08  21495652.740   112960412.892 7       990.345    21495651.360   112960412.891 7       990.345    21495659.320    88021124.303 7       771.697    21495660.160    88021130.305 7       771.697
G17  24822681.060   130444054.857 5      5460.589    24822679.780   130444054.873 2      5460.589    24822691.100   101644729.790 3      4255.004    24822692.360   101644782.874 5      4255.004
G27  24203668.020   127191116.363 6      -194.017    24203667.360   127191116.362 5      -194.017    24203682.020    99110009.383 5      -151.182    24203682.560    99110013.364 6      -151.182
R08  21806215.820   116771276.590 7       553.751    21806216.440   116771276.621 7       553.751    21806228.600    90822171.159 7       430.695    21806228.560    90822169.160 7       430.695
G04  24757604.080   130102089.318 5      5580.631    24757603.000   130102089.323 1      5580.631    24757619.980   101378307.446 2      4348.544    24757619.760   101378316.486 6      4348.544
G14  22642468.180   118986975.791 7      4211.491    22642467.180   118986975.796 5      4211.491    22642473.520    92717149.170 5      3281.681    22642474.180    92717142.177 7      3281.681
G03  20637889.740   108452842.541 8      4379.922    20637888.640   108452842.540 7      4379.922    20637895.580    84508733.849 7      3412.926    20637896.180    84508736.855 8      3412.926
R24  20989802.760   112241903.630 7      3554.952    20989802.120   112241903.631 7      3554.952    20989811.600    87299304.605 7      2764.963    20989812.700    87299305.608 7      2764.963
G32  25284952.360   132873321.589 7      1425.348    25284949.980   132873321.596 6      1425.348    25284965.160   103537704.334 6      1110.660    25284966.700   103537712.334 7      1110.660
R01  20212630.160   108048085.215 7      4724.806    20212629.980   108048085.227 6      4724.806    20212641.200    84037456.685 6      3674.849    20212640.240    84037454.673 6      3674.849
R14  21775733.060   116076907.035 7       869.383    21775731.680   116076907.030 7       869.383    21775744.820    90282078.321 7       676.187    21775744.860    90282083.322 7       676.187
R23  22045263.860   117927289.025 7      1494.587    22045264.280   117927289.035 6      1494.587
G22  24638660.120   129477035.009 6      5100.218    24638659.160   129477035.020 3      5100.218    24638667.580   100891213.797 3      3974.196
G21  21930464.880   115245362.197 7      1391.308    21930462.740   115245362.202 6      1391.308    21930467.420    89801561.497 6      1084.136
> 2024 06 03 13 30 28.0000000  0 16
G02  21726453.040   114173283.034 7      2239.268    21726451.200   114173283.036 6      2239.268    21726453.960    88966198.530 6      1744.884
R17  23676667.520   126698620.583 7      4770.236    23676668.020   126698620.593 7      4770.236    23676684.900    98543454.485 6      3710.183    23676684.640    98543452.469 6      3710.183
G08  21495464.160   112959422.730 7       989.906    21495463.000   112959422.738 7       989.906    21495470.860    88020352.749 7       771.355    21495471.560    88020358.746 7       771.355
G17  24821643.000   130438594.279 5      5460.546    24821640.860   130438594.294 2      5460.546    24821652.220   101640474.806 2      4254.971    24821653.560   101640527.861 5      4254.971
G27  24203705.160   127191310.455 6      -194.305    24203704.360   127191310.455 5      -194.305    24203718.980    99110160.610 5      -151.407    24203719.060    99110164.576 6      -151.407
R08  21806112.140   116770723.238 7       552.952    21806112.900   116770723.283 7       552.952    21806125.040    90821740.785 7       430.073    21806124.960    90821738.786 7       430.073
G04  24756543.040   130096508.643 5      5580.397    24756540.860   130096508.648 1      5580.397    24756558.300   101373958.877 2      4348.362    24756557.940   101373967.914 6      4348.362
G14  22641666.940   118982764.629 7      4210.723    22641665.780   118982764.637 5      4210.723    22641672.180    92713867.756 5      3281.083    22641672.960    92713860.758 7      3281.083
G03  20637056.380   108448462.897 8      4379.252    20637055.220   108448462.899 7      4379.252    20637062.120    84505321.144 7      3412.404    20637062.880    84505324.149 8      3412.404
R24  20989138.140   112238348.608 7      3554.853    20989137.660   112238348.615 7      3554.853    20989146.920    87296539.596 7      2764.886    20989147.780    87296540.601 7      2764.886
G32  25284681.060   132871896.544 6      1424.729    25284678.440   132871896.554 6      1424.729    25284693.960   103536593.908 6      1110.179    25284695.680   103536601.932 7      1110.179
R01  20211746.160   108043360.690 7      4724.064    20211745.940   108043360.699 6      4724.064    20211757.360    84033782.059 6      3674.272    20211756.580    84033780.054 6      3674.272
R14  21775570.140   116076038.052 7       868.501    21775568.340   116076038.047 7       868.501    21775581.660    90281402.466 7       675.501    21775581.580    90281407.465 7       675.501
R23  22044984.640   117925794.359 7      1494.560    22044985.000   117925794.366 6      1494.560
G22  24637689.720   129471935.029 6      5099.742    24637688.740   129471935.039 3      5099.742    24637696.980   100887239.788 3      3973.825
G21  21930200.020   115243970.979 7      1391.174    21930198.160   115243970.987 6      1391.174    21930202.680    89800477.435 6      1084.032
> 2024 06 03 13 30 29.0000000  0 16
G02  21726026.760   114171043.866 7      2239.153    21726025.040   114171043.874 6      2239.153    21726027.760    88964453.725 6      1744.794
R17  23675776.360   126693850.217 7      4770.340    23675776.240   126693850.232 7      4770.340    23675793.380    98539744.202 6      3710.264    23675793.200    98539742.186 6      3710.264
G08  21495275.940   112958433.144 7       989.414    21495274.620   112958433.151 7       989.414    21495282.360    88019581.647 7       770.972    21495283.300    88019587.648 7       770.972
G17  24820604.460   130433133.782 5      5460.350    24820601.820   130433133.797 2      5460.350    24820613.380   101636219.882 2      4254.818    24820614.020   101636272.922 5      4254.818
G27  24203741.880   127191504.941 6      -194.719    24203741.540   127191504.946 5      -194.719    24203756.100    99110312.147 5      -151.729    24203756.560    99110316.121 6      -151.729
R08  21806009.240   116770170.829 7       551.948    21806010.020   116770170.871 7       551.948    21806022.300    90821311.138 7       429.293    21806021.900    90821309.139 7       429.293
G04  24755480.760   130090927.896 5      5580.648    24755478.940   130090927.903 1      5580.648    24755496.220   101369610.248 2      4348.557    24755496.100   101369619.331 6      4348.557
G14  22640865.880   118978554.208 7      4210.178    22640864.520   118978554.216 5      4210.178    22640871.180    92710586.914 5      3280.658    22640871.560    92710579.922 7      3280.658
G03  20636223.080   108444083.999 8      4378.626    20636221.980   108444083.999 6      4378.626    20636228.800    84501909.018 6      3411.916    20636229.700    84501912.021 8      3411.916
R24  20988473.100   112234793.888 7      3554.626    20988472.620   112234793.895 7      3554.626    20988482.140    87293774.825 7      2764.709    20988483.080    87293775.832 7      2764.709
G32  25284409.540   132870472.161 6      1424.013    25284407.340   132870472.169 6      1424.013    25284422.900   103535483.999 6      1109.621    25284424.400   103535492.019 7      1109.621
R01  20210862.300   108038637.133 7      4723.124    20210862.440   108038637.143 6      4723.124    20210873.800    84030108.184 6      3673.541    20210872.680    84030106.174 6      3673.541
R14  21775407.340   116075169.943 7       867.776    21775405.980   116075169.943 7       867.776    21775418.360    90280727.252 7       674.937    21775418.620    90280732.255 7       674.937
R23  22044704.560   117924299.977 7      1494.353    22044705.520   117924299.984 6      1494.353
G22  24636718.980   129466835.579 6      5099.171    24636718.200   129466835.592 3      5099.171    24636726.660   100883266.195 3      3973.380
G21  21929935.260   115242579.956 8      1391.046    21929933.440   115242579.960 6      1391.046    21929937.900    89799393.516 6      1083.932
> 2024 06 03 13 30 30.0000000  0 16
G02  21725600.700   114168804.598 7      2239.147    21725598.860   114168804.603 6      2239.147    21725601.600    88962708.848 6      1744.790
R17  23674884.480   126689079.593 7      4770.621    23674884.500   126689079.600 7      4770.621    23674902.060    98536033.721 6      3710.483    23674901.720    98536031.709 7      3710.483
G08  21495087.540   112957443.799 7       988.991    21495086.260   112957443.802 7       988.991    21495094.140    88018810.731 7       770.642    21495095.140    88018816.730 7       770.642
G17  24819565.300   130427673.015 5      5460.572    24819562.640   130427673.027 2      5460.572    24819574.180   101631964.744 2      4254.991    24819575.120   101632017.799 5      4254.991
G27  24203779.120   127191699.425 6      -194.542    24203778.500   127191699.430 5      -194.542    24203793.060    99110463.682 5      -151.591    24203792.980    99110467.665 6      -151.591
R08  21805906.260   116769619.014 7       551.237    21805907.400   116769619.045 7       551.237    21805919.220    90820881.926 7       428.740    21805918.920    90820879.929 7       428.740
G04  24754418.400   130085346.877 5      5581.356    24754417.260   130085346.887 2      5581.356    24754433.920   101365261.403 2      4349.108    24754434.380   101365270.397 6      4349.108
G14  22640064.540   118974344.200 7      4209.741    22640063.340   118974344.210 5      4209.741    22640070.140    92707306.396 5      3280.318    22640070.680    92707299.394 7      3280.318
G03  20635389.960   108439705.499 8      4378.135    20635388.880   108439705.498 6      4378.135    20635395.500    84498497.201 6      3411.534    20635396.260    84498500.205 8      3411.534
R24  20987808.300   112231239.040 7      3554.762    20987808.620   112231239.047 7      3554.762    20987817.440    87291009.935 7      2764.815    20987818.220    87291010.946 7      2764.815
G32  25284138.880   132869048.110 7      1423.748    25284136.520   132869048.107 6      1423.748    25284151.900   103534374.341 6      1109.414    25284152.980   103534382.334 7      1109.414
R01  20209978.860   108033914.156 7      4722.479    20209978.820   108033914.174 6      4722.479    20209990.440    84026434.778 6      3673.039    20209989.380    84026432.773 6      3673.039
R14  21775244.460   116074302.325 7       867.110    21775243.860   116074302.333 7       867.110    21775255.260    90280052.442 7       674.419    21775255.700    90280057.443 7       674.419
R23  22044425.720   117922805.536 7      1494.239    22044425.860   117922805.556 6      1494.239
G22  24635748.540   129461736.287 6      5099.009    24635747.820   129461736.295 3      5099.009    24635756.360   100879292.721 3      3973.254
G21  21929670.320   115241188.782 7      1391.032    21929668.720   115241188.787 6      1391.032    21929673.100    89798309.489 6      1083.921
> 2024 06 03 13 30 31.0000000  0 16
G02  21725174.600   114166565.428 7      2239.252    21725172.780   114166565.433 6      2239.252    21725175.460    88960964.041 6      1744.872
R17  23673992.720   126684308.893 7      4770.762    23673993.020   126684308.918 7      4770.762    23674010.440    98532323.187 7      3710.592    23674010.440    98532321.183 6      3710.592
G08  21494899.320   112956454.862 7       988.815    21494898.100   112956454.862 7       988.815    21494905.840    88018040.124 7       770.505    21494906.880    88018046.126 7       770.505
G17  24818525.760   130422212.202 5      5460.821    24818523.460   130422212.215 2      5460.821    24818534.980   101627709.572 2      4255.185    24818536.660   101627762.631 5      4255.185
G27  24203816.640   127191894.245 6      -194.879    24203815.640   127191894.247 5      -194.879    24203830.080    99110615.484 5      -151.854    24203829.740    99110619.477 6      -151.854
R08  21805803.040   116769067.949 7       550.760    21805804.640   116769067.988 7       550.760    21805816.420    90820453.326 7       428.369    21805816.020    90820451.327 7       428.369
G04  24753355.800   130079765.709 5      5581.351    24753355.360   130079765.714 2      5581.351    24753371.880   101360912.438 2      4349.105    24753372.240   101360921.468 6      4349.105
G14  22639263.840   118970134.840 7      4209.060    22639262.360   118970134.850 5      4209.060    22639269.340    92704026.378 5      3279.787    22639269.560    92704019.370 7      3279.787
G03  20634556.940   108435327.631 8      4377.564    20634555.800   108435327.631 7      4377.564    20634562.460    84495085.882 7      3411.089    20634563.140    84495088.885 8      3411.089
R24  20987143.460   112227684.283 7      3554.790    20987144.000   112227684.287 7      3554.790    20987152.760    87288245.130 7      2764.837    20987153.600    87288246.143 7      2764.837
G32  25283867.880   132867624.560 6      1423.483    25283865.780   132867624.557 6      1423.483    25283881.240   103533265.083 6      1109.208    25283881.900   103533273.093 7      1109.208
R01  20209095.060   108029192.024 6      4721.852    20209095.680   108029192.036 6      4721.852    20209107.060    84022762.011 6      3672.551    20209106.060    84022760.005 6      3672.551
R14  21775081.960   116073435.359 8       866.693    21775081.380   116073435.362 7       866.693    21775092.680    90279378.133 7       674.094    21775093.140    90279383.139 7       674.094
R23  22044146.340   117921311.239 6      1494.247    22044146.260   117921311.254 6      1494.247
G22  24634778.660   129456637.424 6      5098.837    24634777.460   129456637.431 3      5098.837    24634786.040   100875319.587 3      3973.120
G21  21929405.580   115239797.667 7      1391.188    21929404.040   115239797.671 6      1391.188    21929408.240    89797225.507 6      1084.042
> 2024 06 03 13 30 32.0000000  0 16
G02  21724748.560   114164326.501 7      2238.934    21724746.720   114164326.506 6      2238.934    21724749.440    88959219.426 6      1744.624
R17  23673101.060   126679538.224 7      4770.775    23673101.700   126679538.233 7      4770.775    23673118.800    98528612.679 7      3710.603    23673118.680    98528610.681 7      3710.603
G08  21494711.320   112955466.500 7       988.208    21494710.040   112955466.500 7       988.208    21494717.800    88017269.970 7       770.033    21494718.480    88017275.972 7       770.033
G17  24817486.040   130416751.498 5      5460.655    24817484.260   130416751.511 2      5460.655    24817495.900   101623454.482 2      4255.056    24817498.120   101623507.525 6      4255.056
G27  24203853.800   127192089.422 6      -195.338    24203852.700   127192089.424 5      -195.338    24203867.260    99110767.564 5      -152.211    24203867.200    99110771.555 6      -152.211
R08  21805700.420   116768517.883 7       549.553    21805701.760   116768517.911 7       549.553    21805713.600    90820025.493 7       427.430    21805713.480    90820023.500 7       427.430
G04  24752294.060   130074184.570 5      5581.156    24752293.060   130074184.580 2      5581.156    24752309.820   101356563.505 2      4348.953    24752309.880   101356572.553 6      4348.953
G14  22638462.960   118965926.184 7      4208.311    22638461.480   118965926.192 5      4208.311    22638468.300    92700746.900 5      3279.203    22638468.740    92700739.892 7      3279.203
G03  20633724.040   108430950.481 8      4376.837    20633722.920   108430950.483 7      4376.837    20633729.460    84491675.119 6      3410.523    20633730.080    84491678.121 8      3410.523
R24  20986478.680   112224129.697 7      3554.582    20986479.100   112224129.699 7      3554.582    20986488.020    87285480.458 7      2764.675    20986488.820    87285481.469 7      2764.675
G32  25283597.140   132866201.722 6      1422.473    25283595.000   132866201.727 6      1422.473    25283610.240   103532156.391 6      1108.420    25283611.480   103532164.413 7      1108.420
R01  20208212.040   108024470.806 6      4720.913    20208212.320   108024470.810 6      4720.913    20208223.520    84019089.940 6      3671.821    20208222.680    84019087.930 6      3671.821
R14  21774919.320   116072569.153 7       865.861    21774918.860   116072569.159 7       865.861    21774930.100    90278704.434 7       673.447    21774930.640    90278709.442 7       673.447
R23  22043866.900   117919817.186 6      1494.008    22043866.860   117919817.206 6      1494.008
G22  24633808.540   129451539.017 6      5098.298    24633807.360   129451539.025 3      5098.298    24633815.980   100871346.808 3      3972.700
G21  21929141.120   115238406.743 8      1390.900    21929139.340   115238406.745 6      1390.900    21929143.780    89796141.670 6      1083.818
> 2024 06 03 13 30 33.0000000  0 16
G02  21724322.500   114162087.620 7      2238.858    21724320.660   114162087.622 6      2238.858    21724323.440    88957474.838 6      1744.565
R17  23672209.660   126674767.496 7      4770.735    23672210.220   126674767.508 7      4770.735    23672227.480    98524902.119 7      3710.572    23672227.340    98524900.113 7      3710.572
G08  21494523.240   112954478.512 7       987.830    21494522.020   112954478.516 7       987.830    21494529.900    88016500.111 7       769.738    21494530.660    88016506.110 7       769.738
G17  24816446.960   130411290.723 5      5460.469    24816445.120   130411290.730 2      5460.469    24816456.740   101619199.339 2      4254.911    24816458.700   101619252.385 6      4254.911
G27  24203891.120   127192284.773 6      -195.239    24203889.720   127192284.775 5      -195.239    24203904.360    99110919.777 5      -152.135    24203904.680    99110923.749 6      -152.135
R08  21805597.760   116767968.438 7       549.153    21805597.980   116767968.466 7       549.153    21805611.340    90819598.138 7       427.119    21805610.720    90819596.137 7       427.119
G04  24751231.860   130068603.238 5      5581.356    24751231.160   130068603.249 2      5581.356    24751247.920   101352214.426 2      4349.109    24751248.360   101352223.476 6      4349.109
G14  22637662.000   118961718.091 7      4207.905    22637660.980   118961718.099 5      4207.905    22637667.640    92697467.858 5      3278.887    22637668.080    92697460.850 7      3278.887
G03  20632891.280   108426573.893 8      4376.348    20632889.940   108426573.895 6      4376.348    20632896.480    84488264.791 6      3410.142    20632897.080    84488267.789 8      3410.142
R24  20985813.720   112220575.181 7      3554.475    20985813.960   112220575.185 7      3554.475    20985823.800    87282715.838 7      2764.592    20985824.320    87282716.853 7      2764.592
G32  25283326.580   132864779.334 6      1422.169    25283323.780   132864779.344 6      1422.169    25283339.460   103531048.032 6      1108.184    25283340.600   103531056.044 7      1108.184
R01  20207329.140   108019750.358 7      4720.109    20207329.540   108019750.375 6      4720.109    20207340.160    84015418.488 6      3671.196    20207339.520    84015416.478 6      3671.196
R14  21774757.220   116071703.563 7       865.330    21774756.700   116071703.564 7       865.330    21774767.560    90278031.164 7       673.035    21774768.260    90278036.170 7       673.035
R23  22043587.380   117918323.221 6      1494.014    22043587.440   117918323.241 6      1494.014
G22  24632838.640   129446441.000 6      5097.910    24632837.220   129446441.007 3      5097.910    24632845.860   100867374.337 3      3972.398
G21  21928876.660   115237015.816 7      1390.957    21928874.800   115237015.819 6      1390.957    21928879.040    89795057.829 6      1083.863
> 2024 06 03 13 30 34.0000000  0 16
G02  21723896.540   114159848.859 7      2238.473    21723894.800   114159848.861 6      2238.473    21723897.560    88955730.350 6      1744.264
R17  23671318.220   126669996.755 7      4770.523    23671318.600   126669996.773 7      4770.523    23671335.940    98521191.572 7      3710.407    23671335.760    98521189.568 7      3710.407
G08  21494335.520   112953490.975 7       987.142    21494334.060   112953490.974 7       987.142    21494341.980    88015730.604 7       769.202    21494342.780    88015736.601 7       769.202
G17  24815408.020   130405829.792 5      5460.926    24815405.880   130405829.800 2      5460.926    24815417.560   101614944.076 2      4255.267    24815419.300   101614997.123 6      4255.267
G27  24203927.460   127192480.441 6      -196.005    24203926.700   127192480.443 4      -196.005    24203941.540    99111072.240 5      -152.731    24203942.500    99111076.214 6      -152.731
R08  21805495.000   116767419.823 7       548.019    21805496.100   116767419.862 7       548.019    21805508.400    90819171.456 7       426.237    21805508.640    90819169.461 7       426.237
G04  24750170.040   130063021.831 5      5581.416    24750169.080   130063021.836 2      5581.416    24750186.280   101347865.279 2      4349.155    24750186.880   101347874.290 6      4349.155
G14  22636861.180   118957510.618 7      4206.995    22636860.340   118957510.626 5      4206.995    22636867.040    92694189.318 5      3278.178    22636867.300    92694182.324 7      3278.178
G03  20632058.440   108422197.951 8      4375.519    20632057.320   108422197.951 6      4375.519    20632063.780    84484854.966 6      3409.495    20632064.400    84484857.966 8      3409.495
R24  20985149.500   112217020.798 7      3554.167    20985148.920   112217020.799 7      3554.167    20985159.200    87279951.316 7      2764.352    20985159.740    87279952.334 7      2764.352
G32  25283056.040   132863357.508 6      1421.392    25283053.760   132863357.515 6      1421.392    25283068.700   103529940.132 6      1107.578    25283070.220   103529948.125 7      1107.578
R01  20206446.160   108015030.698 7      4719.152    20206446.080   108015030.715 6      4719.152    20206457.580    84011747.654 6      3670.452    20206456.940    84011745.648 6      3670.452
R14  21774595.000   116070838.631 7       864.371    21774594.360   116070838.629 7       864.371    21774605.560    90277358.458 7       672.288    21774605.940    90277363.468 7       672.288
R23  22043307.780   117916829.408 7      1493.604    22043308.360   117916829.434 6      1493.604
G22  24631868.500   129441343.384 6      5097.109    24631867.100   129441343.392 3      5097.109    24631875.720   100863402.178 3      3971.773
G21  21928611.900   115235624.974 7      1390.614    21928610.100   115235624.981 6      1390.614    21928614.200    89793974.058 6      1083.595
> 2024 06 03 13 30 35.0000000  0 16
G02  21723470.600   114157610.198 7      2238.818    21723468.820   114157610.198 6      2238.818    21723471.540    88953985.934 6      1744.534
R17  23670426.740   126665226.043 7      4770.834    23670427.260   126665226.056 7      4770.834    23670444.500    98517481.006 7      3710.648    23670444.460    98517478.998 7      3710.648
G08  21494147.640   112952503.895 7       987.024    21494146.140   112952503.887 7       987.024    21494154.080    88014961.437 7       769.109    21494154.760    88014967.438 7       769.109
G17  24814368.360   130400368.917 5      5461.135    24814366.820   130400368.922 2      5461.135    24814378.520   101610688.857 2      4255.430    24814380.360   101610741.912 6      4255.430
G27  24203964.420   127192676.357 6      -195.747    24203964.220   127192676.359 4      -195.747    24203978.900    99111224.893 4      -152.530    24203979.980    99111228.866 6      -152.530
R08  21805392.280   116766872.016 7       547.617    21805394.080   116766872.047 7       547.617    21805406.540    90818745.374 7       425.924    21805406.180    90818743.377 7       425.924
G04  24749107.200   130057440.311 5      5581.531    24749106.820   130057440.310 2      5581.531    24749124.020   101343516.047 2      4349.245    24749124.460   101343525.070 6      4349.245
G14  22636060.840   118953303.789 7      4206.703    22636059.820   118953303.796 5      4206.703    22636066.560    92690911.271 5      3277.951    22636066.840    92690904.273 7      3277.951
G03  20631225.880   108417822.638 8      4375.090    20631224.740   108417822.637 7      4375.090    20631231.220    84481445.635 7      3409.161    20631231.900    84481448.635 8      3409.161
R24  20984484.840   112213466.514 7      3554.463    20984484.620   112213466.518 7      3554.463    20984494.120    87277186.865 7      2764.582    20984495.100    87277187.880 7      2764.582
G32  25282785.640   132861936.239 6      1421.079    25282783.340   132861936.244 6      1421.079    25282798.300   103528832.637 6      1107.334    25282799.340   103528840.633 7      1107.334
R01  20205563.120   108010311.882 6      4718.751    20205563.640   108010311.894 6      4718.751    20205574.920    84008077.468 6      3670.140    20205573.960    84008075.461 6      3670.140
R14  21774432.820   116069974.467 7       863.986    21774432.280   116069974.468 7       863.986    21774443.520    90276686.320 7       671.989    21774443.720    90276691.330 7       671.989
R23  22043028.240   117915335.740 7      1493.799    22043029.140   117915335.771 6      1493.799
G22  24630897.780   129436246.165 6      5097.143    24630897.120   129436246.175 3      5097.143    24630905.700   100859430.323 3      3971.800
G21  21928347.140   115234234.195 7      1390.998    21928345.600   115234234.197 6      1390.998    21928349.400    89792890.338 6      1083.894
> 2024 06 03 13 30 36.0000000  0 16
G02  21723044.740   114155371.582 7      2238.425    21723042.880   114155371.587 6      2238.425    21723045.460    88952241.566 6      1744.227
R17  23669535.080   126660455.158 7      4770.787    23669535.480   126660455.181 7      4770.787    23669552.760    98513770.336 7      3710.612    23669553.100    98513768.326 7      3710.612
G08  21493959.900   112951517.170 7       986.405    21493958.300   112951517.170 7       986.405    21493966.280    88014192.562 7       768.627    21493966.700    88014198.563 7       768.627
G17  24813328.760   130394908.029 5      5460.370    24813327.760   130394908.036 2      5460.370    24813339.200   101606433.630 2      4254.834    24813340.520   101606486.699 6      4254.834
G27  24204002.220   127192872.462 6      -196.191    24204001.540   127192872.469 4      -196.191    24204016.120    99111377.698 4      -152.876    24204017.160    99111381.685 6      -152.876
R08  21805289.920   116766324.973 7       546.548    21805292.080   116766325.009 7       546.548    21805304.020    90818319.894 7       425.093    21805304.060    90818317.901 7       425.093
G04  24748045.100   130051858.554 5      5581.741    24748044.500   130051858.556 2      5581.741    24748061.860   101339166.626 2      4349.409    24748062.360   101339175.645 6      4349.409
G14  22635260.160   118949097.527 7      4205.790    22635259.340   118949097.535 5      4205.790    22635266.060    92687633.666 5      3277.239    22635266.480    92687626.656 7      3277.239
G03  20630393.320   108413447.870 8      4374.318    20630392.320   108413447.867 7      4374.318    20630398.680    84478036.728 7      3408.560    20630399.500    84478039.728 8      3408.560
R24  20983820.000   112209912.241 7      3554.041    20983820.160   112209912.253 7      3554.041    20983829.540    87274422.445 7      2764.254    20983830.140    87274423.456 7      2764.254
G32  25282515.120   132860515.427 7      1420.370    25282513.020   132860515.432 6      1420.370    25282527.780   103527725.522 6      1106.782    25282528.980   103527733.525 7      1106.782
R01  20204680.860   108005593.837 6      4717.561    20204681.200   108005593.843 6      4717.561    20204692.460    84004407.881 6      3669.214    20204691.200    84004405.868 6      3669.214
R14  21774270.900   116069110.967 7       863.026    21774270.160   116069110.965 7       863.026    21774281.580    90276014.702 7       671.243    21774281.740    90276019.710 7       671.243
R23  22042749.440   117913842.176 6      1493.410    22042749.980   117913842.191 6      1493.410
G22  24629927.620   129431149.301 6      5096.349    24629927.120   129431149.306 3      5096.349    24629935.760   100855458.744 3      3971.181
G21  21928082.520   115232843.455 7      1390.619    21928080.780   115232843.460 6      1390.619    21928084.660    89791806.645 6      1083.599
> 2024 06 03 13 30 37.0000000  0 16
G02  21722618.700   114153133.202 7      2238.270    21722617.020   114153133.210 6      2238.270    21722619.540    88950497.376 6      1744.107
R17  23668643.640   126655684.387 7      4770.806    23668644.400   126655684.399 7      4770.806    23668661.080    98510059.726 7      3710.627    23668661.120    98510057.716 7      3710.627
G08  21493772.380   112950531.000 7       985.988    21493770.580   112950531.000 7       985.988    21493778.760    88013424.118 7       768.302    21493779.340    88013430.119 7       768.302
G17  24812289.940   130389447.098 5      5461.208    24812288.500   130389447.109 2      5461.208    24812300.040   101602178.365 2      4255.487    24812301.580   101602231.398 6      4255.487
G27  24204039.780   127193069.010 6      -196.690    24204038.880   127193069.018 4      -196.690    24204053.500    99111530.845 4      -153.265    24204054.780    99111534.817 6      -153.265
R08  21805188.000   116765778.875 7       545.763    21805190.120   116765778.908 7       545.763    21805202.340    90817895.140 7       424.482    21805202.140    90817893.141 7       424.482
G04  24746982.980   130046276.892 5      5581.649    24746982.640   130046276.897 2      5581.649    24746999.560   101334817.281 2      4349.337    24747000.100   101334826.306 6      4349.337
G14  22634459.700   118944891.954 7      4205.296    22634458.900   118944891.964 5      4205.296    22634465.920    92684356.590 5      3276.854    22634466.660    92684349.584 7      3276.854
G03  20629560.640   108409073.823 8      4373.798    20629560.180   108409073.820 7      4373.798    20629566.200    84474628.388 6      3408.154    20629567.120    84474631.383 8      3408.154
R24  20983155.260   112206358.168 7      3554.018    20983155.300   112206358.183 7      3554.018    20983164.880    87271658.160 7      2764.236    20983165.580    87271659.173 7      2764.236
G32  25282244.660   132859095.285 6      1419.880    25282242.600   132859095.290 6      1419.880    25282257.780   103526618.905 6      1106.400    25282258.780   103526626.901 7      1106.400
R01  20203798.620   108000876.729 6      4716.514    20203798.580   108000876.746 6      4716.514    20203809.960    84000739.026 6      3668.400    20203809.180    84000737.017 6      3668.400
R14  21774109.060   116068248.277 8       862.331    21774108.680   116068248.274 7       862.331    21774119.540    90275343.725 7       670.702    21774120.040    90275348.729 7       670.702
R23  22042469.920   117912348.861 6      1493.209    22042470.580   117912348.873 6      1493.209
G22  24628958.120   129426052.891 6      5096.193    24628957.460   129426052.904 3      5096.193    24628966.040   100851487.526 3      3971.060
G21  21927817.660   115231452.865 7      1390.621    21927816.120   115231452.869 6      1390.621    21927820.020    89790723.066 6      1083.600
> 2024 06 03 13 30 38.0000000  0 16
G02  21722192.720   114150894.710 7      2238.421    21722191.060   114150894.714 6      2238.421    21722193.540    88948753.098 6      1744.224
R17  23667752.300   126650913.363 7      4770.897    23667752.680   126650913.377 7      4770.897    23667769.480    98506348.938 7      3710.697    23667769.700    98506346.925 7      3710.697
G08  21493584.720   112949545.084 7       985.622    21493583.060   112949545.084 7       985.622    21493591.180    88012655.876 7       768.017    21493592.120    88012661.875 7       768.017
G17  24811250.600   130383985.995 5      5461.152    24811249.400   130383986.005 2      5461.152    24811260.760   101597922.964 2      4255.443    24811262.040   101597975.996 6      4255.443
G27  24204077.360   127193265.601 6      -196.977    24204076.300   127193265.606 4      -196.977    24204090.860    99111684.020 4      -153.489    24204092.200    99111687.995 6      -153.489
R08  21805086.280   116765233.376 7       544.997    21805087.800   116765233.410 7       544.997    21805100.220    90817470.870 7       423.887    21805100.200    90817468.873 7       423.887
G04  24745921.360   130040694.857 5      5582.071    24745920.560   130040694.856 2      5582.071    24745937.300   101330467.668 2      4349.665    24745937.520   101330476.676 6      4349.665
G14  22633659.560   118940686.832 7      4204.718    22633658.800   118940686.845 5      4204.718    22633665.840    92681079.876 5      3276.403    22633666.300    92681072.876 7      3276.403
G03  20628728.560   108404700.225 8      4373.240    20628728.040   108404700.225 7      4373.240    20628733.920    84471220.391 6      3407.719    20628734.740    84471223.389 8      3407.719
R24  20982490.760   112202804.010 7      3554.045    20982490.300   112202804.022 7      3554.045    20982500.380    87268893.808 7      2764.257    20982501.040    87268894.813 7      2764.257
G32  25281974.800   132857675.469 6      1419.493    25281972.060   132857675.474 6      1419.493    25281987.640   103525512.557 6      1106.098    25281988.700   103525520.559 7      1106.098
R01  20202916.460   107996160.212 7      4715.927    20202916.260   107996160.235 6      4715.927    20202927.620    83997070.622 6      3667.943    20202926.720    83997068.613 6      3667.943
R14  21773947.200   116067386.053 7       861.811    21773946.480   116067386.048 7       861.811    21773957.520    90274673.100 7       670.298    21773958.240    90274678.106 7       670.298
R23  22042190.880   117910855.485 6      1493.239    22042191.620   117910855.505 6      1493.239
G22  24627988.460   129420956.731 6      5095.799    24627987.800   129420956.744 3      5095.799    24627996.180   100847516.505 3      3970.753
G21  21927553.080   115230062.175 8      1390.503    21927551.500   115230062.180 6      1390.503    21927555.500    89789639.412 6      1083.509
> 2024 06 03 13 30 39.0000000  0 16
G02  21721766.900   114148656.212 7      2238.595    21721765.120   114148656.216 6      2238.595    21721767.660    88947008.818 6      1744.360
R17  23666860.620   126646142.140 7      4771.450    23666861.100   126646142.163 7      4771.450    23666877.640    98502638.005 7      3711.128    23666877.880    98502635.995 7      3711.128
G08  21493396.980   112948559.479 7       985.529    21493395.300   112948559.478 7       985.529    21493403.580    88011887.880 7       767.945    21493404.400    88011893.883 7       767.945
G17  24810210.940   130378524.707 5      5461.473    24810210.140   130378524.712 2      5461.473    24810221.460   101593667.421 2      4255.694    24810223.700   101593720.451 6      4255.694
G27  24204114.740   127193462.295 6      -196.817    24204113.660   127193462.302 4      -196.817    24204128.160    99111837.278 4      -153.364    24204129.640    99111841.256 6      -153.364
R08  21804984.700   116764688.475 7       544.713    21804986.340   116764688.492 7       544.713    21804998.440    90817047.051 7       423.666    21804998.340    90817045.054 7       423.666
G04  24744859.680   130035112.595 5      5582.565    24744858.500   130035112.595 2      5582.565    24744875.000   101326117.835 2      4350.050    24744875.280   101326126.871 6      4350.050
G14  22632859.440   118936482.194 7      4204.503    22632858.700   118936482.210 5      4204.503    22632865.520    92677803.545 5      3276.236    22632866.180    92677796.551 7      3276.236
G03  20627896.360   108400327.116 8      4372.957    20627895.880   108400327.116 6      4372.957    20627901.880    84467812.778 6      3407.499    20627902.620    84467815.773 8      3407.499
R24  20981826.200   112199249.841 7      3554.263    20981825.100   112199249.853 7      3554.263    20981835.960    87266129.471 7      2764.426    20981836.440    87266130.478 7      2764.426
G32  25281704.700   132856256.084 6      1419.267    25281701.940   132856256.094 6      1419.267    25281717.740   103524406.549 6      1105.923    25281718.440   103524414.549 7      1105.923
R01  20202034.440   107991444.383 7      4715.518    20202034.440   107991444.392 6      4715.518    20202045.200    83993402.759 6      3667.625    20202044.460    83993400.747 6      3667.625
R14  21773785.680   116066524.349 7       861.504    21773785.160   116066524.341 7       861.504    21773795.960    90274002.890 7       670.059    21773796.620    90274007.894 7       670.059
R23  22041911.580   117909362.159 6      1493.459    22041912.780   117909362.174 6      1493.459
G22  24627018.640   129415860.832 6      5095.939    24627017.840   129415860.847 3      5095.939    24627026.360   100843545.684 3      3970.862
G21  21927288.400   115228671.401 7      1390.848    21927286.880   115228671.405 6      1390.848    21927290.680    89788555.689 6      1083.778
> 2024 06 03 13 30 40.0000000  0 16
G02  21721340.840   114146417.745 7      2238.351    21721339.140   114146417.750 6      2238.351    21721341.560    88945264.557 6      1744.170
R17  23665968.900   126641370.864 7      4771.256    23665969.560   126641370.884 7      4771.256    23665985.720    98498927.009 7      3710.977    23665986.460    98498925.003 7      3710.977
G08  21493209.260   112947574.265 7       984.852    21493207.800   112947574.262 7       984.852    21493216.100    88011120.174 7       767.417    21493216.820    88011126.173 7       767.417
G17  24809172.480   130373063.364 5      5461.104    24809170.940   130373063.366 2      5461.104    24809182.240   101589411.835 3      4255.406    24809184.320   101589464.882 6      4255.406
G27  24204152.360   127193659.227 6      -197.317    24204151.100   127193659.232 4      -197.317    24204165.680    99111990.715 4      -153.754    24204166.440    99111994.692 6      -153.754
R08  21804883.480   116764144.328 7       543.695    21804885.020   116764144.354 7       543.695    21804896.820    90816623.826 7       422.874    21804896.820    90816621.829 7       422.874
G04  24743798.060   130029530.171 5      5582.560    24743796.080   130029530.176 2      5582.560    24743812.540   101321767.898 2      4350.047    24743812.520   101321776.924 6      4350.047
G14  22632059.640   118932278.127 7      4203.632    22632058.800   118932278.139 5      4203.632    22632065.640    92674527.654 5      3275.557    22632066.360    92674520.661 7      3275.557
G03  20627064.320   108395954.577 8      4372.103    20627063.840   108395954.574 7      4372.103    20627069.840    84464405.609 6      3406.833    20627070.660    84464408.602 8      3406.833
R24  20981161.560   112195695.747 7      3554.029    20981160.680   112195695.759 7      3554.029    20981171.260    87263365.180 7      2764.245    20981171.840    87263366.187 7      2764.245
G32  25281434.780   132854837.185 6      1418.561    25281432.120   132854837.195 6      1418.561    25281447.900   103523300.911 6      1105.372    25281448.840   103523308.917 7      1105.372
R01  20201152.300   107986729.328 7      4714.500    20201152.020   107986729.334 6      4714.500    20201163.580    83989735.490 6      3666.833    20201162.560    83989733.476 6      3666.833
R14  21773624.120   116065663.255 8       860.582    21773623.520   116065663.247 7       860.582    21773634.420    90273333.144 7       669.342    21773635.140    90273338.150 7       669.342
R23  22041632.960   117907868.948 6      1492.931    22041633.620   117907868.966 6      1492.931
G22  24626049.060   129410765.300 6      5095.118    24626048.240   129410765.318 3      5095.118    24626056.840   100839575.146 3      3970.221
G21  21927023.560   115227280.661 8      1390.548    21927022.280   115227280.663 6      1390.548    21927026.000    89787471.996 6      1083.544
> 2024 06 03 13 30 41.0000000  0 16
G02  21720915.100   114144179.415 7      2238.286    21720913.160   114144179.420 6      2238.286    21720915.680    88943520.406 6      1744.119
R17  23665077.300   126636599.566 7      4771.340    23665077.940   126636599.578 7      4771.340    23665094.400    98495215.991 7      3711.042    23665094.520    98495213.981 7      3711.042
G08  21493022.060   112946589.524 7       984.487    21493020.480   112946589.523 7       984.487    21493028.680    88010352.844 7       767.133    21493029.360    88010358.847 7       767.133
G17  24808133.360   130367601.997 5      5461.442    24808131.720   130367601.997 2      5461.442    24808142.940   101585156.231 3      4255.669    24808144.880   101585209.290 6      4255.669
G27  24204190.220   127193856.425 6      -197.260    24204188.520   127193856.432 4      -197.260    24204203.140    99112144.364 4      -153.709    24204203.280    99112148.338 6      -153.709
R08  21804781.460   116763601.036 7       542.985    21804783.340   116763601.059 7       542.985    21804795.360    90816201.257 7       422.322    21804795.080    90816199.262 7       422.322
G04  24742734.400   130023947.718 5      5582.468    24742733.920   130023947.723 2      5582.468    24742750.220   101317417.937 2      4349.975    24742749.820   101317426.956 6      4349.975
G14  22631259.760   118928074.716 7      4203.097    22631258.680   118928074.729 5      4203.097    22631265.940    92671252.271 5      3275.141    22631266.220    92671245.269 7      3275.141
G03  20626232.380   108391582.679 8      4371.676    20626231.840   108391582.674 7      4371.676    20626237.940    84460998.937 7      3406.501    20626238.740    84461001.935 8      3406.501
R24  20980497.120   112192141.752 7      3554.118    20980496.080   112192141.762 7      3554.118    20980506.700    87260600.954 7      2764.314    20980507.060    87260601.960 7      2764.314
G32  25281164.560   132853418.877 6      1418.055    25281162.240   132853418.888 6      1418.055    25281177.920   103522195.741 6      1104.978    25281179.120   103522203.742 7      1104.978
R01  20200270.120   107982015.107 7      4713.792    20200269.900   107982015.119 6      4713.792    20200281.260    83986068.884 6      3666.283    20200280.580    83986066.870 6      3666.283
R14  21773462.540   116064802.859 8       860.098    21773462.220   116064802.852 7       860.098    21773472.940    90272663.954 7       668.965    21773473.300    90272668.955 7       668.965
R23  22041353.740   117906375.909 6      1493.040    22041354.400   117906375.929 6      1493.040
G22  24625079.220   129405670.191 6      5094.883    24625078.580   129405670.206 3      5094.883    24625087.420   100835604.937 3      3970.039
G21  21926758.960   115225890.015 8      1390.641    21926757.480   115225890.020 6      1390.641    21926761.380    89786388.382 6      1083.616
> 2024 06 03 13 30 42.0000000  0 16
G02  21720489.160   114141941.143 7      2238.213    21720487.220   114141941.148 6      2238.213    21720489.700    88941776.298 6      1744.062
R17  23664185.560   126631828.124 7      4771.492    23664185.600   126631828.147 7      4771.492    23664202.500    98491504.903 7      3711.160    23664202.880    98491502.889 7      3711.160
G08  21492834.760   112945605.153 7       984.161    21492833.040   112945605.153 7       984.161    21492841.420    88009585.799 7       766.879    21492841.980    88009591.801 7       766.879
G17  24807093.840   130362140.544 5      5461.616    24807092.740   130362140.544 2      5461.616    24807103.720   101580900.560 3      4255.805    24807105.560   101580953.616 6      4255.805
G27  24204228.240   127194053.854 6      -197.641    24204226.180   127194053.862 4      -197.641    24204240.580    99112298.202 4      -154.006    24204240.660    99112302.189 6      -154.006
R08  21804680.340   116763058.496 7       542.123    21804682.160   116763058.516 7       542.123    21804694.240    90815779.278 7       421.651    21804693.920    90815777.281 7       421.651
G04  24741672.280   130018364.979 5      5582.920    24741671.600   130018364.981 2      5582.920    24741687.980   101313067.750 2      4350.327    24741686.900   101313076.786 6      4350.327
G14  22630459.880   118923871.854 7      4202.600    22630459.200   118923871.864 5      4202.600    22630466.180    92667977.306 5      3274.754    22630466.500    92667970.300 7      3274.754
G03  20625400.380   108387211.362 8      4371.006    20625399.980   108387211.357 6      4371.006    20625406.060    84457592.720 6      3405.978    20625406.920    84457595.716 8      3405.978
R24  20979832.560   112188587.762 7      3554.072    20979831.580   112188587.772 7      3554.072    20979842.160    87257836.743 7      2764.278    20979842.540    87257837.748 7      2764.278
G32  25280894.300   132852001.061 6      1417.391    25280892.580   132852001.066 6      1417.391    25280908.060   103521090.949 6      1104.460    25280909.260   103521098.940 7      1104.460
R01  20199388.360   107977301.635 7      4713.183    20199388.120   107977301.639 6      4713.183    20199399.700    83982402.858 6      3665.809    20199398.700    83982400.849 6      3665.809
R14  21773301.500   116063943.112 8       859.411    21773301.100   116063943.107 7       859.411    21773311.520    90271995.261 7       668.431    21773312.400    90272000.265 7       668.431
R23  22041074.800   117904882.963 7      1493.033    22041075.040   117904882.980 6      1493.033
G22  24624109.920   129400575.413 6      5094.517    24624108.900   129400575.431 3      5094.517    24624117.960   100831634.993 3      3969.754
G21  21926494.480   115224499.378 7      1390.637    21926492.820   115224499.380 6      1390.637    21926496.820    89785304.775 6      1083.613
> 2024 06 03 13 30 43.0000000  0 16
G02  21720063.220   114139702.887 7      2238.001    21720061.320   114139702.892 6      2238.001    21720063.840    88940032.204 6      1743.897
R17  23663294.120   126627056.615 7      4771.417    23663293.880   126627056.633 7      4771.417    23663310.840    98487793.727 7      3711.102    23663310.900    98487791.711 7      3711.102
G08  21492647.600   112944621.163 7       983.551    21492645.860   112944621.163 7       983.551    21492654.180    88008819.050 7       766.403    21492655.040    88008825.053 7       766.403
G17  24806054.800   130356679.002 5      5461.426    24806053.540   130356679.004 2      5461.426    24806064.360   101576644.820 3      4255.657    24806066.820   101576697.875 6      4255.657
G27  24204265.720   127194251.457 6      -197.671    24204263.620   127194251.461 4      -197.671    24204278.260    99112452.168 4      -154.029    24204278.660    99112456.132 6      -154.029
R08  21804579.740   116762516.634 7       541.266    21804581.280   116762516.659 7       541.266    21804593.120    90815357.835 7       420.985    21804592.920    90815355.843 7       420.985
G04  24740609.760   130012782.215 5      5582.488    24740609.340   130012782.223 2      5582.488    24740625.600   101308717.558 2      4349.991    24740625.200   101308726.566 6      4349.991
G14  22629660.160   118919669.549 7      4201.823    22629659.520   118919669.559 5      4201.823    22629666.400    92664702.781 5      3274.147    22629666.620    92664695.781 7      3274.147
G03  20624568.680   108382840.589 8      4370.267    20624568.380   108382840.583 7      4370.267    20624574.500    84454186.923 7      3405.403    20624575.160    84454189.922 8      3405.403
R24  20979167.600   112185033.826 7      3553.631    20979167.060   112185033.833 7      3553.631    20979177.800    87255072.583 7      2763.935    20979178.080    87255073.586 7      2763.935
G32  25280624.400   132850583.675 7      1416.911    25280622.880   132850583.688 6      1416.911    25280638.140   103519986.488 6      1104.087    25280639.500   103519994.488 7      1104.087
R01  20198507.060   107972588.932 7      4712.217    20198506.800   107972588.941 6      4712.217    20198518.220    83978737.421 6      3665.058    20198517.520    83978735.411 6      3665.058
R14  21773140.300   116063083.977 8       858.606    21773140.000   116063083.975 7       858.606    21773150.420    90271327.058 7       667.805    21773151.280    90271332.067 7       667.805
R23  22040796.000   117903390.110 7      1492.542    22040795.580   117903390.130 6      1492.542
G22  24623141.080   129395480.995 6      5093.865    24623139.360   129395481.010 3      5093.865    24623148.480   100827665.327 3      3969.245
G21  21926229.960   115223108.756 8      1390.419    21926228.280   115223108.761 6      1390.419    21926232.080    89784221.176 6      1083.443
> 2024 06 03 13 30 44.0000000  0 16
G02  21719637.120   114137464.873 7      2238.075    21719635.440   114137464.880 6      2238.075    21719637.940    88938288.301 6      1743.954
R17  23662402.160   126622285.216 7      4771.536    23662402.460   126622285.225 7      4771.536    23662419.320    98484082.630 7      3711.195    23662419.020    98484080.610 7      3711.195
G08  21492460.640   112943637.715 7       983.408    21492458.780   112943637.715 7       983.408    21492467.020    88008052.727 7       766.292    21492467.760    88008058.732 7       766.292
G17  24805015.540   130351217.559 5      5461.428    24805014.400   130351217.561 2      5461.428    24805025.080   101572389.157 3      4255.658    24805027.320   101572442.208 6      4255.658
G27  24204302.900   127194449.508 6      -198.038    24204301.280   127194449.516 4      -198.038    24204315.840    99112606.480 4      -154.315    24204315.840    99112610.440 6      -154.315
R08  21804479.080   116761975.681 7       540.600    21804479.760   116761975.718 7       540.600    21804491.800    90814937.109 7       420.467    21804491.760    90814935.114 7       420.467
G04  24739547.600   130007199.381 5      5582.923    24739547.300   130007199.389 2      5582.923    24739563.140   101304367.297 2      4350.330    24739563.360   101304376.286 6      4350.330
G14  22628860.640   118915467.972 7      4201.437    22628860.000   118915467.980 5      4201.437    22628866.720    92661428.823 5      3273.847    22628867.320    92661421.825 7      3273.847
G03  20623737.300   108378470.541 8      4369.896    20623736.820   108378470.541 6      4369.896    20623742.820    84450781.695 6      3405.114    20623743.560    84450784.696 8      3405.114
R24  20978502.900   112181480.133 7      3553.772    20978502.460   112181480.145 7      3553.772    20978513.160    87252308.606 7      2764.045    20978513.820    87252309.611 7      2764.045
G32  25280354.900   132849166.960 6      1416.599    25280353.360   132849166.970 6      1416.599    25280368.700   103518882.560 6      1103.844    25280369.820   103518890.568 7      1103.844
R01  20197625.540   107967877.181 7      4711.481    20197625.160   107967877.187 6      4711.481    20197637.080    83975072.732 6      3664.485    20197636.340    83975070.726 7      3664.485
R14  21772979.140   116062225.671 7       858.089    21772979.180   116062225.663 7       858.089    21772989.540    90270659.491 7       667.403    21772990.220    90270664.498 7       667.403
R23  22040517.120   117901897.488 6      1492.673    22040516.820   117901897.511 6      1492.673
G22  24622171.320   129390387.031 6      5093.924    24622169.980   129390387.049 3      5093.924    24622179.160   100823696.011 3      3969.291
G21  21925965.220   115221718.306 7      1390.589    21925963.680   115221718.310 6      1390.589    21925967.540    89783137.714 6      1083.576
> 2024 06 03 13 30 45.0000000  0 16
G02  21719211.180   114135226.850 7      2237.969    21719209.600   114135226.852 6      2237.969    21719211.980    88936544.397 6      1743.872
R17  23661510.740   126617513.619 7      4771.787    23661511.100   126617513.615 7      4771.787    23661527.800    98480371.394 7      3711.390    23661527.340    98480369.374 7      3711.390
G08  21492273.420   112942654.624 7       982.868    21492271.660   112942654.618 7       982.868    21492280.060    88007286.682 7       765.871    21492280.600    88007292.683 7       765.871
G17  24803976.600   130345755.953 6      5461.499    24803975.120   130345755.953 2      5461.499    24803985.720   101568133.366 3      4255.714    24803988.840   101568186.415 6      4255.714
G27  24204340.320   127194647.681 6      -198.394    24204338.660   127194647.688 4      -198.394    24204353.580    99112760.894 4      -154.593    24204353.780    99112764.860 6      -154.593
R08  21804377.360   116761435.452 7       539.707    21804379.220   116761435.491 7       539.707    21804391.240    90814516.908 7       419.772    21804390.940    90814514.909 7       419.772
G04  24738485.320   130001616.329 5      5583.053    24738484.940   130001616.331 2      5583.053    24738500.660   101300016.865 2      4350.431    24738500.900   101300025.868 6      4350.431
G14  22628061.240   118911266.918 7      4200.777    22628060.520   118911266.928 5      4200.777    22628067.480    92658155.278 5      3273.333    22628067.680    92658148.284 8      3273.333
G03  20622905.640   108374101.024 8      4369.219    20622905.300   108374101.023 7      4369.219    20622911.340    84447376.892 6      3404.586    20622912.040    84447379.896 8      3404.586
R24  20977838.600   112177926.502 7      3553.711    20977837.620   112177926.503 7      3553.711    20977848.780    87249544.639 7      2763.997    20977849.340    87249545.642 7      2763.997
G32  25280085.340   132847750.686 6      1416.110    25280083.940   132847750.688 5      1416.110    25280099.100   103517778.974 6      1103.462    25280099.780   103517786.974 7      1103.462
R01  20196743.880   107963166.087 7      4710.837    20196743.540   107963166.086 6      4710.837    20196755.440    83971408.564 6      3663.984    20196754.740    83971406.557 7      3663.984
