     3.05           OBSERVATION DATA    MIXED               RINEX VERSION / TYPE
TPS2RIN 1.0.28.3459 TPS-USER            20260427 162655 UTC PGM / RUN BY / DATE
Win64 build Jun 01, 2022 (c) Topcon Positioning Systems     COMMENT
SRC: 20240603_GUI20.tps                                     COMMENT
Observer            Agency                                  OBSERVER / AGENCY
O0M3X53SBGM         TPS HIPER_SR        4.8 HSR Jul,08,2022 REC # / TYPE / VERS
FW: 4.8 HSR Jul,08,2022 p3                                  COMMENT
SN: HiPer SR 1212-12575                                     COMMENT
000                 TPSHIPER_SR     NONE                    ANT # / TYPE
        1.8000        0.0000        0.0000                  ANTENNA: DELTA H/E/N
GUI20                                                       MARKER NAME
  5390329.4282 -1596846.6197  3007416.7580                  APPROX POSITION XYZ
  2024     6     3    12     1   19.0000000     GPS         TIME OF FIRST OBS
  2024     6     3    12    16   24.0000000     GPS         TIME OF LAST OBS
     1.000                                                  INTERVAL
   906 EPOCHS                                               COMMENT
G   12 C1C L1C D1C C1W L1W D1W C2W L2W D2W C2X L2X D2X      SYS / # / OBS TYPES
R   12 C1C L1C D1C C1P L1P D1P C2P L2P D2P C2C L2C D2C      SYS / # / OBS TYPES
    18                                                      # OF SATELLITES
   G02   906   906   906   906   906   906   906   906   906PRN / # OF OBS
           0     0     0                                    PRN / # OF OBS
   G03   906   906   906   906   906   906   906   906   906PRN / # OF OBS
         906   906   906                                    PRN / # OF OBS
   G07    35    35    35    29    29    29    29    29    29PRN / # OF OBS
          25    25    25                                    PRN / # OF OBS
   G08   906   906   906   906   906   906   906   906   906PRN / # OF OBS
         906   906   906                                    PRN / # OF OBS
   G10   906   906   906   906   906   906   906   906   906PRN / # OF OBS
         906   906   906                                    PRN / # OF OBS
   G16   906   906   906   906   906   906   906   906   906PRN / # OF OBS
           0     0     0                                    PRN / # OF OBS
   G21   906   906   906   906   906   906   906   906   906PRN / # OF OBS
           0     0     0                                    PRN / # OF OBS
   G27   906   906   906   906   906   906   906   906   906PRN / # OF OBS
         906   906   906                                    PRN / # OF OBS
   G32   906   906   906   906   906   906   906   906   906PRN / # OF OBS
         906   906   906                                    PRN / # OF OBS
   R01   906   906   906   906   906   906   906   906   906PRN / # OF OBS
         906   906   906                                    PRN / # OF OBS
   R07   906   906   906   906   906   906   906   906   906PRN / # OF OBS
         906   906   906                                    PRN / # OF OBS
   R08   906   906   906   906   906   906   906   906   906PRN / # OF OBS
         906   906   906                                    PRN / # OF OBS
   R12   906   906   906   906   906   906   906   906   906PRN / # OF OBS
         906   906   906                                    PRN / # OF OBS
   R13   906   906   906   906   906   906   906   906   906PRN / # OF OBS
         906   906   906                                    PRN / # OF OBS
   R14   906   906   906   906   906   906   906   906   906PRN / # OF OBS
         906   906   906                                    PRN / # OF OBS
   R22   906   906   906   906   906   906   906   906   906PRN / # OF OBS
         906   906   906                                    PRN / # OF OBS
   R23   906   906   906   906   906   906     0     0     0PRN / # OF OBS
           0     0     0                                    PRN / # OF OBS
   R24   906   906   906   906   906   906   906   906   906PRN / # OF OBS
         906   906   906                                    PRN / # OF OBS
G L1C                                                       SYS / PHASE SHIFT
G L1W -0.25000                                              SYS / PHASE SHIFT
G L2W  0.00000                                              SYS / PHASE SHIFT
G L2X  0.25000                                              SYS / PHASE SHIFT
R L1C                                                       SYS / PHASE SHIFT
R L1P -0.25000                                              SYS / PHASE SHIFT
R L2P -0.25000                                              SYS / PHASE SHIFT
R L2C                                                       SYS / PHASE SHIFT
  9 R01  1 R07  5 R08  6 R12 -1 R13 -2 R14 -7 R22 -3 R23  3 GLONASS SLOT / FRQ #
    R24  2                                                  GLONASS SLOT / FRQ #
                                                            GLONASS COD/PHS/BIS
               *** Undefined LeapSeconds ***                COMMENT
                                                            END OF HEADER
> 2024 06 03 12 01 19.0000000  0 17
G10  23302997.240   122458068.822 7       161.926    23302996.120   122458068.827 7       161.926    23303006.260    95421901.649 7       126.176    23303006.840    95421911.655 7       126.176
G02  21367864.520   112288880.480 7      3148.375    21367862.660   112288880.485 6      3148.375    21367865.820    87497833.161 6      2453.279
G03  23391592.360   122923645.934 6      6521.033    23391591.700   122923645.928 5      6521.033    23391603.180    95784706.745 5      5081.324    23391604.740    95784712.760 7      5081.324
R01  23324560.980   124683146.367 6      6711.351    23324561.080   124683146.382 6      6711.351    23324581.300    96975866.735 6      5219.940    23324580.540    96975863.721 6      5219.940
G08  20558968.700   108038103.249 8      2934.771    20558967.440   108038103.252 8      2934.771    20558974.340    84185559.243 8      2286.834    20558975.160    84185561.248 8      2286.834
G21  20614392.540   108329359.389 7      2151.794    20614390.640   108329359.394 6      2151.794    20614394.440    84412500.308 6      1676.723
G27  21738665.600   114237433.937 7      1264.676    21738664.240   114237433.937 7      1264.676    21738672.360    89016210.922 7       985.462    21738672.500    89016211.925 8       985.462
R23  20729552.900   110889124.409 7      1831.568    20729552.320   110889124.424 7      1831.568
R13  20026920.040   106942627.666 6       852.194    20026919.040   106942627.680 6       852.194    20026928.860    83177638.579 7       662.818    20026929.180    83177637.577 6       662.818
R08  21589266.020   115609536.760 7      4877.774    21589267.440   115609536.802 7      4877.774    21589280.060    89918589.102 7      3793.825    21589279.560    89918591.105 7      3793.825
R07  22605051.760   121006608.259 7      1953.254    22605052.060   121006608.288 7      1953.254    22605068.020    94116318.585 7      1519.198    22605067.860    94116317.584 7      1519.198
R22  23119539.820   123413663.044 7       567.044    23119541.540   123413663.042 7       567.044    23119555.300    95988468.392 7       441.034    23119555.620    95988470.396 7       441.034
R12  22067601.680   117881152.599 7     -1377.455    22067602.400   117881152.608 7     -1377.455    22067615.520    91685392.993 7     -1071.354    22067615.900    91685392.996 7     -1071.354
G16  22748975.060   119546657.929 7      -506.245    22748973.360   119546657.939 5      -506.245    22748980.580    93153256.336 5      -394.477
G32  25096400.200   131882476.164 6      3910.271    25096398.680   131882476.161 5      3910.271    25096415.080   102765532.035 5      3046.964    25096415.760   102765632.046 6      3046.964
R24  21724522.160   116170776.167 7      4005.312    21724521.040   116170776.174 7      4005.312    21724534.200    90355101.304 7      3115.243    21724534.120    90355101.307 7      3115.243
R14  21777804.280   116087947.600 7      5180.387    21777804.000   116087947.593 7      5180.387    21777815.760    90290673.506 7      4029.190    21777816.040    90290679.509 8      4029.190
> 2024 06 03 12 01 20.0000000  0 17
G10  23302966.380   122457906.875 7       161.772    23302965.340   122457906.878 7       161.772    23302975.460    95421775.444 7       126.056    23302975.820    95421785.452 7       126.056
G02  21367265.220   112285732.031 8      3148.320    21367263.520   112285732.038 6      3148.320    21367266.660    87495379.828 6      2453.236
G03  23390351.500   122917124.863 7      6520.856    23390350.660   122917124.857 5      6520.856    23390362.200    95779625.397 5      5081.187    23390363.280    95779631.417 7      5081.187
R01  23323305.220   124676435.150 6      6711.179    23323305.440   124676435.164 6      6711.179    23323326.780    96970646.922 6      5219.806    23323324.820    96970643.919 6      5219.806
G08  20558410.180   108035168.491 8      2934.637    20558408.940   108035168.496 8      2934.637    20558415.840    84183272.422 8      2286.730    20558417.000    84183274.425 8      2286.730
G21  20613982.980   108327207.491 7      2151.754    20613981.180   108327207.496 6      2151.754    20613984.900    84410823.507 6      1676.692
G27  21738424.860   114236169.345 7      1264.511    21738423.600   114236169.347 7      1264.511    21738431.600    89015225.521 7       985.333    21738431.780    89015226.526 8       985.333
R23  20729210.440   110887292.527 7      1831.803    20729209.980   110887292.544 7      1831.803
R13  20026762.120   106941775.761 6       851.469    20026759.840   106941775.783 6       851.469    20026769.440    83176975.992 7       662.253    20026769.660    83176974.992 6       662.253
R08  21588355.300   115604659.326 7      4877.045    21588356.540   115604659.373 7      4877.045    21588369.020    89914795.552 7      3793.257    21588368.840    89914797.558 7      3793.257
R07  22604687.040   121004655.320 7      1952.660    22604687.560   121004655.343 7      1952.660    22604703.020    94114799.635 7      1518.736    22604703.080    94114798.636 7      1518.736
R22  23119433.440   123413095.728 7       567.298    23119435.260   123413095.736 7       567.298    23119449.140    95988027.150 7       441.232    23119449.420    95988029.148 7       441.232
R12  22067859.580   117882530.292 7     -1377.916    22067859.740   117882530.282 7     -1377.916    22067873.340    91686464.510 7     -1071.713    22067873.640    91686464.510 7     -1071.713
G16  22749071.320   119547164.383 7      -506.665    22749069.780   119547164.393 5      -506.665    22749076.980    93153650.967 5      -394.804
G32  25095656.420   131878565.979 6      3909.955    25095654.640   131878565.978 5      3909.955    25095671.040   102762485.142 5      3046.718    25095671.940   102762585.168 6      3046.718
R24  21723773.120   116166770.615 7      4005.503    21723772.400   116166770.616 7      4005.503    21723785.340    90351985.870 7      3115.391    21723785.280    90351985.875 7      3115.391
R14  21776832.700   116082767.269 7      5180.042    21776832.200   116082767.253 7      5180.042    21776843.880    90286644.353 7      4028.922    21776844.480    90286650.358 7      4028.922
> 2024 06 03 12 01 21.0000000  0 17
G10  23302935.640   122457745.506 7       160.891    23302934.700   122457745.509 7       160.891    23302944.780    95421649.706 7       125.369    23302945.160    95421659.706 7       125.369
G02  21366666.360   112282583.973 7      3148.016    21366664.500   112282583.983 6      3148.016    21366667.620    87492926.794 6      2452.999
G03  23389110.520   122910604.215 6      6520.475    23389109.860   122910604.212 5      6520.475    23389121.280    95774544.381 5      5080.890    23389122.140    95774550.409 7      5080.890
R01  23322049.960   124669724.256 6      6710.681    23322049.320   124669724.270 6      6710.681    23322071.160    96965427.373 6      5219.419    23322069.720    96965424.362 6      5219.419
G08  20557851.980   108032234.176 8      2933.981    20557850.680   108032234.181 8      2933.981    20557857.500    84180985.941 8      2286.219    20557858.520    84180987.944 8      2286.219
G21  20613573.440   108325056.001 8      2151.291    20613571.720   108325056.003 6      2151.291    20613575.500    84409147.023 6      1676.331
G27  21738184.280   114234905.296 7      1263.694    21738183.220   114234905.298 7      1263.694    21738191.160    89014240.552 7       984.697    21738191.400    89014241.553 8       984.697
R23  20728868.520   110885460.830 7      1831.538    20728867.660   110885460.839 7      1831.538
R13  20026602.560   106940924.888 6       850.345    20026600.960   106940924.913 6       850.345    20026610.320    83176314.194 7       661.379    20026610.260    83176313.196 6       661.379
R08  21587444.520   115599782.890 7      4875.777    21587446.300   115599782.932 7      4875.777    21587458.600    89911002.771 7      3792.271    21587458.220    89911004.770 7      3792.271
R07  22604322.240   121002703.408 7      1951.202    22604322.720   121002703.442 7      1951.202    22604338.500    94113281.489 7      1517.602    22604338.560    94113280.480 7      1517.602
R22  23119327.200   123412528.555 7       566.913    23119328.980   123412528.567 7       566.913    23119343.180    95987586.014 7       440.932    23119343.100    95987588.014 7       440.932
R12  22068117.760   117883908.484 7     -1378.296    22068117.500   117883908.466 7     -1378.296    22068131.600    91687536.420 7     -1072.008    22068131.600    91687536.427 7     -1072.008
G16  22749167.760   119547671.423 7      -507.207    22749166.200   119547671.430 5      -507.207    22749173.420    93154046.053 5      -395.226
G32  25094912.360   131874656.456 6      3909.166    25094910.640   131874656.458 5      3909.166    25094927.180   102759438.762 5      3046.103    25094928.020   102759538.758 6      3046.103
R24  21723023.860   116162765.306 7      4005.151    21723023.440   116162765.315 7      4005.151    21723036.280    90348870.640 7      3115.117    21723036.380    90348870.641 7      3115.117
R14  21775861.300   116077587.684 7      5179.257    21775860.620   116077587.679 7      5179.257    21775872.100    90282615.812 7      4028.311    21775872.500    90282621.814 7      4028.311
> 2024 06 03 12 01 22.0000000  0 17
G10  23302905.160   122457584.292 7       161.106    23302903.860   122457584.295 7       161.106    23302913.980    95421524.085 7       125.537    23302914.560    95421534.082 7       125.537
G02  21366067.280   112279436.041 7      3147.649    21366065.540   112279436.054 6      3147.649    21366068.560    87490473.862 6      2452.714
G03  23387870.120   122904083.460 7      6520.611    23387868.880   122904083.457 5      6520.611    23387880.360    95769463.277 5      5080.996    23387881.240    95769469.293 7      5080.996
R01  23320795.080   124663012.929 6      6711.517    23320792.440   124663012.941 6      6711.517    23320815.000    96960207.461 6      5220.068    23320814.460    96960204.460 6      5220.068
G08  20557293.460   108029299.901 8      2934.056    20557292.320   108029299.901 8      2934.056    20557299.020    84178699.491 8      2286.277    20557300.060    84178701.494 8      2286.277
G21  20613164.120   108322904.597 8      2151.165    20613162.360   108322904.600 6      2151.165    20613166.160    84407470.603 6      1676.233
G27  21737943.900   114233641.223 7      1263.987    21737942.840   114233641.225 7      1263.987    21737950.780    89013255.558 7       984.925    21737951.100    89013256.560 8       984.925
R23  20728526.020   110883629.012 7      1831.727    20728524.980   110883629.029 7      1831.727
R13  20026443.120   106940074.572 6       849.584    20026441.200   106940074.586 6       849.584    20026451.040    83175652.829 7       660.788    20026451.080    83175651.828 6       660.788
R08  21586533.820   115594906.756 7      4875.890    21586535.440   115594906.790 7      4875.890    21586548.040    89907210.220 7      3792.359    21586547.440    89907212.220 7      3792.359
R07  22603957.840   121000752.042 7      1951.060    22603957.320   121000752.076 7      1951.060    22603973.540    94111763.746 7      1517.491    22603973.620    94111762.745 7      1517.491
R22  23119220.300   123411961.057 7       567.687    23119222.500   123411961.063 7       567.687    23119236.820    95987144.625 7       441.534    23119236.360    95987146.620 7       441.534
R12  22068375.400   117885286.591 7     -1378.165    22068375.500   117885286.576 7     -1378.165    22068390.020    91688608.269 7     -1071.906    22068389.900    91688608.276 7     -1071.906
G16  22749264.200   119548178.457 7      -507.149    22749262.860   119548178.465 5      -507.149    22749269.920    93154441.139 5      -395.181
G32  25094168.460   131870746.893 6      3909.593    25094166.860   131870746.893 5      3909.593    25094183.400   102756392.346 5      3046.436    25094184.320   102756492.352 6      3046.436
R24  21722274.320   116158759.932 7      4005.151    21722273.980   116158759.934 7      4005.151    21722287.320    90345755.348 7      3115.117    21722287.620    90345755.350 7      3115.117
R14  21774889.660   116072408.709 8      5178.443    21774889.060   116072408.707 7      5178.443    21774900.380    90278587.722 7      4027.678    21774900.880    90278593.725 8      4027.678
> 2024 06 03 12 01 23.0000000  0 17
G10  23302874.580   122457423.606 7       160.530    23302873.380   122457423.606 7       160.530    23302883.480    95421398.869 7       125.088    23302883.900    95421408.869 7       125.088
G02  21365468.480   112276288.525 7      3147.445    21365466.520   112276288.532 6      3147.445    21365469.640    87488021.250 6      2452.554
G03  23386629.400   122897562.881 6      6520.615    23386628.280   122897562.877 4      6520.615    23386639.520    95764382.315 5      5080.998    23386640.120    95764388.332 7      5080.998
R01  23319539.880   124656301.602 6      6711.623    23319537.280   124656301.598 6      6711.623    23319559.340    96954987.534 6      5220.151    23319559.280    96954984.534 6      5220.151
G08  20556735.240   108026366.015 8      2933.755    20556734.060   108026366.014 8      2933.755    20556740.840    84176413.342 8      2286.043    20556741.680    84176415.344 8      2286.043
G21  20612754.720   108320753.651 7      2150.764    20612753.100   108320753.653 6      2150.764    20612756.860    84405794.540 6      1675.920
G27  21737703.560   114232377.508 7      1263.473    21737702.220   114232377.510 7      1263.473    21737710.100    89012270.843 7       984.525    21737710.460    89012271.845 8       984.525
R23  20728183.860   110881797.462 7      1831.478    20728182.840   110881797.468 7      1831.478
R13  20026283.820   106939225.131 6       849.072    20026282.240   106939225.129 6       849.072    20026291.960    83174992.134 7       660.389    20026292.100    83174991.133 6       660.389
R08  21585623.520   115590031.268 7      4875.025    21585624.900   115590031.308 7      4875.025    21585637.380    89903418.178 7      3791.686    21585637.180    89903420.180 7      3791.686
R07  22603593.620   120998801.592 7      1950.002    22603593.180   120998801.626 7      1950.002    22603609.480    94110246.737 7      1516.668    22603609.140    94110245.734 7      1516.668
R22  23119114.420   123411393.621 7       567.464    23119116.220   123411393.611 7       567.464    23119130.420    95986703.264 7       441.361    23119130.480    95986705.256 7       441.361
R12  22068633.360   117886664.992 7     -1378.498    22068633.740   117886664.979 7     -1378.498    22068648.040    91689680.350 7     -1072.165    22068647.860    91689680.355 7     -1072.165
G16  22749361.100   119548685.781 7      -507.427    22749359.520   119548685.791 5      -507.427    22749366.480    93154836.454 5      -395.397
G32  25093424.540   131866837.738 6      3908.666    25093423.120   131866837.746 5      3908.666    25093439.620   102753346.259 5      3045.713    25093440.160   102753446.278 6      3045.713
R24  21721525.780   116154754.859 7      4005.130    21721524.500   116154754.863 7      4005.130    21721538.320    90342640.295 7      3115.101    21721538.380    90342640.293 7      3115.101
R14  21773918.460   116067230.613 8      5177.834    21773917.640   116067230.617 7      5177.834    21773928.940    90274560.317 7      4027.204    21773929.580    90274566.322 7      4027.204
> 2024 06 03 12 01 24.0000000  0 17
G10  23302843.880   122457263.430 7       160.113    23302842.860   122457263.430 7       160.113    23302853.120    95421274.054 7       124.763    23302853.120    95421284.058 7       124.763
G02  21364869.580   112273141.321 7      3147.087    21364867.580   112273141.328 6      3147.087    21364870.660    87485568.883 6      2452.276
G03  23385388.360   122891042.590 7      6520.278    23385387.380   122891042.590 4      6520.278    23385398.580    95759301.577 5      5080.736    23385399.220    95759307.595 7      5080.736
R01  23318284.580   124649590.377 6      6711.465    23318281.780   124649590.389 6      6711.465    23318303.620    96949767.721 6      5220.028    23318303.260    96949764.722 6      5220.028
G08  20556177.200   108023432.504 8      2933.417    20556175.840   108023432.504 8      2933.417    20556182.640    84174127.491 8      2285.779    20556183.520    84174129.496 8      2285.779
G21  20612345.420   108318603.020 8      2150.473    20612343.820   108318603.025 6      2150.473    20612347.660    84404118.726 6      1675.693
G27  21737463.180   114231114.169 7      1263.295    21737462.020   114231114.171 7      1263.295    21737469.660    89011286.423 7       984.386    21737470.000    89011287.426 8       984.386
R23  20727841.600   110879966.013 7      1831.449    20727840.500   110879966.017 7      1831.449
R13  20026125.240   106938376.544 6       848.275    20026123.900   106938376.529 6       848.275    20026133.060    83174332.107 7       659.769    20026133.260    83174331.103 6       659.769
R08  21584713.180   115585156.495 7      4874.591    21584714.520   115585156.537 7      4874.591    21584727.300    89899626.701 7      3791.348    21584727.020    89899628.698 7      3791.348
R07  22603228.740   120996852.063 7      1949.141    22603228.840   120996852.088 7      1949.141    22603244.960    94108730.426 7      1515.998    22603244.860    94108729.429 7      1515.998
R22  23119008.100   123410826.213 7       567.477    23119009.560   123410826.201 7       567.477    23119024.160    95986261.937 7       441.371    23119024.400    95986263.931 7       441.371
R12  22068891.520   117888043.702 7     -1378.673    22068891.980   117888043.698 7     -1378.673    22068906.260    91690752.668 7     -1072.301    22068906.000    91690752.677 7     -1072.301
G16  22749458.000   119549193.554 7      -507.789    22749456.260   119549193.564 5      -507.789    22749463.140    93155232.115 5      -395.680
G32  25092680.780   131862928.995 6      3908.798    25092679.260   131862929.003 5      3908.798    25092695.860   102750300.496 5      3045.817    25092696.680   102750400.496 6      3045.817
R24  21720776.960   116150749.951 7      4004.786    21720776.020   116150749.960 7      4004.786    21720789.280    90339525.364 7      3114.834    21720789.160    90339525.360 7      3114.834
R14  21772947.280   116062053.232 8      5177.054    21772946.660   116062053.233 7      5177.054    21772957.460    90270533.461 7      4026.598    21772958.080    90270539.466 7      4026.598
> 2024 06 03 12 01 25.0000000  0 17
G10  23302813.560   122457103.606 7       159.609    23302812.500   122457103.614 7       159.609    23302822.460    95421149.520 7       124.370    23302822.600    95421159.522 7       124.370
G02  21364271.000   112269994.495 7      3146.702    21364268.680   112269994.505 6      3146.702    21364271.800    87483116.815 6      2451.976
G03  23384147.620   122884522.499 7      6520.049    23384146.700   122884522.499 4      6520.049    23384157.640    95754220.993 5      5080.558    23384158.560    95754227.017 7      5080.558
R01  23317028.920   124642879.151 6      6711.147    23317026.540   124642879.150 6      6711.147    23317048.440    96944547.873 6      5219.781    23317047.800    96944544.871 6      5219.781
G08  20555619.020   108020499.233 8      2933.172    20555617.700   108020499.232 8      2933.172    20555624.380    84171841.831 8      2285.589    20555625.380    84171843.836 8      2285.589
G21  20611936.500   108316452.712 7      2150.234    20611934.640   108316452.714 6      2150.234    20611938.420    84402443.161 6      1675.507
G27  21737222.960   114229851.055 8      1263.006    21737221.700   114229851.060 7      1263.006    21737229.180    89010302.179 7       984.160    21737229.900    89010303.182 8       984.160
R23  20727499.160   110878134.637 7      1831.380    20727498.400   110878134.643 7      1831.380
R13  20025966.160   106937528.780 6       847.410    20025964.740   106937528.800 6       847.410    20025974.040    83173672.762 7       659.097    20025974.100    83173671.758 6       659.097
R08  21583802.720   115580282.330 7      4873.832    21583804.420   115580282.374 7      4873.832    21583816.940    89895835.692 7      3790.758    21583816.820    89895837.691 7      3790.758
R07  22602864.860   120994903.256 7      1948.364    22602864.880   120994903.281 7      1948.364    22602880.980    94107214.690 7      1515.394    22602881.300    94107213.689 7      1515.394
R22  23118901.360   123410258.622 7       567.776    23118903.400   123410258.617 7       567.776    23118917.700    95985820.481 7       441.603    23118918.160    95985822.483 7       441.603
R12  22069149.840   117889422.720 7     -1379.100    22069150.120   117889422.713 7     -1379.100    22069164.380    91691825.227 7     -1072.634    22069164.240    91691825.230 7     -1072.634
G16  22749554.680   119549701.603 7      -508.227    22749553.040   119549701.613 5      -508.227    22749559.780    93155627.991 5      -396.021
G32  25091936.820   131859020.518 6      3908.506    25091935.540   131859020.528 5      3908.506    25091952.180   102747254.933 5      3045.589    25091953.220   102747354.933 6      3045.589
R24  21720027.780   116146745.299 7      4004.598    21720026.820   116146745.300 7      4004.598    21720040.260    90336410.641 7      3114.687    21720040.060    90336410.638 7      3114.687
R14  21771976.140   116056876.598 8      5176.359    21771975.660   116056876.585 7      5176.359    21771986.160    90266507.185 7      4026.057    21771986.500    90266513.194 7      4026.057
> 2024 06 03 12 01 26.0000000  0 17
G10  23302783.240   122456944.200 7       159.148    23302781.940   122456944.200 7       159.148    23302792.280    95421025.299 7       124.011    23302792.520    95421035.301 7       124.011
G02  21363672.360   112266847.898 7      3146.158    21363669.980   112266847.908 6      3146.158    21363673.000    87480664.924 6      2451.552
G03  23382906.460   122878002.545 7      6519.660    23382906.140   122878002.545 4      6519.660    23382916.840    95749140.518 4      5080.254    23382917.740    95749146.533 7      5080.254
R01  23315774.020   124636167.854 6      6710.975    23315771.900   124636167.855 6      6710.975    23315792.520    96939327.983 6      5219.647    23315791.560    96939324.977 6      5219.647
G08  20555060.900   108017566.263 8      2932.613    20555059.560   108017566.266 8      2932.613    20555066.280    84169556.405 8      2285.153    20555067.260    84169558.412 8      2285.153
G21  20611527.340   108314302.695 7      2149.600    20611525.540   108314302.700 6      2149.600    20611529.280    84400767.828 6      1675.013
G27  21736982.280   114228588.241 7      1262.554    21736981.400   114228588.243 7      1262.554    21736988.980    89009318.166 7       983.809    21736989.340    89009319.167 8       983.809
R23  20727156.680   110876303.311 7      1831.075    20727155.800   110876303.328 7      1831.075
R13  20025806.920   106936681.755 6       846.512    20025805.700   106936681.783 6       846.512    20025815.540    83173013.971 7       658.398    20025815.780    83173012.971 6       658.398
R08  21582892.300   115575408.858 7      4873.018    21582894.460   115575408.897 7      4873.018    21582907.100    89892045.218 7      3790.125    21582906.320    89892047.219 7      3790.125
R07  22602501.220   120992955.327 7      1947.237    22602500.640   120992955.355 7      1947.237    22602517.120    94105699.630 7      1514.518    22602517.000    94105698.628 7      1514.518
R22  23118795.500   123409691.033 7       567.392    23118797.040   123409691.034 7       567.392    23118811.240    95985379.032 7       441.305    23118811.540    95985381.025 7       441.305
R12  22069408.160   117890801.917 7     -1379.445    22069408.040   117890801.910 7     -1379.445    22069422.500    91692897.923 7     -1072.902    22069422.200    91692897.923 7     -1072.902
G16  22749651.100   119550209.920 7      -508.505    22749649.760   119550209.928 5      -508.505    22749656.440    93156024.076 5      -396.237
G32  25091193.060   131855112.453 6      3907.608    25091191.960   131855112.469 5      3907.608    25091208.620   102744209.696 5      3044.890    25091209.720   102744309.700 6      3044.890
R24  21719278.920   116142740.800 7      4004.152    21719278.120   116142740.807 7      4004.152    21719291.280    90333296.035 7      3114.340    21719291.360    90333296.038 7      3114.340
R14  21771005.480   116051700.632 8      5175.291    21771004.720   116051700.630 8      5175.291    21771015.100    90262481.442 7      4025.226    21771015.700    90262487.445 7      4025.226
> 2024 06 03 12 01 27.0000000  0 17
G10  23302752.980   122456785.233 7       158.775    23302751.660   122456785.230 7       158.775    23302761.920    95420901.424 7       123.721    23302762.660    95420911.428 7       123.721
G02  21363073.540   112263701.708 8      3146.125    21363071.360   112263701.710 6      3146.125    21363074.240    87478213.347 6      2451.526
G03  23381666.020   122871482.812 7      6519.742    23381665.540   122871482.809 4      6519.742    23381676.120    95744060.210 4      5080.318    23381676.960    95744066.217 7      5080.318
R01  23314518.520   124629456.527 6      6711.218    23314516.680   124629456.515 6      6711.218    23314536.960    96934108.049 6      5219.836    23314535.920    96934105.048 6      5219.836
G08  20554502.720   108014633.604 8      2932.577    20554501.540   108014633.604 8      2932.577    20554508.200    84167271.214 8      2285.125    20554508.960    84167273.221 8      2285.125
G21  20611118.260   108312153.060 8      2149.456    20611116.500   108312153.070 6      2149.456    20611120.180    84399092.790 6      1674.901
G27  21736742.020   114227325.698 7      1262.435    21736741.020   114227325.695 7      1262.435    21736748.740    89008334.360 7       983.716    21736749.200    89008335.361 8       983.716
R23  20726814.000   110874472.151 7      1831.060    20726813.720   110874472.174 7      1831.060
R13  20025648.340   106935835.673 6       845.810    20025647.960   106935835.698 6       845.810    20025657.240    83172355.903 7       657.852    20025657.140    83172354.899 6       657.852
R08  21581982.600   115570535.978 7      4872.625    21581984.260   115570536.020 7      4872.625    21581997.200    89888255.208 7      3789.819    21581996.540    89888257.207 7      3789.819
R07  22602137.700   120991008.190 7      1946.693    22602136.900   120991008.226 7      1946.693    22602153.080    94104185.205 7      1514.095    22602153.500    94104184.201 7      1514.095
R22  23118689.040   123409123.359 7       567.625    23118690.660   123409123.363 7       567.625    23118705.000    95984937.503 7       441.486    23118705.160    95984939.499 7       441.486
R12  22069666.740   117892181.407 7     -1379.479    22069666.340   117892181.395 7     -1379.479    22069680.340    91693970.851 7     -1072.928    22069680.820    91693970.852 7     -1072.928
G16  22749747.780   119550718.552 7      -508.662    22749746.720   119550718.562 5      -508.662    22749753.280    93156420.409 5      -396.360
G32  25090449.340   131851204.625 6      3907.681    25090448.360   131851204.633 5      3907.681    25090465.020   102741164.635 5      3044.946    25090466.220   102741264.637 6      3044.946
R24  21718530.220   116138736.625 7      4004.211    21718529.140   116138736.626 7      4004.211    21718542.380    90330181.677 7      3114.386    21718542.800    90330181.677 7      3114.386
R14  21770034.540   116046525.556 8      5174.723    21770033.780   116046525.560 8      5174.723    21770044.220    90258456.394 7      4024.784    21770044.900    90258462.399 7      4024.784
> 2024 06 03 12 01 28.0000000  0 17
G10  23302722.840   122456626.809 7       157.838    23302721.540   122456626.806 7       157.838    23302731.820    95420777.975 7       122.990    23302732.480    95420787.979 7       122.990
G02  21362474.880   112260555.939 7      3145.215    21362472.660   112260555.941 6      3145.215    21362475.640    87475762.098 6      2450.817
G03  23380425.440   122864963.352 7      6518.969    23380424.940   122864963.346 4      6518.969    23380435.600    95738980.113 4      5079.716    23380436.340    95738986.121 7      5079.716
R01  23313262.920   124622745.261 6      6710.831    23313261.100   124622745.252 6      6710.831    23313281.980    96928888.183 6      5219.535    23313280.000    96928885.167 6      5219.535
G08  20553944.660   108011701.373 8      2931.784    20553943.480   108011701.375 8      2931.784    20553950.160    84164986.361 8      2284.507    20553951.060    84164988.365 8      2284.507
G21  20610709.280   108310003.819 8      2148.828    20610707.580   108310003.829 6      2148.828    20610711.260    84397418.056 6      1674.412
G27  21736501.800   114226063.567 7      1261.673    21736500.840   114226063.572 7      1261.673    21736508.520    89007350.887 7       983.122    21736508.720    89007351.889 8       983.122
R23  20726471.900   110872641.192 7      1830.489    20726471.180   110872641.207 7      1830.489
R13  20025490.460   106934990.475 6       844.700    20025489.880   106934990.495 6       844.700    20025498.960    83171698.521 7       656.989    20025498.880    83171697.520 6       656.989
R08  21581072.700   115565663.882 7      4871.436    21581074.260   115565663.916 7      4871.436    21581087.080    89884465.800 7      3788.894    21581086.660    89884467.802 7      3788.894
R07  22601773.880   120989062.033 7      1945.451    22601773.460   120989062.064 7      1945.451    22601789.480    94102671.521 7      1513.129    22601789.620    94102670.515 7      1513.129
R22  23118582.700   123408555.768 7       567.285    23118584.320   123408555.766 7       567.285    23118598.900    95984496.035 7       441.221    23118598.840    95984498.037 7       441.221
R12  22069924.900   117893561.245 7     -1380.277    22069924.820   117893561.219 7     -1380.277    22069938.660    91695044.046 7     -1073.549    22069938.940    91695044.043 7     -1073.549
G16  22749844.500   119551227.613 7      -509.524    22749843.320   119551227.620 5      -509.524    22749850.220    93156817.072 5      -397.032
G32  25089705.780   131847297.288 6      3906.930    25089704.800   131847297.290 5      3906.930    25089721.520   102738119.961 5      3044.361    25089722.460   102738219.953 6      3044.361
R24  21717781.500   116134732.677 7      4003.526    21717780.260   116134732.681 7      4003.526    21717794.040    90327067.499 7      3113.853    21717794.180    90327067.503 7      3113.853
R14  21769063.760   116041351.371 8      5173.472    21769063.220   116041351.374 7      5173.472    21769073.500    90254432.026 7      4023.811    21769074.160    90254438.030 7      4023.811
> 2024 06 03 12 01 29.0000000  0 17
G10  23302692.400   122456468.956 7       157.581    23302691.500   122456468.953 7       157.581    23302701.760    95420654.971 7       122.790    23302702.140    95420664.977 7       122.790
G02  21361876.160   112257410.527 7      3145.334    21361874.180   112257410.534 6      3145.334    21361877.080    87473311.132 6      2450.910
G03  23379184.680   122858444.144 7      6519.140    23379184.360   122858444.141 4      6519.140    23379194.840    95733900.217 4      5079.850    23379195.580    95733906.227 7      5079.850
R01  23312007.240   124616034.076 6      6711.375    23312004.860   124616034.069 6      6711.375    23312026.580    96923668.386 6      5219.959    23312025.160    96923665.377 6      5219.959
G08  20553386.760   108008769.565 8      2931.669    20553385.560   108008769.565 8      2931.669    20553392.360    84162701.837 8      2284.417    20553393.220    84162703.840 8      2284.417
G21  20610300.240   108307855.016 7      2148.698    20610298.640   108307855.021 6      2148.698    20610302.400    84395743.667 6      1674.310
G27  21736261.980   114224801.894 7      1261.532    21736260.740   114224801.891 7      1261.532    21736268.440    89006367.761 7       983.012    21736268.620    89006368.764 8       983.012
R23  20726129.900   110870810.428 7      1830.730    20726128.680   110870810.432 7      1830.730
R13  20025332.540   106934146.222 6       843.972    20025331.840   106934146.247 6       843.972    20025340.760    83171041.890 7       656.422    20025340.780    83171040.883 6       656.422
R08  21580162.780   115560792.558 7      4871.007    21580164.560   115560792.597 7      4871.007    21580177.540    89880677.003 7      3788.561    21580176.880    89880679.000 7      3788.561
R07  22601410.140   120987116.837 7      1944.736    22601410.000   120987116.865 7      1944.736    22601426.220    94101158.594 7      1512.573    22601426.120    94101157.593 7      1512.573
R22  23118475.960   123407988.286 7       567.500    23118478.180   123407988.294 7       567.500    23118492.460    95984054.656 7       441.389    23118492.400    95984056.656 7       441.389
R12  22070183.680   117894941.405 7     -1380.217    22070183.360   117894941.393 7     -1380.217    22070197.480    91696117.498 7     -1073.502    22070197.340    91696117.497 7     -1073.502
G16  22749941.660   119551737.096 7      -509.603    22749940.420   119551737.104 5      -509.603    22749947.200    93157214.064 5      -397.093
G32  25088962.840   131843390.448 6      3906.769    25088961.360   131843390.450 5      3906.769    25088978.100   102735075.678 5      3044.236    25088978.520   102735175.684 6      3044.236
R24  21717032.540   116130728.956 7      4003.651    21717031.840   116130728.960 7      4003.651    21717045.260    90323953.502 7      3113.951    21717045.600    90323953.509 7      3113.951
R14  21768093.320   116036178.033 8      5172.957    21768092.840   116036178.037 7      5172.957    21768102.820    90250408.321 7      4023.411    21768103.760    90250414.325 7      4023.411
> 2024 06 03 12 01 30.0000000  0 17
G10  23302662.580   122456311.349 7       157.501    23302661.440   122456311.352 7       157.501    23302671.780    95420532.163 7       122.728    23302672.440    95420542.173 7       122.728
G02  21361277.420   112254265.294 8      3145.176    21361275.620   112254265.304 6      3145.176    21361278.660    87470860.305 6      2450.786
G03  23377944.400   122851924.923 7      6519.200    23377943.720   122851924.920 4      6519.200    23377954.240    95728820.309 4      5079.896    23377955.200    95728826.322 7      5079.896
R01  23310751.500   124609322.696 6      6711.368    23310748.540   124609322.708 6      6711.368    23310771.640    96918448.455 6      5219.953    23310769.580    96918445.462 6      5219.953
G08  20552828.900   108005837.889 8      2931.599    20552827.740   108005837.886 8      2931.599    20552834.500    84160417.412 8      2284.363    20552835.040    84160419.416 8      2284.363
G21  20609891.260   108305706.372 7      2148.487    20609889.760   108305706.371 6      2148.487    20609893.500    84394069.394 6      1674.146
G27  21736021.880   114223540.325 7      1261.428    21736020.700   114223540.327 7      1261.428    21736028.400    89005384.724 7       982.931    21736028.640    89005385.728 8       982.931
R23  20725787.600   110868979.616 7      1830.844    20725786.620   110868979.620 7      1830.844
R13  20025173.360   106933302.607 6       843.396    20025173.260   106933302.640 6       843.396    20025182.600    83170385.740 7       655.974    20025182.660    83170384.738 6       655.974
R08  21579253.400   115555921.712 7      4870.613    21579254.880   115555921.749 7      4870.613    21579267.780    89876888.574 7      3788.254    21579267.400    89876890.573 7      3788.254
R07  22601046.880   120985172.269 7      1944.248    22601047.160   120985172.298 7      1944.248    22601062.820    94099646.153 6      1512.193    22601062.880    94099645.154 6      1512.193
R22  23118369.680   123407420.606 7       567.791    23118372.080   123407420.602 7       567.791    23118386.060    95983613.121 7       441.616    23118386.260    95983615.115 7       441.616
R12  22070441.900   117896321.654 7     -1380.467    22070441.800   117896321.647 7     -1380.467    22070455.780    91697191.023 7     -1073.696    22070455.660    91697191.020 7     -1073.696
G16  22750038.580   119552246.685 7      -509.663    22750037.400   119552246.693 5      -509.663    22750044.180    93157611.142 5      -397.140
G32  25088219.040   131839483.760 6      3906.702    25088217.980   131839483.765 5      3906.702    25088234.720   102732031.508 5      3044.183    25088235.240   102732131.526 6      3044.183
R24  21716283.960   116126725.291 7      4003.564    21716282.860   116126725.292 7      4003.564    21716296.820    90320839.540 7      3113.883    21716296.760    90320839.547 7      3113.883
R14  21767122.800   116031005.279 8      5172.425    21767122.360   116031005.277 7      5172.425    21767132.680    90246385.067 7      4022.997    21767133.080    90246391.070 7      4022.997
> 2024 06 03 12 01 31.0000000  0 17
G10  23302632.680   122456154.140 7       157.347    23302631.560   122456154.139 7       157.347    23302641.800    95420409.653 7       122.608    23302642.800    95420419.661 7       122.608
G02  21360678.920   112251120.423 7      3144.767    21360677.100   112251120.430 6      3144.767    21360680.160    87468409.754 6      2450.468
G03  23376703.820   122845405.949 7      6518.991    23376703.080   122845405.946 4      6518.991    23376713.620    95723740.597 4      5079.733    23376714.560    95723746.606 7      5079.733
R01  23309495.800   124602611.302 6      6711.402    23309492.760   124602611.316 6      6711.402    23309515.500    96913228.497 6      5219.980    23309514.220    96913225.495 6      5219.980
G08  20552271.180   108002906.496 8      2931.387    20552269.940   108002906.501 8      2931.387    20552276.620    84158133.218 8      2284.198    20552277.180    84158135.218 8      2284.198
G21  20609482.540   108303558.048 8      2148.207    20609480.900   108303558.047 6      2148.207    20609484.680    84392395.379 6      1673.928
G27  21735781.880   114222279.006 7      1261.368    21735780.700   114222279.008 7      1261.368    21735788.400    89004401.877 7       982.884    21735788.740    89004402.880 8       982.884
R23  20725445.480   110867148.914 7      1830.743    20725444.180   110867148.923 7      1830.743
R13  20025016.040   106932459.891 6       842.366    20025015.320   106932459.919 6       842.366    20025024.840    83169730.289 7       655.174    20025024.920    83169729.285 6       655.174
R08  21578343.300   115551051.486 7      4870.089    21578344.900   115551051.533 7      4870.089    21578358.240    89873100.632 7      3787.847    21578357.860    89873102.631 7      3787.847
R07  22600683.700   120983228.521 7      1943.453    22600683.720   120983228.542 7      1943.453    22600699.560    94098134.341 7      1511.574    22600699.560    94098133.346 7      1511.574
R22  23118263.420   123406852.852 7       567.847    23118265.620   123406852.847 7       567.847    23118279.740    95983171.528 7       441.659    23118279.920    95983173.522 7       441.659
R12  22070700.160   117897702.141 7     -1380.438    22070700.220   117897702.134 7     -1380.438    22070714.180    91698264.725 7     -1073.674    22070714.020    91698264.725 7     -1073.674
G16  22750135.660   119552756.605 7      -509.957    22750134.380   119552756.618 5      -509.957    22750141.340    93158008.482 5      -397.369
G32  25087475.800   131835577.390 6      3906.396    25087474.880   131835577.397 5      3906.396    25087491.420   102728987.589 5      3043.945    25087491.860   102729087.599 6      3043.945
R24  21715535.300   116122721.875 7      4003.394    21715534.600   116122721.881 7      4003.394    21715548.360    90317725.776 7      3113.751    21715547.920    90317725.781 7      3113.751
R14  21766152.580   116025833.255 8      5171.822    21766151.920   116025833.261 7      5171.822    21766162.180    90242362.384 7      4022.528    21766162.720    90242368.391 7      4022.528
> 2024 06 03 12 01 32.0000000  0 17
G10  23302602.920   122455997.340 7       156.466    23302601.740   122455997.342 7       156.466    23302612.140    95420287.476 7       121.921    23302612.720    95420297.482 7       121.921
G02  21360080.600   112247975.799 7      3144.411    21360078.700   112247975.807 6      3144.411    21360081.760    87465959.398 6      2450.191
G03  23375463.300   122838887.091 6      6518.719    23375462.700   122838887.088 4      6518.719    23375473.160    95718660.973 4      5079.521    23375474.040    95718666.962 7      5079.521
R01  23308241.000   124595899.815 6      6711.321    23308237.840   124595899.818 6      6711.321    23308260.180    96908008.451 6      5219.916    23308258.780    96908005.452 6      5219.916
G08  20551713.300   107999975.379 8      2930.889    20551712.180   107999975.379 8      2930.889    20551718.820    84155849.224 8      2283.809    20551719.680    84155851.225 8      2283.809
G21  20609073.900   108301409.983 8      2147.832    20609072.080   108301409.988 6      2147.832    20609075.900    84390721.565 6      1673.636
G27  21735541.920   114221017.945 7      1260.841    21735540.740   114221017.944 7      1260.841    21735548.440    89003419.229 7       982.474    21735549.060    89003420.231 8       982.474
R23  20725103.140   110865318.278 7      1830.392    20725101.640   110865318.290 7      1830.392
R13  20024858.220   106931617.908 6       841.462    20024858.060   106931617.930 6       841.462    20024867.460    83169075.413 7       654.471    20024867.260    83169074.411 6       654.471
R08  21577434.260   115546181.880 7      4869.146    21577435.640   115546181.917 7      4869.146    21577448.820    89869313.157 7      3787.113    21577448.820    89869315.160 7      3787.113
R07  22600321.420   120981285.557 7      1942.459    22600320.900   120981285.583 7      1942.459    22600336.880    94096623.146 6      1510.801    22600336.720    94096622.154 6      1510.801
R22  23118157.120   123406284.921 7       567.877    23118159.060   123406284.944 7       567.877    23118173.580    95982729.819 7       441.682    23118173.840    95982731.815 7       441.682
R12  22070958.780   117899082.849 7     -1380.888    22070957.960   117899082.845 7     -1380.888    22070972.460    91699338.601 7     -1074.024    22070972.720    91699338.601 7     -1074.024
G16  22750232.800   119553266.769 7      -510.480    22750231.380   119553266.779 5      -510.480    22750238.380    93158406.004 5      -397.776
G32  25086732.540   131831671.301 6      3905.961    25086731.620   131831671.311 5      3905.961    25086748.080   102725943.890 5      3043.606    25086748.480   102726043.896 6      3043.606
R24  21714786.560   116118718.614 7      4003.085    21714785.900   116118718.623 7      4003.085    21714799.800    90314612.131 7      3113.511    21714799.640    90314612.136 7      3113.511
R14  21765182.500   116020661.949 8      5170.891    21765181.680   116020661.949 7      5170.891    21765192.300    90238340.261 7      4021.804    21765192.560    90238346.263 7      4021.804
> 2024 06 03 12 01 33.0000000  0 17
G10  23302573.300   122455840.974 7       155.944    23302572.040   122455840.979 7       155.944    23302582.320    95420165.630 7       121.514    23302583.220    95420175.634 7       121.514
G02  21359482.440   112244831.483 7      3143.997    21359480.520   112244831.490 6      3143.997    21359483.580    87463509.284 6      2449.868
G03  23374223.020   122832368.417 6      6518.534    23374222.140   122832368.413 4      6518.534    23374232.760    95713581.491 4      5079.377    23374233.580    95713587.492 7      5079.377
R01  23306985.200   124589188.338 6      6711.295    23306983.260   124589188.320 6      6711.295    23307003.900    96902788.403 6      5219.896    23307003.360    96902785.402 6      5219.896
G08  20551155.780   107997044.564 8      2930.521    20551154.460   107997044.564 8      2930.521    20551161.160    84153565.477 8      2283.523    20551162.120    84153567.483 8      2283.523
G21  20608665.020   108299262.235 8      2147.515    20608663.400   108299262.242 6      2147.515    20608667.180    84389047.997 6      1673.388
G27  21735302.080   114219757.201 8      1260.461    21735300.800   114219757.204 7      1260.461    21735308.480    89002436.834 7       982.177    21735309.240    89002437.835 8       982.177
R23  20724760.680   110863487.741 7      1830.326    20724759.600   110863487.751 7      1830.326
R13  20024701.020   106930776.701 6       840.706    20024700.780   106930776.734 6       840.706    20024709.520    83168421.143 7       653.882    20024709.780    83168420.141 6       653.882
R08  21576525.060   115541312.960 7      4868.440    21576526.360   115541312.988 7      4868.440    21576539.480    89865526.223 7      3786.564    21576539.680    89865528.222 7      3786.564
R07  22599958.960   120979343.506 7      1941.483    22599958.500   120979343.521 7      1941.483    22599973.900    94095112.656 7      1510.042    22599973.960    94095111.655 6      1510.042
R22  23118050.360   123405717.055 7       567.766    23118052.580   123405717.059 7       567.766    23118067.040    95982288.131 7       441.596    23118067.240    95982290.129 7       441.596
R12  22071216.700   117900463.795 7     -1381.138    22071216.420   117900463.786 7     -1381.138    22071231.240    91700412.661 7     -1074.218    22071231.240    91700412.662 7     -1074.218
G16  22750329.920   119553777.269 7      -510.817    22750328.740   119553777.277 5      -510.817    22750335.480    93158803.792 5      -398.039
G32  25085989.080   131827765.601 6      3905.614    25085988.380   131827765.608 5      3905.614    25086004.740   102722900.493 5      3043.335    25086005.460   102723000.499 6      3043.335
R24  21714038.440   116114715.462 7      4002.921    21714037.360   116114715.469 7      4002.921    21714051.180    90311498.571 7      3113.383    21714050.900    90311498.573 7      3113.383
R14  21764212.680   116015491.343 7      5170.078    21764211.520   116015491.346 7      5170.078    21764222.440    90234318.683 7      4021.172    21764222.840    90234324.687 7      4021.172
> 2024 06 03 12 01 34.0000000  0 17
G10  23302543.740   122455684.991 7       155.722    23302542.360   122455684.993 7       155.722    23302552.720    95420044.081 7       121.342    23302553.140    95420054.081 7       121.342
G02  21358884.060   112241687.487 7      3143.718    21358882.240   112241687.500 6      3143.718    21358885.160    87461059.419 6      2449.650
G03  23372982.820   122825849.905 7      6518.253    23372981.640   122825849.907 4      6518.253    23372992.340    95708502.137 4      5079.158    23372993.920    95708508.130 7      5079.158
R01  23305729.660   124582476.714 6      6711.574    23305728.020   124582476.713 6      6711.574    23305747.960    96897568.260 6      5220.113    23305747.840    96897565.258 6      5220.113
G08  20550597.940   107994114.031 8      2930.302    20550596.800   107994114.033 8      2930.302    20550603.540    84151281.946 8      2283.352    20550604.340    84151283.951 8      2283.352
G21  20608256.560   108297114.833 8      2147.160    20608254.720   108297114.840 6      2147.160    20608258.600    84387374.699 6      1673.111
G27  21735062.080   114218496.710 7      1260.336    21735060.940   114218496.710 7      1260.336    21735068.620    89001454.627 7       982.080    21735069.240    89001455.628 8       982.080
R23  20724418.220   110861657.320 7      1830.247    20724417.420   110861657.329 7      1830.247
R13  20024543.420   106929936.290 6       839.923    20024542.920   106929936.326 6       839.923    20024552.080    83167767.490 7       653.274    20024552.360    83167766.492 6       653.274
R08  21575616.160   115536444.610 7      4867.919    21575616.840   115536444.641 7      4867.919    21575630.440    89861739.735 7      3786.159    21575630.060    89861741.736 7      3786.159
R07  22599595.720   120977402.241 7      1940.733    22599595.660   120977402.264 7      1940.733    22599611.120    94093602.792 6      1509.459    22599611.320    94093601.795 7      1509.459
R22  23117943.940   123405149.071 7       567.854    23117946.320   123405149.075 7       567.854    23117960.600    95981846.364 7       441.664    23117960.520    95981848.364 7       441.664
R12  22071475.340   117901844.955 7     -1381.389    22071475.140   117901844.956 7     -1381.389    22071489.620    91701486.886 7     -1074.414    22071490.000    91701486.891 7     -1074.414
G16  22750427.140   119554287.998 7      -510.881    22750425.900   119554288.006 5      -510.881    22750432.600    93159201.759 5      -398.089
G32  25085245.760   131823860.179 6      3905.306    25085245.220   131823860.187 5      3905.306    25085261.560   102719857.314 5      3043.095    25085262.980   102719957.322 6      3043.095
R24  21713289.680   116110712.493 7      4002.782    21713288.720   116110712.491 7      4002.782    21713302.580    90308385.144 7      3113.275    21713302.300    90308385.142 7      3113.275
R14  21763242.460   116010321.534 7      5169.323    21763241.160   116010321.540 7      5169.323    21763252.480    90230297.728 7      4020.585    21763252.680    90230303.733 7      4020.585
> 2024 06 03 12 01 35.0000000  0 17
G10  23302513.920   122455529.594 7       154.857    23302512.840   122455529.597 7       154.857    23302523.140    95419922.991 7       120.668    23302523.620    95419932.992 7       120.668
G02  21358285.840   112238543.927 7      3143.244    21358284.080   112238543.935 6      3143.244    21358287.000    87458609.890 6      2449.281
G03  23371742.080   122819331.667 7      6517.957    23371741.160   122819331.664 4      6517.957    23371751.980    95703422.993 4      5078.928    23371753.400    95703429.004 7      5078.928
R01  23304474.720   124575765.216 6      6711.409    23304473.000   124575765.223 6      6711.409    23304492.700    96892348.214 6      5219.985    23304492.000    96892345.215 6      5219.985
G08  20550040.360   107991183.925 8      2929.793    20550039.300   107991183.928 8      2929.793    20550045.920    84148998.747 8      2282.955    20550046.960    84149000.752 8      2282.955
G21  20607848.080   108294967.854 8      2146.718    20607846.160   108294967.856 6      2146.718    20607850.040    84385701.726 6      1672.768
G27  21734822.160   114217236.637 7      1259.762    21734821.200   114217236.636 7      1259.762    21734828.740    89000472.751 7       981.633    21734829.380    89000473.755 8       981.633
R23  20724076.420   110859827.110 7      1829.936    20724075.460   110859827.119 7      1829.936
R13  20024386.020   106929096.835 6       838.780    20024386.160   106929096.854 6       838.780    20024395.080    83167114.574 7       652.384    20024394.820    83167113.574 6       652.384
R08  21574706.920   115531577.012 7      4867.144    21574707.780   115531577.049 7      4867.144    21574721.240    89857953.836 7      3785.556    21574721.020    89857955.838 7      3785.556
R07  22599233.760   120975461.943 7      1939.758    22599233.280   120975461.956 7      1939.758    22599248.720    94092093.661 6      1508.701    22599249.160    94092092.664 7      1508.701
R22  23117837.620   123404581.162 7       567.695    23117840.200   123404581.169 7       567.695    23117854.100    95981404.652 7       441.540    23117854.420    95981406.652 7       441.540
R12  22071734.220   117903226.500 7     -1381.848    22071734.700   117903226.501 7     -1381.848    22071748.620    91702561.410 7     -1074.771    22071749.000    91702561.417 7     -1074.771
G16  22750524.460   119554799.195 7      -511.504    22750523.200   119554799.200 5      -511.504    22750529.900    93159600.086 5      -398.574
G32  25084503.380   131819955.244 6      3904.567    25084502.100   131819955.252 5      3904.567    25084518.480   102716814.519 5      3042.519    25084518.940   102716914.532 6      3042.519
R24  21712540.880   116106709.860 7      4002.310    21712540.160   116106709.861 7      4002.310    21712553.780    90305271.993 7      3112.908    21712553.900    90305271.994 7      3112.908
R14  21762272.920   116005152.639 7      5168.285    21762271.580   116005152.645 7      5168.285    21762282.820    90226277.481 7      4019.777    21762283.180    90226283.486 7      4019.777
> 2024 06 03 12 01 36.0000000  0 17
G10  23302484.500   122455374.742 7       154.570    23302483.360   122455374.744 7       154.570    23302493.760    95419802.324 7       120.444    23302494.080    95419812.320 7       120.444
G02  21357687.780   112235400.836 7      3142.863    21357686.040   112235400.846 6      3142.863    21357688.800    87456160.731 6      2448.984
G03  23370502.000   122812813.775 7      6517.842    23370500.880   122812813.772 4      6517.842    23370511.960    95698344.122 4      5078.838    23370513.420    95698350.130 7      5078.838
R01  23303218.340   124569053.852 6      6711.216    23303217.620   124569053.872 6      6711.216    23303238.200    96887128.285 6      5219.835    23303236.600    96887125.277 6      5219.835
G08  20549482.940   107988254.267 8      2929.494    20549481.800   107988254.272 8      2929.494    20549488.480    84146715.900 8      2282.722    20549489.240    84146717.905 8      2282.722
G21  20607439.640   108292821.358 8      2146.301    20607437.680   108292821.363 6      2146.301    20607441.480    84384029.134 6      1672.442
G27  21734582.500   114215976.997 7      1259.478    21734581.500   114215976.999 7      1259.478    21734589.060    88999491.216 7       981.411    21734589.680    88999492.219 8       981.411
R23  20723734.640   110857997.175 7      1829.877    20723733.600   110857997.176 7      1829.877
R13  20024229.360   106928258.333 6       837.921    20024229.120   106928258.366 6       837.921    20024237.820    83166462.410 7       651.716    20024238.100    83166461.406 6       651.716
R08  21573798.440   115526710.240 7      4866.389    21573799.140   115526710.276 7      4866.389    21573812.680    89854168.573 7      3784.969    21573811.980    89854170.570 7      3784.969
