     3.05           OBSERVATION DATA    MIXED               RINEX VERSION / TYPE
TPS2RIN 1.0.28.3459 TPS-USER            20260427 162732 UTC PGM / RUN BY / DATE
Win64 build Jun 01, 2022 (c) Topcon Positioning Systems     COMMENT
SRC: 20240603_GUI22.tps                                     COMMENT
Observer            Agency                                  OBSERVER / AGENCY
O0M3X53SBGM         TPS HIPER_SR        4.8 HSR Jul,08,2022 REC # / TYPE / VERS
FW: 4.8 HSR Jul,08,2022 p3                                  COMMENT
SN: HiPer SR 1212-12575                                     COMMENT
000                 TPSHIPER_SR     NONE                    ANT # / TYPE
        1.8000        0.0000        0.0000                  ANTENNA: DELTA H/E/N
GUI22                                                       MARKER NAME
  5390781.0560 -1595761.5614  3006775.7572                  APPROX POSITION XYZ
  2024     6     3    12    58    4.0000000     GPS         TIME OF FIRST OBS
  2024     6     3    13    13   14.0000000     GPS         TIME OF LAST OBS
     1.000                                                  INTERVAL
   911 EPOCHS                                               COMMENT
G   12 C1C L1C D1C C1W L1W D1W C2W L2W D2W C2X L2X D2X      SYS / # / OBS TYPES
R   12 C1C L1C D1C C1P L1P D1P C2P L2P D2P C2C L2C D2C      SYS / # / OBS TYPES
    14                                                      # OF SATELLITES
   G02   911   911   911   911   911   911   911   911   911PRN / # OF OBS
           0     0     0                                    PRN / # OF OBS
   G03   911   911   911   911   911   911   911   911   911PRN / # OF OBS
         911   911   911                                    PRN / # OF OBS
   G08   911   911   911   911   911   911   911   911   911PRN / # OF OBS
         911   911   911                                    PRN / # OF OBS
   G14   911   911   911   911   911   911   911   911   911PRN / # OF OBS
         911   911   911                                    PRN / # OF OBS
   G16   752   752   752   752   752   752   752   752   752PRN / # OF OBS
           0     0     0                                    PRN / # OF OBS
   G21   911   911   911   911   911   911   911   911   911PRN / # OF OBS
           0     0     0                                    PRN / # OF OBS
   G27   911   911   911   911   911   911   911   911   911PRN / # OF OBS
         911   911   911                                    PRN / # OF OBS
   G32   911   911   911   911   911   911   911   911   911PRN / # OF OBS
         911   911   911                                    PRN / # OF OBS
   R01   911   911   911   911   911   911   911   911   911PRN / # OF OBS
         911   911   911                                    PRN / # OF OBS
   R02   623   623   623   623   623   623   623   623   623PRN / # OF OBS
         623   623   623                                    PRN / # OF OBS
   R08   911   911   911   911   911   911   911   911   911PRN / # OF OBS
         911   911   911                                    PRN / # OF OBS
   R14   911   911   911   911   911   911   911   911   911PRN / # OF OBS
         911   911   911                                    PRN / # OF OBS
   R23   911   911   911   911   911   911     0     0     0PRN / # OF OBS
           0     0     0                                    PRN / # OF OBS
   R24   911   911   911   911   911   911   911   911   911PRN / # OF OBS
         911   911   911                                    PRN / # OF OBS
G L1C                                                       SYS / PHASE SHIFT
G L1W -0.25000                                              SYS / PHASE SHIFT
G L2W  0.00000                                              SYS / PHASE SHIFT
G L2X  0.25000                                              SYS / PHASE SHIFT
R L1C                                                       SYS / PHASE SHIFT
R L1P -0.25000                                              SYS / PHASE SHIFT
R L2P -0.25000                                              SYS / PHASE SHIFT
R L2C                                                       SYS / PHASE SHIFT
  6 R01  1 R02 -4 R08  6 R14 -7 R23  3 R24  2               GLONASS SLOT / FRQ #
                                                            GLONASS COD/PHS/BIS
               *** Undefined LeapSeconds ***                COMMENT
                                                            END OF HEADER
> 2024 06 03 12 58  4.0000000  0 13
R23  21423493.740   114601238.397 7      1668.590    21423493.040   114601238.407 7      1668.590
R14  21151589.760   112749874.425 8      2362.933    21151586.900   112749874.425 7      2362.933    21151597.400    87694378.204 8      1837.837    21151598.100    87694380.208 8      1837.837
G16  25076224.180   131776441.976 6      -944.660    25076223.200   131776441.987 3      -944.660    25076238.540   102682977.916 3      -736.099
R24  21102961.620   112847018.397 7      3677.028    21102960.540   112847018.406 7      3677.028    21102972.740    87769948.983 8      2859.911    21102972.560    87769948.981 8      2859.911
G21  21265005.040   111748349.174 7      1523.190    21265003.240   111748349.182 6      1523.190    21265007.840    87076649.290 6      1186.901
G32  24801386.580   130332164.860 6      2448.919    24801386.220   130332164.870 6      2448.919    24801400.060   101557587.593 6      1908.248    24801400.140   101557591.602 7      1908.248
R01  20978055.820   112139731.481 7      5997.287    20978055.620   112139731.493 7      5997.287    20978069.880    87219848.486 7      4664.556    20978068.720    87219842.479 7      4664.556
R08  21097589.380   112976635.677 7      2190.576    21097590.940   112976635.716 7      2190.576    21097602.120    87870765.251 7      1703.782    21097601.600    87870764.250 7      1703.782
G14  23196783.120   121899920.993 7      5244.522    23196782.240   121899921.000 5      5244.522    23196790.860    94986977.576 5      4086.640    23196791.460    94986982.585 8      4086.640
G27  23024984.880   120997110.692 7       321.552    23024984.100   120997110.704 7       321.552    23024994.820    94283499.568 7       250.560    23024995.160    94283502.572 7       250.560
G08  20810296.360   109358842.606 8      1788.936    20810295.260   109358842.608 8      1788.936    20810302.440    85214731.223 8      1393.976    20810303.840    85214713.225 8      1393.976
G02  21388881.180   112399343.344 7      2447.889    21388879.580   112399343.349 6      2447.889    21388882.440    87583925.246 6      1907.446
G03  21258975.380   111716665.827 7      5441.085    21258974.720   111716665.832 6      5441.085    21258982.480    87051982.974 6      4239.807    21258982.960    87051982.980 8      4239.807
> 2024 06 03 12 58  5.0000000  0 13
R23  21423181.960   114599569.972 7      1668.080    21423181.240   114599569.984 7      1668.080
R14  21151146.440   112747511.919 7      2362.138    21151143.780   112747511.920 7      2362.138    21151154.380    87692540.704 8      1837.218    21151154.940    87692542.706 8      1837.218
G16  25076404.520   131777386.611 6      -944.575    25076402.940   131777386.621 3      -944.575    25076418.220   102683713.981 3      -736.032
R24  21102273.980   112843341.435 7      3676.906    21102273.020   112843341.444 7      3676.906    21102285.340    87767089.125 8      2859.816    21102285.180    87767089.124 8      2859.816
G21  21264715.100   111746826.044 7      1522.870    21264713.160   111746826.049 6      1522.870    21264717.980    87075462.424 6      1186.652
G32  24800920.780   130329716.311 6      2448.100    24800920.160   130329716.313 6      2448.100    24800933.300   101555679.628 6      1907.611    24800933.880   101555683.650 7      1907.611
R01  20976934.080   112133734.419 7      5996.733    20976933.640   112133734.437 7      5996.733    20976947.460    87215184.129 7      4664.126    20976946.880    87215178.120 7      4664.126
R08  21097180.700   112974445.667 7      2189.310    21097182.100   112974445.714 7      2189.310    21097192.600    87869061.920 7      1702.796    21097192.660    87869060.923 7      1702.796
G14  23195785.240   121894676.727 7      5244.144    23195784.320   121894676.732 5      5244.144    23195792.840    94982891.146 5      4086.346    23195793.500    94982896.154 8      4086.346
G27  23024923.920   120996789.309 7       321.071    23024923.060   120996789.320 7       321.071    23024933.420    94283249.147 7       250.185    23024934.380    94283252.163 7       250.185
G08  20809955.960   109357053.916 8      1788.396    20809954.920   109357053.918 8      1788.396    20809962.020    85213337.443 8      1393.555    20809963.500    85213319.446 8      1393.555
G02  21388415.400   112396895.561 7      2447.615    21388413.900   112396895.566 6      2447.615    21388416.740    87582017.888 6      1907.232
G03  21257939.920   111711224.960 7      5440.709    21257939.180   111711224.965 6      5440.709    21257947.140    87047743.345 6      4239.513    21257947.920    87047743.352 8      4239.513
> 2024 06 03 12 58  6.0000000  0 13
R23  21422869.920   114597901.812 7      1668.355    21422869.000   114597901.829 6      1668.355
R14  21150703.660   112745149.982 8      2361.261    21150700.940   112745149.971 7      2361.261    21150711.520    87690703.606 8      1836.536    21150712.160    87690705.614 8      1836.536
G16  25076584.720   131778331.167 6      -944.745    25076582.620   131778331.180 3      -944.745    25076597.840   102684449.994 3      -736.165
R24  21101586.060   112839664.422 7      3676.847    21101585.560   112839664.428 7      3676.847    21101597.300    87764229.218 8      2859.770    21101597.280    87764229.219 8      2859.770
G21  21264425.140   111745302.998 8      1522.946    21264423.460   111745303.003 6      1522.946    21264427.900    87074275.637 6      1186.711
G32  24800454.920   130327268.499 6      2447.688    24800454.360   130327268.501 6      2447.688    24800468.340   101553772.231 6      1907.290    24800468.620   101553776.227 7      1907.290
R01  20975812.400   112127737.910 7      5996.152    20975810.920   112127737.922 7      5996.152    20975825.720    87210520.180 7      4663.674    20975824.940    87210514.171 7      4663.674
R08  21096771.720   112972256.687 7      2188.658    21096773.400   112972256.732 7      2188.658    21096783.980    87867359.353 7      1702.289    21096783.760    87867358.350 7      1702.289
G14  23194787.300   121889432.759 7      5243.507    23194786.320   121889432.772 5      5243.507    23194794.940    94978804.945 5      4085.850    23194795.080    94978809.945 8      4085.850
G27  23024862.800   120996468.405 7       320.866    23024861.660   120996468.410 7       320.866    23024872.600    94282999.055 7       250.025    23024873.260    94283002.036 7       250.025
G08  20809615.720   109355265.737 8      1787.954    20809614.500   109355265.737 8      1787.954    20809621.680    85211944.057 8      1393.211    20809623.120    85211926.063 8      1393.211
G02  21387949.620   112394447.831 7      2447.533    21387948.120   112394447.836 6      2447.533    21387951.000    87580110.564 6      1907.168
G03  21256904.740   111705784.414 7      5439.990    21256903.880   111705784.414 6      5439.990    21256912.040    87043503.953 6      4238.953    21256912.780    87043503.945 8      4238.953
> 2024 06 03 12 58  7.0000000  0 13
R23  21422558.400   114596233.630 7      1669.052    21422557.520   114596233.634 6      1669.052
R14  21150260.980   112742789.555 8      2360.314    21150258.320   112742789.550 7      2360.314    21150268.820    87688867.734 8      1835.800    21150269.300    87688869.735 8      1835.800
G16  25076764.700   131779275.799 6      -944.815    25076762.480   131779275.809 3      -944.815    25076777.560   102685186.061 3      -736.220
R24  21100898.700   112835987.924 8      3677.110    21100898.020   112835987.934 7      3677.110    21100909.680    87761369.731 8      2859.975    21100909.780    87761369.729 8      2859.975
G21  21264135.380   111743780.294 8      1523.290    21264133.880   111743780.299 6      1523.290    21264137.960    87073089.108 6      1186.980
G32  24799988.920   130324821.001 6      2447.908    24799988.180   130324820.998 6      2447.908    24800002.620   101551865.085 6      1907.461    24800003.020   101551869.071 7      1907.461
R01  20974690.240   112121741.832 7      5995.997    20974688.940   112121741.841 7      5995.997    20974704.480    87205856.561 7      4663.553    20974703.280    87205850.554 7      4663.553
R08  21096362.760   112970068.439 7      2188.442    21096364.580   112970068.472 7      2188.442    21096375.320    87865657.397 7      1702.122    21096374.900    87865656.397 7      1702.122
G14  23193789.320   121884189.863 7      5243.310    23193788.600   121884189.875 5      5243.310    23193797.320    94974719.576 5      4085.696    23193797.420    94974724.576 7      4085.696
G27  23024801.560   120996147.509 7       320.998    23024800.560   120996147.514 7       320.998    23024811.640    94282748.988 7       250.128    23024812.060    94282751.987 7       250.128
G08  20809275.480   109353477.880 8      1788.126    20809274.240   109353477.879 8      1788.126    20809281.480    85210550.919 8      1393.345    20809282.980    85210532.923 8      1393.345
G02  21387484.020   112392000.619 7      2447.819    21387482.320   112392000.622 6      2447.819    21387485.440    87578203.635 6      1907.391
G03  21255869.420   111700344.685 7      5439.408    21255868.940   111700344.690 6      5439.408    21255876.940    87039265.209 6      4238.499    21255877.740    87039265.213 8      4238.499
> 2024 06 03 12 58  8.0000000  0 13
R23  21422246.360   114594565.410 7      1667.660    21422245.740   114594565.433 6      1667.660
R14  21149818.260   112740429.851 7      2358.927    21149815.560   112740429.846 7      2358.927    21149825.980    87687032.394 8      1834.721    21149826.620    87687034.397 8      1834.721
G16  25076943.920   131780220.202 6      -944.537    25076942.000   131780220.210 3      -944.537    25076957.420   102685921.945 3      -736.003
R24  21100211.220   112832311.414 8      3676.047    21100210.440   112832311.415 7      3676.047    21100222.280    87758510.189 8      2859.148    21100222.380    87758510.192 8      2859.148
G21  21263845.560   111742257.566 7      1522.300    21263843.720   111742257.571 6      1522.300    21263848.200    87071902.542 6      1186.208
G32  24799523.380   130322373.870 6      2446.494    24799522.280   130322373.869 6      2446.494    24799536.440   101549958.199 6      1906.359    24799537.300   101549962.206 7      1906.359
R01  20973568.600   112115746.114 6      5995.379    20973568.000   112115746.118 6      5995.379    20973582.780    87201193.194 7      4663.072    20973581.720    87201187.187 7      4663.072
R08  21095954.120   112967880.990 7      2186.681    21095956.400   112967881.027 7      2186.681    21095967.120    87863956.034 7      1700.752    21095966.420    87863955.034 7      1700.752
G14  23192791.760   121878947.326 7      5241.864    23192790.980   121878947.339 5      5241.864    23192799.800    94970634.478 5      4084.569    23192799.980    94970639.470 8      4084.569
G27  23024740.060   120995826.721 6       320.407    23024739.160   120995826.723 6       320.407    23024750.800    94282499.023 6       249.668    23024750.920    94282502.016 7       249.668
G08  20808935.280   109351690.324 8      1787.067    20808934.460   109351690.321 8      1787.067    20808941.200    85209157.994 8      1392.520    20808942.740    85209139.996 8      1392.520
G02  21387018.340   112389553.457 7      2446.647    21387016.620   112389553.459 6      2446.647    21387019.840    87576296.745 6      1906.478
G03  21254834.300   111694905.298 7      5438.973    21254833.940   111694905.297 6      5438.973    21254841.960    87035026.713 6      4238.161    21254842.440    87035026.711 8      4238.161
> 2024 06 03 12 58  9.0000000  0 13
R23  21421934.960   114592897.512 7      1668.024    21421933.660   114592897.524 6      1668.024
R14  21149375.620   112738071.154 8      2358.330    21149372.880   112738071.160 7      2358.330    21149383.400    87685197.868 8      1834.256    21149383.940    87685199.874 8      1834.256
G16  25077123.860   131781164.703 6      -944.058    25077121.740   131781164.711 3      -944.058    25077137.060   102686657.912 3      -735.630
R24  21099523.940   112828635.171 7      3676.259    21099522.920   112828635.175 7      3676.259    21099535.040    87755650.906 8      2859.313    21099534.920    87755650.908 8      2859.313
G21  21263556.140   111740735.166 7      1522.591    21263554.040   111740735.174 6      1522.591    21263558.540    87070716.252 6      1186.435
G32  24799057.920   130319927.488 6      2446.509    24799056.400   130319927.493 6      2446.509    24799070.380   101548051.937 6      1906.370    24799071.440   101548055.949 7      1906.370
R01  20972447.340   112109751.016 7      5995.178    20972446.520   112109751.023 6      5995.178    20972461.500    87196530.357 7      4662.916    20972460.260    87196524.358 7      4662.916
R08  21095545.760   112965694.619 7      2186.161    21095547.820   112965694.658 7      2186.161    21095558.760    87862255.537 8      1700.348    21095558.500    87862254.540 8      1700.348
G14  23191794.300   121873705.420 7      5241.798    23191793.520   121873705.431 5      5241.798    23191802.200    94966549.880 5      4084.518    23191802.460    94966554.889 7      4084.518
G27  23024679.320   120995506.419 6       320.533    23024678.500   120995506.424 6       320.533    23024689.820    94282249.428 6       249.766    23024690.300    94282252.432 7       249.766
G08  20808595.360   109349903.341 8      1787.043    20808594.560   109349903.344 8      1787.043    20808601.160    85207765.540 8      1392.501    20808602.400    85207747.544 8      1392.501
G02  21386552.780   112387106.607 8      2446.861    21386551.080   112387106.612 6      2446.861    21386554.140    87574390.111 6      1906.645
G03  21253799.260   111689466.486 7      5438.803    21253799.080   111689466.488 6      5438.803    21253807.160    87030788.682 6      4238.028    21253807.500    87030788.688 8      4238.028
> 2024 06 03 12 58 10.0000000  0 13
R23  21421622.400   114591229.718 7      1667.677    21421621.620   114591229.725 7      1667.677
R14  21148933.360   112735713.238 8      2357.520    21148930.580   112735713.234 7      2357.520    21148940.980    87683363.934 8      1833.627    21148941.480    87683365.940 8      1833.627
G16  25077303.300   131782109.172 6      -944.567    25077301.480   131782109.180 3      -944.567    25077316.780   102687393.852 3      -736.026
R24  21098836.400   112824958.965 7      3676.225    21098835.420   112824958.964 7      3676.225    21098847.500    87752791.626 8      2859.286    21098847.440    87752791.627 8      2859.286
G21  21263266.440   111739212.877 8      1522.218    21263264.520   111739212.885 6      1522.218    21263269.020    87069530.053 6      1186.144
G32  24798592.120   130317481.763 7      2445.375    24798591.220   130317481.765 6      2445.375    24798604.940   101546146.182 6      1905.487    24798605.760   101546150.187 7      1905.487
R01  20971325.940   112103756.419 7      5994.251    20971325.220   112103756.425 6      5994.251    20971339.920    87191867.913 7      4662.195    20971338.880    87191861.903 7      4662.195
R08  21095137.760   112963509.179 7      2184.811    21095139.980   112963509.226 7      2184.811    21095151.080    87860555.748 8      1699.298    21095150.260    87860554.753 8      1699.298
G14  23190796.940   121868463.943 7      5241.296    23190796.080   121868463.950 5      5241.296    23190804.640    94962465.618 5      4084.127    23190805.200    94962470.625 7      4084.127
G27  23024618.380   120995186.489 7       319.528    23024617.580   120995186.497 6       319.528    23024628.920    94282000.120 6       248.983    23024629.340    94282003.124 7       248.983
G08  20808255.440   109348116.803 8      1786.172    20808254.420   109348116.808 8      1786.172    20808261.240    85206373.432 8      1391.823    20808262.600    85206355.436 8      1391.823
G02  21386087.120   112384659.879 8      2446.629    21386085.400   112384659.884 6      2446.629    21386088.360    87572483.565 6      1906.464
G03  21252764.460   111684028.100 7      5438.098    21252764.160   111684028.097 6      5438.098    21252771.980    87026550.980 6      4237.479    21252772.720    87026550.983 8      4237.479
> 2024 06 03 12 58 11.0000000  0 13
R23  21421310.440   114589562.031 6      1667.578    21421309.880   114589562.038 6      1667.578
R14  21148491.320   112733356.223 7      2356.447    21148488.160   112733356.216 7      2356.447    21148499.040    87681530.692 8      1832.792    21148499.520    87681532.695 8      1832.792
G16  25077483.260   131783053.859 6      -944.806    25077481.380   131783053.870 3      -944.806    25077496.600   102688129.961 3      -736.212
R24  21098148.960   112821282.810 7      3675.945    21098148.160   112821282.814 7      3675.945    21098160.080    87749932.399 8      2859.068    21098160.160    87749932.397 8      2859.068
G21  21262976.640   111737690.712 8      1522.033    21262975.080   111737690.719 6      1522.033    21262979.260    87068343.956 6      1186.000
G32  24798127.160   130315036.629 7      2444.734    24798126.040   130315036.629 6      2444.734    24798140.540   101544240.891 6      1904.988    24798141.100   101544244.900 7      1904.988
R01  20970204.520   112097762.550 7      5993.546    20970203.400   112097762.549 7      5993.546    20970218.700    87187206.017 7      4661.647    20970218.040    87187200.010 7      4661.647
R08  21094729.940   112961324.748 7      2183.778    21094731.960   112961324.785 7      2183.778    21094743.260    87858856.747 8      1698.494    21094742.600    87858855.745 8      1698.494
G14  23189799.640   121863222.878 7      5240.773    23189798.780   121863222.891 5      5240.773    23189807.060    94958381.680 5      4083.719    23189807.660    94958386.680 7      4083.719
G27  23024557.500   120994866.981 6       319.206    23024556.460   120994866.980 6       319.206    23024568.060    94281751.153 6       248.732    23024568.480    94281754.150 7       248.732
G08  20807915.520   109346330.758 8      1785.798    20807914.520   109346330.763 8      1785.798    20807921.400    85204981.705 8      1391.531    20807922.660    85204963.706 8      1391.531
G02  21385621.460   112382213.313 7      2446.392    21385619.920   112382213.315 6      2446.392    21385622.720    87570577.148 6      1906.279
G03  21251729.640   111678590.344 7      5437.397    21251729.220   111678590.344 6      5437.397    21251737.120    87022313.774 6      4236.933    21251737.820    87022313.779 8      4236.933
> 2024 06 03 12 58 12.0000000  0 13
R23  21420998.480   114587894.314 6      1667.553    21420998.020   114587894.332 6      1667.553
R14  21148049.160   112730999.997 7      2355.832    21148046.080   112730999.993 7      2355.832    21148056.920    87679698.073 8      1832.314    21148057.540    87679700.075 8      1832.314
G16  25077662.900   131783998.421 6      -944.516    25077661.160   131783998.428 3      -944.516    25077676.200   102688865.975 3      -735.987
R24  21097461.600   112817606.647 7      3676.095    21097460.740   112817606.654 7      3676.095    21097472.520    87747073.165 8      2859.185    21097472.720    87747073.168 8      2859.185
G21  21262687.080   111736168.585 8      1522.062    21262685.400   111736168.593 6      1522.062    21262689.660    87067157.881 6      1186.022
G32  24797661.840   130312591.876 6      2444.391    24797660.700   130312591.884 6      2444.391    24797675.420   101542335.887 6      1904.721    24797676.180   101542339.892 7      1904.721
R01  20969083.440   112091769.073 7      5993.122    20969082.420   112091769.076 7      5993.122    20969097.540    87182544.430 7      4661.317    20969096.800    87182538.422 7      4661.317
R08  21094322.280   112959141.051 7      2183.167    21094323.680   112959141.101 7      2183.167    21094335.240    87857158.322 8      1698.018    21094334.780    87857157.325 8      1698.018
G14  23188802.600   121857982.286 7      5240.222    23188801.540   121857982.296 5      5240.222    23188809.840    94954298.102 5      4083.290    23188810.240    94954303.106 7      4083.290
G27  23024496.880   120994547.609 7       319.136    23024495.720   120994547.616 6       319.136    23024507.260    94281502.289 6       248.677    23024507.900    94281505.291 7       248.677
G08  20807575.640   109344545.018 8      1785.494    20807574.760   109344545.021 8      1785.494    20807581.540    85203590.223 8      1391.294    20807582.740    85203572.229 8      1391.294
G02  21385156.060   112379766.844 7      2446.280    21385154.440   112379766.844 6      2446.280    21385157.280    87568670.817 6      1906.192
G03  21250694.960   111673153.001 7      5437.044    21250694.580   111673152.998 6      5437.044    21250702.480    87018076.885 6      4236.658    21250703.260    87018076.884 8      4236.658
> 2024 06 03 12 58 13.0000000  0 13
R23  21420686.600   114586226.550 7      1667.919    21420685.980   114586226.565 6      1667.919
R14  21147607.360   112728644.672 7      2355.029    21147604.300   112728644.670 7      2355.029    21147615.000    87677866.150 8      1831.689    21147615.780    87677868.154 8      1831.689
G16  25077842.480   131784942.961 6      -944.559    25077840.840   131784942.968 3      -944.559    25077855.960   102689601.974 3      -736.020
R24  21096774.220   112813930.567 8      3676.151    21096773.320   112813930.571 7      3676.151    21096785.180    87744213.990 8      2859.228    21096785.280    87744213.992 8      2859.228
G21  21262397.280   111734646.522 8      1522.123    21262395.840   111734646.530 6      1522.123    21262400.060    87065971.860 6      1186.070
G32  24797196.640   130310147.546 6      2444.149    24797195.620   130310147.546 6      2444.149    24797210.180   101540431.214 6      1904.532    24797210.660   101540435.215 7      1904.532
R01  20967962.380   112085776.057 7      5992.671    20967961.260   112085776.050 7      5992.671    20967976.360    87177883.199 7      4660.967    20967975.520    87177877.192 7      4660.967
R08  21093914.520   112956958.144 7      2182.459    21093916.460   112956958.189 7      2182.459    21093927.380    87855460.507 7      1697.468    21093927.000    87855459.510 8      1697.468
G14  23187805.280   121852742.154 7      5239.975    23187804.420   121852742.164 5      5239.975    23187812.680    94950214.886 5      4083.097    23187813.260    94950219.890 8      4083.097
G27  23024436.080   120994228.457 6       318.983    23024434.960   120994228.462 6       318.983    23024446.520    94281253.596 6       248.558    23024447.080    94281256.595 7       248.558
G08  20807235.920   109342759.609 8      1785.237    20807235.000   109342759.614 8      1785.237    20807241.780    85202198.994 8      1391.094    20807243.020    85202180.997 8      1391.094
G02  21384690.420   112377320.494 8      2446.347    21384688.880   112377320.499 6      2446.347    21384691.700    87566764.570 6      1906.244
G03  21249660.400   111667716.144 7      5436.631    21249659.840   111667716.146 6      5436.631    21249667.920    87013840.378 6      4236.336    21249668.460    87013840.382 8      4236.336
> 2024 06 03 12 58 14.0000000  0 13
R23  21420374.880   114584559.112 7      1667.391    21420374.700   114584559.118 6      1667.391
R14  21147165.720   112726290.176 7      2354.188    21147162.680   112726290.174 7      2354.188    21147173.160    87676034.875 8      1831.035    21147173.860    87676036.879 8      1831.035
G16  25078022.480   131785887.616 6      -944.491    25078020.720   131785887.621 3      -944.491    25078035.640   102690338.061 3      -735.967
R24  21096086.640   112810254.610 7      3675.960    21096085.560   112810254.614 7      3675.960    21096097.840    87741354.918 8      2859.080    21096097.760    87741354.921 8      2859.080
G21  21262107.860   111733124.695 8      1521.884    21262106.180   111733124.705 6      1521.884    21262110.580    87064786.021 6      1185.884
G32  24796731.740   130307703.968 7      2443.356    24796730.660   130307703.978 6      2443.356    24796745.020   101538527.131 6      1903.914    24796745.460   101538531.148 7      1903.914
R01  20966841.540   112079783.688 7      5992.292    20966840.520   112079783.681 7      5992.292    20966855.460    87173222.466 7      4660.672    20966854.580    87173216.459 7      4660.672
R08  21093506.800   112954776.356 7      2181.383    21093509.040   112954776.404 7      2181.383    21093520.080    87853763.561 8      1696.631    21093519.560    87853762.564 8      1696.631
G14  23186808.360   121847502.484 7      5239.506    23186807.420   121847502.494 5      5239.506    23186815.620    94946132.039 5      4082.732    23186816.180    94946137.045 7      4082.732
G27  23024375.440   120993909.792 6       318.605    23024374.440   120993909.799 6       318.605    23024385.800    94281005.283 6       248.263    23024386.300    94281008.289 7       248.263
G08  20806896.400   109340974.787 8      1784.658    20806895.380   109340974.791 8      1784.658    20806902.200    85200808.229 8      1390.643    20806903.260    85200790.230 8      1390.643
G02  21384224.940   112374874.364 7      2446.021    21384223.340   112374874.372 6      2446.021    21384226.200    87564858.503 6      1905.990
G03  21248625.820   111662279.836 7      5436.173    21248625.280   111662279.833 6      5436.173    21248633.580    87009604.298 6      4235.979    21248634.080    87009604.300 8      4235.979
> 2024 06 03 12 58 15.0000000  0 13
R23  21420063.240   114582891.703 7      1667.450    21420062.880   114582891.715 6      1667.450
R14  21146724.180   112723936.650 8      2353.035    21146721.200   112723936.653 7      2353.035    21146731.780    87674204.359 8      1830.138    21146732.480    87674206.363 8      1830.138
G16  25078201.920   131786832.390 6      -944.704    25078200.460   131786832.392 3      -944.704    25078215.480   102691074.238 3      -736.133
R24  21095399.600   112806578.800 8      3675.790    21095398.440   112806578.799 7      3675.790    21095410.420    87738495.967 8      2858.948    21095410.480    87738495.970 8      2858.948
G21  21261818.180   111731603.013 8      1521.684    21261816.520   111731603.023 6      1521.684    21261820.920    87063600.299 6      1185.728
G32  24796266.960   130305260.944 7      2442.815    24796265.720   130305260.952 6      2442.815    24796280.220   101536623.484 6      1903.492    24796280.500   101536627.491 7      1903.492
R01  20965720.880   112073791.940 7      5991.609    20965719.320   112073791.943 7      5991.609    20965734.600    87168562.240 7      4660.140    20965733.740    87168556.235 7      4660.140
R08  21093099.560   112952595.492 7      2180.565    21093101.700   112952595.534 7      2180.565    21093112.820    87852067.332 8      1695.995    21093112.440    87852066.334 8      1695.995
G14  23185811.360   121842263.377 7      5238.783    23185810.500   121842263.387 5      5238.783    23185818.660    94942049.623 5      4082.168    23185819.100    94942054.625 7      4082.168
G27  23024314.640   120993591.486 6       318.349    23024313.700   120993591.494 6       318.349    23024325.300    94280757.251 6       248.064    23024325.880    94280760.250 7       248.064
G08  20806556.760   109339190.408 8      1784.271    20806555.900   109339190.410 8      1784.271    20806562.680    85199417.804 8      1390.341    20806563.880    85199399.809 8      1390.341
G02  21383759.660   112372428.431 8      2445.891    21383757.800   112372428.436 6      2445.891    21383760.740    87562952.581 6      1905.889
G03  21247591.420   111656844.127 7      5435.571    21247591.140   111656844.129 6      5435.571    21247599.080    87005368.682 6      4235.510    21247599.760    87005368.689 8      4235.510
> 2024 06 03 12 58 16.0000000  0 13
R23  21419751.800   114581224.374 6      1667.411    21419750.900   114581224.378 6      1667.411
R14  21146282.620   112721583.958 7      2352.456    21146279.920   112721583.956 7      2352.456    21146290.320    87672374.479 8      1829.688    21146290.880    87672376.483 8      1829.688
G16  25078382.360   131787777.017 6      -944.499    25078380.240   131787777.025 3      -944.499    25078395.200   102691810.309 3      -735.973
R24  21094711.960   112802903.084 7      3675.919    21094710.960   112802903.085 7      3675.919    21094722.960    87735637.073 8      2859.048    21094723.160    87735637.075 8      2859.048
G21  21261528.640   111730081.423 8      1521.724    21261526.940   111730081.433 6      1521.724    21261531.400    87062414.642 6      1185.759
G32  24795802.280   130302818.380 7      2442.659    24795800.960   130302818.382 6      2442.659    24795815.500   101534720.190 6      1903.370    24795815.880   101534724.188 7      1903.370
R01  20964599.540   112067800.605 7      5991.232    20964598.540   112067800.617 6      5991.232    20964613.720    87163902.322 7      4659.847    20964612.520    87163896.314 7      4659.847
R08  21092692.600   112950415.479 7      2179.727    21092694.600   112950415.527 7      2179.727    21092705.680    87850371.772 7      1695.343    21092705.260    87850370.775 8      1695.343
G14  23184814.480   121837024.711 7      5238.632    23184813.640   121837024.718 5      5238.632    23184821.820    94937967.550 5      4082.051    23184822.340    94937972.564 7      4082.051
G27  23024253.900   120993273.389 7       318.144    23024253.220   120993273.399 6       318.144    23024264.960    94280509.378 6       247.905    23024265.460    94280512.380 7       247.905
G08  20806217.260   109337406.389 8      1783.954    20806216.360   109337406.391 8      1783.954    20806223.120    85198027.659 8      1390.094    20806224.280    85198009.663 8      1390.094
G02  21383294.180   112369982.641 8      2445.890    21383292.460   112369982.648 6      2445.890    21383295.440    87561046.770 6      1905.888
G03  21246557.060   111651408.844 7      5435.273    21246556.780   111651408.849 6      5435.273    21246564.760    87001133.405 6      4235.278    21246565.440    87001133.409 8      4235.278
> 2024 06 03 12 58 17.0000000  0 13
R23  21419440.400   114579556.981 6      1667.508    21419439.760   114579556.991 6      1667.508
R14  21145840.960   112719231.975 8      2351.760    21145838.500   112719231.973 7      2351.760    21145849.100    87670545.161 8      1829.147    21145849.660    87670547.163 8      1829.147
G16  25078562.220   131788721.562 6      -944.410    25078559.940   131788721.570 3      -944.410    25078574.920   102692546.308 3      -735.904
R24  21094024.740   112799227.287 7      3675.886    21094023.620   112799227.291 7      3675.886    21094035.500    87732778.122 8      2859.023    21094035.600    87732778.127 8      2859.023
G21  21261239.200   111728559.848 8      1521.699    21261237.380   111728559.858 6      1521.699    21261241.800    87061228.996 6      1185.739
G32  24795337.140   130300376.289 7      2442.162    24795336.120   130300376.288 6      2442.162    24795350.680   101532817.255 6      1902.984    24795351.440   101532821.258 7      1902.984
R01  20963479.060   112061809.677 7      5990.884    20963477.600   112061809.681 6      5990.884    20963492.940    87159242.705 7      4659.576    20963491.820    87159236.704 7      4659.576
R08  21092285.800   112948236.270 7      2179.002    21092287.820   112948236.312 7      2179.002    21092298.740    87848676.825 8      1694.779    21092298.420    87848675.826 8      1694.779
G14  23183817.920   121831786.423 7      5238.265    23183816.760   121831786.430 5      5238.265    23183825.020    94933885.774 5      4081.765    23183825.340    94933890.780 7      4081.765
G27  23024193.640   120992955.485 7       318.000    23024192.560   120992955.493 6       318.000    23024204.360    94280261.651 6       247.792    23024204.820    94280264.659 7       247.792
G08  20805877.700   109335622.662 8      1783.729    20805877.020   109335622.667 8      1783.729    20805883.640    85196637.742 8      1389.919    20805884.880    85196619.747 8      1389.919
G02  21382828.760   112367536.887 7      2445.889    21382827.040   112367536.892 6      2445.889    21382829.960    87559140.988 6      1905.887
G03  21245522.800   111645973.944 7      5434.907    21245522.560   111645973.946 6      5434.907    21245530.460    86996898.422 6      4234.993    21245531.200    86996898.425 8      4234.993
> 2024 06 03 12 58 18.0000000  0 13
R23  21419128.960   114577889.532 7      1667.546    21419128.140   114577889.547 6      1667.546
R14  21145399.940   112716880.672 7      2351.063    21145397.440   112716880.675 7      2351.063    21145408.260    87668716.370 8      1828.605    21145408.560    87668718.376 8      1828.605
G16  25078741.620   131789665.934 6      -944.174    25078739.660   131789665.942 3      -944.174    25078754.660   102693282.176 3      -735.720
R24  21093337.200   112795551.405 7      3675.994    21093336.180   112795551.412 7      3675.994    21093348.320    87729919.105 8      2859.106    21093348.080    87729919.105 8      2859.106
G21  21260949.480   111727038.229 8      1521.703    21260947.800   111727038.237 6      1521.703    21260952.360    87060043.320 6      1185.742
G32  24794872.660   130297934.592 6      2441.592    24794871.500   130297934.597 6      2441.592    24794886.220   101530914.636 6      1902.540    24794886.760   101530918.649 7      1902.540
R01  20962358.620   112055819.094 7      5990.572    20962356.840   112055819.098 6      5990.572    20962372.440    87154583.377 7      4659.334    20962371.300    87154577.373 7      4659.334
R08  21091878.800   112946057.797 7      2178.234    21091880.880   112946057.841 7      2178.234    21091891.880    87846982.462 8      1694.182    21091891.560    87846981.464 8      1694.182
G14  23182821.000   121826548.466 7      5237.780    23182820.160   121826548.469 5      5237.780    23182828.360    94929804.253 5      4081.387    23182828.420    94929809.253 7      4081.387
G27  23024133.420   120992637.726 6       317.845    23024131.960   120992637.731 6       317.845    23024143.740    94280014.045 6       247.671    23024144.320    94280017.040 7       247.671
G08  20805538.380   109333839.205 8      1783.446    20805537.600   109333839.207 8      1783.446    20805544.360    85195248.035 8      1389.698    20805545.680    85195230.039 8      1389.698
G02  21382363.300   112365091.141 8      2445.845    21382361.560   112365091.143 6      2445.845    21382364.500    87557235.210 6      1905.853
G03  21244488.860   111640539.370 8      5434.442    21244488.280   111640539.373 6      5434.442    21244496.200    86992663.692 6      4234.630    21244497.260    86992663.698 8      4234.630
> 2024 06 03 12 58 19.0000000  0 13
R23  21418816.840   114576221.960 7      1667.538    21418816.400   114576221.970 6      1667.538
R14  21144958.920   112714530.160 7      2350.213    21144956.660   112714530.164 7      2350.213    21144967.280    87666888.198 8      1827.943    21144967.660    87666890.198 8      1827.943
G16  25078921.540   131790610.219 6      -944.168    25078919.280   131790610.227 3      -944.168    25078934.340   102694017.981 3      -735.716
R24  21092649.680   112791875.469 7      3675.930    21092648.800   112791875.473 7      3675.930    21092660.680    87727060.048 8      2859.057    21092660.840    87727060.048 8      2859.057
G21  21260659.940   111725516.573 8      1521.695    21260658.340   111725516.578 6      1521.695    21260662.700    87058857.616 6      1185.737
G32  24794408.040   130295493.194 7      2441.269    24794406.940   130295493.189 6      2441.269    24794421.620   101529012.249 6      1902.287    24794422.320   101529016.260 7      1902.287
R01  20961238.040   112049828.943 7      5990.058    20961236.500   112049828.934 6      5990.058    20961251.680    87149924.371 7      4658.934    20961250.460    87149918.364 7      4658.934
R08  21091471.980   112943880.014 7      2177.411    21091474.480   112943880.059 7      2177.411    21091485.240    87845288.633 8      1693.542    21091484.980    87845287.635 7      1693.542
G14  23181824.180   121821310.846 7      5237.379    23181823.520   121821310.851 5      5237.379    23181831.540    94925722.997 5      4081.075    23181832.000    94925727.999 8      4081.075
G27  23024072.880   120992320.122 6       317.524    23024071.560   120992320.125 6       317.524    23024083.480    94279766.551 6       247.421    23024083.980    94279769.553 7       247.421
G08  20805198.900   109332056.014 8      1783.034    20805198.300   109332056.019 8      1783.034    20805204.980    85193858.540 8      1389.377    20805206.300    85193840.539 8      1389.377
G02  21381898.020   112362645.405 8      2445.817    21381896.160   112362645.405 6      2445.817    21381899.120    87555329.438 6      1905.831
G03  21243454.760   111635105.225 7      5433.948    21243454.260   111635105.227 6      5433.948    21243462.200    86988429.305 6      4234.245    21243463.080    86988429.305 8      4234.245
> 2024 06 03 12 58 20.0000000  0 13
R23  21418504.800   114574554.511 7      1667.663    21418504.500   114574554.512 6      1667.663
R14  21144518.300   112712180.515 8      2349.190    21144515.860   112712180.513 7      2349.190    21144526.360    87665060.686 8      1827.147    21144526.940    87665062.690 8      1827.147
G16  25079101.180   131791554.478 6      -944.172    25079098.880   131791554.486 3      -944.172    25079114.120   102694753.755 3      -735.718
R24  21091962.240   112788199.641 8      3675.846    21091961.180   112788199.647 7      3675.846    21091973.520    87724201.070 8      2858.991    21091973.340    87724201.072 8      2858.991
G21  21260370.640   111723995.077 7      1521.482    21260368.760   111723995.082 6      1521.482    21260373.140    87057672.029 6      1185.570
G32  24793943.540   130293052.435 6      2440.506    24793942.400   130293052.435 6      2440.506    24793957.040   101527110.367 6      1901.693    24793957.760   101527114.380 7      1901.693
R01  20960117.200   112043839.301 7      5989.567    20960116.020   112043839.297 6      5989.567    20960131.120    87145265.772 7      4658.552    20960129.940    87145259.767 7      4658.552
R08  21091065.440   112941703.182 7      2176.539    21091067.700   112941703.230 7      2176.539    21091078.780    87843595.546 8      1692.864    21091078.220    87843594.548 8      1692.864
G14  23180828.040   121816073.693 7      5236.905    23180826.760   121816073.704 5      5236.905    23180834.840    94921642.105 5      4080.705    23180835.720    94921647.105 7      4080.705
G27  23024012.580   120992002.839 6       317.232    23024011.240   120992002.844 6       317.232    23024022.920    94279519.313 6       247.194    23024023.360    94279522.307 7       247.194
G08  20804859.640   109330273.269 8      1782.517    20804859.100   109330273.277 8      1782.517    20804865.720    85192469.388 8      1388.974    20804867.000    85192451.390 8      1388.974
G02  21381432.540   112360199.854 7      2445.523    21381430.800   112360199.853 6      2445.523    21381433.720    87553423.813 6      1905.602
G03  21242420.600   111629671.529 7      5433.442    21242420.260   111629671.528 6      5433.442    21242428.060    86984195.256 6      4233.851    21242429.100    86984195.262 8      4233.851
> 2024 06 03 12 58 21.0000000  0 13
R23  21418193.180   114572887.233 6      1667.148    21418192.740   114572887.229 6      1667.148
R14  21144077.980   112709831.813 8      2348.306    21144075.260   112709831.814 7      2348.306    21144085.780    87663233.918 8      1826.460    21144086.460    87663235.919 8      1826.460
G16  25079280.580   131792498.848 6      -944.299    25079278.740   131792498.860 3      -944.299    25079293.740   102695489.619 3      -735.818
R24  21091274.800   112784523.989 7      3675.590    21091274.060   112784523.993 7      3675.590    21091285.920    87721342.231 8      2858.792    21091286.120    87721342.234 8      2858.792
G21  21260080.940   111722473.739 7      1521.267    21260079.280   111722473.750 6      1521.267    21260083.620    87056486.573 6      1185.403
G32  24793479.220   130290612.238 6      2439.954    24793478.080   130290612.238 6      2439.954    24793492.600   101525208.919 6      1901.263    24793493.240   101525212.917 7      1901.263
R01  20958996.980   112037850.273 6      5988.860    20958995.440   112037850.272 6      5988.860    20959010.600    87140607.650 7      4658.002    20959009.540    87140601.647 7      4658.002
R08  21090659.180   112939527.357 7      2175.288    21090661.600   112939527.407 7      2175.288    21090672.400    87841903.239 8      1691.891    21090671.900    87841902.242 7      1691.891
G14  23179831.120   121810837.074 7      5236.414    23179830.180   121810837.087 5      5236.414    23179838.460    94917561.632 5      4080.323    23179838.940    94917566.635 8      4080.323
G27  23023952.540   120991685.926 6       316.735    23023951.000   120991685.931 6       316.735    23023962.740    94279272.364 6       246.806    23023962.660    94279275.364 7       246.806
G08  20804520.660   109328490.987 8      1782.102    20804519.880   109328490.992 8      1782.102    20804526.580    85191080.595 8      1388.651    20804527.940    85191062.599 8      1388.651
G02  21380967.360   112357754.499 7      2445.225    21380965.440   112357754.504 6      2445.225    21380968.480    87551518.346 6      1905.370
G03  21241387.140   111624238.434 7      5432.885    21241386.420   111624238.437 6      5432.885    21241394.220    86979961.680 6      4233.417    21241395.200    86979961.684 8      4233.417
> 2024 06 03 12 58 22.0000000  0 13
R23  21417881.780   114571219.923 6      1667.277    21417881.100   114571219.927 6      1667.277
R14  21143637.580   112707483.871 8      2347.650    21143634.980   112707483.871 7      2347.650    21143645.360    87661407.738 8      1825.950    21143645.820    87661409.744 8      1825.950
G16  25079460.020   131793443.170 6      -944.367    25079458.360   131793443.177 3      -944.367    25079473.360   102696225.440 3      -735.870
R24  21090587.400   112780848.299 7      3675.763    21090586.660   112780848.306 7      3675.763    21090598.500    87718483.370 8      2858.926    21090598.500    87718483.370 8      2858.926
G21  21259791.580   111720952.454 7      1521.349    21259789.720   111720952.461 6      1521.349    21259794.100    87055301.160 6      1185.467
G32  24793014.820   130288172.520 7      2439.445    24793013.800   130288172.517 6      2439.445    24793028.380   101523307.843 6      1900.867    24793028.680   101523311.848 7      1900.867
R01  20957876.840   112031861.684 7      5988.445    20957874.960   112031861.680 6      5988.445    20957890.320    87135949.867 7      4657.679    20957889.440    87135943.861 7      4657.679
R08  21090253.160   112937352.327 7      2174.696    21090255.300   112937352.375 7      2174.696    21090266.280    87840211.549 8      1691.430    21090265.920    87840210.550 8      1691.430
G14  23178835.040   121805600.881 7      5236.008    23178833.860   121805600.891 5      5236.008    23178842.060    94913481.484 5      4080.006    23178842.700    94913486.486 8      4080.006
G27  23023892.200   120991369.247 7       316.575    23023890.780   120991369.252 6       316.575    23023902.420    94279025.593 6       246.682    23023902.560    94279028.595 7       246.682
G08  20804181.560   109326709.060 8      1781.814    20804180.720   109326709.068 8      1781.814    20804187.440    85189692.084 8      1388.426    20804188.640    85189674.084 8      1388.426
G02  21380501.920   112355309.208 7      2445.350    21380500.040   112355309.215 6      2445.350    21380503.200    87549612.926 6      1905.468
G03  21240353.040   111618805.766 7      5432.489    21240352.620   111618805.768 6      5432.489    21240360.380    86975728.433 6      4233.108    21240361.040    86975728.438 8      4233.108
> 2024 06 03 12 58 23.0000000  0 13
R23  21417570.540   114569552.779 7      1667.206    21417569.320   114569552.773 6      1667.206
R14  21143197.300   112705136.811 8      2346.662    21143194.500   112705136.809 7      2346.662    21143205.060    87659582.243 8      1825.181    21143205.460    87659584.247 8      1825.181
G16  25079639.640   131794387.557 6      -944.539    25079638.020   131794387.565 3      -944.539    25079652.860   102696961.324 3      -736.005
R24  21089900.040   112777172.756 7      3675.504    21089899.260   112777172.766 7      3675.504    21089911.140    87715624.617 8      2858.726    21089911.280    87715624.621 8      2858.726
G21  21259501.940   111719431.352 7      1521.088    21259500.260   111719431.363 6      1521.088    21259504.700    87054115.888 6      1185.263
G32  24792550.920   130285733.424 7      2438.792    24792549.580   130285733.429 6      2438.792    24792564.080   101521407.253 6      1900.357    24792564.300   101521411.258 7      1900.357
R01  20956756.260   112025873.693 7      5987.837    20956755.220   112025873.694 6      5987.837    20956770.260    87131292.547 7      4657.207    20956768.980    87131286.544 7      4657.207
R08  21089846.760   112935178.299 7      2173.607    21089849.200   112935178.351 7      2173.607    21089860.000    87838520.642 8      1690.583    21089859.900    87838519.643 7      1690.583
G14  23177838.680   121800365.200 7      5235.464    23177837.500   121800365.204 5      5235.464    23177845.760    94909401.734 5      4079.583    23177846.240    94909406.736 7      4079.583
G27  23023832.080   120991052.955 6       316.236    23023830.360   120991052.957 6       316.236    23023842.140    94278779.125 6       246.418    23023842.820    94278782.125 7       246.418
G08  20803842.600   109324927.632 8      1781.286    20803841.760   109324927.637 8      1781.286    20803848.400    85188303.957 8      1388.015    20803849.560    85188285.958 8      1388.015
G02  21380036.700   112352864.153 7      2445.047    21380034.900   112352864.157 6      2445.047    21380037.800    87547707.689 6      1905.232
G03  21239319.640   111613373.651 7      5431.949    21239318.960   111613373.651 6      5431.949    21239326.800    86971495.623 6      4232.687    21239327.580    86971495.628 8      4232.687
> 2024 06 03 12 58 24.0000000  0 13
R23  21417258.800   114567885.838 7      1666.964    21417258.000   114567885.834 6      1666.964
R14  21142757.140   112702790.742 8      2345.526    21142754.420   112702790.748 7      2345.526    21142764.820    87657757.527 8      1824.298    21142765.460    87657759.531 8      1824.298
G16  25079819.620   131795332.024 6      -944.563    25079817.840   131795332.029 3      -944.563    25079832.660   102697697.264 3      -736.023
R24  21089212.740   112773497.409 8      3675.275    21089211.860   112773497.413 7      3675.275    21089224.020    87712766.013 8      2858.547    21089224.160    87712766.015 8      2858.547
G21  21259212.520   111717910.501 7      1520.802    21259210.860   111717910.508 6      1520.802    21259215.420    87052930.807 6      1185.040
G32  24792086.900   130283294.993 6      2438.039    24792085.520   130283294.995 6      2438.039    24792099.920   101519507.173 6      1899.771    24792100.340   101519511.180 7      1899.771
R01  20955636.240   112019886.336 7      5987.076    20955635.040   112019886.342 6      5987.076    20955650.100    87126635.722 7      4656.614    20955648.940    87126629.719 7      4656.614
R08  21089440.960   112933005.245 7      2172.640    21089443.700   112933005.289 7      2172.640    21089454.180    87836830.481 7      1689.831    21089454.180    87836829.479 8      1689.831
G14  23176842.520   121795130.128 7      5234.734    23176841.300   121795130.135 5      5234.734    23176849.640    94905322.464 5      4079.014    23176849.940    94905327.470 7      4079.014
G27  23023772.200   120990737.075 6       315.621    23023770.120   120990737.085 6       315.621    23023782.100    94278532.985 6       245.939    23023782.780    94278535.988 7       245.939
G08  20803503.700   109323146.735 7      1780.665    20803502.680   109323146.734 8      1780.665    20803509.520    85186916.240 8      1387.531    20803510.640    85186898.244 8      1387.531
G02  21379571.560   112350419.392 7      2444.571    21379569.560   112350419.397 6      2444.571    21379572.700    87545802.682 6      1904.860
G03  21238286.040   111607942.186 7      5431.054    21238285.260   111607942.185 6      5431.054    21238293.200    86967263.317 6      4231.990    21238293.880    86967263.317 8      4231.990
> 2024 06 03 12 58 25.0000000  0 13
R23  21416947.480   114566219.120 7      1666.855    21416946.400   114566219.118 6      1666.855
R14  21142317.460   112700445.745 8      2344.682    21142314.520   112700445.748 7      2344.682    21142324.900    87655933.638 8      1823.642    21142325.320    87655935.640 8      1823.642
G16  25079999.320   131796276.674 6      -944.541    25079997.640   131796276.677 3      -944.541    25080012.480   102698433.345 3      -736.006
R24  21088525.520   112769822.289 7      3675.257    21088524.680   112769822.293 7      3675.257    21088536.580    87709907.590 8      2858.533    21088536.860    87709907.589 8      2858.533
G21  21258923.400   111716389.909 7      1520.636    21258921.440   111716389.919 6      1520.636    21258926.060    87051745.932 6      1184.911
G32  24791623.080   130280857.208 7      2437.623    24791621.560   130280857.203 6      2437.623    24791636.180   101517607.601 6      1899.447    24791636.700   101517611.604 7      1899.447
R01  20954516.440   112013899.660 7      5986.500    20954515.300   112013899.667 6      5986.500    20954530.020    87121979.429 7      4656.167    20954529.280    87121973.424 7      4656.167
R08  21089035.300   112930833.232 7      2171.608    21089037.960   112930833.280 7      2171.608    21089048.620    87835141.144 8      1689.028    21089048.320    87835140.143 8      1689.028
G14  23175846.360   121789895.703 7      5234.340    23175845.180   121789895.708 5      5234.340    23175853.460    94901243.693 5      4078.706    23175854.120    94901248.695 7      4078.706
G27  23023712.220   120990421.620 6       315.366    23023710.080   120990421.630 6       315.366    23023722.100    94278287.170 6       245.740    23023722.560    94278290.171 7       245.740
G08  20803165.020   109321366.397 7      1780.243    20803163.960   109321366.397 8      1780.243    20803170.780    85185528.964 8      1387.202    20803171.820    85185510.965 8      1387.202
G02  21379106.260   112347974.925 7      2444.440    21379104.420   112347974.928 6      2444.440    21379107.560    87543897.901 6      1904.759
G03  21237252.580   111602511.322 7      5430.854    21237251.820   111602511.319 6      5430.854    21237259.660    86963031.477 6      4231.835    21237260.240    86963031.477 8      4231.835
> 2024 06 03 12 58 26.0000000  0 13
R23  21416635.620   114564552.513 6      1666.556    21416634.580   114564552.517 6      1666.556
R14  21141877.400   112698101.681 7      2343.628    21141874.800   112698101.679 7      2343.628    21141885.320    87654110.475 8      1822.822    21141885.760    87654112.479 8      1822.822
G16  25080178.960   131797221.301 6      -944.620    25080177.440   131797221.306 3      -944.620    25080192.240   102699169.411 3      -736.068
R24  21087838.220   112766147.337 7      3674.920    21087837.440   112766147.349 7      3674.920    21087849.380    87707049.299 8      2858.271    21087849.580    87707049.299 8      2858.271
G21  21258634.000   111714869.477 7      1520.264    21258632.120   111714869.487 6      1520.264    21258636.720    87050561.180 6      1184.621
G32  24791159.040   130278419.981 7      2436.938    24791157.860   130278419.970 6      2436.938    24791172.400   101515708.458 6      1898.912    24791173.000   101515712.469 7      1898.912
R01  20953396.220   112007913.503 7      5985.889    20953395.360   112007913.501 6      5985.889    20953410.380    87117323.533 7      4655.692    20953409.240    87117317.528 7      4655.692
R08  21088629.780   112928662.163 7      2170.509    21088632.560   112928662.204 7      2170.509    21088643.360    87833452.532 8      1688.173    21088643.080    87833451.535 8      1688.173
G14  23174850.400   121784661.782 7      5233.638    23174849.300   121784661.792 5      5233.638    23174857.540    94897165.321 5      4078.159    23174858.060    94897170.329 8      4078.159
G27  23023652.240   120990106.465 6       315.055    23023650.240   120990106.467 6       315.055    23023662.180    94278041.584 6       245.497    23023662.820    94278044.586 7       245.497
G08  20802826.220   109319586.482 8      1779.646    20802825.380   109319586.487 8      1779.646    20802832.080    85184142.020 8      1386.737    20802833.380    85184124.021 8      1386.737
G02  21378641.080   112345530.645 7      2444.129    21378639.260   112345530.648 6      2444.129    21378642.340    87541993.268 6      1904.516
G03  21236219.120   111597081.021 7      5430.054    21236218.480   111597081.020 6      5430.054    21236226.320    86958800.077 6      4231.211    21236226.820    86958800.079 8      4231.211
> 2024 06 03 12 58 27.0000000  0 13
R23  21416324.360   114562885.837 6      1666.371    21416322.660   114562885.849 6      1666.371
R14  21141437.700   112695758.259 8      2342.872    21141435.380   112695758.259 7      2342.872    21141445.840    87652287.816 8      1822.234    21141446.180    87652289.821 8      1822.234
G16  25080358.620   131798165.770 6      -944.609    25080357.120   131798165.775 3      -944.609    25080371.940   102699905.355 3      -736.059
R24  21087150.960   112762472.302 7      3674.863    21087150.000   112762472.309 7      3674.863    21087162.020    87704190.936 8      2858.227    21087162.340    87704190.939 8      2858.227
G21  21258344.580   111713348.954 7      1520.326    21258342.780   111713348.959 6      1520.326    21258347.380    87049376.357 6      1184.670
G32  24790695.180   130275983.147 7      2436.305    24790694.180   130275983.142 6      2436.305    24790708.600   101513809.639 6      1898.420    24790709.440   101513813.644 7      1898.420
R01  20952276.100   112001927.704 7      5985.370    20952275.680   112001927.713 6      5985.370    20952290.200    87112667.928 7      4655.287    20952289.600    87112661.923 7      4655.287
R08  21088224.900   112926491.845 7      2169.648    21088227.280   112926491.879 7      2169.648    21088237.820    87831764.503 8      1687.504    21088237.580    87831763.506 7      1687.504
G14  23173854.320   121779428.156 7      5233.236    23173853.380   121779428.163 5      5233.236    23173861.480    94893087.177 5      4077.846    23173862.140    94893092.181 8      4077.846
G27  23023592.160   120989791.473 6       314.588    23023590.400   120989791.480 6       314.588    23023602.120    94277796.142 6       245.134    23023602.440    94277799.142 7       245.134
