     3.05           OBSERVATION DATA    MIXED               RINEX VERSION / TYPE
TPS2RIN 1.0.28.3459 TPS-USER            20260427 162829 UTC PGM / RUN BY / DATE
Win64 build Jun 01, 2022 (c) Topcon Positioning Systems     COMMENT
SRC: 20240603_GUI26.tps                                     COMMENT
Observer            Agency                                  OBSERVER / AGENCY
O0M3X53SBGM         TPS HIPER_SR        4.8 HSR Jul,08,2022 REC # / TYPE / VERS
FW: 4.8 HSR Jul,08,2022 p3                                  COMMENT
SN: HiPer SR 1212-12575                                     COMMENT
000                 TPSHIPER_SR     NONE                    ANT # / TYPE
        1.8000        0.0000        0.0000                  ANTENNA: DELTA H/E/N
GUI26                                                       MARKER NAME
  5391793.0727 -1590189.5229  3005661.4652                  APPROX POSITION XYZ
  2024     6     3    15    10   22.0000000     GPS         TIME OF FIRST OBS
  2024     6     3    15    25   23.0000000     GPS         TIME OF LAST OBS
     1.000                                                  INTERVAL
   902 EPOCHS                                               COMMENT
G   12 C1C L1C D1C C1W L1W D1W C2W L2W D2W C2X L2X D2X      SYS / # / OBS TYPES
R   12 C1C L1C D1C C1P L1P D1P C2P L2P D2P C2C L2C D2C      SYS / # / OBS TYPES
    17                                                      # OF SATELLITES
   G02   902   902   902   902   902   902   902   902   902PRN / # OF OBS
           0     0     0                                    PRN / # OF OBS
   G03   902   902   902   902   902   902   902   902   902PRN / # OF OBS
         902   902   902                                    PRN / # OF OBS
   G04   902   902   902   902   902   902   902   902   902PRN / # OF OBS
         902   902   902                                    PRN / # OF OBS
   G06    65    65    65    63    63    63    63    63    63PRN / # OF OBS
          56    56    56                                    PRN / # OF OBS
   G08   902   902   902   902   902   902   902   902   902PRN / # OF OBS
         902   902   902                                    PRN / # OF OBS
   G09   902   902   902   902   902   902   902   902   902PRN / # OF OBS
         902   902   902                                    PRN / # OF OBS
   G14   902   902   902   902   902   902   902   902   902PRN / # OF OBS
         902   902   902                                    PRN / # OF OBS
   G17   902   902   902   902   902   902   902   902   902PRN / # OF OBS
         902   902   902                                    PRN / # OF OBS
   G19   902   902   902   902   902   902   902   902   902PRN / # OF OBS
           0     0     0                                    PRN / # OF OBS
   G21   902   902   902   902   902   902   902   902   902PRN / # OF OBS
           0     0     0                                    PRN / # OF OBS
   G22   902   902   902   902   902   902   902   902   902PRN / # OF OBS
           0     0     0                                    PRN / # OF OBS
   R01   902   902   902   902   902   902   902   902   902PRN / # OF OBS
         902   902   902                                    PRN / # OF OBS
   R02   902   902   902   902   902   902   902   902   902PRN / # OF OBS
         902   902   902                                    PRN / # OF OBS
   R03   902   902   902   902   902   902   902   902   902PRN / # OF OBS
         902   902   902                                    PRN / # OF OBS
   R17   902   902   902   902   902   902   902   902   902PRN / # OF OBS
         902   902   902                                    PRN / # OF OBS
   R23   666   666   666   662   662   662     0     0     0PRN / # OF OBS
           0     0     0                                    PRN / # OF OBS
   R24   902   902   902   902   902   902   902   902   902PRN / # OF OBS
         902   902   902                                    PRN / # OF OBS
G L1C                                                       SYS / PHASE SHIFT
G L1W -0.25000                                              SYS / PHASE SHIFT
G L2W  0.00000                                              SYS / PHASE SHIFT
G L2X  0.25000                                              SYS / PHASE SHIFT
R L1C                                                       SYS / PHASE SHIFT
R L1P -0.25000                                              SYS / PHASE SHIFT
R L2P -0.25000                                              SYS / PHASE SHIFT
R L2C                                                       SYS / PHASE SHIFT
  6 R01  1 R02 -4 R03  5 R17  4 R23  3 R24  2               GLONASS SLOT / FRQ #
                                                            GLONASS COD/PHS/BIS
               *** Undefined LeapSeconds ***                COMMENT
                                                            END OF HEADER
> 2024 06 03 15 10 22.0000000  0 15
G03  20290793.700   106628854.426 8      1228.111    20290791.080   106628854.433 8      1228.111    20290797.740    83087423.337 8       956.969    20290799.900    83087440.337 8       956.969
G14  22562264.060   118565504.140 7       910.548    22562263.620   118565504.153 5       910.548    22562272.580    92388737.795 5       709.518    22562273.260    92388744.802 7       709.518
R02  19190198.500   102402577.188 8      3747.857    19190198.260   102402577.191 8      3747.857    19190207.600    79646483.467 8      2915.000    19190207.580    79646484.470 8      2915.000
R03  22046137.280   118014707.161 7      6733.585    22046136.760   118014707.189 7      6733.585    22046156.340    91789291.201 7      5237.232    22046155.860    91789295.208 7      5237.232
G17  21412228.460   112522016.965 7      4857.848    21412228.460   112522016.965 6      4857.848    21412232.220    87679508.251 6      3785.336    21412232.580    87679514.244 8      3785.336
G22  23101708.060   121400306.139 7      2227.100    23101707.200   121400306.149 5      2227.100    23101714.860    94597659.924 5      1735.402
G04  21242811.420   111631729.795 7      4699.043    21242810.000   111631729.802 6      4699.043    21242816.840    86985789.884 6      3661.592    21242817.260    86985787.886 8      3661.592
G21  23113789.400   121463782.939 7      1221.136    23113787.400   121463782.949 5      1221.136    23113794.920    94647121.715 5       951.534
R01  20504559.760   109608612.448 7      -199.506    20504558.880   109608612.446 7      -199.506    20504570.840    85251196.964 7      -155.171    20504570.200    85251193.948 7      -155.171
G08  24239071.940   127377174.401 5      -768.424    24239069.720   127377174.417 3      -768.424    24239088.920    99255012.858 3      -598.772    24239090.480    99255018.828 5      -598.772
R17  20780956.520   111203100.334 7      5067.685    20780954.820   111203100.340 7      5067.685    20780968.200    86491349.844 8      3941.533    20780967.940    86491347.846 8      3941.533
G09  23041213.740   121082401.554 7      6125.560    23041212.260   121082401.567 6      6125.560    23041226.660    94349981.135 6      4773.164    23041227.240    94349980.146 7      4773.164
G19  23097384.960   121377598.991 6      6099.872    23097383.560   121377599.004 5      6099.872    23097391.300    94579905.591 5      4753.147
R24  20199833.340   108017581.657 8      2323.409    20199832.940   108017581.664 8      2323.409    20199843.500    84013720.324 8      1807.096    20199843.760    84013720.327 8      1807.096
G02  22084035.220   116052402.977 7      1812.238    22084033.720   116052402.979 6      1812.238    22084038.120    90430435.217 6      1412.133
> 2024 06 03 15 10 23.0000000  0 15
G03  20290559.940   106627626.519 8      1227.757    20290557.360   106627626.531 8      1227.757    20290564.040    83086466.532 8       956.694    20290566.300    83086483.528 8       956.694
G14  22562090.840   118564593.760 7       910.260    22562090.660   118564593.765 5       910.260    22562099.380    92388028.400 5       709.294    22562100.100    92388035.390 7       709.294
R02  19189496.020   102398829.767 8      3747.017    19189495.840   102398829.766 8      3747.017    19189505.020    79643568.816 8      2914.347    19189505.180    79643569.818 8      2914.347
R03  22044879.100   118007973.786 7      6733.292    22044878.900   118007973.817 7      6733.292    22044898.020    91784054.161 7      5237.005    22044898.040    91784058.168 7      5237.005
G17  21411304.020   112517159.310 7      4857.548    21411304.080   112517159.313 6      4857.548    21411308.020    87675723.072 6      3785.102    21411308.240    87675729.075 8      3785.102
G22  23101284.380   121398079.336 7      2226.591    23101283.400   121398079.341 5      2226.591    23101290.960    94595924.747 5      1735.006
G04  21241917.180   111627030.908 7      4698.800    21241915.760   111627030.918 6      4698.800    21241922.780    86982128.416 6      3661.403    21241923.160    86982126.416 8      3661.403
G21  23113557.000   121462561.677 7      1221.476    23113555.000   121462561.679 5      1221.476    23113562.500    94646170.082 5       951.800
R01  20504597.280   109608812.249 7      -200.045    20504595.880   109608812.250 7      -200.045    20504608.180    85251352.374 7      -155.590    20504607.400    85251349.362 7      -155.590
G08  24239218.240   127377941.770 5      -767.636    24239215.580   127377941.786 3      -767.636    24239234.980    99255614.809 3      -598.158    24239237.800    99255622.769 5      -598.158
R17  20780009.420   111198032.716 7      5067.504    20780009.100   111198032.720 7      5067.504    20780021.140    86487408.361 8      3941.392    20780020.980    86487406.366 8      3941.392
G09  23040047.820   121076275.883 7      6125.774    23040046.440   121076275.888 6      6125.774    23040060.920    94345207.894 6      4773.331    23040061.340    94345206.910 7      4773.331
G19  23096223.900   121371499.206 6      6099.732    23096222.960   121371499.211 5      6099.732    23096230.600    94575152.509 5      4753.038
R24  20199398.680   108015258.469 8      2323.124    20199398.320   108015258.473 8      2323.124    20199409.160    84011913.402 8      1806.874    20199409.320    84011913.404 8      1806.874
G02  22083690.480   116050590.883 7      1812.151    22083688.840   116050590.888 6      1812.151    22083693.200    90429023.190 6      1412.066
> 2024 06 03 15 10 24.0000000  0 15
G03  20290326.280   106626398.979 8      1227.465    20290323.700   106626398.987 8      1227.465    20290330.500    83085510.004 8       956.466    20290332.480    83085527.002 8       956.466
G14  22561917.700   118563683.919 7       909.879    22561917.560   118563683.924 5       909.879    22561926.220    92387319.423 5       708.997    22561926.800    92387326.411 7       708.997
R02  19188793.980   102395083.273 8      3746.231    19188793.700   102395083.268 8      3746.231    19188802.760    79640654.876 8      2913.735    19188802.980    79640655.879 8      2913.735
R03  22043621.000   118001240.925 7      6732.832    22043620.980   118001240.958 7      6732.832    22043639.980    91778817.512 7      5236.647    22043639.980    91778821.519 7      5236.647
G17  21410379.620   112512302.078 7      4857.259    21410379.620   112512302.081 6      4857.259    21410383.760    87671938.220 6      3784.877    21410384.040    87671944.215 8      3784.877
G22  23100860.740   121395853.151 7      2226.074    23100859.820   121395853.153 5      2226.074    23100867.380    94594190.057 5      1734.603
G04  21241022.860   111622332.543 7      4698.320    21241021.620   111622332.551 6      4698.320    21241028.800    86978467.355 6      3661.028    21241029.040    86978465.354 8      3661.028
G21  23113324.540   121461340.470 7      1221.387    23113322.700   121461340.477 5      1221.387    23113329.920    94645218.484 5       951.730
R01  20504634.460   109609012.601 7      -200.484    20504633.140   109609012.600 7      -200.484    20504645.620    85251508.195 7      -155.932    20504645.060    85251505.185 7      -155.932
G08  24239363.780   127378709.421 5      -768.007    24239361.440   127378709.439 3      -768.007    24239381.280    99256212.967 3      -598.447    24239383.300    99256220.889 5      -598.447
R17  20779062.540   111192965.162 7      5067.685    20779062.560   111192965.161 7      5067.685    20779073.980    86483466.927 8      3941.533    20779074.020    86483464.929 8      3941.533
G09  23038882.020   121070150.482 6      6125.572    23038880.700   121070150.487 6      6125.572    23038895.420    94340434.875 6      4773.173    23038895.740    94340433.885 7      4773.173
G19  23095063.240   121365399.610 7      6099.777    23095062.360   121365399.613 5      6099.777    23095069.980    94570399.584 5      4753.073
R24  20198964.460   108012935.660 8      2322.689    20198963.720   108012935.664 8      2322.689    20198974.900    84010106.773 8      1806.536    20198975.080    84010106.777 8      1806.536
G02  22083345.780   116048778.862 7      1812.124    22083344.160   116048778.867 6      1812.124    22083348.360    90427611.222 6      1412.045
> 2024 06 03 15 10 25.0000000  0 15
G03  20290092.460   106625171.742 8      1227.204    20290090.140   106625171.744 8      1227.204    20290096.900    83084553.711 8       956.263    20290098.940    83084570.709 8       956.263
G14  22561744.620   118562774.330 7       909.504    22561744.720   118562774.338 5       909.504    22561753.220    92386610.646 5       708.705    22561753.740    92386617.640 7       708.705
R02  19188092.200   102391337.552 8      3745.418    19188091.740   102391337.550 8      3745.418    19188100.760    79637741.540 8      2913.103    19188101.040    79637742.543 8      2913.103
R03  22042363.160   117994508.238 7      6732.659    22042363.000   117994508.258 7      6732.659    22042382.500    91773580.990 7      5236.513    22042382.360    91773585.000 7      5236.513
G17  21409455.340   112507445.109 7      4856.973    21409455.360   112507445.114 6      4856.973    21409459.440    87668153.566 6      3784.654    21409460.120    87668159.570 8      3784.654
G22  23100437.240   121393627.359 7      2225.641    23100436.140   121393627.369 5      2225.641    23100443.940    94592455.676 5      1734.266
G04  21240128.860   111617634.552 7      4697.906    21240127.620   111617634.560 6      4697.906    21240134.820    86974806.586 6      3660.706    21240135.080    86974804.586 8      3660.706
G21  23113092.280   121460119.289 7      1221.417    23113090.400   121460119.291 5      1221.417    23113097.580    94644266.918 5       951.753
R01  20504672.000   109609213.509 7      -201.063    20504670.640   109609213.508 7      -201.063    20504683.360    85251664.450 7      -156.382    20504682.420    85251661.443 7      -156.382
G08  24239508.460   127379477.024 5      -767.667    24239507.640   127379477.047 3      -767.667    24239527.180    99256811.096 3      -598.182    24239529.840    99256818.999 5      -598.182
R17  20778115.640   111187897.665 7      5067.658    20778116.020   111187897.669 7      5067.658    20778126.840    86479525.544 8      3941.512    20778127.040    86479523.544 8      3941.512
G09  23037716.620   121064025.071 7      6125.581    23037714.920   121064025.076 6      6125.581    23037729.820    94335661.842 6      4773.180    23037730.460    94335660.849 7      4773.180
G19  23093902.680   121359300.127 7      6099.483    23093901.760   121359300.132 5      6099.483    23093909.340    94565646.748 5      4752.844
R24  20198530.140   108010613.171 8      2322.455    20198529.380   108010613.181 8      2322.455    20198540.520    84008300.397 8      1806.354    20198540.800    84008300.402 8      1806.354
G02  22083000.980   116046966.939 7      1812.056    22082999.320   116046966.944 6      1812.056    22083003.560    90426199.332 6      1411.992
> 2024 06 03 15 10 26.0000000  0 15
G03  20289859.120   106623944.633 8      1226.985    20289856.600   106623944.635 8      1226.985    20289863.520    83083597.526 8       956.092    20289865.580    83083614.522 8       956.092
G14  22561571.260   118561864.965 7       909.169    22561571.780   118561864.970 5       909.169    22561580.100    92385902.044 5       708.443    22561580.640    92385909.042 7       708.443
R02  19187390.320   102387592.476 8      3744.662    19187390.040   102387592.472 8      3744.662    19187398.860    79634828.703 8      2912.515    19187399.140    79634829.707 8      2912.515
R03  22041105.680   117987775.738 7      6732.285    22041105.120   117987775.756 7      6732.285    22041124.640    91768344.614 7      5236.222    22041124.480    91768348.623 7      5236.222
G17  21408531.100   112502588.285 7      4856.721    21408531.000   112502588.289 6      4856.721    21408535.400    87664369.032 6      3784.458    21408535.480    87664375.033 8      3784.458
G22  23100013.800   121391401.881 7      2225.187    23100012.800   121391401.893 5      2225.187    23100020.400    94590721.535 5      1733.912
G04  21239235.100   111612936.839 7      4697.525    21239233.740   111612936.847 6      4697.525    21239240.760    86971146.031 6      3660.409    21239241.140    86971144.037 8      3660.409
G21  23112859.620   121458897.961 7      1221.409    23112858.120   121458897.966 5      1221.409    23112865.180    94643315.238 5       951.747
R01  20504709.200   109609414.738 7      -201.536    20504708.080   109609414.747 7      -201.536    20504721.100    85251820.968 7      -156.750    20504720.080    85251817.960 7      -156.750
G08  24239653.700   127380244.693 4      -767.679    24239653.880   127380244.716 3      -767.679    24239673.320    99257409.275 3      -598.192    24239675.840    99257417.170 5      -598.192
R17  20777168.940   111182830.074 8      5067.539    20777169.220   111182830.081 7      5067.539    20777179.800    86475584.093 8      3941.419    20777180.040    86475582.093 8      3941.419
G09  23036551.020   121057899.641 6      6125.416    23036549.160   121057899.651 6      6125.416    23036564.280    94330888.798 6      4773.051    23036564.580    94330887.812 7      4773.051
G19  23092742.080   121353200.576 7      6099.512    23092741.020   121353200.584 5      6099.512    23092748.780    94560893.855 5      4752.867
R24  20198095.740   108008290.854 8      2322.161    20198095.040   108008290.864 8      2322.161    20198106.280    84006494.148 8      1806.125    20198106.480    84006494.153 8      1806.125
G02  22082656.260   116045154.919 7      1812.043    22082654.540   116045154.927 6      1812.043    22082658.800    90424787.372 6      1411.982
> 2024 06 03 15 10 27.0000000  0 15
G03  20289625.680   106622717.961 8      1226.333    20289623.280   106622717.963 8      1226.333    20289630.100    83082641.680 8       955.584    20289632.200    83082658.676 8       955.584
G14  22561398.220   118560955.991 7       908.716    22561398.960   118560956.001 5       908.716    22561406.940    92385193.754 5       708.090    22561407.880    92385200.742 7       708.090
R02  19186688.700   102383848.300 8      3743.551    19186688.500   102383848.296 8      3743.551    19186697.180    79631916.568 8      2911.651    19186697.560    79631917.572 8      2911.651
R03  22039848.120   117981043.544 7      6732.045    22039846.880   117981043.564 7      6732.045    22039867.140    91763108.473 7      5236.035    22039866.880    91763112.482 7      5236.035
G17  21407606.880   112497731.859 7      4856.075    21407606.820   112497731.867 6      4856.075    21407611.280    87660584.811 6      3783.955    21407611.700    87660590.814 8      3783.955
G22  23099590.680   121389176.899 7      2224.725    23099589.340   121389176.909 5      2224.725    23099597.160    94588987.781 5      1733.552
G04  21238341.360   111608239.650 7      4696.870    21238340.040   111608239.657 6      4696.870    21238347.120    86967485.889 6      3659.899    21238347.420    86967483.887 8      3659.899
G21  23112627.300   121457676.819 7      1220.865    23112625.840   121457676.827 5      1220.865    23112632.920    94642363.693 5       951.324
R01  20504747.060   109609616.648 7      -202.412    20504745.920   109609616.652 7      -202.412    20504759.040    85251978.003 7      -157.432    20504758.140    85251974.993 7      -157.432
G08  24239799.960   127381012.485 4      -767.905    24239800.040   127381012.508 3      -767.905    24239819.520    99258007.540 3      -598.368    24239820.920    99258015.427 5      -598.368
R17  20776221.980   111177762.641 7      5067.173    20776222.460   111177762.656 7      5067.173    20776232.740    86471642.756 8      3941.135    20776233.000    86471640.756 8      3941.135
G09  23035385.060   121051774.346 6      6125.299    23035383.600   121051774.356 6      6125.299    23035398.940    94326115.847 6      4772.960    23035398.880    94326114.850 7      4772.960
G19  23091581.560   121347101.267 7      6099.069    23091580.240   121347101.264 5      6099.069    23091588.460    94556141.151 5      4752.521
R24  20197661.700   108005969.040 8      2321.423    20197660.860   108005969.049 8      2321.423    20197672.080    84004688.289 8      1805.551    20197672.080    84004688.291 8      1805.551
G02  22082311.380   116043343.119 7      1811.575    22082309.700   116043343.127 6      1811.575    22082313.980    90423375.578 6      1411.617
> 2024 06 03 15 10 28.0000000  0 15
G03  20289392.400   106621491.688 8      1226.206    20289389.920   106621491.693 7      1226.206    20289396.780    83081686.138 7       955.485    20289398.920    83081703.138 8       955.485
G14  22561225.340   118560047.435 7       908.313    22561225.920   118560047.445 5       908.313    22561234.100    92384485.780 5       707.776    22561235.260    92384492.764 7       707.776
R02  19185987.300   102380104.996 8      3742.840    19185986.940   102380104.989 8      3742.840    19185995.720    79629005.108 7      2911.098    19185996.100    79629006.111 7      2911.098
R03  22038590.400   117974311.657 7      6731.797    22038589.300   117974311.674 7      6731.797    22038609.500    91757872.580 7      5235.842    22038609.700    91757876.589 7      5235.842
G17  21406682.840   112492875.823 7      4856.010    21406682.560   112492875.828 6      4856.010    21406687.140    87656800.890 6      3783.904    21406687.620    87656806.893 7      3783.904
G22  23099167.340   121386952.466 7      2224.308    23099166.000   121386952.478 5      2224.308    23099173.980    94587254.454 5      1733.227
G04  21237447.580   111603542.912 7      4696.352    21237446.280   111603542.922 6      4696.352    21237453.320    86963826.096 6      3659.495    21237453.700    86963824.095 8      3659.495
G21  23112394.860   121456455.728 7      1221.057    23112393.480   121456455.738 5      1221.057    23112400.500    94641412.183 5       951.473
R01  20504785.320   109609819.187 7      -202.696    20504784.300   109609819.185 7      -202.696    20504796.980    85252135.522 7      -157.653    20504796.020    85252132.515 7      -157.653
G08  24239947.540   127381780.390 4      -767.973    24239946.180   127381780.413 3      -767.973    24239965.860    99258605.900 3      -598.421    24239967.800    99258613.815 5      -598.421
R17  20775274.720   111172695.390 7      5067.298    20775275.340   111172695.399 7      5067.298    20775285.820    86467701.564 7      3941.231    20775286.080    86467699.567 7      3941.231
G09  23034219.880   121045649.160 6      6125.125    23034217.820   121045649.165 6      6125.125    23034233.260    94321342.984 6      4772.825    23034233.540    94321341.993 7      4772.825
G19  23090420.840   121341002.183 7      6098.997    23090419.620   121341002.183 5      6098.997    23090427.820    94551388.622 5      4752.466
R24  20197227.760   108003647.709 8      2321.137    20197226.820   108003647.708 8      2321.137    20197238.020    84002882.799 7      1805.328    20197237.980    84002882.804 8      1805.328
G02  22081966.600   116041531.488 7      1811.574    22081965.000   116041531.496 6      1811.574    22081969.180    90421963.915 6      1411.616
> 2024 06 03 15 10 29.0000000  0 15
G03  20289159.040   106620265.846 8      1225.622    20289156.620   106620265.848 8      1225.622    20289163.500    83080730.937 8       955.030    20289165.440    83080747.934 8       955.030
G14  22561052.660   118559139.325 7       907.893    22561053.160   118559139.333 5       907.893    22561061.100    92383778.152 5       707.449    22561062.120    92383785.134 7       707.449
R02  19185285.940   102376362.666 8      3741.870    19185285.720   102376362.654 8      3741.870    19185294.440    79626094.405 8      2910.343    19185294.620    79626095.412 8      2910.343
R03  22037332.840   117967580.249 7      6731.270    22037331.500   117967580.269 7      6731.270    22037352.220    91752637.057 7      5235.432    22037352.080    91752641.069 7      5235.432
G17  21405759.020   112488020.207 7      4855.431    21405758.440   112488020.212 6      4855.431    21405763.180    87653017.295 6      3783.453    21405763.760    87653023.297 8      3783.453
G22  23098744.060   121384728.598 7      2223.623    23098742.840   121384728.611 5      2223.623    23098750.880    94585521.568 5      1732.693
G04  21236553.700   111598846.736 7      4695.898    21236552.640   111598846.746 6      4695.898    21236559.700    86960166.742 6      3659.142    21236560.180    86960164.744 8      3659.142
G21  23112162.480   121455234.817 7      1220.844    23112161.200   121455234.825 5      1220.844    23112168.220    94640460.820 5       951.307
R01  20504823.320   109610022.367 7      -203.413    20504821.920   109610022.360 7      -203.413    20504835.200    85252293.545 7      -158.210    20504834.160    85252290.542 7      -158.210
G08  24240093.520   127382548.555 4      -768.063    24240092.600   127382548.576 3      -768.063    24240111.940    99259204.458 3      -598.491    24240113.380    99259212.349 5      -598.491
R17  20774327.680   111167628.288 8      5067.030    20774328.300   111167628.301 7      5067.030    20774338.720    86463760.492 8      3941.023    20774339.100    86463758.499 8      3941.023
G09  23033053.820   121039524.209 6      6124.981    23033052.460   121039524.219 6      6124.981    23033067.720    94316570.306 6      4772.713    23033068.180    94316569.314 7      4772.713
G19  23089260.140   121334903.281 7      6098.727    23089259.140   121334903.283 5      6098.727    23089267.240    94546636.239 5      4752.255
R24  20196793.520   108001326.858 8      2320.661    20196792.780   108001326.854 8      2320.661    20196803.960    84001077.692 8      1804.958    20196804.200    84001077.699 8      1804.958
G02  22081621.760   116039720.059 7      1811.359    22081620.460   116039720.064 6      1811.359    22081624.440    90420552.412 6      1411.448
> 2024 06 03 15 10 30.0000000  0 15
G03  20288925.820   106619040.321 7      1225.289    20288923.280   106619040.326 8      1225.289    20288930.240    83079775.979 8       954.770    20288932.320    83079792.974 8       954.770
G14  22560879.720   118558231.494 7       907.630    22560880.400   118558231.504 5       907.630    22560888.460    92383070.749 5       707.244    22560889.360    92383077.748 7       707.244
R02  19184584.620   102372621.089 8      3741.107    19184584.500   102372621.082 8      3741.107    19184593.260    79623184.291 8      2909.750    19184593.260    79623185.296 8      2909.750
R03  22036075.420   117960849.026 7      6730.941    22036074.500   117960849.039 7      6730.941    22036094.580    91747401.682 7      5235.176    22036094.680    91747405.696 7      5235.176
G17  21404835.120   112483164.914 7      4855.102    21404834.720   112483164.916 6      4855.102    21404839.260    87649233.950 6      3783.197    21404839.840    87649239.949 8      3783.197
G22  23098321.020   121382505.171 7      2223.136    23098319.700   121382505.184 5      2223.136    23098327.600    94583789.026 5      1732.314
G04  21235660.240   111594150.884 7      4695.529    21235659.000   111594150.894 6      4695.529    21235666.060    86956507.642 6      3658.854    21235666.460    86956505.642 8      3658.854
G21  23111930.360   121454013.884 7      1220.850    23111928.780   121454013.891 5      1220.850    23111935.880    94639509.443 5       951.312
R01  20504861.560   109610226.113 7      -203.959    20504860.180   109610226.117 7      -203.959    20504873.000    85252452.019 7      -158.635    20504872.040    85252449.011 7      -158.635
G08  24240239.900   127383316.637 5      -768.115    24240238.780   127383316.657 3      -768.115    24240258.260    99259802.950 3      -598.531    24240258.520    99259810.839 5      -598.531
R17  20773380.800   111162561.294 7      5066.936    20773380.680   111162561.304 7      5066.936    20773392.000    86459819.509 8      3940.950    20773392.380    86459817.513 8      3940.950
G09  23031888.340   121033399.226 6      6124.846    23031887.100   121033399.234 6      6124.846    23031902.100    94311797.607 6      4772.607    23031902.580    94311796.614 7      4772.607
G19  23088099.640   121328804.523 7      6098.695    23088098.600   121328804.531 5      6098.695    23088106.780    94541883.973 5      4752.230
R24  20196359.620   107999006.324 8      2320.319    20196359.120   107999006.328 8      2320.319    20196369.920    83999272.835 8      1804.693    20196370.340    83999272.843 8      1804.693
G02  22081277.180   116037908.701 7      1811.272    22081275.860   116037908.706 6      1811.272    22081279.700    90419140.962 6      1411.381
> 2024 06 03 15 10 31.0000000  0 15
G03  20288692.600   106617815.018 8      1225.156    20288690.140   106617815.020 8      1225.156    20288697.060    83078821.193 8       954.667    20288699.200    83078838.190 8       954.667
G14  22560707.360   118557323.921 7       907.407    22560707.680   118557323.931 5       907.407    22560715.820    92382363.547 5       707.070    22560716.720    92382370.539 7       707.070
R02  19183883.760   102368880.283 8      3740.415    19183883.580   102368880.281 8      3740.415    19183892.220    79620274.783 8      2909.212    19183892.220    79620275.786 8      2909.212
R03  22034818.220   117954118.100 7      6730.828    22034817.460   117954118.113 7      6730.828    22034837.000    91742166.534 7      5235.089    22034836.940    91742170.542 7      5235.089
G17  21403911.200   112478309.779 7      4854.967    21403910.960   112478309.784 6      4854.967    21403915.240    87645450.734 6      3783.091    21403915.540    87645456.729 8      3783.091
G22  23097897.960   121380282.028 7      2222.979    23097896.680   121380282.041 5      2222.979    23097904.480    94582056.707 5      1732.192
G04  21234766.440   111589455.497 7      4695.180    21234765.500   111589455.512 6      4695.180    21234772.560    86952848.905 6      3658.582    21234772.920    86952846.909 8      3658.582
G21  23111698.260   121452793.018 7      1220.848    23111696.480   121452793.028 5      1220.848    23111703.500    94638558.119 5       951.310
R01  20504899.380   109610430.327 7      -204.425    20504898.680   109610430.337 7      -204.425    20504911.600    85252610.858 7      -158.997    20504910.480    85252607.849 7      -158.997
G08  24240386.980   127384084.902 5      -768.495    24240384.940   127384084.928 3      -768.495    24240404.680    99260401.590 3      -598.828    24240405.440    99260409.520 5      -598.828
R17  20772433.900   111157494.254 7      5066.949    20772433.580   111157494.251 7      5066.949    20772445.140    86455878.470 8      3940.961    20772445.400    86455876.476 8      3940.961
G09  23030723.120   121027274.338 7      6124.958    23030721.500   121027274.335 6      6124.958    23030736.480    94307024.973 6      4772.694    23030736.860    94307023.984 7      4772.694
G19  23086939.060   121322705.763 7      6098.760    23086938.180   121322705.776 5      6098.760    23086946.300    94537131.698 5      4752.281
R24  20195925.360   107996686.140 8      2320.027    20195925.440   107996686.147 8      2320.027    20195936.080    83997468.250 8      1804.466    20195936.140    83997468.254 8      1804.466
G02  22080932.320   116036097.421 7      1811.290    22080930.900   116036097.426 6      1811.290    22080935.260    90417729.573 6      1411.395
> 2024 06 03 15 10 32.0000000  0 15
G03  20288459.620   106616590.311 8      1224.435    20288457.140   106616590.311 8      1224.435    20288464.040    83077866.873 8       954.105    20288466.060    83077883.869 8       954.105
G14  22560534.780   118556416.999 7       906.514    22560535.080   118556417.011 5       906.514    22560543.360    92381656.844 5       706.375    22560544.380    92381663.822 7       706.375
R02  19183183.000   102365140.578 8      3739.178    19183182.800   102365140.574 8      3739.178    19183191.300    79617366.126 8      2908.250    19183191.560    79617367.129 8      2908.250
R03  22033561.160   117947387.801 7      6730.056    22033559.520   117947387.810 7      6730.056    22033579.540    91736931.871 7      5234.488    22033579.800    91736935.881 7      5234.488
G17  21402987.480   112473455.219 7      4854.275    21402986.980   112473455.224 6      4854.275    21402991.560    87641667.962 6      3782.552    21402991.680    87641673.960 8      3782.552
G22  23097474.900   121378059.653 7      2221.949    23097473.720   121378059.663 5      2221.949    23097481.500    94580324.977 5      1731.389
G04  21233873.480   111584760.837 7      4694.328    21233872.040   111584760.852 6      4694.328    21233879.180    86949190.733 6      3657.918    21233879.720    86949188.735 8      3657.918
G21  23111466.100   121451572.462 7      1220.459    23111464.320   121451572.475 5      1220.459    23111471.260    94637607.035 5       951.007
R01  20504937.460   109610635.389 7      -205.452    20504937.120   109610635.398 7      -205.452    20504949.900    85252770.344 7      -159.796    20504948.740    85252767.339 7      -159.796
G08  24240533.380   127384853.545 5      -768.662    24240531.280   127384853.574 2      -768.662    24240551.180    99261000.517 3      -598.957    24240551.040    99261008.420 5      -598.957
R17  20771487.300   111152427.546 7      5066.589    20771487.120   111152427.545 7      5066.589    20771498.120    86451937.699 8      3940.680    20771498.420    86451935.705 8      3940.680
G09  23029557.820   121021149.836 6      6124.436    23029555.860   121021149.838 6      6124.436    23029571.040    94302252.656 6      4772.288    23029571.260    94302251.661 7      4772.288
G19  23085778.580   121316607.392 7      6098.171    23085777.660   121316607.399 5      6098.171    23085785.760    94532379.720 5      4751.822
R24  20195491.560   107994366.607 8      2319.300    20195491.600   107994366.613 8      2319.300    20195502.400    83995664.166 8      1803.900    20195502.340    83995664.170 8      1803.900
G02  22080587.800   116034286.510 7      1810.760    22080586.380   116034286.517 6      1810.760    22080590.560    90416318.472 6      1410.982
> 2024 06 03 15 10 33.0000000  0 15
G03  20288226.660   106615366.027 8      1224.107    20288224.300   106615366.032 8      1224.107    20288231.040    83076912.886 8       953.849    20288233.320    83076929.886 8       953.849
G14  22560362.320   118555510.447 7       906.635    22560362.560   118555510.455 5       906.635    22560370.620    92380950.428 5       706.468    22560371.800    92380957.406 7       706.468
R02  19182482.220   102361401.775 8      3738.509    19182482.120   102361401.766 8      3738.509    19182490.760    79614458.164 8      2907.729    19182490.920    79614459.170 8      2907.729
R03  22032303.900   117940657.839 7      6730.009    22032302.200   117940657.859 7      6730.009    22032322.640    91731697.471 7      5234.452    22032322.660    91731701.481 7      5234.452
G17  21402063.760   112468601.093 7      4854.055    21402063.240   112468601.095 6      4854.055    21402067.820    87637885.522 6      3782.380    21402068.160    87637891.524 8      3782.380
G22  23097051.960   121375837.821 7      2221.661    23097050.920   121375837.831 5      2221.661    23097058.720    94578593.678 5      1731.165
G04  21232980.040   111580066.645 7      4694.043    21232978.820   111580066.655 6      4694.043    21232986.000    86945532.919 6      3657.696    21232986.520    86945530.915 8      3657.696
G21  23111233.780   121450352.017 7      1220.410    23111232.040   121450352.027 5      1220.410    23111238.880    94636656.033 5       950.969
R01  20504976.060   109610841.089 7      -206.034    20504975.800   109610841.096 7      -206.034    20504988.540    85252930.329 7      -160.249    20504987.340    85252927.320 7      -160.249
G08  24240679.480   127385622.365 5      -769.072    24240677.700   127385622.388 2      -769.072    24240697.720    99261599.581 2      -599.277    24240698.160    99261607.447 5      -599.277
R17  20770540.320   111147361.039 7      5066.494    20770540.620   111147361.038 7      5066.494    20770551.240    86447997.082 8      3940.606    20770551.680    86447995.089 8      3940.606
G09  23028392.260   121015025.446 6      6124.535    23028390.560   121015025.454 6      6124.535    23028405.680    94297480.413 6      4772.365    23028405.800    94297479.422 7      4772.365
G19  23084618.060   121310509.257 7      6098.043    23084617.300   121310509.267 5      6098.043    23084625.080    94527627.933 5      4751.722
R24  20195058.160   107992047.528 8      2318.817    20195057.960   107992047.537 8      2318.817    20195068.660    83993860.444 8      1803.524    20195068.680    83993860.446 8      1803.524
G02  22080243.400   116032475.801 7      1810.619    22080241.920   116032475.808 6      1810.619    22080246.040    90414907.523 6      1410.872
> 2024 06 03 15 10 34.0000000  0 15
G03  20287993.820   106614142.077 8      1223.799    20287991.220   106614142.081 8      1223.799    20287998.060    83075959.154 8       953.609    20288000.220    83075976.152 8       953.609
G14  22560189.820   118554604.269 7       905.756    22560189.980   118554604.276 5       905.756    22560198.340    92380244.309 5       705.784    22560199.440    92380251.295 7       705.784
R02  19181781.780   102357663.835 8      3737.353    19181781.620   102357663.825 8      3737.353    19181790.240    79611550.875 8      2906.830    19181790.520    79611551.880 8      2906.830
R03  22031046.960   117933928.176 7      6729.210    22031046.040   117933928.188 7      6729.210    22031065.040    91726463.306 7      5233.830    22031065.540    91726467.311 7      5233.830
G17  21401140.160   112463747.272 7      4853.617    21401139.740   112463747.282 6      4853.617    21401143.980    87634103.334 6      3782.039    21401144.560    87634109.333 8      3782.039
G22  23096629.420   121373616.421 7      2220.972    23096628.140   121373616.433 5      2220.972    23096636.060    94576862.712 5      1730.628
G04  21232086.740   111575372.879 7      4693.346    21232085.680   111575372.892 6      4693.346    21232092.880    86941875.445 6      3657.153    21232093.160    86941873.441 8      3657.153
G21  23111001.540   121449131.659 7      1220.235    23110999.680   121449131.664 5      1220.235    23111006.580    94635705.106 5       950.833
R01  20505014.740   109611047.354 7      -206.433    20505014.460   109611047.355 7      -206.433    20505026.880    85253090.751 7      -160.559    20505025.940    85253087.741 7      -160.559
G08  24240824.300   127386391.158 5      -769.320    24240824.160   127386391.179 2      -769.320    24240844.040    99262198.628 2      -599.470    24240844.360    99262206.521 5      -599.470
R17  20769593.760   111142294.636 8      5066.457    20769593.000   111142294.624 7      5066.457    20769604.560    86444056.546 8      3940.578    20769604.720    86444054.551 8      3940.578
G09  23027226.840   121008901.165 6      6123.989    23027225.040   121008901.162 6      6123.989    23027239.920    94292708.252 6      4771.940    23027240.340    94292707.255 7      4771.940
G19  23083457.680   121304411.258 7      6097.945    23083456.880   121304411.266 5      6097.945    23083464.540    94522876.254 5      4751.646
R24  20194624.720   107989728.807 8      2318.524    20194624.540   107989728.819 8      2318.524    20194635.140    83992056.992 8      1803.296    20194635.320    83992056.999 8      1803.296
G02  22079898.900   116030665.199 7      1810.536    22079897.460   116030665.204 6      1810.536    22079901.480    90413496.667 6      1410.807
> 2024 06 03 15 10 35.0000000  0 15
G03  20287761.160   106612918.381 8      1223.440    20287758.520   106612918.381 8      1223.440    20287765.380    83075005.623 8       953.330    20287767.660    83075022.623 8       953.330
G14  22560017.320   118553698.437 7       905.738    22560017.540   118553698.448 5       905.738    22560026.040    92379538.460 5       705.770    22560026.880    92379545.451 7       705.770
R02  19181081.380   102353926.684 8      3736.730    19181081.360   102353926.679 8      3736.730    19181089.820    79608644.204 8      2906.346    19181090.140    79608645.209 8      2906.346
R03  22029789.840   117927198.864 7      6729.309    22029788.780   117927198.879 7      6729.309    22029808.420    91721229.403 7      5233.907    22029808.160    91721233.412 7      5233.907
G17  21400216.400   112458893.721 7      4853.347    21400216.160   112458893.723 6      4853.347    21400220.580    87630321.344 6      3781.829    21400220.880    87630327.342 8      3781.829
G22  23096206.680   121371395.467 7      2220.778    23096205.700   121371395.479 5      2220.778    23096213.520    94575132.093 5      1730.476
G04  21231193.620   111570679.533 7      4693.084    21231192.700   111570679.549 6      4693.084    21231199.740    86938218.297 6      3656.948    21231200.060    86938216.297 8      3656.948
G21  23110769.440   121447911.227 7      1220.217    23110767.340   121447911.231 5      1220.217    23110774.320    94634754.116 5       950.818
R01  20505053.640   109611254.059 7      -207.161    20505052.680   109611254.071 7      -207.161    20505065.740    85253251.528 7      -161.125    20505064.700    85253248.518 7      -161.125
G08  24240971.120   127387160.106 5      -768.969    24240970.520   127387160.122 2      -768.969    24240990.580    99262797.794 2      -599.197    24240991.040    99262805.687 5      -599.197
R17  20768646.980   111137228.212 7      5066.286    20768646.720   111137228.202 7      5066.286    20768657.520    86440115.998 8      3940.445    20768658.020    86440114.001 8      3940.445
G09  23026062.020   121002776.965 6      6124.250    23026059.620   121002776.967 6      6124.250    23026074.680    94287936.160 6      4772.143    23026075.060    94287935.167 7      4772.143
G19  23082297.440   121298313.302 7      6097.814    23082296.500   121298313.307 5      6097.814    23082304.080    94518124.608 5      4751.543
R24  20194191.200   107987410.396 8      2318.156    20194191.000   107987410.403 8      2318.156    20194201.460    83990253.779 8      1803.010    20194201.820    83990253.780 8      1803.010
G02  22079554.300   116028854.600 7      1810.471    22079552.840   116028854.603 6      1810.471    22079556.920    90412085.811 6      1410.757
> 2024 06 03 15 10 36.0000000  0 15
G03  20287528.220   106611695.201 8      1222.797    20287525.680   106611695.203 8      1222.797    20287532.460    83074052.500 8       952.829    20287534.820    83074069.498 8       952.829
G14  22559844.900   118552793.021 7       904.807    22559845.260   118552793.026 5       904.807    22559853.740    92378832.935 5       705.045    22559854.440    92378839.927 7       705.045
R02  19180381.220   102350190.493 8      3735.468    19180381.160   102350190.494 8      3735.468    19180389.540    79605738.290 8      2905.364    19180389.920    79605739.296 8      2905.364
R03  22028532.920   117920469.900 7      6728.342    22028531.380   117920469.904 7      6728.342    22028550.880    91715995.783 7      5233.155    22028551.220    91715999.792 7      5233.155
G17  21399292.920   112454040.630 7      4852.594    21399292.560   112454040.638 6      4852.594    21399296.940    87626539.719 6      3781.242    21399297.360    87626545.718 8      3781.242
G22  23095784.240   121369175.070 7      2219.676    23095783.140   121369175.082 5      2219.676    23095790.920    94573401.907 5      1729.618
G04  21230300.720   111565986.797 7      4692.256    21230299.740   111565986.810 6      4692.256    21230306.720    86934561.625 6      3656.303    21230307.200    86934559.627 8      3656.303
G21  23110537.380   121446691.118 7      1219.972    23110535.220   121446691.128 5      1219.972    23110542.060    94633803.369 5       950.628
R01  20505092.580   109611461.542 7      -207.858    20505091.740   109611461.546 7      -207.858    20505104.760    85253412.895 7      -161.667    20505103.600    85253409.892 7      -161.667
G08  24241117.460   127387929.310 5      -769.705    24241116.820   127387929.322 2      -769.705    24241137.180    99263397.157 2      -599.770    24241136.860    99263405.050 5      -599.770
R17  20767700.080   111132162.012 7      5065.927    20767700.080   111132162.005 7      5065.927    20767710.800    86436175.629 8      3940.165    20767711.240    86436173.629 8      3940.165
G09  23024896.180   120996652.973 7      6123.599    23024894.120   120996652.978 6      6123.599    23024909.220    94283164.236 6      4771.636    23024909.220    94283163.239 7      4771.636
G19  23081137.000   121292215.632 7      6097.325    23081136.020   121292215.637 5      6097.325    23081143.680    94513373.183 5      4751.162
R24  20193757.780   107985092.597 8      2317.456    20193757.440   107985092.607 8      2317.456    20193768.040    83988451.049 8      1802.466    20193768.240    83988451.054 8      1802.466
G02  22079210.060   116027044.375 7      1810.068    22079208.320   116027044.380 6      1810.068    22079212.480    90410675.243 6      1410.443
> 2024 06 03 15 10 37.0000000  0 15
G03  20287295.540   106610472.456 8      1222.542    20287293.020   106610472.456 8      1222.542    20287299.880    83073099.708 8       952.630    20287301.920    83073116.706 8       952.630
G14  22559672.620   118551888.091 7       904.702    22559673.120   118551888.096 5       904.702    22559681.560    92378127.791 5       704.963    22559682.300    92378134.787 7       704.963
R02  19179681.320   102346455.215 8      3734.792    19179681.140   102346455.210 8      3734.792    19179689.560    79602833.066 8      2904.839    19179690.060    79602834.073 8      2904.839
R03  22027276.040   117913741.289 7      6728.405    22027274.060   117913741.307 7      6728.405    22027294.140    91710762.446 7      5233.204    22027294.380    91710766.458 7      5233.204
G17  21398369.480   112449187.970 7      4852.545    21398369.280   112449187.975 6      4852.545    21398373.440    87622758.432 6      3781.204    21398373.880    87622764.429 8      3781.204
G22  23095361.720   121366955.269 7      2219.558    23095360.820   121366955.284 5      2219.558    23095368.400    94571672.194 5      1729.526
G04  21229407.860   111561294.568 7      4691.853    21229406.940   111561294.578 6      4691.853    21229413.740    86930905.341 6      3655.989    21229414.260    86930903.341 8      3655.989
G21  23110305.140   121445471.109 7      1219.765    23110303.080   121445471.108 5      1219.765    23110310.020    94632852.719 5       950.466
R01  20505131.440   109611669.685 7      -208.466    20505130.280   109611669.673 7      -208.466    20505143.400    85253574.768 7      -162.140    20505142.460    85253571.762 7      -162.140
G08  24241263.540   127388698.586 5      -769.307    24241263.200   127388698.599 2      -769.307    24241283.700    99263996.583 2      -599.460    24241283.840    99264004.472 5      -599.460
R17  20766753.420   111127096.013 7      5065.927    20766753.000   111127096.009 7      5065.927    20766764.460    86432235.412 8      3940.165    20766764.660    86432233.414 8      3940.165
G09  23023730.620   120990529.162 6      6123.742    23023728.820   120990529.167 6      6123.742    23023743.780    94278392.446 6      4771.747    23023744.160    94278391.441 7      4771.747
G19  23079976.880   121286118.251 7      6097.272    23079975.740   121286118.259 5      6097.272    23079983.420    94508621.981 5      4751.121
R24  20193324.520   107982775.237 8      2317.070    20193324.440   107982775.247 8      2317.070    20193334.600    83986648.656 8      1802.166    20193334.800    83986648.661 8      1802.166
G02  22078865.680   116025234.307 7      1809.859    22078863.840   116025234.314 6      1809.859    22078867.960    90409264.805 6      1410.280
> 2024 06 03 15 10 38.0000000  0 15
G03  20287062.960   106609250.238 8      1221.993    20287060.440   106609250.240 8      1221.993    20287067.340    83072147.330 8       952.202    20287069.400    83072164.332 8       952.202
G14  22559500.620   118550983.670 7       904.212    22559500.780   118550983.675 5       904.212    22559509.500    92377423.041 5       704.581    22559509.900    92377430.029 7       704.581
R02  19178981.520   102342720.988 8      3733.737    19178981.440   102342720.983 8      3733.737    19178989.760    79599928.671 8      2904.018    19178990.340    79599929.677 8      2904.018
R03  22026018.820   117907013.209 7      6727.804    22026017.400   117907013.229 7      6727.804    22026037.140    91705529.511 7      5232.736    22026037.100    91705533.521 7      5232.736
G17  21397445.880   112444335.817 7      4851.991    21397445.900   112444335.819 6      4851.991    21397450.200    87618977.531 6      3780.772    21397450.760    87618983.529 8      3780.772
G22  23094939.700   121364736.068 7      2218.991    23094938.420   121364736.083 5      2218.991    23094946.220    94569942.942 5      1729.084
G04  21228515.120   111556603.009 7      4691.257    21228514.080   111556603.019 6      4691.257    21228520.920    86927249.583 6      3655.525    21228521.560    86927247.583 8      3655.525
G21  23110072.760   121444251.381 7      1219.703    23110070.900   121444251.388 5      1219.703    23110077.800    94631902.274 5       950.418
R01  20505170.880   109611878.571 7      -209.164    20505169.520   109611878.567 7      -209.164    20505182.660    85253737.237 7      -162.683    20505181.520    85253734.232 7      -162.683
G08  24241410.400   127389468.268 5      -769.876    24241409.580   127389468.283 2      -769.876    24241430.100    99264596.325 2      -599.903    24241429.520    99264604.240 5      -599.903
R17  20765806.840   111122030.311 7      5065.598    20765805.820   111122030.302 7      5065.598    20765817.920    86428295.417 8      3939.910    20765818.100    86428293.420 8      3939.910
G09  23022565.600   120984405.676 6      6123.341    23022563.580   120984405.687 6      6123.341    23022578.380    94273620.915 6      4771.435    23022579.100    94273619.926 7      4771.435
G19  23078816.500   121280021.133 7      6097.131    23078815.680   121280021.138 5      6097.131    23078823.220    94503870.984 5      4751.011
R24  20192891.340   107980458.524 8      2316.491    20192891.200   107980458.537 8      2316.491    20192901.500    83984846.766 8      1801.715    20192901.600    83984846.773 8      1801.715
G02  22078521.160   116023424.593 7      1809.616    22078519.560   116023424.603 6      1809.616    22078523.820    90407854.636 6      1410.090
> 2024 06 03 15 10 39.0000000  0 15
G03  20586623.140   108183449.651 8      1221.463    20586620.600   108183449.650 8      1221.463    20586627.460    84298796.219 8       951.789    20586629.440    84298813.217 8       951.789
G14  22859121.480   120125500.627 7       903.623    22859121.320   120125500.632 5       903.623    22859130.160    93604319.365 5       704.122    22859130.800    93604326.351 7       704.122
R02  19478074.940   103938741.398 8      3732.673    19478074.960   103938741.394 8      3732.673    19478083.240    80841277.879 8      2903.190    19478083.740    80841278.885 8      2903.190
R03  22324555.660   119505104.753 7      6727.397    22324554.340   119505104.765 7      6727.397    22324574.060    92948489.611 7      5232.420    22324574.160    92948493.625 7      5232.420
G17  21696316.000   114014908.951 7      4851.320    21696316.000   114014908.950 6      4851.320    21696320.340    88842800.752 6      3780.249    21696321.000    88842806.752 8      3780.249
G22  23394310.380   122937939.709 7      2218.123    23394309.160   122937939.719 5      2218.123    23394316.880    95795815.910 5      1728.408
G04  21527415.780   113127336.660 7      4690.589    21527414.840   113127336.670 6      4690.589    21527421.700    88151197.887 6      3655.004    21527421.940    88151195.888 8      3655.004
G21  23409633.440   123018453.017 7      1219.346    23409631.800   123018453.021 5      1219.346    23409638.520    95858552.899 5       950.140
R01  20805002.260   111214650.399 7      -210.102    20805001.280   111214650.397 7      -210.102    20805014.280    86500337.549 7      -163.413    20805013.280    86500334.540 7      -163.413
G08  24541348.860   128965657.426 5      -770.037    24541348.480   128965657.442 2      -770.037    24541368.980   100492795.659 2      -600.029    24541369.080   100492803.527 5      -600.029
R17  21064653.840   112721219.867 7      5065.252    21064652.680   112721219.865 7      5065.252    21064664.600    87672109.526 8      3939.640    21064664.800    87672107.529 8      3939.640
G09  23321193.700   122553708.495 6      6123.045    23321192.000   122553708.499 6      6123.045    23321206.760    95496454.290 6      4771.204    23321207.500    95496453.293 7      4771.204
G19  23377449.940   122849350.392 7      6096.506    23377449.280   122849350.394 5      6096.506    23377456.580    95726724.956 5      4750.524
R24  20492250.980   109581269.568 8      2315.867    20492251.160   109581269.578 8      2315.867    20492261.020    85229922.018 8      1801.230    20492261.320    85229922.023 8      1801.230
G02  22377969.540   117597036.872 7      1809.262    22377968.160   117597036.876 6      1809.262    22377972.120    91634046.014 6      1409.815
> 2024 06 03 15 10 40.0000000  0 15
G03  20586390.600   108182228.199 8      1221.479    20586388.160   108182228.201 7      1221.479    20586395.100    84297844.438 7       951.802    20586397.380    84297861.436 7       951.802
G14  22858949.440   120124597.047 7       903.633    22858949.360   120124597.057 5       903.633    22858958.200    93603615.277 5       704.130    22858959.300    93603622.273 7       704.130
R02  19477375.480   103935008.884 8      3732.319    19477375.660   103935008.880 8      3732.319    19477383.860    80838374.813 7      2902.915    19477384.280    80838375.818 7      2902.915
R03  22323299.320   119498377.419 7      6727.471    22323297.540   119498377.431 7      6727.471    22323317.480    92943257.257 7      5232.478    22323317.580    92943261.263 7      5232.478
G17  21695392.800   114010057.557 7      4851.417    21695393.020   114010057.562 6      4851.417    21695397.160    88839020.452 6      3780.325    21695397.720    88839026.451 7      3780.325
G22  23393888.200   122935721.601 7      2218.060    23393886.920   122935721.608 5      2218.060    23393894.540    95794087.507 5      1728.359
G04  21526522.980   113122646.042 7      4690.592    21526522.220   113122646.052 6      4690.592    21526529.040    88147542.863 6      3655.007    21526529.360    88147540.861 8      3655.007
G21  23409401.080   123017233.452 7      1219.758    23409399.500   123017233.464 5      1219.758    23409406.200    95857602.580 5       950.461
R01  20805041.640   111214860.493 7      -210.251    20805040.420   111214860.500 7      -210.251    20805053.560    86500500.956 7      -163.529    20805052.480    86500497.948 7      -163.529
G08  24541495.600   128966427.331 5      -769.846    24541495.060   128966427.338 2      -769.846    24541515.660   100493395.568 2      -599.880    24541515.580   100493403.457 5      -599.880
R17  21063707.040   112716154.451 7      5065.561    21063705.580   112716154.450 7      5065.561    21063718.320    87668169.763 7      3939.881    21063718.160    87668167.765 7      3939.881
G09  23320028.540   122547585.280 7      6123.416    23320026.680   122547585.287 6      6123.416    23320041.620    95491682.968 6      4771.493    23320042.280    95491681.967 7      4771.493
G19  23376289.580   122843253.686 7      6096.838    23376289.120   122843253.689 5      6096.838    23376296.400    95721974.283 5      4750.783
R24  20491817.820   109578953.668 8      2315.876    20491818.120   109578953.675 8      2315.876    20491827.920    85228120.761 7      1801.237    20491828.100    85228120.767 7      1801.237
G02  22377625.260   117595227.426 8      1809.586    22377623.860   117595227.431 6      1809.586    22377627.860    91632636.058 6      1410.067
> 2024 06 03 15 10 41.0000000  0 15
G03  20586158.300   108181007.002 8      1221.133    20586155.740   108181007.002 8      1221.133    20586162.660    84296892.854 8       951.532    20586165.020    84296909.854 8       951.532
G14  22858777.560   120123693.764 7       903.075    22858777.680   120123693.780 5       903.075    22858786.280    93602911.416 5       703.695    22858787.100    93602918.410 7       703.695
R02  19476676.000   103931277.187 8      3731.281    19476676.260   103931277.185 8      3731.281    19476684.580    80835472.386 8      2902.108    19476684.740    80835473.389 8      2902.108
R03  22322042.040   119491650.350 7      6726.965    22322040.960   119491650.357 7      6726.965    22322060.940    92938025.101 7      5232.084    22322060.940    92938029.108 7      5232.084
G17  21694469.960   114005206.408 7      4851.001    21694469.940   114005206.405 6      4851.001    21694474.080    88835240.336 6      3780.001    21694474.460    88835246.337 8      3780.001
G22  23393466.120   122933503.860 7      2217.454    23393465.020   122933503.870 5      2217.454    23393472.600    95792359.394 5      1727.886
G04  21525630.760   113117955.865 7      4690.002    21525629.720   113117955.873 6      4690.002    21525636.540    88143888.184 6      3654.547    21525636.980    88143886.184 8      3654.547
G21  23409169.200   123016013.947 7      1219.526    23409167.460   123016013.941 5      1219.526    23409174.240    95856652.325 5       950.280
R01  20805080.840   111215071.071 7      -210.759    20805079.320   111215071.073 7      -210.759    20805093.120    86500664.737 7      -163.923    20805091.920    86500661.729 7      -163.923
G08  24541642.060   128967197.367 5      -769.983    24541641.520   128967197.375 2      -769.983    24541662.180   100493995.584 2      -599.987    24541663.500   100494003.469 5      -599.987
R17  21062760.740   112711089.035 7      5065.250    21062758.880   112711089.034 7      5065.250    21062771.740    87664229.997 8      3939.639    21062771.800    87664227.995 8      3939.639
G09  23318863.000   122541462.147 7      6123.072    23318861.600   122541462.162 6      6123.072    23318876.380    95486911.710 6      4771.225    23318877.120    95486910.705 7      4771.225
