     3.05           OBSERVATION DATA    MIXED               RINEX VERSION / TYPE
TPS2RIN 1.0.28.3459 TPS-USER            20260427 162811 UTC PGM / RUN BY / DATE
Win64 build Jun 01, 2022 (c) Topcon Positioning Systems     COMMENT
SRC: 20240603_GUI24.tps                                     COMMENT
Observer            Agency                                  OBSERVER / AGENCY
O0M3X53SBGM         TPS HIPER_SR        4.8 HSR Jul,08,2022 REC # / TYPE / VERS
FW: 4.8 HSR Jul,08,2022 p3                                  COMMENT
SN: HiPer SR 1212-12575                                     COMMENT
000                 TPSHIPER_SR     NONE                    ANT # / TYPE
        1.8000        0.0000        0.0000                  ANTENNA: DELTA H/E/N
GUI24                                                       MARKER NAME
  5391303.7019 -1592890.5847  3006327.8739                  APPROX POSITION XYZ
  2024     6     3    14     6   31.0000000     GPS         TIME OF FIRST OBS
  2024     6     3    14    21   30.0000000     GPS         TIME OF LAST OBS
     1.000                                                  INTERVAL
   900 EPOCHS                                               COMMENT
G   12 C1C L1C D1C C1W L1W D1W C2W L2W D2W C2X L2X D2X      SYS / # / OBS TYPES
R   12 C1C L1C D1C C1P L1P D1P C2P L2P D2P C2C L2C D2C      SYS / # / OBS TYPES
    16                                                      # OF SATELLITES
   G02   900   900   900   900   900   900   900   900   900PRN / # OF OBS
           0     0     0                                    PRN / # OF OBS
   G03   900   900   900   900   900   900   900   900   900PRN / # OF OBS
         900   900   900                                    PRN / # OF OBS
   G04   900   900   900   900   900   900   900   900   900PRN / # OF OBS
         900   900   900                                    PRN / # OF OBS
   G08   900   900   900   900   900   900   900   900   900PRN / # OF OBS
         900   900   900                                    PRN / # OF OBS
   G14   900   900   900   900   900   900   900   900   900PRN / # OF OBS
         900   900   900                                    PRN / # OF OBS
   G17   900   900   900   900   900   900   900   900   900PRN / # OF OBS
         900   900   900                                    PRN / # OF OBS
   G21   900   900   900   900   900   900   900   900   900PRN / # OF OBS
           0     0     0                                    PRN / # OF OBS
   G22   900   900   900   900   900   900   900   900   900PRN / # OF OBS
           0     0     0                                    PRN / # OF OBS
   R01   900   900   900   900   900   900   900   900   900PRN / # OF OBS
         900   900   900                                    PRN / # OF OBS
   R02   900   900   900   900   900   900   900   900   900PRN / # OF OBS
         900   900   900                                    PRN / # OF OBS
   R08   900   900   900   900   900   900   900   900   900PRN / # OF OBS
         900   900   900                                    PRN / # OF OBS
   R14   652   652   652   647   647   647   647   647   647PRN / # OF OBS
         646   646   646                                    PRN / # OF OBS
   R15   900   900   900   900   900   900   900   900   900PRN / # OF OBS
         900   900   900                                    PRN / # OF OBS
   R17   776   776   776   767   767   767   767   767   767PRN / # OF OBS
         765   765   765                                    PRN / # OF OBS
   R23   696   696   696   690   690   690     0     0     0PRN / # OF OBS
           0     0     0                                    PRN / # OF OBS
   R24   900   900   900   900   900   900   900   900   900PRN / # OF OBS
         900   900   900                                    PRN / # OF OBS
G L1C                                                       SYS / PHASE SHIFT
G L1W -0.25000                                              SYS / PHASE SHIFT
G L2W  0.00000                                              SYS / PHASE SHIFT
G L2X  0.25000                                              SYS / PHASE SHIFT
R L1C                                                       SYS / PHASE SHIFT
R L1P -0.25000                                              SYS / PHASE SHIFT
R L2P -0.25000                                              SYS / PHASE SHIFT
R L2C                                                       SYS / PHASE SHIFT
  8 R01  1 R02 -4 R08  6 R14 -7 R15  0 R17  4 R23  3 R24  2 GLONASS SLOT / FRQ #
                                                            GLONASS COD/PHS/BIS
               *** Undefined LeapSeconds ***                COMMENT
                                                            END OF HEADER
> 2024 06 03 14 06 31.0000000  0 15
G22  23632471.860   124189483.801 7      4158.840    23632471.600   124189483.817 4      4158.840    23632478.280    96771049.819 4      3240.654
R15  22819885.220   121942540.424 7      2370.319    22819882.460   121942540.425 6      2370.319    22819897.040    94844260.941 7      1843.582    22819898.000    94844256.939 7      1843.582
G02  21741823.120   114254049.905 7      2107.391    21741821.540   114254049.910 6      2107.391    21741824.980    89029135.912 6      1642.123
R14  22573111.520   120327377.633 6      -193.143    22573109.520   120327377.652 6      -193.143    22573128.160    93588015.609 6      -150.222    22573127.540    93588020.612 7      -150.222
R01  19579600.540   104664177.640 7      2837.791    19579601.500   104664177.649 7      2837.791    19579612.100    81405523.520 7      2207.171    19579611.360    81405519.519 7      2207.171
G08  22171764.100   116513401.045 7       153.326    22171762.460   116513401.055 7       153.326    22171772.640    90789694.371 7       119.475    22171773.880    90789698.374 8       119.475
G04  23331529.500   122608026.183 6      5680.565    23331529.080   122608026.199 4      5680.565    23331539.480    95538739.944 4      4426.415    23331540.740    95538770.964 7      4426.415
G21  22276305.540   117062754.360 7      1346.160    22276303.640   117062754.370 6      1346.160    22276308.280    91217741.149 6      1048.956
G17  23466800.320   123318872.887 7      5504.160    23466799.760   123318872.892 4      5504.160    23466806.000    96092652.721 5      4288.955    23466804.540    96092640.711 6      4288.955
R02  21119823.160   112699430.043 7      6348.399    21119821.560   112699430.031 7      6348.399    21119834.580    87655164.992 8      4937.644    21119835.160    87655166.997 8      4937.644
R08  22787052.040   122023632.181 7      -811.205    22787055.060   122023632.228 6      -811.205    22787068.020    94907326.478 7      -630.937    22787067.640    94907324.470 7      -630.937
G03  20010955.980   105158284.633 8      3077.036    20010955.140   105158284.635 8      3077.036    20010961.260    81941542.474 8      2397.691    20010962.080    81941544.479 8      2397.691
R24  20497965.560   109611832.397 7      3336.855    20497964.880   109611832.398 7      3336.855    20497975.900    85253690.379 7      2595.332    20497975.660    85253690.385 7      2595.332
G14  22089471.540   116080957.463 7      2879.052    22089470.400   116080957.470 5      2879.052    22089478.120    90452710.266 5      2243.417    22089477.720    90452718.268 8      2243.417
R17  22621119.460   121050176.292 5      4958.948    22621115.320   121050176.307 6      4958.948    22621133.440    94150192.795 7      3856.959    22621133.920    94150195.819 7      3856.959
> 2024 06 03 14 06 32.0000000  0 15
G22  23631680.740   124185325.163 7      4158.332    23631680.280   124185325.176 4      4158.332    23631686.860    96767809.325 4      3240.259
R15  22819441.660   121940170.246 7      2369.737    22819438.660   121940170.239 6      2369.737    22819453.420    94842417.463 7      1843.129    22819454.380    94842413.459 7      1843.129
G02  21741422.240   114251942.489 7      2107.415    21741420.540   114251942.493 6      2107.415    21741424.040    89027493.763 6      1642.141
R14  22573147.540   120327570.621 6      -193.101    22573146.120   120327570.635 6      -193.101    22573164.480    93588165.694 7      -150.190    22573163.300    93588170.695 7      -150.190
R01  19579069.640   104661340.335 7      2836.837    19579070.700   104661340.350 7      2836.837    19579081.500    81403316.736 7      2206.429    19579080.820    81403312.730 7      2206.429
G08  22171735.040   116513247.852 7       152.956    22171733.320   116513247.860 7       152.956    22171743.520    90789574.992 7       119.187    22171744.600    90789578.997 7       119.187
G04  23330448.720   122602345.577 7      5680.672    23330447.920   122602345.597 4      5680.672    23330458.700    95534313.507 4      4426.497    23330459.740    95534344.520 7      4426.497
G21  22276049.420   117061408.280 7      1346.119    22276047.660   117061408.285 6      1346.119    22276052.060    91216692.253 6      1048.924
G17  23465752.760   123313368.602 7      5504.245    23465752.340   123313368.599 5      5504.245    23465758.620    96088363.668 5      4289.022    23465757.120    96088351.656 6      4289.022
R02  21118632.920   112693081.875 7      6347.981    21118631.700   112693081.860 7      6347.981    21118645.140    87650227.534 8      4937.318    21118645.240    87650229.541 8      4937.318
R08  22787203.480   122024443.566 7      -811.600    22787206.900   122024443.600 6      -811.600    22787219.660    94907957.536 7      -631.244    22787219.260    94907955.529 7      -631.244
G03  20010370.580   105155207.802 8      3076.576    20010369.680   105155207.807 8      3076.576    20010375.720    81939144.942 8      2397.332    20010376.520    81939146.950 8      2397.332
R24  20497341.700   109608495.529 7      3336.763    20497341.120   109608495.523 7      3336.763    20497351.840    85251095.025 7      2595.260    20497351.760    85251095.028 7      2595.260
G14  22088923.580   116078078.594 7      2878.502    22088922.520   116078078.609 5      2878.502    22088930.420    90450466.998 5      2242.989    22088930.100    90450475.000 8      2242.989
R17  22620193.220   121045217.229 5      4959.066    22620186.460   121045217.276 6      4959.066    22620206.520    94146335.777 7      3857.051    22620207.120    94146338.808 7      3857.051
> 2024 06 03 14 06 33.0000000  0 14
G22  23630889.580   124181166.920 7      4158.240    23630889.080   124181166.932 4      4158.240    23630895.640    96764569.137 4      3240.187
R15  22818998.340   121937800.747 7      2369.228    22818995.340   121937800.743 6      2369.228    22819010.540    94840574.517 7      1842.733    22819011.120    94840570.513 7      1842.733
G02  21741021.200   114249835.072 7      2107.734    21741019.500   114249835.072 6      2107.734    21741023.100    89025851.618 6      1642.390
R14  22573183.680   120327763.776 6      -193.047    22573182.680   120327763.806 6      -193.047    22573199.700    93588315.936 7      -150.147    22573199.680    93588320.950 7      -150.147
R01  19578539.340   104658503.883 7      2836.213    19578540.320   104658503.906 7      2836.213    19578550.880    81401110.613 7      2205.943    19578549.700    81401106.609 7      2205.943
G08  22171705.940   116513094.944 7       152.955    22171704.440   116513094.954 7       152.955    22171714.680    90789455.840 7       119.186    22171715.320    90789459.841 7       119.186
G04  23329367.540   122596664.965 6      5680.910    23329367.160   122596664.980 4      5680.910    23329377.980    95529887.065 4      4426.683    23329378.740    95529918.085 7      4426.683
G21  22275793.360   117060062.171 7      1346.358    22275791.500   117060062.176 6      1346.358    22275795.960    91215643.337 6      1049.110
G17  23464705.160   123307864.286 7      5504.489    23464704.880   123307864.286 5      5504.489    23464711.260    96084074.595 5      4289.212    23464709.840    96084062.591 6      4289.212
R02  21117443.220   112686734.011 7      6347.859    21117442.100   112686734.009 7      6347.859    21117455.660    87645290.320 8      4937.224    21117455.740    87645292.326 8      4937.224
R08  22787354.920   122025255.350 7      -811.721    22787358.260   122025255.398 6      -811.721    22787371.040    94908588.932 7      -631.339    22787370.780    94908586.929 7      -631.339
G03  20009785.260   105152131.507 8      3076.200    20009784.280   105152131.509 8      3076.200    20009790.420    81936747.830 8      2397.039    20009791.100    81936749.839 8      2397.039
R24  20496717.500   109605158.718 7      3337.003    20496717.180   109605158.714 7      3337.003    20496727.820    85248499.740 7      2595.446    20496727.700    85248499.740 7      2595.446
G14  22088376.100   116075200.277 7      2878.114    22088374.720   116075200.290 5      2878.114    22088382.740    90448224.152 5      2242.686    22088382.340    90448232.155 8      2242.686
> 2024 06 03 14 06 34.0000000  0 14
G22  23630098.340   124177009.146 7      4157.382    23630097.900   124177009.156 4      4157.382    23630104.440    96761329.314 4      3239.519
R15  22818554.680   121935431.982 7      2368.239    22818551.820   121935431.965 6      2368.239    22818567.540    94838732.136 7      1841.964    22818567.980    94838728.130 7      1841.964
G02  21740620.080   114247727.622 7      2107.369    21740618.480   114247727.627 6      2107.369    21740621.940    89024209.447 6      1642.106
R14  22573219.700   120327957.233 6      -193.688    22573219.040   120327957.252 6      -193.688    22573236.580    93588466.386 6      -150.646    22573235.860    93588471.396 7      -150.646
R01  19578008.620   104655668.236 7      2835.137    19578009.700   104655668.261 7      2835.137    19578020.120    81398905.109 7      2205.107    19578019.320    81398901.110 7      2205.107
G08  22171676.780   116512942.277 7       152.408    22171675.560   116512942.285 7       152.408    22171685.620    90789336.873 7       118.759    22171686.460    90789340.876 8       118.759
G04  23328286.520   122590984.293 6      5680.693    23328286.240   122590984.305 4      5680.693    23328297.020    95525460.579 4      4426.514    23328298.180    95525491.602 7      4426.514
G21  22275537.140   117058715.965 7      1346.056    22275535.240   117058715.970 6      1346.056    22275539.920    91214594.345 6      1048.875
G17  23463657.800   123302359.952 7      5504.223    23463657.380   123302359.957 5      5504.223    23463663.700    96079785.507 5      4289.005    23463662.620    96079773.495 6      4289.005
R02  21116254.020   112680386.472 7      6347.275    21116252.560   112680386.468 7      6347.275    21116266.200    87640353.352 8      4936.769    21116266.440    87640355.356 8      4936.769
R08  22787507.140   122026067.499 7      -812.420    22787510.560   122026067.549 6      -812.420    22787523.060    94909220.595 7      -631.882    22787522.600    94909218.592 7      -631.882
G03  20009199.820   105149055.719 8      3075.417    20009198.980   105149055.724 8      3075.417    20009205.180    81934351.115 8      2396.429    20009205.800    81934353.125 8      2396.429
R24  20496093.280   109601821.928 7      3336.522    20496093.360   109601821.932 7      3336.522    20496103.680    85245904.461 7      2595.072    20496103.940    85245904.464 7      2595.072
G14  22087828.460   116072322.525 7      2877.281    22087826.980   116072322.538 5      2877.281    22087835.040    90445981.746 5      2242.037    22087835.000    90445989.747 7      2242.037
> 2024 06 03 14 06 35.0000000  0 14
G22  23629307.600   124172851.950 7      4157.144    23629306.880   124172851.958 4      4157.144    23629313.440    96758089.937 4      3239.333
R15  22818111.720   121933064.014 7      2367.829    22818109.020   121933064.010 6      2367.829    22818124.620    94836890.397 7      1841.645    22818124.780    94836886.387 7      1841.645
G02  21740219.180   114245620.371 7      2107.349    21740217.560   114245620.376 6      2107.349    21740220.940    89022567.433 6      1642.090
R14  22573256.200   120328151.042 6      -193.835    22573255.060   120328151.061 6      -193.835    22573272.420    93588617.114 7      -150.761    22573272.040    93588622.132 7      -150.761
R01  19577478.320   104652833.649 7      2834.171    19577479.560   104652833.669 7      2834.171    19577489.640    81396700.429 7      2204.355    19577489.320    81396696.425 7      2204.355
G08  22171647.720   116512790.063 7       152.058    22171646.520   116512790.073 7       152.058    22171656.600    90789218.264 7       118.487    22171657.480    90789222.265 7       118.487
G04  23327205.780   122585303.781 7      5680.555    23327205.240   122585303.793 4      5680.555    23327216.140    95521034.212 4      4426.406    23327216.820    95521065.237 7      4426.406
G21  22275280.860   117057369.922 7      1346.088    22275279.060   117057369.926 6      1346.088    22275283.860    91213545.478 6      1048.900
G17  23462610.320   123296855.775 7      5504.318    23462609.920   123296855.778 5      5504.318    23462616.360    96075496.544 5      4289.079    23462614.960    96075484.551 6      4289.079
R02  21115064.600   112674039.478 7      6346.773    21115063.080   112674039.471 7      6346.773    21115076.680    87635416.809 8      4936.379    21115077.000    87635418.813 8      4936.379
R08  22787658.680   122026880.335 7      -812.983    22787662.500   122026880.385 6      -812.983    22787674.620    94909852.801 7      -632.320    22787674.400    94909850.796 7      -632.320
G03  20008614.600   105145980.640 8      3074.875    20008613.860   105145980.642 8      3074.875    20008620.040    81931954.949 8      2396.007    20008620.740    81931956.956 8      2396.007
R24  20495469.760   109598485.387 8      3336.606    20495469.520   109598485.389 7      3336.606    20495479.940    85243309.372 7      2595.138    20495479.940    85243309.370 7      2595.138
G14  22087280.840   116069445.474 7      2876.889    22087279.500   116069445.490 5      2876.889    22087287.640    90443739.890 5      2241.732    22087287.420    90443747.888 8      2241.732
> 2024 06 03 14 06 36.0000000  0 14
G22  23628516.380   124168695.286 7      4156.493    23628515.860   124168695.298 4      4156.493    23628522.340    96754850.977 4      3238.826
R15  22817668.340   121930696.855 7      2366.847    22817665.720   121930696.859 6      2366.847    22817681.140    94835049.271 7      1840.881    22817681.940    94835045.261 7      1840.881
G02  21739818.320   114243513.146 7      2107.132    21739816.520   114243513.151 6      2107.132    21739819.860    89020925.438 6      1641.921
R14  22573292.540   120328345.346 6      -194.401    22573291.120   120328345.341 6      -194.401    22573309.520    93588768.210 7      -151.201    22573308.620    93588773.216 7      -151.201
R01  19576948.280   104649999.945 7      2833.195    19576949.260   104649999.965 7      2833.195    19576959.760    81394496.445 7      2203.596    19576959.020    81394492.437 7      2203.596
G08  22171618.900   116512638.239 7       151.661    22171617.500   116512638.242 7       151.661    22171627.740    90789099.948 7       118.177    22171628.620    90789103.953 7       118.177
G04  23326124.900   122579623.408 7      5680.382    23326124.200   122579623.420 4      5680.382    23326135.140    95516607.954 4      4426.271    23326136.020    95516638.970 7      4426.271
G21  22275024.580   117056023.836 7      1346.021    22275022.840   117056023.844 6      1346.021    22275027.680    91212496.581 6      1048.847
G17  23461563.020   123291351.664 7      5504.169    23461562.520   123291351.664 5      5504.169    23461568.960    96071207.631 5      4288.963    23461567.040    96071195.613 7      4288.963
R02  21113875.360   112667693.020 7      6346.158    21113874.000   112667693.012 7      6346.158    21113887.460    87630480.686 8      4935.901    21113887.720    87630482.689 8      4935.901
R08  22787810.840   122027693.584 7      -813.660    22787813.960   122027693.624 6      -813.660    22787826.620    94910485.305 7      -632.847    22787826.300    94910483.302 7      -632.847
G03  20008029.580   105142906.197 8      3074.059    20008028.880   105142906.202 8      3074.059    20008035.160    81929559.282 8      2395.371    20008035.480    81929561.289 8      2395.371
R24  20494845.700   109595149.012 7      3336.203    20494845.920   109595149.013 7      3336.203    20494856.220    85240714.415 7      2594.824    20494855.800    85240714.420 7      2594.824
G14  22086733.440   116066569.141 7      2876.078    22086732.120   116066569.151 5      2876.078    22086740.160    90441498.590 5      2241.100    22086739.960    90441506.587 8      2241.100
> 2024 06 03 14 06 37.0000000  0 14
G22  23627725.680   124164539.086 7      4156.055    23627724.920   124164539.099 4      4156.055    23627731.460    96751612.382 4      3238.484
R15  22817225.800   121928330.391 7      2365.983    22817223.220   121928330.400 6      2365.983    22817238.220    94833208.690 7      1840.209    22817238.800    94833204.689 7      1840.209
G02  21739417.040   114241405.998 7      2107.003    21739415.600   114241406.005 6      2107.003    21739418.760    89019283.506 6      1641.820
R14  22573329.680   120328539.901 6      -194.675    22573328.560   120328539.904 6      -194.675    22573346.460    93588919.531 7      -151.414    22573345.260    93588924.538 7      -151.414
R01  19576418.500   104647167.206 7      2832.203    19576419.240   104647167.226 7      2832.203    19576429.720    81392293.201 7      2202.825    19576429.380    81392289.196 7      2202.825
G08  22171590.160   116512486.789 7       151.336    22171588.720   116512486.792 7       151.336    22171598.820    90788981.931 7       117.924    22171599.560    90788985.934 7       117.924
G04  23325043.900   122573943.098 6      5680.277    23325043.200   122573943.111 4      5680.277    23325054.320    95512181.745 4      4426.190    23325055.240    95512212.780 7      4426.190
G21  22274768.680   117054677.817 7      1345.939    22274766.700   117054677.819 6      1345.939    22274771.700    91211447.728 6      1048.784
G17  23460515.800   123285847.572 7      5504.014    23460515.220   123285847.571 5      5504.014    23460521.300    96066918.726 5      4288.842    23460519.760    96066906.716 7      4288.842
R02  21112686.100   112661347.039 7      6345.768    21112684.880   112661347.032 7      6345.768    21112698.340    87625544.931 8      4935.597    21112698.420    87625546.935 8      4935.597
R08  22787962.600   122028507.313 7      -814.063    22787966.240   122028507.362 6      -814.063    22787979.180    94911118.207 7      -633.160    22787978.100    94911116.202 7      -633.160
G03  20007444.760   105139832.341 8      3073.462    20007444.100   105139832.348 8      3073.462    20007450.420    81927164.071 8      2394.906    20007450.580    81927166.075 8      2394.906
R24  20494221.620   109591812.848 7      3335.966    20494222.640   109591812.855 7      3335.966    20494232.020    85238119.623 7      2594.640    20494232.260    85238119.628 7      2594.640
G14  22086186.320   116063693.394 7      2875.382    22086184.860   116063693.407 5      2875.382    22086193.060    90439257.744 5      2240.557    22086192.880    90439265.745 8      2240.557
> 2024 06 03 14 06 38.0000000  0 14
G22  23626934.580   124160383.457 7      4155.249    23626934.340   124160383.469 4      4155.249    23626940.460    96748374.231 4      3237.856
R15  22816783.020   121925964.688 7      2365.194    22816780.460   121925964.684 6      2365.194    22816795.940    94831368.689 7      1839.596    22816796.140    94831364.689 7      1839.596
G02  21739015.980   114239299.002 7      2106.823    21739014.700   114239299.007 6      2106.823    21739017.880    89017641.687 6      1641.681
R14  22573366.180   120328734.765 6      -195.093    22573364.960   120328734.776 6      -195.093    22573382.660    93589071.090 7      -151.739    22573381.860    93589076.105 7      -151.739
R01  19575888.820   104644335.455 7      2831.040    19575889.240   104644335.478 7      2831.040    19575900.400    81390090.730 7      2201.920    19575899.460    81390086.725 7      2201.920
G08  22171561.240   116512335.765 7       150.595    22171560.000   116512335.770 7       150.595    22171570.260    90788864.244 7       117.347    22171570.780    90788868.246 7       117.347
G04  23323963.080   122568262.862 6      5679.960    23323962.160   122568262.877 4      5679.960    23323973.540    95507755.597 4      4425.943    23323974.320    95507786.626 7      4425.943
G21  22274512.380   117053331.926 7      1345.606    22274510.480   117053331.931 6      1345.606    22274515.580    91210398.976 6      1048.524
G17  23459468.520   123280343.574 7      5503.830    23459467.820   123280343.573 5      5503.830    23459474.020    96062629.900 5      4288.699    23459472.820    96062617.906 6      4288.699
R02  21111496.960   112655001.552 7      6345.061    21111495.760   112655001.542 7      6345.061    21111509.040    87620609.555 8      4935.047    21111509.440    87620611.560 8      4935.047
R08  22788114.360   122029321.678 7      -814.850    22788118.360   122029321.733 6      -814.850    22788130.800    94911751.598 7      -633.772    22788130.220    94911749.595 7      -633.772
G03  20006859.820   105136759.109 8      3072.792    20006859.300   105136759.109 8      3072.792    20006865.500    81924769.339 8      2394.383    20006865.680    81924771.346 8      2394.383
R24  20493597.940   109588476.925 7      3335.673    20493598.420   109588476.937 7      3335.673    20493608.480    85235525.022 7      2594.412    20493608.180    85235525.033 7      2594.412
G14  22085639.220   116060818.277 7      2874.681    22085637.720   116060818.295 5      2874.681    22085646.000    90437017.395 5      2240.011    22085645.900    90437025.394 8      2240.011
> 2024 06 03 14 06 39.0000000  0 14
G22  23626144.180   124156228.466 7      4155.024    23626143.560   124156228.478 4      4155.024    23626149.620    96745136.580 4      3237.681
R15  22816340.820   121923599.915 7      2364.734    22816338.600   121923599.914 6      2364.734    22816353.360    94829529.419 7      1839.238    22816353.780    94829525.415 7      1839.238
G02  21738615.060   114237192.114 8      2106.913    21738613.840   114237192.119 6      2106.913    21738616.960    89015999.956 6      1641.750
R14  22573402.760   120328930.141 6      -195.239    22573400.760   120328930.147 6      -195.239    22573419.000    93589223.030 7      -151.853    22573418.700    93589228.035 7      -151.853
R01  19575359.200   104641504.667 7      2830.139    19575359.540   104641504.687 7      2830.139    19575370.620    81387889.004 7      2201.219    19575369.760    81387885.001 7      2201.219
G08  22171532.580   116512185.082 7       150.342    22171531.120   116512185.089 7       150.342    22171541.400    90788746.824 7       117.150    22171542.260    90788750.835 7       117.150
G04  23322881.960   122562582.720 6      5680.024    23322881.200   122562582.736 4      5680.024    23322892.680    95503329.521 4      4425.993    23322893.160    95503360.552 7      4425.993
G21  22274256.300   117051986.030 7      1345.782    22274254.440   117051986.035 6      1345.782    22274259.540    91209350.230 6      1048.661
G17  23458421.340   123274839.765 7      5503.984    23458420.480   123274839.770 5      5503.984    23458426.660    96058341.224 5      4288.819    23458425.040    96058329.241 6      4288.819
R02  21110308.040   112648656.570 7      6344.690    21110307.040   112648656.557 7      6344.690    21110319.880    87615674.583 8      4934.759    21110320.460    87615676.586 8      4934.759
R08  22788266.400   122030136.547 7      -815.168    22788270.200   122030136.597 6      -815.168    22788282.840    94912385.371 7      -634.020    22788282.520    94912383.367 7      -634.020
G03  20006275.240   105133686.587 8      3072.234    20006274.640   105133686.595 8      3072.234    20006280.980    81922375.170 8      2393.949    20006280.920    81922377.179 8      2393.949
R24  20492974.320   109585141.196 7      3335.710    20492974.880   109585141.203 7      3335.710    20492985.100    85232930.561 7      2594.441    20492984.420    85232930.573 8      2594.441
G14  22085092.120   116057943.962 7      2874.292    22085090.980   116057943.978 5      2874.292    22085099.060    90434777.669 5      2239.708    22085099.320    90434785.668 8      2239.708
> 2024 06 03 14 06 40.0000000  0 14
G22  23625353.640   124152073.761 7      4154.348    23625353.080   124152073.779 4      4154.348    23625358.880    96741899.150 4      3237.154
R15  22815898.600   121921235.695 7      2363.732    22815896.960   121921235.691 6      2363.732    22815911.860    94827690.584 7      1838.458    22815911.200    94827686.584 7      1838.458
G02  21738214.160   114235085.257 7      2106.878    21738212.840   114235085.257 6      2106.878    21738216.060    89014358.248 6      1641.723
R14  22573439.260   120329125.623 6      -195.725    22573438.420   120329125.626 6      -195.725    22573454.920    93589375.076 7      -152.230    22573455.180    93589380.096 7      -152.230
R01  19574829.880   104638674.825 7      2829.352    19574830.760   104638674.839 7      2829.352    19574841.160    81385688.014 7      2200.607    19574840.300    81385684.008 7      2200.607
G08  22171503.960   116512034.833 7       150.201    22171502.900   116512034.835 7       150.201    22171513.180    90788629.745 7       117.039    22171514.020    90788633.750 8       117.039
G04  23321801.020   122556902.702 6      5679.989    23321800.180   122556902.718 4      5679.989    23321811.840    95498903.541 4      4425.966    23321812.320    95498934.580 7      4425.966
G21  22274000.320   117050640.194 7      1345.937    22273998.400   117050640.199 6      1345.937    22274003.220    91208301.527 6      1048.782
G17  23457373.820   123269335.796 7      5503.945    23457373.240   123269335.801 4      5503.945    23457379.420    96054052.427 5      4288.788    23457377.620    96054040.438 6      4288.788
R02  21109118.880   112642312.019 7      6344.383    21109117.660   112642312.015 7      6344.383    21109130.840    87610739.937 8      4934.520    21109131.620    87610741.944 8      4934.520
R08  22788418.680   122030951.879 7      -815.395    22788422.540   122030951.918 6      -815.395    22788434.700    94913019.516 7      -634.196    22788434.660    94913017.510 7      -634.196
G03  20005690.640   105130614.562 8      3071.794    20005689.920   105130614.567 8      3071.794    20005696.100    81919981.386 8      2393.606    20005696.420    81919983.393 8      2393.606
R24  20492350.500   109581805.551 7      3335.538    20492350.480   109581805.560 7      3335.538    20492361.260    85230336.178 7      2594.307    20492360.740    85230336.191 7      2594.307
G14  22084545.400   116055070.094 7      2873.490    22084544.100   116055070.106 5      2873.490    22084552.040    90432538.291 5      2239.083    22084552.420    90432546.286 8      2239.083
> 2024 06 03 14 06 41.0000000  0 14
G22  23624563.040   124147919.608 7      4154.062    23624562.600   124147919.626 4      4154.062    23624568.180    96738662.150 4      3236.932
R15  22815456.380   121918872.309 7      2363.025    22815454.420   121918872.316 7      2363.025    22815469.760    94825852.394 7      1837.909    22815469.540    94825848.393 7      1837.909
G02  21737813.560   114232978.366 7      2106.953    21737811.900   114232978.368 6      2106.953    21737815.100    89012716.519 6      1641.782
R14  22573475.980   120329321.497 6      -196.001    22573474.700   120329321.511 6      -196.001    22573491.660    93589527.416 7      -152.445    22573491.900    93589532.424 7      -152.445
R01  19574300.700   104635845.806 7      2828.621    19574301.440   104635845.820 7      2828.621    19574311.760    81383487.663 7      2200.038    19574311.040    81383483.656 7      2200.038
G08  22171475.440   116511884.864 7       149.879    22171474.420   116511884.869 7       149.879    22171484.740    90788512.880 7       116.789    22171485.740    90788516.885 8       116.789
G04  23320720.060   122551222.689 6      5680.058    23320719.120   122551222.705 4      5680.058    23320731.120    95494477.579 4      4426.020    23320732.060    95494508.600 7      4426.020
G21  22273743.780   117049294.283 7      1345.942    22273742.060   117049294.285 6      1345.942    22273747.020    91207252.758 6      1048.786
G17  23456326.220   123263831.921 7      5503.972    23456325.760   123263831.924 4      5503.972    23456332.120    96049763.698 5      4288.809    23456330.500    96049751.694 6      4288.809
R02  21107930.140   112635967.877 7      6343.917    21107929.040   112635967.875 7      6343.917    21107942.360    87605805.612 8      4934.158    21107942.640    87605807.618 8      4934.158
R08  22788571.280   122031767.596 7      -815.936    22788575.720   122031767.644 6      -815.936    22788587.240    94913653.958 7      -634.617    22788587.100    94913651.953 7      -634.617
G03  20005106.180   105127543.159 8      3071.098    20005105.540   105127543.164 8      3071.098    20005111.800    81917588.085 8      2393.063    20005111.900    81917590.094 8      2393.063
R24  20491726.400   109578469.970 7      3335.599    20491726.840   109578469.974 7      3335.599    20491737.320    85227741.831 7      2594.355    20491737.100    85227741.844 7      2594.355
G14  22083998.600   116052196.906 7      2872.986    22083997.220   116052196.918 5      2872.986    22084005.080    90430299.439 5      2238.691    22084005.720    90430307.436 8      2238.691
> 2024 06 03 14 06 42.0000000  0 14
G22  23623772.680   124143765.957 7      4153.461    23623772.200   124143765.972 4      4153.461    23623777.660    96735425.532 4      3236.463
R15  22815014.600   121916509.642 7      2362.235    22815013.080   121916509.651 7      2362.235    22815027.460    94824014.768 7      1837.294    22815027.420    94824010.766 7      1837.294
G02  21737412.760   114230871.599 7      2106.681    21737411.080   114230871.604 6      2106.681    21737414.380    89011074.878 6      1641.570
R14  22573513.580   120329517.569 6      -196.291    22573511.480   120329517.577 6      -196.291    22573528.780    93589679.902 7      -152.671    22573528.840    93589684.918 7      -152.671
R01  19573771.560   104633017.722 7      2827.718    19573772.100   104633017.737 7      2827.718    19573782.760    81381288.045 7      2199.337    19573782.140    81381284.038 7      2199.337
G08  22171447.180   116511735.190 7       149.586    22171445.900   116511735.193 7       149.586    22171456.280    90788396.243 7       116.561    22171457.520    90788400.256 8       116.561
G04  23319639.280   122545542.684 6      5679.983    23319638.240   122545542.700 4      5679.983    23319650.100    95490051.601 4      4425.961    23319650.980    95490082.624 7      4425.961
G21  22273487.660   117047948.410 7      1345.869    22273486.000   117047948.415 5      1345.869    22273491.140    91206204.031 6      1048.729
G17  23455278.840   123258328.112 7      5503.708    23455278.500   123258328.117 4      5503.708    23455284.760    96045475.020 5      4288.604    23455283.300    96045463.032 6      4288.604
R02  21106741.200   112629624.074 7      6343.549    21106739.980   112629624.069 7      6343.549    21106753.160    87600871.549 8      4933.872    21106753.760    87600873.557 8      4933.872
R08  22788723.420   122032583.833 7      -816.463    22788727.660   122032583.886 6      -816.463    22788739.520    94914288.805 7      -635.027    22788739.600    94914286.800 7      -635.027
G03  20004521.760   105124472.311 8      3070.538    20004521.120   105124472.313 8      3070.538    20004527.500    81915195.216 8      2392.627    20004527.840    81915197.221 8      2392.627
R24  20491103.020   109575134.584 8      3335.349    20491103.200   109575134.593 7      3335.349    20491113.540    85225147.638 7      2594.160    20491113.420    85225147.653 7      2594.160
G14  22083451.980   116049324.325 7      2872.185    22083450.680   116049324.337 5      2872.185    22083458.440    90428061.068 5      2238.066    22083459.020    90428069.068 8      2238.066
> 2024 06 03 14 06 43.0000000  0 14
G22  23622982.120   124139612.861 7      4152.890    23622981.860   124139612.879 4      4152.890    23622987.420    96732189.357 4      3236.018
R15  22814572.020   121914147.803 7      2361.372    22814571.320   121914147.820 7      2361.372    22814585.320    94822177.780 7      1836.623    22814585.340    94822173.772 7      1836.623
G02  21737011.820   114228764.753 7      2106.994    21737010.180   114228764.758 6      2106.994    21737013.300    89009433.173 6      1641.814
R14  22573550.420   120329714.117 6      -196.720    22573547.280   120329714.097 6      -196.720    22573566.680    93589832.731 7      -153.005    22573565.740    93589837.733 7      -153.005
R01  19573242.200   104630190.462 7      2827.010    19573242.720   104630190.474 7      2827.010    19573253.840    81379089.073 7      2198.785    19573253.020    81379085.062 7      2198.785
G08  22171418.720   116511585.769 7       149.498    22171417.140   116511585.776 7       149.498    22171427.540    90788279.809 7       116.492    22171429.020    90788283.828 8       116.492
G04  23318558.500   122539862.661 6      5680.157    23318557.320   122539862.677 4      5680.157    23318569.340    95485625.617 4      4426.096    23318569.800    95485656.644 7      4426.096
G21  22273231.720   117046602.409 7      1346.211    22273229.900   117046602.411 6      1346.211    22273235.220    91205155.195 6      1048.996
G17  23454231.520   123252824.351 7      5503.811    23454231.020   123252824.356 5      5503.811    23454237.400    96041186.378 5      4288.684    23454235.440    96041174.385 6      4288.684
R02  21105552.700   112623280.689 7      6343.286    21105551.700   112623280.679 7      6343.286    21105564.500    87595937.814 8      4933.667    21105565.060    87595939.826 8      4933.667
R08  22788876.240   122033400.410 7      -816.637    22788880.080   122033400.452 6      -816.637    22788892.500    94914923.904 7      -635.162    22788892.260    94914921.897 7      -635.162
G03  20003937.580   105121402.046 8      3070.072    20003937.080   105121402.048 8      3070.072    20003943.420    81912802.796 8      2392.264    20003943.840    81912804.803 8      2392.264
R24  20490479.300   109571799.291 8      3335.318    20490480.280   109571799.295 7      3335.318    20490490.060    85222553.515 7      2594.136    20490489.740    85222553.522 8      2594.136
G14  22082905.600   116046452.432 7      2871.587    22082904.280   116046452.442 5      2871.587    22082912.060    90425823.230 5      2237.600    22082912.580    90425831.217 8      2237.600
> 2024 06 03 14 06 44.0000000  0 14
G22  23622191.780   124135460.182 7      4152.558    23622191.660   124135460.200 4      4152.558    23622197.400    96728953.504 4      3235.760
R15  22814130.320   121911786.573 7      2361.096    22814130.160   121911786.582 7      2361.096    22814143.820    94820341.270 7      1836.408    22814143.700    94820337.262 7      1836.408
G02  21736610.920   114226658.159 7      2106.677    21736609.300   114226658.164 6      2106.677    21736612.260    89007791.669 6      1641.567
R14  22573587.200   120329910.754 6      -196.523    22573583.680   120329910.749 6      -196.523    22573603.260    93589985.687 7      -152.851    22573602.660    93589990.699 7      -152.851
R01  19572713.440   104627364.332 7      2825.731    19572713.980   104627364.342 7      2825.731    19572725.020    81376890.962 7      2197.791    19572724.280    81376886.952 7      2197.791
G08  22171390.320   116511436.917 7       148.727    22171388.800   116511436.917 7       148.727    22171398.980    90788163.812 7       115.891    22171400.260    90788167.831 7       115.891
G04  23317477.500   122534182.843 6      5679.655    23317476.300   122534182.861 4      5679.655    23317488.440    95481199.793 4      4425.705    23317489.180    95481230.828 7      4425.705
G21  22272975.460   117045256.658 7      1345.902    22272974.080   117045256.657 6      1345.902    22272979.360    91204106.555 6      1048.754
G17  23453184.240   123247320.584 7      5504.019    23453183.400   123247320.592 5      5504.019    23453190.080    96036897.737 5      4288.846    23453188.220    96036885.776 6      4288.846
R02  21104363.820   112616937.844 7      6342.640    21104363.100   112616937.837 7      6342.640    21104375.820    87591004.502 8      4933.164    21104376.300    87591006.514 8      4933.164
R08  22789028.280   122034217.684 7      -817.540    22789032.560   122034217.736 6      -817.540    22789045.120    94915559.569 7      -635.865    22789044.840    94915557.568 7      -635.865
G03  20003353.340   105118332.411 8      3069.461    20003352.980   105118332.414 8      3069.461    20003359.220    81910410.877 8      2391.787    20003359.640    81910412.884 8      2391.787
R24  20489855.480   109568464.293 8      3334.978    20489856.700   109568464.305 7      3334.978    20489866.520    85219959.638 7      2593.872    20489866.140    85219959.647 8      2593.872
G14  22082359.400   116043581.062 7      2871.223    22082358.160   116043581.075 5      2871.223    22082365.480    90423585.799 5      2237.317    22082366.140    90423593.792 8      2237.317
> 2024 06 03 14 06 45.0000000  0 14
G22  23621401.860   124131307.955 7      4152.280    23621401.540   124131307.970 4      4152.280    23621407.240    96725718.002 4      3235.543
R15  22813688.800   121909426.083 7      2360.490    22813688.780   121909426.095 7      2360.490    22813702.000    94818505.338 7      1835.937    22813702.080    94818501.336 7      1835.937
G02  21736209.820   114224551.404 7      2106.848    21736208.280   114224551.409 6      2106.848    21736211.220    89006150.038 6      1641.700
R14  22573623.800   120330107.902 6      -196.978    22573621.160   120330107.889 6      -196.978    22573640.300    93590138.992 7      -153.205    22573639.840    93590143.995 7      -153.205
R01  19572184.700   104624538.895 7      2825.012    19572185.060   104624538.915 7      2825.012    19572196.840    81374693.416 7      2197.232    19572195.680    81374689.404 7      2197.232
G08  22171361.980   116511288.239 7       148.480    22171360.400   116511288.244 7       148.480    22171370.520    90788047.955 7       115.699    22171371.980    90788051.980 7       115.699
G04  23316396.360   122528502.980 6      5679.700    23316395.300   122528502.998 4      5679.700    23316407.600    95476773.936 4      4425.740    23316408.300    95476804.975 7      4425.740
G21  22272719.540   117043910.685 7      1346.034    22272717.980   117043910.688 6      1346.034    22272723.280    91203057.743 6      1048.858
G17  23452137.120   123241816.817 7      5504.055    23452135.980   123241816.822 5      5504.055    23452142.720    96032609.092 5      4288.874    23452140.820    96032597.117 6      4288.874
R02  21103175.140   112610595.436 7      6342.223    21103174.480   112610595.423 7      6342.223    21103187.160    87586071.522 8      4932.840    21103187.740    87586073.532 8      4932.840
R08  22789181.260   122035035.208 7      -817.744    22789184.960   122035035.250 6      -817.744    22789197.920    94916195.407 7      -636.023    22789197.480    94916193.404 7      -636.023
G03  20002769.220   105115263.295 8      3069.005    20002768.980   105115263.294 8      3069.005    20002775.260    81908019.353 8      2391.432    20002775.500    81908021.364 8      2391.432
R24  20489231.780   109565129.209 7      3335.149    20489232.960   109565129.224 7      3335.149    20489242.820    85217365.680 8      2594.005    20489242.600    85217365.688 7      2594.005
G14  22081813.040   116040710.328 7      2870.741    22081811.960   116040710.336 5      2870.741    22081819.300    90421348.859 5      2236.941    22081820.140    90421356.844 8      2236.941
> 2024 06 03 14 06 46.0000000  0 14
G22  23620611.720   124127156.049 7      4151.786    23620611.520   124127156.059 4      4151.786    23620617.300    96722482.745 4      3235.158
R15  22813246.900   121907066.119 7      2359.721    22813247.080   121907066.134 7      2359.721    22813260.820    94816669.804 7      1835.338    22813260.540    94816665.809 7      1835.338
G02  21735808.960   114222444.658 8      2106.817    21735807.340   114222444.660 6      2106.817    21735810.280    89004508.416 6      1641.676
R14  22573660.720   120330305.122 6      -197.444    22573657.720   120330305.117 6      -197.444    22573677.400    93590292.389 7      -153.568    22573676.880    93590297.393 7      -153.568
R01  19571656.200   104621714.329 7      2824.252    19571656.640   104621714.349 7      2824.252    19571668.140    81372496.529 7      2196.640    19571667.440    81372492.511 7      2196.640
G08  22171333.960   116511139.845 7       148.449    22171332.300   116511139.844 7       148.449    22171342.600    90787932.317 7       115.674    22171343.420    90787936.342 8       115.674
G04  23315315.560   122522823.059 6      5680.103    23315314.260   122522823.077 4      5680.103    23315326.760    95472348.030 4      4426.055    23315327.860    95472379.063 7      4426.055
G21  22272463.500   117042564.695 7      1346.102    22272461.940   117042564.700 6      1346.102    22272467.220    91202008.920 6      1048.910
G17  23451089.700   123236312.935 7      5503.875    23451088.620   123236312.940 5      5503.875    23451095.140    96028320.356 5      4288.734    23451093.320    96028308.371 6      4288.734
R02  21101986.960   112604253.292 7      6342.127    21101985.420   112604253.274 7      6342.127    21101998.620    87581138.748 8      4932.766    21101999.220    87581140.760 8      4932.766
R08  22789334.420   122035853.194 7      -818.061    22789338.400   122035853.222 6      -818.061    22789350.900    94916831.597 7      -636.270    22789350.620    94916829.598 7      -636.270
G03  20002185.460   105112194.646 8      3068.479    20002185.060   105112194.645 8      3068.479    20002191.420    81905628.200 8      2391.023    20002191.540    81905630.205 8      2391.023
R24  20488607.940   109561794.227 8      3334.966    20488609.620   109561794.242 7      3334.966    20488619.300    85214771.804 8      2593.863    20488619.240    85214771.809 8      2593.863
G14  22081267.020   116037840.020 7      2869.997    22081265.540   116037840.030 5      2869.997    22081273.160    90419112.257 5      2236.362    22081273.700    90419120.253 8      2236.362
> 2024 06 03 14 06 47.0000000  0 14
G22  23619821.680   124123004.602 7      4151.089    23619821.400   124123004.617 4      4151.089    23619827.360    96719247.851 4      3234.615
R15  22812805.480   121904706.866 7      2358.654    22812806.040   121904706.881 7      2358.654    22812819.340    94814834.836 7      1834.509    22812819.200    94814830.830 7      1834.509
G02  21735408.080   114220337.912 7      2106.440    21735406.440   114220337.917 6      2106.440    21735409.400    89002866.795 6      1641.382
R14  22573697.980   120330502.550 6      -197.545    22573694.740   120330502.540 6      -197.545    22573714.760    93590445.930 7      -153.646    22573713.700    93590450.942 7      -153.646
R01  19571128.120   104618890.639 7      2822.990    19571128.580   104618890.649 7      2822.990    19571139.840    81370300.320 7      2195.659    19571139.120    81370296.302 7      2195.659
G08  22171306.000   116510991.797 7       147.595    22171304.180   116510991.800 7       147.595    22171314.400    90787816.953 7       115.009    22171315.640    90787820.979 8       115.009
G04  23314235.220   122517143.225 6      5679.511    23314233.380   122517143.243 4      5679.511    23314246.000    95467922.193 4      4425.593    23314246.680    95467953.220 7      4425.593
G21  22272207.340   117041218.665 7      1345.754    22272205.720   117041218.667 6      1345.754    22272211.120    91200960.067 6      1048.639
G17  23450042.160   123230809.026 7      5503.735    23450041.260   123230809.034 5      5503.735    23450047.700    96024031.602 5      4288.624    23450045.820    96024019.605 6      4288.624
R02  21100798.340   112597911.570 7      6341.268    21100797.200   112597911.563 7      6341.268    21100810.180    87576206.312 8      4932.098    21100810.920    87576208.322 8      4932.098
R08  22789487.340   122036671.570 7      -818.925    22789491.200   122036671.601 6      -818.925    22789503.920    94917468.106 7      -636.942    22789503.260    94917466.105 7      -636.942
G03  20001601.600   105109126.546 8      3067.618    20001601.220   105109126.548 8      3067.618    20001607.640    81903237.473 8      2390.352    20001607.740    81903239.482 8      2390.352
R24  20487984.780   109558459.352 8      3334.587    20487985.960   109558459.361 7      3334.587    20487995.520    85212178.006 8      2593.567    20487995.560    85212178.007 8      2593.567
G14  22080720.880   116034970.298 7      2869.261    22080719.660   116034970.313 5      2869.261    22080727.020    90416876.108 5      2235.787    22080727.660    90416884.103 8      2235.787
> 2024 06 03 14 06 48.0000000  0 14
G22  23619032.100   124118853.728 7      4150.685    23619031.280   124118853.746 4      4150.685    23619037.260    96716013.406 4      3234.300
R15  22812364.180   121902348.362 7      2358.286    22812365.340   121902348.371 7      2358.286    22812378.060    94813000.433 7      1834.222    22812378.100    94812996.442 7      1834.222
G02  21735007.520   114218231.412 7      2106.623    21735005.780   114218231.423 6      2106.623    21735008.680    89001225.371 6      1641.524
R14  22573734.920   120330700.389 6      -197.966    22573733.260   120330700.400 6      -197.966    22573750.740    93590599.823 7      -153.974    22573751.020    93590604.839 7      -153.974
R01  19570600.540   104616068.110 7      2822.229    19570600.560   104616068.130 7      2822.229    19570612.160    81368105.022 7      2195.067    19570611.160    81368101.008 7      2195.067
G08  22171277.700   116510844.365 7       147.357    22171276.560   116510844.367 7       147.357    22171286.760    90787702.067 7       114.824    22171287.960    90787706.080 8       114.824
G04  23313154.580   122511463.656 6      5679.664    23313152.700   122511463.674 4      5679.664    23313165.160    95463496.563 4      4425.713    23313165.980    95463527.598 7      4425.713
G21  22271951.200   117039872.908 7      1345.865    22271949.680   117039872.910 6      1345.865    22271954.980    91199911.417 6      1048.726
G17  23448995.180   123225305.230 7      5503.930    23448993.900   123225305.235 5      5503.930    23449000.300    96019742.932 5      4288.776    23448998.520    96019730.933 6      4288.776
R02  21099610.220   112591570.549 7      6340.853    21099608.460   112591570.537 7      6340.853    21099621.900    87571274.399 8      4931.775    21099622.580    87571276.408 8      4931.775
R08  22789640.820   122037490.621 7      -819.081    22789644.160   122037490.655 6      -819.081    22789655.700    94918105.140 7      -637.063    22789656.140    94918103.134 7      -637.063
G03  20001017.920   105106059.210 8      3067.102    20001017.340   105106059.210 8      3067.102    20001023.840    81900847.344 8      2389.950    20001024.260    81900849.349 8      2389.950
R24  20487360.920   109555124.813 7      3334.588    20487361.920   109555124.828 7      3334.588    20487371.760    85209584.483 7      2593.568    20487371.680    85209584.485 8      2593.568
G14  22080174.800   116032101.280 7      2868.737    22080173.640   116032101.287 5      2868.737    22080180.880    90414640.505 5      2235.379    22080181.740    90414648.503 8      2235.379
> 2024 06 03 14 06 49.0000000  0 14
G22  23618242.380   124114703.280 7      4150.135    23618241.440   124114703.296 4      4150.135    23618247.220    96712779.285 4      3233.872
R15  22811922.840   121899990.642 7      2357.227    22811924.340   121899990.654 7      2357.227    22811937.020    94811166.647 7      1833.399    22811937.220    94811162.654 7      1833.399
G02  21734606.540   114216124.766 7      2106.583    21734605.080   114216124.773 6      2106.583    21734607.880    88999583.831 6      1641.493
R14  22573771.880   120330898.502 6      -198.422    22573771.440   120330898.494 6      -198.422    22573787.260    93590753.890 7      -154.329    22573787.780    93590758.902 7      -154.329
R01  19570072.680   104613246.222 7      2821.277    19570072.780   104613246.245 7      2821.277    19570084.380    81365910.224 7      2194.327    19570083.200    81365906.212 7      2194.327
G08  22171249.860   116510696.961 7       147.122    22171248.540   116510696.961 7       147.122    22171259.000    90787587.202 7       114.640    22171260.140    90787591.211 8       114.640
G04  23312073.440   122505783.877 7      5679.598    23312072.120   122505783.900 4      5679.598    23312084.480    95459070.776 4      4425.660    23312085.520    95459101.817 7      4425.660
G21  22271695.020   117038526.883 7      1345.970    22271693.520   117038526.883 6      1345.970    22271698.500    91198862.567 6      1048.808
G17  23447947.560   123219801.443 7      5503.690    23447946.640   123219801.445 5      5503.690    23447953.100    96015454.273 5      4288.589    23447951.200    96015442.269 6      4288.589
R02  21098422.040   112585229.670 7      6340.597    21098420.220   112585229.663 7      6340.597    21098433.700    87566342.618 8      4931.575    21098434.420    87566344.628 8      4931.575
R08  22789794.140   122038309.897 7      -819.543    22789797.220   122038309.947 6      -819.543    22789808.700    94918742.365 7      -637.422    22789808.980    94918740.357 7      -637.422
G03  20000434.360   105102992.290 8      3066.569    20000433.640   105102992.292 8      3066.569    20000440.280    81898457.538 8      2389.535    20000440.620    81898459.541 8      2389.535
R24  20486737.180   109551790.187 7      3334.580    20486738.240   109551790.188 7      3334.580    20486748.120    85206990.876 7      2593.562    20486748.320    85206990.878 8      2593.562
G14  22079628.800   116029232.839 7      2867.937    22079627.640   116029232.852 5      2867.937    22079634.800    90412405.357 5      2234.756    22079635.880    90412413.361 8      2234.756
> 2024 06 03 14 06 50.0000000  0 14
G22  23617452.580   124110553.437 7      4149.408    23617451.480   124110553.449 4      4149.408    23617457.400    96709545.644 4      3233.305
R15  22811482.000   121897633.733 7      2356.414    22811483.400   121897633.747 7      2356.414    22811495.880    94809333.491 7      1832.766    22811496.020    94809329.500 7      1832.766
G02  21734205.660   114214018.235 8      2106.287    21734204.120   114214018.237 6      2106.287    21734206.800    88997942.376 6      1641.263
R14  22573809.040   120331096.996 7      -198.747    22573807.440   120331096.988 6      -198.747    22573825.380    93590908.268 7      -154.581    22573824.880    93590913.276 7      -154.581
R01  19569544.860   104610425.275 7      2820.319    19569545.000   104610425.292 7      2820.319    19569556.520    81363716.152 7      2193.582    19569555.620    81363712.136 7      2193.582
G08  22171221.760   116510549.928 7       146.720    22171220.540   116510549.930 7       146.720    22171230.880    90787472.629 7       114.328    22171232.520    90787476.648 8       114.328
G04  23310992.500   122500104.185 7      5679.641    23310991.500   122500104.205 4      5679.641    23311003.740    95454645.050 4      4425.694    23311004.900    95454676.083 7      4425.694
G21  22271438.620   117037180.919 7      1345.692    22271437.460   117037180.926 6      1345.692    22271442.540    91197813.763 6      1048.591
G17  23446900.440   123214297.773 7      5503.441    23446899.380   123214297.770 5      5503.441    23446905.780    96011165.695 5      4288.396    23446903.820    96011153.687 6      4288.396
R02  21097233.720   112578889.338 7      6340.027    21097232.500   112578889.336 7      6340.027    21097245.600    87561411.268 8      4931.132    21097246.340    87561413.279 8      4931.132
R08  22789947.180   122039129.711 7      -820.371    22789950.460   122039129.777 6      -820.371    22789962.520    94919380.000 7      -638.067    22789962.240    94919377.995 7      -638.067
G03  19999850.920   105099926.043 8      3065.808    19999850.220   105099926.045 8      3065.808    19999856.880    81896068.252 8      2388.941    19999857.340    81896070.259 8      2388.941
R24  20486113.440   109548455.771 7      3334.097    20486114.780   109548455.778 7      3334.097    20486124.880    85204397.444 7      2593.186    20486124.800    85204397.446 8      2593.186
G14  22079083.140   116026365.088 7      2867.282    22079081.980   116026365.098 5      2867.282    22079088.980    90410170.748 5      2234.246    22079090.020    90410178.753 8      2234.246
> 2024 06 03 14 06 51.0000000  0 14
G22  23616663.200   124106404.026 7      4148.988    23616661.860   124106404.039 4      4148.988    23616667.600    96706312.340 4      3232.977
R15  22811041.160   121895277.531 7      2355.604    22811043.140   121895277.559 7      2355.604    22811055.300    94807500.898 7      1832.136    22811055.100    94807496.901 7      1832.136
G02  21733804.620   114211911.683 7      2106.415    21733803.140   114211911.685 6      2106.415    21733806.000    88996300.899 6      1641.362
R14  22573846.300   120331295.754 7      -199.149    22573844.260   120331295.739 6      -199.149    22573862.720    93591062.839 7      -154.894    22573862.300    93591067.849 7      -154.894
R01  19569017.400   104607605.156 7      2819.665    19569017.080   104607605.163 7      2819.665    19569029.080    81361522.716 7      2193.073    19569028.160    81361518.706 7      2193.073
G08  22171193.860   116510403.141 7       146.402    22171192.440   116510403.144 7       146.402    22171202.880    90787358.242 7       114.080    22171204.360    90787362.261 8       114.080
G04  23309911.780   122494424.440 6      5679.482    23309910.780   122494424.458 4      5679.482    23309922.840    95450219.281 4      4425.571    23309923.720    95450250.306 7      4425.571
G21  22271182.600   117035834.907 7      1345.812    22271181.240   117035834.909 5      1345.812    22271186.460    91196764.917 6      1048.685
G17  23445853.040   123208794.085 7      5503.453    23445852.060   123208794.085 5      5503.453    23445858.520    96006877.115 5      4288.405    23445856.800    96006865.126 6      4288.405
R02  21096045.600   112572549.324 7      6339.638    21096044.420   112572549.324 7      6339.638    21096057.360    87556480.149 8      4930.829    21096058.300    87556482.163 8      4930.829
R08  22790100.080   122039949.948 7      -820.593    22790104.260   122039950.011 6      -820.593    22790115.540    94920017.960 7      -638.239    22790115.420    94920015.957 7      -638.239
G03  19999267.340   105096860.276 8      3065.306    19999266.920   105096860.281 8      3065.306    19999273.580    81893679.345 8      2388.551    19999274.180    81893681.350 8      2388.551
