     3.05           OBSERVATION DATA    MIXED               RINEX VERSION / TYPE
TPS2RIN 1.0.28.3459 TB                  20241016 133224 UTC PGM / RUN BY / DATE
Win64 build Jun 01, 2022 (c) Topcon Positioning Systems     COMMENT
Insert your comment here                                    COMMENT
SRC: 20241007_GUI31.tps                                     COMMENT
OPT: -v 3.05 -S                                             COMMENT
OPT: -p \Users\Thomas\Travaux\Projets\Volcano\Software\GPS\TCOMMENT
TB                  CSIC                                    OBSERVER / AGENCY
O0M3X53SBGM         TPS HIPER_SR        4.8 HSR Jul,08,2022 REC # / TYPE / VERS
FW: 4.8 HSR Jul,08,2022 p3                                  COMMENT
SN: HiPer SR 1212-12575                                     COMMENT
0001                TPSHIPER_SR                             ANT # / TYPE
        1.8000        0.0000        0.0000                  ANTENNA: DELTA H/E/N
GUI                                                         MARKER NAME
000                                                         MARKER NUMBER
GEODETIC                                                    MARKER TYPE
  5390002.6794 -1593767.8864  3008232.0172                  APPROX POSITION XYZ
  2024    10     7    11    13   27.0000000     GPS         TIME OF FIRST OBS
  2024    10     7    11    28   27.0000000     GPS         TIME OF LAST OBS
     1.000                                                  INTERVAL
   901 EPOCHS                                               COMMENT
G   16 C1C L1C D1C S1C C1W L1W D1W S1W C2W L2W D2W S2W C2X  SYS / # / OBS TYPES
       L2X D2X S2X                                          SYS / # / OBS TYPES
R   16 C1C L1C D1C S1C C1P L1P D1P S1P C2P L2P D2P S2P C2C  SYS / # / OBS TYPES
       L2C D2C S2C                                          SYS / # / OBS TYPES
    17                                                      # OF SATELLITES
   G05   177   177   177   177   170   170   170   170   170PRN / # OF OBS
         170   170   170   162   162   162   162            PRN / # OF OBS
   G06   875   875   875   875   870   870   870   870   870PRN / # OF OBS
         870   870   870   865   865   865   865            PRN / # OF OBS
   G07   901   901   901   901   901   901   901   901   901PRN / # OF OBS
         901   901   901   901   901   901   901            PRN / # OF OBS
   G09   865   865   865   865   865   865   865   865   865PRN / # OF OBS
         865   865   865   849   849   849   849            PRN / # OF OBS
   G11   901   901   901   901   901   901   901   901   901PRN / # OF OBS
         901   901   901   901   901   901   901            PRN / # OF OBS
   G13   901   901   901   901   901   901   901   901   901PRN / # OF OBS
         901   901   901     0     0     0     0            PRN / # OF OBS
   G14   202   202   202   202   182   182   182   182   181PRN / # OF OBS
         181   181   181   180   180   180   180            PRN / # OF OBS
   G19   141   141   141   141   139   139   139   139   139PRN / # OF OBS
         139   139   139     0     0     0     0            PRN / # OF OBS
   G20   901   901   901   901   901   901   901   901   901PRN / # OF OBS
         901   901   901     0     0     0     0            PRN / # OF OBS
   G30   901   901   901   901   901   901   901   901   901PRN / # OF OBS
         901   901   901   901   901   901   901            PRN / # OF OBS
   R01   636   636   636   636   636   636   636   636   636PRN / # OF OBS
         636   636   636   636   636   636   636            PRN / # OF OBS
   R02   901   901   901   901   901   901   901   901   901PRN / # OF OBS
         901   901   901   901   901   901   901            PRN / # OF OBS
   R11   901   901   901   901   901   901   901   901   901PRN / # OF OBS
         901   901   901   901   901   901   901            PRN / # OF OBS
   R12   822   822   822   822   813   813   813   813   813PRN / # OF OBS
         813   813   813   811   811   811   811            PRN / # OF OBS
   R17   901   901   901   901   901   901   901   901   901PRN / # OF OBS
         901   901   901   901   901   901   901            PRN / # OF OBS
   R18   101   101   101   101    94    94    94    94    94PRN / # OF OBS
          94    94    94    93    93    93    93            PRN / # OF OBS
   R24   901   901   901   901   901   901   901   901   901PRN / # OF OBS
         901   901   901   901   901   901   901            PRN / # OF OBS
G L1C                                                       SYS / PHASE SHIFT
G L1W -0.25000                                              SYS / PHASE SHIFT
G L2W  0.00000                                              SYS / PHASE SHIFT
G L2X  0.25000                                              SYS / PHASE SHIFT
R L1C                                                       SYS / PHASE SHIFT
R L1P -0.25000                                              SYS / PHASE SHIFT
R L2P -0.25000                                              SYS / PHASE SHIFT
R L2C                                                       SYS / PHASE SHIFT
  7 R01  1 R02 -4 R11  0 R12 -1 R17  4 R18 -3 R24  2        GLONASS SLOT / FRQ #
                                                            GLONASS COD/PHS/BIS
               *** Undefined LeapSeconds ***                COMMENT
                                                            END OF HEADER
> 2024 10 07 11 13 27.0000000  0 13
R02  20647343.400   110178180.696 8      2118.875          50.000    20647341.980   110178180.697 8      2118.875          48.625    20647355.380    85694182.904 8      1648.014          50.000    20647355.460    85694186.905 8      1648.014          50.625
G06  21065724.200   110701133.436 6       502.003          39.937    21065729.240   110701133.441 6       502.003          36.812    21065736.860    86260659.313 6       391.171          36.000    21065735.780    86260665.320 7       391.171          42.875
R24  21453717.300   114722666.787 6     -1194.005          41.625    21453716.740   114722666.775 6     -1194.005          41.125    21453733.140    89228824.701 6      -928.671          41.187    21453735.420    89228813.736 6      -928.671          40.750
G20  21363595.860   112266453.925 7      4619.040          46.750    21363593.800   112266453.933 5      4619.040          35.125    21363600.820    87480385.648 5      3599.252          35.062
R01  22353884.660   119494267.402 6       680.067          38.375    22353888.000   119494267.430 6       680.067          38.000    22353906.300    92940124.105 6       528.941          38.500    22353905.140    92940119.095 6       528.941          39.062
G09  23523791.580   123618344.095 7       -95.840          42.562    23523790.940   123618344.102 6       -95.840          37.875    23523809.000    96325982.882 6       -74.680          37.750    23523810.320    96326047.880 6       -74.680          41.875
R11  23055817.800   123203298.695 5      1857.618          35.000    23055816.920   123203298.715 6      1857.618          36.875    23055840.140    95824878.872 7      1444.814          43.500    23055840.260    95824882.862 7      1444.814          44.437
G07  22083588.000   116050034.921 7      1390.927          45.875    22083587.940   116050034.929 7      1390.927          44.000    22083597.400    90428626.904 7      1083.839          43.875    22083597.900    90428629.904 8      1083.839          48.875
G11  20743550.600   109008094.615 8      3497.163          49.187    20743549.580   109008094.614 7      3497.163          42.625    20743556.120    84941394.070 7      2725.062          42.312    20743557.000    84941396.067 9      2725.062          54.250
G30  20991647.960   110311850.165 7      3406.491          45.062    20991646.700   110311850.167 7      3406.491          44.187    20991657.840    85957326.304 7      2654.408          43.750    20991658.180    85957325.309 7      2654.408          46.250
R17  19793852.060   105920891.325 8      2286.593          50.062    19793853.000   105920891.340 8      2286.593          48.812    19793864.340    82382973.144 8      1778.461          49.500    19793864.800    82382974.145 8      1778.461          49.625
G13  22233195.160   116836239.716 7      5022.635          44.187    22233193.700   116836239.721 4      5022.635          27.500    22233203.100    91041237.830 4      3913.741          27.562
G19  24608626.320   129319201.273 6      -369.830          39.625    24608626.060   129319201.277 1      -369.830           8.812    24608641.240   100768210.295 1      -288.179           8.562
> 2024 10 07 11 13 28.0000000  0 13
R02  20646946.420   110176062.082 8      2118.559          49.500    20646944.620   110176062.082 8      2118.559          48.687    20646958.140    85692535.094 8      1647.768          50.250    20646958.300    85692539.098 8      1647.768          50.500
G06  21065629.060   110700631.906 6       501.354          39.625    21065633.380   110700631.906 6       501.354          36.875    21065641.460    86260268.504 6       390.665          36.937    21065640.540    86260274.508 7       390.665          43.375
R24  21453940.280   114723861.185 6     -1194.618          41.687    21453939.720   114723861.181 6     -1194.618          40.937    21453956.740    89229753.677 6      -929.147          40.500    21453958.780    89229742.708 6      -929.147          39.312
G20  21362717.000   112261835.146 7      4618.626          45.937    21362714.720   112261835.161 5      4618.626          35.125    21362722.020    87476786.603 5      3598.929          35.812
R01  22353757.780   119493587.538 6       679.875          38.375    22353760.320   119493587.572 6       679.875          38.000    22353779.460    92939595.312 6       528.791          38.562    22353778.080    92939590.296 6       528.791          39.062
G09  23523809.760   123618440.036 7       -95.919          43.625    23523809.100   123618440.046 6       -95.919          37.187    23523826.780    96326057.627 6       -74.742          37.125    23523827.700    96326122.617 6       -74.742          41.875
R11  23055469.920   123201441.451 5      1856.890          35.000    23055470.120   123201441.462 6      1856.890          36.875    23055492.560    95823434.342 7      1444.248          44.000    23055492.780    95823438.334 7      1444.248          44.937
G07  22083323.280   116048644.368 7      1390.296          45.687    22083323.160   116048644.378 7      1390.296          44.125    22083332.700    90427543.354 7      1083.348          43.750    22083333.280    90427546.352 8      1083.348          48.125
G11  20742885.220   109004597.998 8      3496.342          49.375    20742884.240   109004598.001 7      3496.342          42.437    20742890.980    84938669.434 7      2724.422          42.125    20742891.640    84938671.428 9      2724.422          54.312
G30  20990999.960   110308444.276 7      3405.612          44.687    20990998.860   110308444.281 7      3405.612          43.750    20991009.860    85954672.356 7      2653.724          43.312    20991010.080    85954671.357 7      2653.724          46.125
R17  19793424.700   105918605.439 8      2285.385          49.500    19793426.260   105918605.453 8      2285.385          49.000    19793437.540    82381195.228 8      1777.522          49.375    19793437.580    82381196.227 8      1777.522          49.375
G13  22232239.480   116831217.486 7      5021.961          44.062    22232238.040   116831217.491 4      5021.961          27.500    22232247.480    91037324.413 4      3913.216          27.500
G19  24608696.940   129319571.340 6      -370.023          38.937    24608695.180   129319571.371 1      -370.023           8.687    24608711.080   100768498.688 1      -288.329           8.437
> 2024 10 07 11 13 29.0000000  0 14
R02  20646549.320   110173943.381 8      2118.634          49.125    20646547.320   110173943.385 8      2118.634          48.687    20646561.040    85690887.220 8      1647.827          50.312    20646561.100    85690891.224 8      1647.827          49.937
G06  21065534.620   110700130.683 6       501.026          39.312    21065537.780   110700130.694 6       501.026          36.562    21065546.200    86259877.935 6       390.410          36.062    21065544.900    86259883.932 7       390.410          43.187
R24  21454163.800   114725055.664 6     -1194.683          41.687    21454163.040   114725055.657 6     -1194.683          40.937    21454180.960    89230682.712 6      -929.198          40.500    21454181.700    89230671.738 6      -929.198          39.312
G20  21361837.800   112257216.285 7      4618.821          46.625    21361836.000   112257216.300 5      4618.821          35.437    21361843.160    87473187.491 5      3599.081          35.812
R01  22353630.600   119492907.400 6       680.094          38.375    22353633.260   119492907.438 6       680.094          38.000    22353651.980    92939066.327 6       528.962          38.562    22353650.920    92939061.312 6       528.962          38.937
G09  23523827.820   123618535.767 7       -95.733          43.437    23523827.480   123618535.777 6       -95.733          37.500    23523845.420    96326132.204 6       -74.597          37.812    23523846.280    96326197.194 6       -74.597          41.500
R11  23055122.740   123199584.783 6      1856.212          38.562    23055122.240   123199584.798 6      1856.212          38.562    23055144.700    95821990.273 7      1443.721          43.687    23055145.320    95821994.262 7      1443.721          43.812
G07  22083058.900   116047254.127 7      1389.949          45.187    22083058.720   116047254.127 7      1389.949          43.875    22083068.140    90426460.042 7      1083.077          43.312    22083068.080    90426463.039 8      1083.077          48.500
G11  20742220.020   109001101.786 8      3495.926          49.437    20742218.960   109001101.786 7      3495.926          42.937    20742225.700    84935945.113 7      2724.098          42.437    20742226.260    84935947.108 8      2724.098          53.875
R18  22056322.740   117738147.804 6      5683.207          39.875
G30  20990351.920   110305038.729 7      3405.200          44.687    20990350.760   110305038.734 7      3405.200          44.375    20990361.960    85952018.692 7      2653.403          44.000    20990362.260    85952017.705 7      2653.403          46.187
R17  19792998.140   105916320.264 8      2284.761          50.187    19792999.060   105916320.273 8      2284.761          48.875    19793010.060    82379417.862 8      1777.036          49.750    19793010.800    82379418.857 8      1777.036          49.312
G13  22231283.840   116826195.370 7      5022.014          43.375    22231282.200   116826195.377 4      5022.014          27.500    22231291.640    91033411.082 4      3913.257          27.500
G19  24608766.800   129319940.937 6      -369.383          38.937    24608766.940   129319940.932 1      -369.383           9.375    24608782.180   100768786.602 1      -287.831           8.937
> 2024 10 07 11 13 30.0000000  0 14
R02  20646152.360   110171824.719 8      2118.806          50.000    20646150.500   110171824.717 8      2118.806          48.625    20646163.880    85689239.365 8      1647.960          50.437    20646164.160    85689243.367 8      1647.960          50.125
G06  21065439.600   110699629.886 6       500.742          40.125    21065442.480   110699629.891 6       500.742          36.750    21065450.760    86259487.704 6       390.189          36.562    21065450.560    86259493.713 7       390.189          43.437
R24  21454387.380   114726250.431 7     -1194.652          42.312    21454386.400   114726250.406 6     -1194.652          41.312    21454403.480    89231611.942 6      -929.174          40.937    21454405.180    89231600.975 6      -929.174          40.187
G20  21360958.680   112252597.477 7      4618.933          45.937    21360956.920   112252597.495 5      4618.933          35.375    21360964.360    87469588.427 5      3599.169          35.312
R01  22353503.480   119492227.130 6       680.577          38.437    22353504.960   119492227.155 6       680.577          38.000    22353525.560    92938537.212 6       529.338          38.750    22353523.560    92938532.194 6       529.338          38.937
G09  23523846.440   123618631.369 7       -95.425          43.437    23523845.400   123618631.379 6       -95.425          37.562    23523863.600    96326206.685 6       -74.357          37.500    23523864.760    96326271.681 7       -74.357          42.000
R11  23054775.740   123197728.778 6      1855.981          38.562    23054774.960   123197728.777 6      1855.981          38.562    23054797.620    95820546.691 7      1443.541          43.750    23054797.780    95820550.684 7      1443.541          43.875
G07  22082794.300   116045864.267 7      1389.812          45.875    22082794.120   116045864.267 7      1389.812          43.875    22082803.640    90425377.032 7      1082.971          43.187    22082803.960    90425380.030 7      1082.971          47.875
G11  20741554.600   108997606.113 8      3495.520          49.375    20741553.720   108997606.113 7      3495.520          42.500    20741560.480    84933221.214 7      2723.782          42.312    20741561.020    84933223.206 9      2723.782          54.187
R18  22055257.980   117732464.627 6      5683.109          40.312
G30  20989703.760   110301633.700 7      3404.890          44.437    20989702.620   110301633.705 7      3404.890          44.500    20989713.720    85949365.416 7      2653.161          44.187    20989714.120    85949364.428 7      2653.161          46.250
R17  19792571.180   105914035.908 8      2284.065          50.125    19792572.280   105914035.926 8      2284.065          48.750    19792583.080    82377641.149 8      1776.495          49.125    19792583.660    82377642.152 8      1776.495          49.562
G13  22230328.280   116821173.556 7      5021.829          44.125    22230326.600   116821173.563 4      5021.829          27.562    22230335.940    91029497.988 4      3913.114          27.500
G19  24608837.700   129320310.300 6      -368.974          39.187    24608839.200   129320310.221 1      -368.974           9.500    24608852.140   100769074.491 1      -287.512           9.187
> 2024 10 07 11 13 31.0000000  0 14
R02  20645755.180   110169706.181 8      2118.568          50.000    20645753.500   110169706.179 8      2118.568          48.375    20645766.620    85687591.616 8      1647.775          50.375    20645766.980    85687595.622 8      1647.775          50.562
G06  21065344.700   110699129.652 6       500.187          39.312    21065347.160   110699129.659 6       500.187          36.750    21065355.520    86259097.908 6       389.756          36.437    21065355.200    86259103.893 7       389.756          43.437
R24  21454611.220   114727445.680 6     -1195.315          41.500    21454610.560   114727445.657 6     -1195.315          41.312    21454627.960    89232541.586 6      -929.689          40.500    21454628.600    89232530.617 6      -929.689          40.187
G20  21360079.800   112247978.910 7      4618.659          45.750    21360077.840   112247978.923 5      4618.659          35.375    21360085.440    87465989.542 5      3598.955          35.875
R01  22353376.460   119491546.847 6       680.447          38.437    22353379.120   119491546.886 6       680.447          38.312    22353397.460    92938008.099 6       529.236          38.750    22353396.740    92938003.073 6       529.236          38.937
G09  23523864.560   123618727.026 7       -95.438          42.875    23523863.640   123618727.036 6       -95.438          37.437    23523881.800    96326281.209 6       -74.367          37.687    23523883.280    96326346.196 7       -74.367          42.000
R11  23054428.460   123195873.620 6      1854.849          38.562    23054426.740   123195873.619 6      1854.849          38.562    23054450.280    95819103.797 7      1442.660          43.875    23054450.680    95819107.787 7      1442.660          44.062
G07  22082529.640   116044474.983 7      1389.212          45.875    22082529.600   116044474.983 7      1389.212          44.312    22082539.260    90424294.469 7      1082.503          43.812    22082539.480    90424297.466 8      1082.503          48.187
G11  20740889.480   108994111.113 8      3494.786          50.000    20740888.640   108994111.112 7      3494.786          43.062    20740895.560    84930497.837 7      2723.210          42.625    20740896.120    84930499.831 9      2723.210          54.375
R18  22054193.900   117726782.705 6      5682.102          40.250
G30  20989056.100   110298229.283 7      3404.226          45.187    20989055.100   110298229.291 7      3404.226          45.000    20989066.240    85946712.634 7      2652.644          44.187    20989066.280    85946711.654 7      2652.644          45.875
R17  19792144.460   105911752.553 8      2283.015          49.937    19792145.620   105911752.568 8      2283.015          49.125    19792156.760    82375865.200 8      1775.678          49.687    19792157.040    82375866.195 8      1775.678          49.937
G13  22229372.720   116816152.146 7      5021.339          43.375    22229370.820   116816152.156 4      5021.339          27.562    22229380.460    91025585.205 4      3912.731          27.500
G19  24608907.900   129320679.538 6      -368.939          40.250    24608910.060   129320679.503 1      -368.939           9.750    24608927.100   100769362.138 1      -287.485           9.625
> 2024 10 07 11 13 32.0000000  0 14
R02  20645358.100   110167587.569 8      2118.560          49.250    20645356.320   110167587.564 8      2118.560          48.625    20645369.500    85685943.800 8      1647.769          50.250    20645369.760    85685947.804 8      1647.769          49.937
G06  21065249.560   110698629.795 6       499.669          39.312    21065251.720   110698629.811 6       499.669          36.500    21065260.180    86258708.416 6       389.352          36.062    21065260.340    86258714.436 7       389.352          43.312
R24  21454834.640   114728641.134 6     -1195.690          41.500    21454834.160   114728641.127 6     -1195.690          41.875    21454850.540    89233471.373 6      -929.981          40.500    21454852.400    89233460.398 6      -929.981          39.812
G20  21359200.880   112243360.320 7      4618.499          46.312    21359198.900   112243360.335 5      4618.499          35.500    21359206.760    87462390.645 5      3598.831          35.875
R01  22353249.660   119490866.414 6       680.361          38.437    22353250.580   119490866.429 6       680.361          38.312    22353271.100    92937478.855 6       529.170          38.750    22353269.120    92937473.831 6       529.170          39.187
G09  23523882.880   123618822.516 7       -95.472          43.312    23523881.820   123618822.518 6       -95.472          38.062    23523900.040    96326355.596 6       -74.394          37.625    23523901.060    96326420.600 7       -74.394          42.375
R11  23054081.840   123194019.074 6      1854.178          39.250    23054080.440   123194019.065 6      1854.178          38.812    23054103.460    95817661.368 7      1442.138          43.812    23054103.560    95817665.352 7      1442.138          44.187
G07  22082265.160   116043086.033 7      1388.695          45.875    22082265.340   116043086.037 7      1388.695          43.750    22082274.740    90423212.176 7      1082.100          43.500    22082275.100    90423215.176 8      1082.100          48.125
G11  20740224.720   108990616.588 8      3494.178          50.375    20740223.600   108990616.585 7      3494.178          42.937    20740230.480    84927774.828 7      2722.736          42.562    20740231.120    84927776.823 8      2722.736          53.937
R18  22053128.800   117721100.750 6      5681.589          40.250
G30  20988408.320   110294825.339 7      3403.576          44.937    20988407.120   110294825.352 7      3403.576          44.375    20988418.300    85944060.208 7      2652.137          43.812    20988418.500    85944059.217 7      2652.137          46.437
R17  19791718.000   105909469.923 8      2282.167          49.875    19791719.280   105909469.938 8      2282.167          48.875    19791729.940    82374089.817 8      1775.019          49.187    19791730.480    82374090.816 8      1775.019          49.312
G13  22228417.140   116811130.920 7      5020.974          44.437    22228415.460   116811130.928 4      5020.974          27.562    22228424.840    91021672.568 4      3912.448          27.500
G19  24608977.680   129321048.436 6      -368.811          39.750    24608977.820   129321048.388 1      -368.811          10.062    24608992.140   100769649.573 1      -287.385           9.750
> 2024 10 07 11 13 33.0000000  0 14
R02  20644961.200   110165469.058 8      2118.424          49.562    20644959.220   110165469.051 8      2118.424          48.687    20644972.740    85684296.068 8      1647.663          50.000    20644973.040    85684300.070 8      1647.663          50.437
G06  21065154.160   110698130.514 6       498.955          39.750    21065156.980   110698130.532 6       498.955          36.562    21065165.320    86258319.370 6       388.796          36.437    21065165.980    86258325.355 7       388.796          43.375
R24  21455058.720   114729836.965 7     -1196.069          42.125    21455057.460   114729836.959 6     -1196.069          41.875    21455074.740    89234401.456 6      -930.276          40.312    21455075.480    89234390.485 6      -930.276          39.812
G20  21358322.100   112238741.903 7      4618.300          45.812    21358319.980   112238741.913 5      4618.300          35.000    21358327.840    87458791.881 5      3598.675          35.312
R01  22353122.180   119490185.853 6       680.745          39.375    22353123.620   119490185.881 6       680.745          38.312    22353143.180    92936949.526 6       529.468          38.562    22353141.840    92936944.504 6       529.468          39.187
G09  23523901.060   123618917.997 7       -95.533          43.625    23523899.980   123618917.994 6       -95.533          37.125    23523918.300    96326429.981 6       -74.442          37.187    23523918.920    96326494.986 7       -74.442          42.375
R11  23053734.560   123192165.295 6      1853.449          39.250    23053733.040   123192165.296 6      1853.449          38.812    23053756.460    95816219.552 7      1441.571          44.125    23053756.920    95816223.545 7      1441.571          44.187
G07  22082001.140   116041697.631 7      1388.096          45.437    22082000.940   116041697.633 7      1388.096          43.812    22082010.740    90422130.298 7      1081.633          43.500    22082010.980    90422133.294 7      1081.633          47.875
G11  20739559.800   108987122.685 8      3493.596          49.750    20739558.720   108987122.687 7      3493.596          42.500    20739565.520    84925052.311 6      2722.282          41.937    20739566.060    84925054.308 9      2722.282          54.312
R18  22052064.120   117715419.402 6      5681.022          40.875
G30  20987760.360   110291421.974 7      3402.997          44.750    20987759.480   110291421.978 7      3402.997          44.437    20987770.880    85941408.235 7      2651.686          44.000    20987770.780    85941407.252 7      2651.686          46.125
R17  19791291.780   105907188.226 8      2281.182          49.312    19791292.760   105907188.241 8      2281.182          49.125    19791303.820    82372315.164 8      1774.253          49.437    19791304.240    82372316.161 8      1774.253          49.562
G13  22227461.880   116806110.094 7      5020.520          44.000    22227459.980   116806110.096 4      5020.520          27.562    22227469.400    91017760.239 4      3912.093          27.500
G19  24609047.640   129321417.174 6      -368.587          39.750    24609047.980   129321417.139 1      -368.587          10.062    24609063.580   100769936.873 1      -287.211           9.687
> 2024 10 07 11 13 34.0000000  0 14
R02  20644564.060   110163350.633 8      2118.548          49.562    20644562.280   110163350.631 8      2118.548          48.625    20644575.480    85682648.403 8      1647.759          49.625    20644575.900    85682652.407 8      1647.759          49.937
G06  21065059.120   110697631.670 6       498.710          39.000    21065061.900   110697631.693 6       498.710          36.375    21065070.220    86257930.656 5       388.605          35.812    21065070.580    86257936.649 7       388.605          43.500
R24  21455282.420   114731033.126 7     -1196.196          42.500    21455281.740   114731033.111 6     -1196.196          41.375    21455298.260    89235331.797 6      -930.375          40.312    21455299.320    89235320.828 6      -930.375          38.812
G20  21357443.300   112234123.591 7      4618.353          47.187    21357441.120   112234123.601 5      4618.353          35.000    21357448.960    87455193.192 5      3598.717          35.437
R01  22352994.400   119489505.276 6       680.796          39.375    22352995.760   119489505.310 6       680.796          38.562    22353016.520    92936420.171 6       529.508          38.562    22353014.660    92936415.154 6       529.508          39.375
G09  23523918.960   123619013.407 7       -95.279          43.062    23523918.260   123619013.418 6       -95.279          37.750    23523936.420    96326504.318 6       -74.243          37.375    23523937.300    96326569.336 7       -74.243          42.062
R11  23053387.680   123190312.280 6      1852.722          39.250    23053386.640   123190312.284 6      1852.722          38.812    23053409.580    95814778.318 7      1441.006          44.000    23053410.060    95814782.307 7      1441.006          44.500
G07  22081736.820   116040309.663 7      1387.896          46.062    22081736.780   116040309.663 7      1387.896          43.562    22081746.400    90421048.759 7      1081.478          43.125    22081746.820    90421051.757 8      1081.478          48.062
G11  20738895.160   108983629.379 8      3493.177          49.437    20738893.940   108983629.382 7      3493.177          42.625    20738900.900    84922330.253 7      2721.956          42.187    20738901.320    84922332.249 9      2721.956          54.062
R18  22051000.180   117709738.684 6      5680.421          40.875
G30  20987112.980   110288019.154 7      3402.696          45.562    20987112.160   110288019.162 7      3402.696          44.812    20987123.400    85938756.683 7      2651.452          45.000    20987123.540    85938755.700 7      2651.452          46.375
R17  19790865.660   105904907.410 8      2280.508          49.625    19790866.600   105904907.422 8      2280.508          48.312    19790877.540    82370541.192 8      1773.729          49.250    19790877.940    82370542.187 8      1773.729          49.500
G13  22226506.340   116801089.519 7      5020.623          43.937    22226504.720   116801089.524 4      5020.623          27.562    22226514.020    91013848.112 4      3912.174          27.312
G19  24609117.560   129321785.654 6      -368.077          39.437    24609117.680   129321785.604 1      -368.077          10.312    24609132.620   100770223.974 1      -286.813          10.000
> 2024 10 07 11 13 35.0000000  0 14
R02  20644167.120   110161232.165 8      2118.319          49.437    20644165.200   110161232.166 8      2118.319          48.062    20644178.780    85681000.706 8      1647.582          50.000    20644178.980    85681004.712 8      1647.582          49.875
G06  21064964.000   110697133.211 6       497.981          39.250    21064967.160   110697133.234 6       497.981          36.750    21064975.400    86257542.251 6       388.037          36.437    21064975.480    86257548.227 7       388.037          43.437
R24  21455506.340   114732229.529 7     -1196.656          42.500    21455505.120   114732229.507 6     -1196.656          41.375    21455522.380    89236262.302 6      -930.732          40.625    21455522.760    89236251.335 6      -930.732          38.812
G20  21356564.360   112229505.248 7      4618.176          45.875    21356562.120   112229505.258 5      4618.176          35.375    21356570.160    87451594.489 5      3598.578          35.437
R01  22352867.540   119488824.416 6       680.841          39.375    22352869.020   119488824.441 6       680.841          38.562    22352889.020    92935890.626 6       529.543          39.000    22352887.540    92935885.604 6       529.543          39.375
G09  23523936.920   123619108.639 7       -95.286          42.375    23523936.160   123619108.644 6       -95.286          37.750    23523954.280    96326578.510 6       -74.249          36.562    23523955.440    96326643.510 7       -74.249          42.000
R11  23053040.980   123188459.877 6      1852.001          39.375    23053040.280   123188459.860 6      1852.001          38.750    23053062.700    95813337.525 7      1440.445          43.625    23053063.180    95813341.511 7      1440.445          44.187
G07  22081472.860   116038922.040 7      1387.288          45.937    22081472.860   116038922.039 7      1387.288          43.750    22081482.480    90419967.496 7      1081.004          43.687    22081482.700    90419970.496 7      1081.004          47.562
G11  20738230.320   108980136.528 8      3492.460          48.812    20738229.240   108980136.530 7      3492.460          42.625    20738236.200    84919608.548 7      2721.397          42.187    20738236.580    84919610.547 9      2721.397          54.500
R18  22049935.780   117704058.344 6      5679.923          40.375
G30  20986465.480   110284616.745 7      3402.023          45.125    20986464.700   110284616.760 7      3402.023          44.937    20986475.920    85936105.465 7      2650.927          44.187    20986475.900    85936104.487 7      2650.927          46.625
R17  19790439.460   105902627.391 8      2279.475          50.187    19790440.700   105902627.412 8      2279.475          49.500    19790451.460    82368767.848 8      1772.925          49.625    19790452.000    82368768.843 8      1772.925          50.062
G13  22225551.160   116796069.174 7      5020.159          42.812    22225549.260   116796069.181 4      5020.159          27.562    22225558.680    91009936.158 4      3911.812          27.312
G19  24609187.940   129322153.827 6      -368.031          39.437    24609189.020   129322153.814 1      -368.031          10.312    24609203.360   100770510.835 1      -286.777          10.125
> 2024 10 07 11 13 36.0000000  0 14
R02  20643770.020   110159113.630 8      2118.588          49.937    20643768.200   110159113.631 8      2118.588          48.625    20643781.480    85679352.961 8      1647.791          50.187    20643781.820    85679356.963 8      1647.791          49.625
G06  21064869.880   110696635.047 6       498.187          39.250    21064872.360   110696635.075 6       498.187          36.500    21064880.640    86257154.060 5       388.198          35.750    21064880.340    86257160.035 7       388.198          43.437
R24  21455729.960   114733426.072 6     -1196.614          41.937    21455729.600   114733426.060 6     -1196.614          41.437    21455745.000    89237192.952 6      -930.700          40.812    21455746.760    89237181.973 6      -930.700          39.000
G20  21355685.600   112224886.900 7      4618.405          46.125    21355683.260   112224886.912 5      4618.405          35.062    21355691.400    87447995.776 5      3598.757          35.000
R01  22352740.060   119488143.361 6       681.080          39.312    22352741.500   119488143.389 6       681.080          38.562    22352761.300    92935360.908 6       529.729          39.000    22352759.800    92935355.896 6       529.729          38.750
G09  23523954.980   123619203.690 6       -94.935          41.812    23523954.380   123619203.692 6       -94.935          36.312    23523972.460    96326652.555 6       -73.976          36.312    23523973.360    96326717.561 7       -73.976          42.000
R11  23052694.120   123186608.003 6      1851.658          39.375    23052693.460   123186607.999 6      1851.658          38.750    23052716.200    95811897.189 7      1440.179          43.750    23052716.680    95811901.171 7      1440.179          43.687
G07  22081208.920   116037534.739 7      1387.214          45.437    22081208.920   116037534.736 7      1387.214          43.437    22081218.300    90418886.474 7      1080.946          43.187    22081218.840    90418889.474 8      1080.946          48.125
G11  20737566.020   108976644.121 8      3492.190          48.625    20737564.700   108976644.120 7      3492.190          42.562    20737571.680    84916887.194 7      2721.187          42.000    20737572.160    84916889.190 8      2721.187          53.812
R18  22048871.980   117698378.509 6      5679.447          40.375    22048876.400   117698378.507 6      5679.447          39.750    22048895.900    91543280.837 5      4417.347          34.375
G30  20985818.220   110281214.769 7      3401.755          45.562    20985817.260   110281214.779 7      3401.755          45.187    20985828.720    85933454.567 7      2650.718          44.750    20985828.740    85933453.586 7      2650.718          46.562
R17  19790012.800   105900348.122 8      2278.905          49.937    19790014.800   105900348.137 8      2278.905          48.812    19790025.640    82366995.074 8      1772.482          49.625    19790025.660    82366996.069 8      1772.482          49.687
G13  22224595.960   116791048.999 7      5020.236          42.250    22224594.080   116791049.007 4      5020.236          26.937    22224603.260    91006024.334 4      3911.872          27.312
G19  24609258.680   129322521.648 6      -367.702          38.875    24609260.160   129322521.635 1      -367.702          10.312    24609275.680   100770797.420 1      -286.521          10.125
> 2024 10 07 11 13 37.0000000  0 14
R02  20643373.060   110156995.341 8      2118.410          49.812    20643371.360   110156995.344 8      2118.410          48.687    20643384.940    85677705.396 8      1647.652          49.687    20643385.020    85677709.402 8      1647.652          49.750
G06  21064774.700   110696137.632 6       497.023          37.500    21064777.560   110696137.655 6       497.023          36.187    21064785.900    86256766.458 6       387.291          36.000    21064785.860    86256772.424 7       387.291          43.437
R24  21455953.700   114734623.120 6     -1197.126          41.937    21455953.320   114734623.108 6     -1197.126          41.437    21455969.720    89238123.973 6      -931.098          40.812    21455970.780    89238113.010 6      -931.098          39.000
G20  21354806.820   112220268.832 7      4618.133          45.812    21354804.220   112220268.845 5      4618.133          35.062    21354812.420    87444397.282 5      3598.545          34.812
R01  22352612.460   119487462.356 6       681.273          39.312    22352612.640   119487462.373 6       681.273          38.562    22352633.960    92934831.229 6       529.879          39.000    22352632.400    92934826.211 6       529.879          38.750
G09  23523973.000   123619298.843 6       -95.060          41.875    23523972.660   123619298.847 6       -95.060          36.500    23523990.580    96326726.694 6       -74.073          36.562    23523991.660    96326791.702 6       -74.073          41.500
R11  23052347.860   123184757.085 6      1850.706          39.375    23052347.620   123184757.068 6      1850.706          38.750    23052370.120    95810457.580 7      1439.438          43.437    23052370.420    95810461.573 7      1439.438          43.875
G07  22080945.360   116036148.093 7      1386.453          45.875    22080945.080   116036148.090 7      1386.453          43.375    22080954.400    90417805.971 7      1080.353          43.000    22080954.880    90417808.975 7      1080.353          47.625
G11  20736901.440   108973152.476 8      3491.406          48.750    20736900.180   108973152.475 7      3491.406          42.562    20736907.200    84914166.431 7      2720.576          42.187    20736907.720    84914168.428 9      2720.576          54.437
R18  22047808.020   117692699.397 6      5678.916          41.812    22047812.940   117692699.401 6      5678.916          39.750    22047832.500    91538863.763 5      4416.935          34.687    22047829.240    91538851.788 6      4416.935          36.875
G30  20985171.180   110277813.494 7      3401.104          45.312    20985169.900   110277813.499 7      3401.104          45.250    20985181.460    85930804.221 7      2650.211          44.625    20985181.920    85930803.242 7      2650.211          46.812
R17  19789587.480   105898069.882 8      2277.899          50.437    19789589.100   105898069.900 8      2277.899          48.875    19789599.960    82365223.114 8      1771.700          49.812    19789600.280    82365224.112 8      1771.700          49.812
G13  22223640.600   116786029.329 6      5019.607          41.937    22223638.760   116786029.336 4      5019.607          26.937    22223648.140    91002112.909 4      3911.382          27.312
G19  24609328.860   129322889.419 6      -367.691          40.187    24609329.300   129322889.401 1      -367.691          10.312    24609346.240   100771084.022 1      -286.513          10.125
> 2024 10 07 11 13 38.0000000  0 14
R02  20642975.960   110154876.857 8      2118.397          48.875    20642974.060   110154876.863 8      2118.397          48.187    20642987.540    85676057.691 8      1647.642          50.312    20642988.240    85676061.695 8      1647.642          49.937
G06  21064679.920   110695640.358 6       496.896          37.500    21064682.940   110695640.381 6       496.896          36.187    21064691.160    86256378.968 6       387.192          36.187    21064691.300    86256384.936 7       387.192          43.187
R24  21456178.040   114735820.213 7     -1197.249          42.437    21456177.600   114735820.185 6     -1197.249          41.250    21456192.800    89239055.025 6      -931.194          40.687    21456193.980    89239044.060 6      -931.194          38.812
G20  21353927.840   112215650.620 7      4618.079          45.250    21353925.300   112215650.628 5      4618.079          34.812    21353933.600    87440798.683 5      3598.503          34.812
R01  22352485.040   119486781.044 6       681.397          39.312    22352486.380   119486781.061 6       681.397          38.437    22352505.460    92934301.305 6       529.976          38.687    22352504.700    92934296.290 6       529.976          38.750
G09  23523991.280   123619393.675 7       -94.823          42.312    23523990.700   123619393.682 6       -94.823          36.625    23524008.660    96326800.575 6       -73.888          36.562    23524009.500    96326865.595 6       -73.888          41.500
R11  23052001.340   123182906.616 6      1849.890          39.625    23052000.740   123182906.612 6      1849.890          39.375    23052023.740    95809018.339 7      1438.803          43.687    23052024.120    95809022.332 7      1438.803          44.000
G07  22080681.420   116034761.615 7      1386.210          46.062    22080681.380   116034761.609 7      1386.210          43.375    22080690.620    90416725.600 7      1080.163          43.125    22080691.040    90416728.602 7      1080.163          47.875
G11  20736236.820   108969661.148 8      3490.992          48.937    20736235.960   108969661.148 7      3490.992          42.812    20736243.000    84911445.917 7      2720.254          42.437    20736243.340    84911447.915 8      2720.254          53.750
R18  22046744.260   117687020.601 7      5678.441          42.000    22046749.120   117687020.625 6      5678.441          40.625    22046768.660    91534446.927 5      4416.565          34.687    22046765.600    91534434.931 6      4416.565          36.875
G30  20984523.980   110274412.535 7      3400.548          45.937    20984522.940   110274412.545 7      3400.548          45.062    20984534.340    85928154.125 7      2649.778          44.500    20984534.920    85928153.144 7      2649.778          46.812
R17  19789161.540   105895792.282 8      2277.084          49.375    19789163.280   105895792.303 8      2277.084          49.062    19789174.360    82363451.644 8      1771.065          49.875    19789174.560    82363452.641 8      1771.065          49.750
G13  22222685.580   116781009.708 7      5019.394          42.312    22222683.500   116781009.716 4      5019.394          26.937    22222692.860    90998201.518 4      3911.216          27.312
G19  24609398.380   129323256.665 6      -367.119          39.937    24609396.480   129323256.659 1      -367.119          10.312    24609415.420   100771370.152 1      -286.067          10.125
> 2024 10 07 11 13 39.0000000  0 14
R02  20642579.000   110152758.546 8      2118.360          49.250    20642577.420   110152758.552 8      2118.360          48.625    20642590.740    85674410.114 8      1647.613          50.062    20642590.960    85674414.116 8      1647.613          49.875
G06  21064585.460   110695143.723 6       496.340          38.187    21064588.260   110695143.749 6       496.340          36.375    21064596.740    86255991.978 6       386.758          36.187    21064597.020    86255997.942 7       386.758          43.562
R24  21456401.900   114737017.750 7     -1197.732          42.062    21456401.280   114737017.744 6     -1197.732          41.250    21456417.120    89239986.453 6      -931.570          40.687    21456418.220    89239975.477 6      -931.570          38.812
G20  21353049.220   112211032.613 7      4618.030          45.437    21353046.400   112211032.624 5      4618.030          34.750    21353054.780    87437200.236 5      3598.465          34.812
R01  22352357.720   119486099.751 6       681.453          40.062    22352358.220   119486099.760 6       681.453          38.437    22352378.560    92933771.388 6       530.019          38.687    22352377.640    92933766.372 6       530.019          39.250
G09  23524009.100   123619488.586 7       -94.714          42.000    23524008.920   123619488.591 6       -94.714          36.437    23524026.680    96326874.526 6       -73.803          36.375    23524027.640    96326939.542 6       -73.803          41.375
R11  23051655.080   123181056.992 6      1849.373          39.625    23051655.140   123181056.996 6      1849.373          39.375    23051677.300    95807579.736 7      1438.401          44.125    23051677.800    95807583.728 7      1438.401          43.937
G07  22080417.960   116033375.736 7      1385.769          45.312    22080417.200   116033375.736 7      1385.769          43.500    22080426.960    90415645.691 7      1079.820          43.125    22080427.360    90415648.694 7      1079.820          47.625
G11  20735572.580   108966170.520 8      3490.398          49.187    20735571.660   108966170.522 7      3490.398          42.875    20735578.640    84908725.949 7      2719.790          42.375    20735579.020    84908727.947 8      2719.790          53.937
R18  22045680.080   117681342.530 7      5677.913          42.000    22045685.100   117681342.541 6      5677.913          40.625    22045703.640    91530030.683 5      4416.154          34.687    22045701.680    91530018.671 6      4416.154          36.875
G30  20983876.800   110271012.196 7      3400.145          45.875    20983875.940   110271012.206 7      3400.145          45.437    20983887.260    85925504.510 7      2649.464          45.312    20983887.920    85925503.534 7      2649.464          47.250
R17  19788736.200   105893515.667 8      2276.320          50.437    19788737.900   105893515.685 8      2276.320          48.875    19788749.120    82361680.937 8      1770.471          49.312    19788749.140    82361681.936 8      1770.471          49.437
G13  22221730.380   116775990.503 7      5019.192          43.312    22221728.500   116775990.508 4      5019.192          26.937    22221737.740    90994290.457 4      3911.059          27.312
G19  24609467.780   129323623.847 6      -366.898          39.750    24609467.160   129323623.818 1      -366.898          10.312    24609484.860   100771656.273 1      -285.894          10.125
> 2024 10 07 11 13 40.0000000  0 14
R02  20642182.400   110150640.235 8      2118.168          49.375    20642180.320   110150640.239 8      2118.168          49.250    20642193.680    85672762.535 8      1647.464          50.250    20642194.140    85672766.543 8      1647.464          50.375
G06  21064490.900   110694647.414 6       495.921          37.875    21064493.680   110694647.442 5       495.921          35.750    21064502.240    86255605.245 6       386.432          36.187    21064502.420    86255611.220 7       386.432          43.312
R24  21456625.440   114738215.544 7     -1198.091          42.062    21456625.760   114738215.527 6     -1198.091          41.750    21456640.980    89240918.052 6      -931.848          40.750    21456642.420    89240907.074 6      -931.848          38.812
G20  21352170.380   112206414.641 7      4617.859          45.562    21352167.500   112206414.651 5      4617.859          34.750    21352176.140    87433601.820 5      3598.332          34.812
R01  22352230.340   119485418.270 6       681.460          40.062    22352231.200   119485418.277 6       681.460          38.437    22352250.800    92933241.347 6       530.025          38.687    22352250.180    92933236.336 6       530.025          39.250
G09  23524027.100   123619583.353 7       -94.857          42.875    23524026.940   123619583.360 6       -94.857          36.500    23524044.780    96326948.352 6       -73.914          36.375    23524045.500    96327013.357 6       -73.914          41.375
R11  23051309.620   123179207.990 6      1848.787          39.625    23051309.260   123179207.970 6      1848.787          39.375    23051331.360    95806141.607 7      1437.946          43.687    23051331.660    95806145.597 7      1437.946          43.375
G07  22080153.960   116031990.220 7      1385.169          46.062    22080153.920   116031990.225 7      1385.169          43.125    22080163.400    90414566.078 7      1079.352          43.062    22080163.940    90414569.085 7      1079.352          47.937
G11  20734908.520   108962680.391 8      3489.686          49.562    20734907.480   108962680.393 7      3489.686          42.937    20734914.520    84906006.367 7      2719.236          42.625    20734914.980    84906008.368 9      2719.236          54.125
R18  22044616.360   117675665.022 6      5677.012          41.312    22044620.240   117675665.028 6      5677.012          40.437    22044640.020    91525614.831 5      4415.454          34.687    22044638.200    91525602.817 6      4415.454          36.875
G30  20983229.840   110267612.354 7      3399.358          46.750    20983229.080   110267612.361 7      3399.358          45.437    20983240.340    85922855.282 7      2648.850          44.875    20983240.640    85922854.302 7      2648.850          47.375
R17  19788311.100   105891239.854 8      2275.178          49.875    19788312.340   105891239.872 8      2275.178          48.687    19788323.800    82359910.858 8      1769.583          49.625    19788323.520    82359911.855 8      1769.583          50.187
G13  22220775.280   116770971.542 7      5018.668          43.437    22220773.440   116770971.547 4      5018.668          26.937    22220782.860    90990379.583 4      3910.650          27.062
G19  24609537.380   129323990.720 6      -366.922          39.750    24609537.340   129323990.683 1      -366.922          10.312    24609552.960   100771942.127 1      -285.913          10.125
> 2024 10 07 11 13 41.0000000  0 14
R02  20641785.220   110148521.935 8      2118.281          49.687    20641783.340   110148521.936 8      2118.281          48.375    20641796.400    85671114.966 8      1647.552          50.125    20641796.900    85671118.968 8      1647.552          49.625
G06  21064397.000   110694151.601 6       495.565          37.875    21064399.380   110694151.630 6       495.565          36.062    21064407.820    86255218.892 5       386.155          35.750    21064408.020    86255224.854 7       386.155          43.625
R24  21456849.660   114739413.635 7     -1198.320          42.437    21456850.320   114739413.620 6     -1198.320          41.750    21456865.300    89241849.885 6      -932.027          40.750    21456866.080    89241838.895 6      -932.027          38.625
G20  21351291.580   112201796.741 7      4617.852          45.625    21351288.720   112201796.754 5      4617.852          34.562    21351297.340    87430003.457 5      3598.327          35.000
R01  22352102.700   119484736.646 6       681.718          40.062    22352102.980   119484736.666 6       681.718          38.937    22352122.720    92932711.203 6       530.225          38.562    22352122.760    92932706.181 6       530.225          39.000
G09  23524045.360   123619678.004 6       -94.647          41.937    23524044.920   123619678.009 6       -94.647          36.812    23524062.780    96327022.096 6       -73.751          36.562    23524063.880    96327087.111 6       -73.751          41.125
R11  23050963.920   123177359.723 6      1847.947          40.062    23050962.880   123177359.695 6      1847.947          39.687    23050985.180    95804704.059 7      1437.292          44.187    23050985.920    95804708.050 7      1437.292          43.500
G07  22079890.460   116030605.142 7      1384.810          45.937    22079890.100   116030605.144 7      1384.810          43.312    22079899.760    90413486.784 7      1079.073          43.187    22079900.340    90413489.790 7      1079.073          47.562
G11  20734244.500   108959190.784 8      3489.293          48.937    20734243.460   108959190.787 7      3489.293          42.437    20734250.560    84903287.198 7      2718.929          42.000    20734251.020    84903289.196 9      2718.929          54.375
R18  22043553.040   117669987.990 6      5676.750          41.312    22043557.340   117669987.996 6      5676.750          40.437    22043574.440    91521199.387 5      4415.250          34.687    22043574.640    91521187.374 6      4415.250          37.437
G30  20982583.020   110264212.971 7      3399.132          46.625    20982582.140   110264212.976 7      3399.132          45.375    20982593.580    85920206.406 7      2648.674          45.312    20982594.020    85920205.426 7      2648.674          47.875
R17  19787885.860   105888964.852 8      2274.514          50.375    19787886.880   105888964.870 8      2274.514          48.687    19787898.880    82358141.412 8      1769.067          50.000    19787898.660    82358142.409 8      1769.067          50.125
G13  22219820.320   116765952.831 7      5018.562          43.750    22219818.380   116765952.836 4      5018.562          26.937    22219827.760    90986468.907 4      3910.568          27.062
G19  24609607.600   129324357.287 6      -366.480          39.937    24609608.500   129324357.258 1      -366.480          10.312    24609622.520   100772227.746 1      -285.569          10.125
> 2024 10 07 11 13 42.0000000  0 14
R02  20641388.340   110146403.747 8      2118.086          49.187    20641386.360   110146403.748 8      2118.086          48.437    20641399.760    85669467.482 8      1647.400          50.000    20641400.040    85669471.486 8      1647.400          49.937
G06  21064302.800   110693656.275 6       494.858          38.437    21064304.940   110693656.303 6       494.858          36.062    21064313.500    86254832.923 5       385.603          35.687    21064314.000    86254838.900 7       385.603          43.625
R24  21457073.600   114740612.055 7     -1198.616          42.812    21457073.620   114740612.045 6     -1198.616          41.625    21457088.900    89242781.979 6      -932.257          40.750    21457090.480    89242771.006 6      -932.257          38.625
G20  21350413.000   112197178.966 7      4617.609          45.750    21350409.960   112197178.978 5      4617.609          34.562    21350418.740    87426405.195 5      3598.137          34.625
R01  22351975.220   119484054.978 6       681.596          39.187    22351975.420   119484055.003 6       681.596          38.937    22351995.600    92932181.009 6       530.131          38.562    22351994.880    92932175.983 6       530.131          39.000
G09  23524063.320   123619772.618 6       -94.667          41.187    23524062.960   123619772.623 6       -94.667          36.750    23524080.840    96327095.803 6       -73.766          36.500    23524081.420    96327160.820 6       -73.766          41.125
R11  23050618.240   123175512.158 6      1847.162          40.062    23050617.460   123175512.130 6      1847.162          39.687    23050640.080    95803267.075 7      1436.681          44.625    23050639.880    95803271.072 7      1436.681          44.187
G07  22079626.980   116029220.516 7      1384.350          45.437    22079626.820   116029220.519 7      1384.350          43.312    22079636.180    90412407.853 7      1078.714          43.062    22079636.900    90412410.863 7      1078.714          47.687
G11  20733580.620   108955701.796 8      3488.588          49.687    20733579.620   108955701.800 7      3488.588          43.125    20733586.660    84900568.503 7      2718.380          43.000    20733587.100    84900570.504 9      2718.380          54.562
R18  22042489.960   117664311.571 6      5675.982          40.562    22042493.960   117664311.585 6      5675.982          40.625    22042511.900    91516784.386 5      4414.653          34.687    22042511.200    91516772.386 6      4414.653          37.437
G30  20981936.300   110260814.182 7      3398.480          46.375    20981935.260   110260814.187 7      3398.480          45.437    20981946.720    85917558.002 7      2648.166          44.687    20981947.660    85917557.021 7      2648.166          47.625
R17  19787461.000   105886690.800 8      2273.443          50.500    19787461.940   105886690.823 8      2273.443          48.625    19787473.940    82356372.709 8      1768.233          49.937    19787473.760    82356373.708 8      1768.233          50.250
G13  22218865.040   116760934.453 7      5018.154          44.562    22218863.420   116760934.461 4      5018.154          27.125    22218872.920    90982558.487 4      3910.250          27.062
G19  24609677.420   129324723.674 6      -366.296          39.937    24609678.580   129324723.671 1      -366.296          10.312    24609692.940   100772513.196 1      -285.425          10.125
> 2024 10 07 11 13 43.0000000  0 14
R02  20640991.600   110144285.733 8      2117.948          49.250    20640989.500   110144285.736 8      2117.948          48.375    20641002.600    85667820.138 8      1647.293          49.937    20641003.120    85667824.142 8      1647.293          50.062
G06  21064208.140   110693161.529 6       494.672          38.812    21064210.600   110693161.547 5       494.672          35.750    21064219.520    86254447.396 5       385.458          35.500    21064220.120    86254453.369 7       385.458          43.625
R24  21457297.800   114741810.897 7     -1199.046          42.812    21457297.800   114741810.893 6     -1199.046          41.625    21457313.380    89243714.416 6      -932.591          40.437    21457314.300    89243703.432 6      -932.591          38.500
