     3.05           OBSERVATION DATA    MIXED               RINEX VERSION / TYPE
TPS2RIN 1.0.28.3459 TB                  20241015 082515 UTC PGM / RUN BY / DATE
Win64 build Jun 01, 2022 (c) Topcon Positioning Systems     COMMENT
Insert your comment here                                    COMMENT
SRC: 20241007_GUI30.tps                                     COMMENT
OPT: -v 3.05 -S                                             COMMENT
OPT: -p \Users\Thomas\Travaux\Projets\Volcano\Software\GPS\TCOMMENT
TB                  CSIC                                    OBSERVER / AGENCY
O0M3X53SBGM         TPS HIPER_SR        4.8 HSR Jul,08,2022 REC # / TYPE / VERS
FW: 4.8 HSR Jul,08,2022 p3                                  COMMENT
SN: HiPer SR 1212-12575                                     COMMENT
0001                HYPER SR                                ANT # / TYPE
        1.8000        0.0000        0.0000                  ANTENNA: DELTA H/E/N
Marker                                                      MARKER NAME
000                                                         MARKER NUMBER
GEODETIC                                                    MARKER TYPE
  5389892.9666 -1596120.0247  3008262.5973                  APPROX POSITION XYZ
  2024    10     7    10    23   48.0000000     GPS         TIME OF FIRST OBS
  2024    10     7    10    38   47.0000000     GPS         TIME OF LAST OBS
     1.000                                                  INTERVAL
   900 EPOCHS                                               COMMENT
G   16 C1C L1C D1C S1C C1W L1W D1W S1W C2W L2W D2W S2W C2X  SYS / # / OBS TYPES
       L2X D2X S2X                                          SYS / # / OBS TYPES
R   16 C1C L1C D1C S1C C1P L1P D1P S1P C2P L2P D2P S2P C2C  SYS / # / OBS TYPES
       L2C D2C S2C                                          SYS / # / OBS TYPES
    20                                                      # OF SATELLITES
   G04   476   476   476   476   476   476   476   476   476PRN / # OF OBS
         476   476   476   476   476   476   476            PRN / # OF OBS
   G05   900   900   900   900   900   900   900   900   900PRN / # OF OBS
         900   900   900   900   900   900   900            PRN / # OF OBS
   G06   900   900   900   900   900   900   900   900   900PRN / # OF OBS
         900   900   900   900   900   900   900            PRN / # OF OBS
   G07   900   900   900   900   900   900   900   900   900PRN / # OF OBS
         900   900   900   900   900   900   900            PRN / # OF OBS
   G09   900   900   900   900   900   900   900   900   900PRN / # OF OBS
         900   900   900   900   900   900   900            PRN / # OF OBS
   G11   900   900   900   900   900   900   900   900   900PRN / # OF OBS
         900   900   900   900   900   900   900            PRN / # OF OBS
   G13   678   678   678   678   676   676   676   676   676PRN / # OF OBS
         676   676   676     0     0     0     0            PRN / # OF OBS
   G17   719   719   719   719   716   716   716   716   718PRN / # OF OBS
         718   718   718   719   719   719   719            PRN / # OF OBS
   G19   900   900   900   900   900   900   900   900   900PRN / # OF OBS
         900   900   900     0     0     0     0            PRN / # OF OBS
   G20   900   900   900   900   900   900   900   900   900PRN / # OF OBS
         900   900   900     0     0     0     0            PRN / # OF OBS
   G30   900   900   900   900   900   900   900   900   900PRN / # OF OBS
         900   900   900   900   900   900   900            PRN / # OF OBS
   R01   900   900   900   900   900   900   900   900   900PRN / # OF OBS
         900   900   900   900   900   900   900            PRN / # OF OBS
   R02   900   900   900   900   900   900   900   900   900PRN / # OF OBS
         900   900   900   900   900   900   900            PRN / # OF OBS
   R03   900   900   900   900   900   900   900   900   900PRN / # OF OBS
         900   900   900   900   900   900   900            PRN / # OF OBS
   R11   900   900   900   900   900   900   900   900   900PRN / # OF OBS
         900   900   900   900   900   900   900            PRN / # OF OBS
   R12   900   900   900   900   900   900   900   900   900PRN / # OF OBS
         900   900   900   900   900   900   900            PRN / # OF OBS
   R17   900   900   900   900   900   900   900   900   900PRN / # OF OBS
         900   900   900   900   900   900   900            PRN / # OF OBS
   R18   900   900   900   900   900   900   900   900   900PRN / # OF OBS
         900   900   900   900   900   900   900            PRN / # OF OBS
   R23   563   563   563   563   563   563   563   563     0PRN / # OF OBS
           0     0     0     0     0     0     0            PRN / # OF OBS
   R24   900   900   900   900   900   900   900   900   900PRN / # OF OBS
         900   900   900   900   900   900   900            PRN / # OF OBS
G L1C                                                       SYS / PHASE SHIFT
G L1W -0.25000                                              SYS / PHASE SHIFT
G L2W  0.00000                                              SYS / PHASE SHIFT
G L2X  0.25000                                              SYS / PHASE SHIFT
R L1C                                                       SYS / PHASE SHIFT
R L1P -0.25000                                              SYS / PHASE SHIFT
R L2P -0.25000                                              SYS / PHASE SHIFT
R L2C                                                       SYS / PHASE SHIFT
  9 R01  1 R02 -4 R03  5 R11  0 R12 -1 R17  4 R18 -3 R23  3 GLONASS SLOT / FRQ #
    R24  2                                                  GLONASS SLOT / FRQ #
                                                            GLONASS COD/PHS/BIS
               *** Undefined LeapSeconds ***                COMMENT
                                                            END OF HEADER
> 2024 10 07 10 23 48.0000000  0 19
R23  23691166.160   126731729.889 6     -1771.150          37.312    23691165.940   126731729.875 6     -1771.150          37.125
G09  21973099.140   115469411.276 7        56.261          45.062    21973098.280   115469411.275 7        56.261          46.187    21973109.820    89976201.877 7        43.840          46.187    21973109.320    89976201.881 7        43.840          47.500
R02  20441656.620   109080598.494 8      2675.274          49.187    20441656.380   109080598.497 8      2675.274          48.125    20441667.460    84840510.482 8      2080.769          49.125    20441667.720    84840511.479 8      2080.769          49.312
G30  21851876.780   114832391.204 7      4878.323          46.937    21851875.620   114832391.207 7      4878.323          46.875    21851887.900    89479833.114 7      3801.290          46.812    21851888.780    89479842.113 8      3801.290          48.062
G19  22805292.840   119842612.511 7      -476.259          43.812    22805291.200   119842612.511 5      -476.259          35.000    22805303.480    93383853.604 5      -371.111          34.937
G04  24786890.080   130255967.027 6      -510.343          38.625    24786889.960   130255967.029 3      -510.343          23.312    24786910.080   101498185.583 3      -397.670          23.375    24786909.920   101498225.520 6      -397.670          41.687
R03  23117690.140   123750813.526 6      4762.212          40.937    23117691.440   123750813.546 6      4762.212          40.062    23117710.840    96250714.478 7      3703.942          44.500    23117710.900    96250714.482 7      3703.942          44.250
G07  21798115.900   114549825.230 7      2965.246          46.562    21798114.100   114549825.235 7      2965.246          46.000    21798123.320    89259612.511 7      2310.581          45.812    21798123.320    89259667.515 7      2310.581          47.937
G05  24799427.280   130321870.882 7      5086.041          43.750    24799426.100   130321870.886 6      5086.041          39.000    24799440.220   101549550.220 6      3963.149          39.125    24799440.820   101549560.216 7      3963.149          42.375
R12  23641902.160   126290818.368 6      5886.041          41.625    23641901.540   126290818.377 7      5886.041          42.312    23641935.320    98226333.034 7      4578.032          44.312    23641935.520    98226335.038 7      4578.032          45.250
G11  21669823.580   113875695.000 7      5005.103          46.750    21669822.340   113875695.002 6      5005.103          38.562    21669829.100    88734327.083 6      3900.081          38.437    21669829.940    88734334.087 8      3900.081          50.000
R17  20297440.400   108615709.796 7      4894.540          47.687    20297443.060   108615709.818 7      4894.540          46.187    20297456.120    84478944.158 8      3806.864          50.250    20297455.060    84478941.160 8      3806.864          50.437
R24  19698105.960   105334612.120 7       549.311          47.500    19698105.600   105334612.119 7       549.311          46.562    19698118.360    81926972.015 8       427.242          49.187    19698118.400    81926974.020 8       427.242          49.125
G17  24085692.640   126571142.034 6      -325.351          39.062    24085691.200   126571142.039 5      -325.351          34.812    24085710.300    98626915.966 5      -253.520          34.750    24085711.020    98626920.937 6      -253.520          41.875
R11  23192855.080   123935601.975 7      3986.925          42.937    23192855.400   123935601.984 6      3986.925          41.625    23192878.260    96394442.127 7      3100.942          46.562    23192878.140    96394443.128 7      3100.942          46.937
G20  22536949.580   118432474.509 7      4807.238          43.062    22536947.620   118432474.517 5      4807.238          30.312    22536955.740    92285080.214 5      3745.899          30.312
R01  21179935.560   113218873.959 7       590.863          43.750    21179935.160   113218873.966 7       590.863          43.125    21179950.340    88059191.024 7       459.560          42.937    21179949.620    88059192.025 7       459.560          42.562
R18  24103346.400   128665302.164 6      6859.212          41.625    24103346.760   128665302.162 6      6859.212          41.875    24103362.680   100073076.015 7      5334.942          43.625    24103362.860   100073073.021 7      5334.942          43.625
G06  20304748.960   106702171.882 8      2202.392          48.250    20304748.080   106702171.884 8      2202.392          49.937    20304757.060    83144577.716 8      1716.150          50.312    20304757.840    83144590.717 8      1716.150          52.125
> 2024 10 07 10 23 49.0000000  0 19
R23  23691498.140   126733501.113 6     -1771.172          37.312    23691496.280   126733501.103 6     -1771.172          37.125
G09  21973088.400   115469355.068 7        55.991          45.750    21973087.620   115469355.073 7        55.991          45.812    21973099.100    89976158.079 7        43.629          45.625    21973098.580    89976158.081 7        43.629          47.812
R02  20441155.560   109077923.402 8      2674.840          49.125    20441155.260   109077923.403 7      2674.840          47.375    20441166.140    84838429.849 8      2080.431          49.250    20441166.580    84838430.848 8      2080.431          49.000
G30  21850948.460   114827513.065 7      4877.863          46.750    21850947.360   114827513.068 7      4877.863          46.312    21850959.660    89476031.973 7      3800.932          46.937    21850960.360    89476040.976 8      3800.932          48.375
G19  22805383.460   119843088.736 7      -476.277          43.250    22805381.660   119843088.738 5      -476.277          34.562    22805394.060    93384224.682 5      -371.125          34.562
G04  24786987.300   130256477.438 6      -510.681          38.312    24786987.060   130256477.446 3      -510.681          23.312    24787007.280   101498583.290 3      -397.934          23.375    24787007.420   101498623.237 6      -397.934          41.812
R03  23116800.660   123746051.446 6      4761.836          40.937    23116801.600   123746051.469 6      4761.836          40.062    23116821.040    96247010.649 7      3703.650          44.125    23116821.220    96247010.653 7      3703.650          44.000
G07  21797551.700   114546860.266 7      2964.599          46.375    21797549.900   114546860.276 7      2964.599          45.812    21797559.140    89257302.151 7      2310.078          46.125    21797559.360    89257357.157 8      2310.078          48.437
G05  24798459.580   130316784.798 7      5085.927          43.375    24798458.080   130316784.806 6      5085.927          39.187    24798472.180   101545587.039 6      3963.060          39.375    24798473.320   101545597.044 7      3963.060          42.500
R12  23640800.200   126284932.366 6      5885.803          40.250    23640799.560   126284932.356 6      5885.803          41.937    23640833.460    98221755.039 7      4577.847          44.437    23640833.380    98221757.044 7      4577.847          45.312
G11  21668871.180   113870690.165 7      5004.588          46.562    21668869.820   113870690.167 6      5004.588          38.312    21668876.700    88730427.213 6      3899.679          37.625    21668877.280    88730434.214 8      3899.679          49.812
R17  20296526.140   108610815.666 8      4893.699          48.062    20296528.160   108610815.676 7      4893.699          46.187    20296541.560    84475137.605 8      3806.210          50.750    20296540.360    84475134.611 8      3806.210          50.937
R24  19698003.280   105334063.173 7       548.469          47.062    19698002.840   105334063.171 7       548.469          47.062    19698015.500    81926545.052 8       426.587          49.625    19698015.960    81926547.057 8       426.587          49.812
G17  24085754.080   126571467.292 6      -325.215          39.312    24085753.160   126571467.297 5      -325.215          34.812    24085772.500    98627169.393 5      -253.414          35.062    24085772.020    98627174.375 6      -253.414          41.875
R11  23192109.360   123931615.495 6      3985.996          41.750    23192109.320   123931615.515 6      3985.996          41.750    23192132.060    96391341.542 7      3100.219          46.375    23192132.300    96391342.546 7      3100.219          46.937
G20  22536034.720   118427667.263 7      4807.142          43.187    22536032.800   118427667.274 5      4807.142          30.687    22536041.020    92281334.308 5      3745.825          30.687
R01  21179824.900   113218283.110 7       590.667          43.062    21179824.580   113218283.114 7       590.667          43.125    21179839.840    88058731.471 7       459.407          42.875    21179839.240    88058732.467 7       459.407          42.312
R18  24102061.660   128658443.080 6      6858.774          41.625    24102061.640   128658443.076 6      6858.774          41.875    24102077.640   100067741.154 7      5334.602          44.250    24102077.860   100067738.159 7      5334.602          44.000
G06  20304329.940   106699969.859 8      2201.602          48.375    20304329.080   106699969.859 8      2201.602          49.625    20304338.040    83142861.852 8      1715.534          51.000    20304338.880    83142874.849 8      1715.534          52.000
> 2024 10 07 10 23 50.0000000  0 19
R23  23691829.820   126735272.571 6     -1771.844          37.312    23691827.940   126735272.554 6     -1771.844          37.125
G09  21973078.080   115469299.060 7        55.758          44.062    21973076.880   115469299.062 7        55.758          45.750    21973088.420    89976114.426 7        43.448          46.000    21973087.960    89976114.422 7        43.448          47.250
R02  20440654.240   109075248.631 8      2674.499          49.125    20440653.940   109075248.629 8      2674.499          48.312    20440664.800    84836349.467 8      2080.166          49.187    20440665.320    84836350.471 8      2080.166          49.562
G30  21850020.160   114822635.357 7      4877.358          46.812    21850019.200   114822635.359 7      4877.358          46.250    21850031.340    89472231.166 7      3800.539          46.812    21850032.220    89472240.168 8      3800.539          48.125
G19  22805473.980   119843565.183 7      -476.649          43.562    22805472.280   119843565.183 5      -476.649          34.562    22805484.660    93384595.932 5      -371.415          34.562
G04  24787084.760   130256987.794 6      -510.440          38.312    24787084.060   130256987.804 3      -510.440          23.312    24787104.460   101498980.955 3      -397.745          23.375    24787104.680   101499020.888 7      -397.745          42.062
R03  23115911.580   123741289.695 6      4761.541          40.937    23115912.200   123741289.710 6      4761.541          40.000    23115931.440    96243307.067 7      3703.421          44.437    23115931.820    96243307.069 7      3703.421          44.250
G07  21796987.440   114543895.890 7      2963.867          46.687    21796985.800   114543895.895 7      2963.867          45.937    21796995.080    89254992.244 7      2309.507          45.812    21796995.460    89255047.246 8      2309.507          48.187
G05  24797491.560   130311698.657 7      5086.118          43.562    24797490.340   130311698.662 6      5086.118          38.812    24797504.320   101541623.810 6      3963.208          39.062    24797505.220   101541633.813 7      3963.208          42.812
R12  23639698.660   126279046.339 6      5885.772          40.250    23639698.440   126279046.351 6      5885.772          41.937    23639731.160    98217177.051 7      4577.822          44.125    23639731.760    98217179.063 7      4577.822          45.437
G11  21667918.900   113865685.747 7      5004.056          46.312    21667917.420   113865685.754 6      5004.056          38.500    21667924.440    88726527.669 6      3899.264          38.125    21667924.780    88726534.669 8      3899.264          49.812
R17  20295611.920   108605922.327 7      4892.828          47.437    20295613.540   108605922.344 7      4892.828          46.250    20295627.020    84471331.678 8      3805.533          50.562    20295626.240    84471328.684 8      3805.533          51.062
R24  19697900.580   105333515.086 7       547.517          46.875    19697900.500   105333515.092 7       547.517          47.687    19697913.160    81926118.758 8       425.847          50.187    19697913.500    81926120.755 8       425.847          50.250
G17  24085816.040   126571792.555 6      -325.291          38.875    24085814.940   126571792.555 5      -325.291          34.812    24085834.580    98627422.814 5      -253.474          35.062    24085834.320    98627427.792 7      -253.474          42.062
R11  23191363.420   123927629.655 6      3985.377          41.750    23191363.480   123927629.662 6      3985.377          41.750    23191386.180    96388241.438 7      3099.738          46.312    23191386.220    96388242.453 7      3099.738          47.062
G20  22535120.280   118422860.062 7      4807.037          43.312    22535118.080   118422860.070 5      4807.037          30.687    22535126.360    92277588.437 5      3745.743          30.687
R01  21179714.060   113217692.317 7       590.708          43.125    21179713.740   113217692.319 6       590.708          41.750    21179729.260    88058271.955 7       459.439          43.062    21179728.600    88058272.953 7       459.439          42.750
R18  24100776.700   128651584.210 6      6858.658          41.937    24100776.480   128651584.203 6      6858.658          41.437    24100793.060   100062406.458 7      5334.512          44.000    24100793.020   100062403.464 7      5334.512          44.625
G06  20303911.020   106697768.454 8      2200.960          48.437    20303910.200   106697768.451 8      2200.960          50.187    20303919.120    83141146.465 8      1715.033          51.250    20303919.900    83141159.464 8      1715.033          52.125
> 2024 10 07 10 23 51.0000000  0 19
R23  23692160.040   126737044.070 6     -1771.666          37.312    23692158.040   126737044.066 6     -1771.666          37.125
G09  21973067.180   115469243.246 7        55.704          45.437    21973066.300   115469243.253 7        55.704          44.687    21973077.900    89976070.930 7        43.405          44.437    21973077.480    89976070.931 7        43.405          46.187
R02  20440153.100   109072574.222 8      2674.215          49.875    20440152.840   109072574.220 8      2674.215          48.500    20440163.380    84834269.372 7      2079.945          45.500    20440164.200    84834270.377 7      2079.945          46.812
G30  21849092.040   114817758.090 7      4876.948          46.875    21849091.040   114817758.095 7      4876.948          45.312    21849103.280    89468430.710 7      3800.219          45.250    21849104.060    89468439.711 7      3800.219          46.187
G19  22805564.720   119844041.807 7      -476.728          42.437    22805562.740   119844041.809 5      -476.728          34.312    22805575.360    93384967.323 5      -371.476          34.187
G04  24787181.720   130257498.182 6      -510.402          37.937    24787181.220   130257498.192 3      -510.402          23.312    24787201.660   101499378.641 3      -397.716          23.250    24787202.240   101499418.581 7      -397.716          42.062
R03  23115021.980   123736528.298 6      4761.170          41.750    23115022.660   123736528.311 6      4761.170          40.000    23115041.800    96239603.773 7      3703.132          43.875    23115042.200    96239603.775 7      3703.132          43.750
G07  21796423.620   114540932.073 7      2963.447          47.000    21796421.840   114540932.078 7      2963.447          45.250    21796431.000    89252682.784 7      2309.179          45.250    21796431.440    89252737.788 7      2309.179          46.312
G05  24796523.760   130306612.552 7      5085.999          43.812    24796522.460   130306612.560 6      5085.999          39.187    24796536.440   101537660.611 6      3963.116          38.687    24796537.160   101537670.619 7      3963.116          42.812
R12  23638597.060   126273160.406 6      5885.898          41.187    23638596.380   126273160.397 7      5885.898          42.000    23638628.900    98212599.105 7      4577.921          43.812    23638629.880    98212601.111 7      4577.921          42.687
G11  21666966.560   113860681.773 7      5003.710          47.000    21666965.280   113860681.784 6      5003.710          37.312    21666972.260    88722628.471 6      3898.995          37.625    21666972.640    88722635.467 7      3898.995          47.437
R17  20294697.660   108601029.819 8      4892.011          48.000    20294699.140   108601029.839 7      4892.011          46.250    20294712.740    84467526.405 8      3804.897          48.437    20294711.960    84467523.406 8      3804.897          49.312
R24  19697798.140   105332967.844 7       546.794          46.875    19697798.100   105332967.840 7       546.794          47.000    19697810.700    81925693.115 7       425.284          47.937    19697811.300    81925695.103 8       425.284          48.000
G17  24085878.080   126572117.789 6      -325.383          38.937    24085876.740   126572117.792 5      -325.383          34.812    24085896.540    98627676.217 5      -253.545          34.375    24085896.360    98627681.194 6      -253.545          41.812
R11  23190617.640   123923644.505 7      3984.787          42.000    23190617.800   123923644.506 6      3984.787          41.437    23190640.260    96385141.881 7      3099.279          44.750    23190640.440    96385142.885 7      3099.279          46.875
G20  22534205.560   118418052.926 7      4807.085          43.312    22534203.400   118418052.934 5      4807.085          30.687    22534211.700    92273842.621 5      3745.781          30.687
R01  21179603.520   113217101.650 7       590.529          44.000    21179603.320   113217101.654 7       590.529          42.562    21179618.580    88057812.545 6       459.301          41.812    21179617.660    88057813.544 6       459.301          41.812
R18  24099491.760   128644725.602 6      6858.401          41.937    24099492.060   128644725.592 6      6858.401          41.437    24099508.060   100057071.971 7      5334.312          44.187    24099508.120   100057068.974 7      5334.312          43.250
G06  20303492.200   106695567.711 8      2200.351          48.250    20303491.380   106695567.708 8      2200.351          49.687    20303500.400    83139431.596 8      1714.559          49.750    20303501.140    83139444.595 8      1714.559          48.937
> 2024 10 07 10 23 52.0000000  0 19
R23  23692490.900   126738815.932 6     -1771.898          36.000    23692489.720   126738815.931 6     -1771.898          37.125
G09  21973056.640   115469187.808 7        55.432          45.000    21973055.720   115469187.813 7        55.432          44.750    21973067.360    89976027.722 7        43.194          44.812    21973066.840    89976027.724 7        43.194          46.437
R02  20439652.100   109069900.286 8      2673.889          49.500    20439651.740   109069900.290 8      2673.889          48.750    20439662.500    84832189.641 7      2079.691          45.562    20439662.940    84832190.647 7      2079.691          46.625
G30  21848164.060   114812881.396 7      4876.590          46.187    21848163.060   114812881.404 7      4876.590          45.625    21848175.260    89464630.695 7      3799.940          45.750    21848176.000    89464639.696 7      3799.940          46.937
G19  22805655.580   119844518.804 7      -477.093          43.312    22805653.240   119844518.804 5      -477.093          34.312    22805665.940    93385338.998 5      -371.761          34.187
G04  24787278.980   130258008.708 6      -510.494          38.812    24787278.300   130258008.721 3      -510.494          23.312    24787299.020   101499776.436 3      -397.787          23.250    24787299.340   101499816.375 6      -397.787          41.875
R03  23114132.460   123731767.359 6      4760.829          41.750    23114133.080   123731767.379 6      4760.829          40.000    23114152.560    96235900.830 7      3702.867          42.250    23114152.540    96235900.830 7      3702.867          42.500
G07  21795859.740   114537969.001 7      2962.893          47.312    21795857.900   114537969.000 7      2962.893          45.187    21795867.220    89250373.897 7      2308.748          45.000    21795867.320    89250428.905 7      2308.748          47.250
G05  24795555.880   130301526.587 7      5086.086          44.062    24795554.620   130301526.595 6      5086.086          38.875    24795568.680   101533697.521 6      3963.184          38.687    24795569.320   101533707.527 7      3963.184          42.187
R12  23637495.280   126267274.652 7      5885.861          42.750    23637494.460   126267274.645 7      5885.861          42.562    23637526.560    98208021.315 7      4577.892          42.875    23637527.660    98208023.327 7      4577.892          43.187
G11  21666014.460   113855678.378 7      5003.252          47.125    21666013.120   113855678.386 6      5003.252          38.000    21666020.180    88718729.721 6      3898.638          37.687    21666020.780    88718736.718 8      3898.638          48.437
R17  20293783.380   108596138.253 7      4891.355          47.437    20293784.840   108596138.273 7      4891.355          46.875    20293798.820    84463721.852 8      3804.387          48.125    20293798.000    84463718.851 8      3804.387          48.250
R24  19697696.360   105332421.554 8       546.005          48.125    19697695.960   105332421.552 7       546.005          47.500    19697708.520    81925268.220 7       424.670          47.125    19697708.920    81925270.207 7       424.670          46.937
G17  24085939.700   126572443.097 6      -325.306          38.812    24085938.740   126572443.097 5      -325.306          34.812    24085958.320    98627929.679 5      -253.485          34.625    24085958.800    98627934.667 6      -253.485          41.812
R11  23189871.900   123919660.149 7      3984.129          42.000    23189872.220   123919660.155 6      3984.129          41.812    23189894.520    96382042.943 7      3098.767          45.000    23189895.100    96382043.950 7      3098.767          46.062
G20  22533290.860   118413245.993 7      4807.140          43.250    22533288.600   118413246.001 5      4807.140          31.062    22533297.040    92270096.957 5      3745.823          31.000
R01  21179492.920   113216511.197 7       590.479          44.312    21179492.680   113216511.206 7       590.479          43.000    21179508.460    88057353.298 6       459.262          41.812    21179507.360    88057354.294 6       459.262          41.812
R18  24098206.860   128637867.289 6      6858.411          41.937    24098207.100   128637867.293 6      6858.411          41.500    24098223.520   100051737.713 7      5334.320          42.375    24098223.380   100051734.723 7      5334.320          43.000
G06  20303073.700   106693367.732 8      2199.780          49.000    20303072.760   106693367.737 8      2199.780          48.062    20303081.740    83137717.329 8      1714.114          48.125    20303082.360    83137730.328 8      1714.114          50.312
> 2024 10 07 10 23 53.0000000  0 19
R23  23692822.960   126740587.990 6     -1772.102          36.000    23692821.080   126740587.984 5     -1772.102          35.312
G09  21973046.160   115469132.598 7        55.212          45.687    21973045.240   115469132.609 7        55.212          46.250    21973056.880    89975984.695 7        43.022          46.625    21973056.340    89975984.691 7        43.022          47.562
R02  20439151.120   109067226.729 8      2673.542          49.812    20439151.060   109067226.732 8      2673.542          48.500    20439161.480    84830110.204 8      2079.422          48.875    20439162.140    84830111.209 8      2079.422          48.812
G30  21847236.240   114808005.202 7      4876.049          46.625    21847235.220   114808005.207 7      4876.049          46.437    21847247.280    89460831.063 7      3799.518          46.437    21847247.940    89460840.061 8      3799.518          48.000
G19  22805746.100   119844996.001 7      -477.214          42.937    22805743.840   119844995.995 5      -477.214          33.375    22805756.780    93385710.830 5      -371.855          33.375
G04  24787375.800   130258519.248 6      -510.493          39.312    24787375.400   130258519.266 3      -510.493          23.312    24787396.260   101500174.241 3      -397.787          23.250    24787396.120   101500214.172 7      -397.787          42.125
R03  23113243.400   123727006.773 7      4760.612          42.500    23113243.420   123727006.796 6      4760.612          40.500    23113263.560    96232198.156 7      3702.699          42.562    23113263.500    96232198.156 7      3702.699          42.812
G07  21795296.180   114535006.569 7      2962.241          46.875    21795294.260   114535006.569 7      2962.241          45.500    21795303.380    89248065.502 7      2308.240          45.062    21795303.860    89248120.508 8      2308.240          48.625
G05  24794587.880   130296440.648 7      5086.079          43.625    24794586.740   130296440.656 6      5086.079          39.187    24794600.860   101529734.454 6      3963.178          39.250    24794601.600   101529744.458 7      3963.178          42.312
R12  23636393.460   126261389.013 7      5885.732          43.000    23636392.280   126261389.012 7      5885.732          42.562    23636424.760    98203443.606 7      4577.791          43.000    23636425.620    98203445.608 7      4577.791          43.437
G11  21665062.500   113850675.450 7      5002.813          46.750    21665061.140   113850675.460 6      5002.813          38.437    21665068.180    88714831.336 6      3898.296          37.812    21665068.480    88714838.330 8      3898.296          50.250
R17  20292869.100   108591247.565 7      4890.431          46.875    20292870.960   108591247.580 7      4890.431          46.750    20292884.600    84459917.979 7      3803.669          47.375    20292883.800    84459914.978 7      3803.669          47.812
R24  19697594.040   105331876.157 8       545.030          48.562    19697593.960   105331876.161 7       545.030          46.937    19697606.380    81924844.016 7       423.912          46.750    19697606.820    81924846.009 7       423.912          47.125
G17  24086002.020   126572768.418 6      -325.168          40.000    24086000.800   126572768.420 5      -325.168          34.750    24086020.140    98628183.151 5      -253.378          34.625    24086020.540    98628188.135 6      -253.378          41.625
R11  23189126.500   123915676.508 7      3983.331          42.312    23189126.380   123915676.517 6      3983.331          41.812    23189148.980    96378944.560 7      3098.146          46.312    23189149.460    96378945.565 7      3098.146          45.375
G20  22532376.080   118408439.181 7      4806.948          43.250    22532373.920   118408439.188 5      4806.948          31.062    22532382.560    92266351.389 5      3745.673          31.000
R01  21179382.380   113215920.869 7       590.443          44.312    21179382.280   113215920.868 7       590.443          43.000    21179398.120    88056894.137 6       459.233          41.750    21179397.040    88056895.131 6       459.233          41.937
R18  24096921.880   128631009.279 7      6857.980          42.125    24096922.760   128631009.285 6      6857.980          41.500    24096938.740   100046403.688 7      5333.985          44.000    24096939.040   100046400.694 7      5333.985          43.437
G06  20302655.200   106691168.471 8      2199.098          49.250    20302654.260   106691168.468 8      2199.098          48.312    20302663.240    83136003.606 7      1713.582          47.937    20302664.020    83136016.606 8      1713.582          52.500
> 2024 10 07 10 23 54.0000000  0 19
R23  23693153.820   126742360.091 6     -1772.234          36.000    23693152.540   126742360.103 5     -1772.234          35.312
G09  21973035.780   115469077.520 7        54.920          45.812    21973034.780   115469077.525 7        54.920          46.187    21973046.280    89975941.769 7        42.795          46.187    21973045.840    89975941.765 7        42.795          46.812
R02  20438650.140   109064553.459 8      2673.035          49.812    20438650.160   109064553.463 8      2673.035          48.062    20438660.380    84828030.994 8      2079.027          48.750    20438661.160    84828032.000 8      2079.027          49.312
G30  21846308.400   114803129.349 7      4875.570          45.750    21846307.320   114803129.356 7      4875.570          46.687    21846319.500    89457031.701 7      3799.145          47.000    21846320.000    89457040.699 7      3799.145          47.187
G19  22805837.100   119845473.308 7      -477.428          43.062    22805834.380   119845473.305 5      -477.428          33.375    22805847.420    93386082.747 5      -372.022          33.375
G04  24787472.800   130259029.699 6      -510.549          38.750    24787472.560   130259029.714 3      -510.549          23.312    24787493.480   101500571.976 3      -397.830          23.250    24787493.560   101500611.905 7      -397.830          42.125
R03  23112353.880   123722246.441 7      4760.135          42.500    23112353.960   123722246.456 6      4760.135          40.500    23112374.200    96228495.682 7      3702.327          43.875    23112374.280    96228495.680 7      3702.327          43.437
G07  21794732.580   114532044.626 7      2961.628          47.000    21794730.560   114532044.628 7      2961.628          45.750    21794739.820    89245757.503 7      2307.762          45.312    21794740.060    89245812.511 7      2307.762          47.312
G05  24793620.060   130291354.646 7      5085.959          43.750    24793619.000   130291354.656 6      5085.959          39.375    24793633.180   101525771.336 6      3963.085          39.687    24793633.720   101525781.340 7      3963.085          42.625
R12  23635291.440   126255503.339 7      5885.593          43.000    23635290.480   126255503.340 7      5885.593          42.125    23635322.900    98198865.877 7      4577.683          44.187    23635323.820    98198867.867 7      4577.683          44.375
G11  21664110.800   113845672.880 7      5002.271          47.000    21664109.100   113845672.887 6      5002.271          38.187    21664116.120    88710933.229 6      3897.874          38.062    21664116.540    88710940.223 8      3897.874          49.687
R17  20291955.600   108586357.623 7      4889.459          47.625    20291957.020   108586357.638 7      4889.459          47.000    20291970.660    84456114.695 8      3802.912          48.625    20291970.100    84456111.701 8      3802.912          48.687
R24  19697492.240   105331331.506 7       544.194          46.437    19697492.160   105331331.510 7       544.194          47.125    19697504.600    81924420.397 8       423.262          48.125    19697504.780    81924422.398 8       423.262          48.062
G17  24086064.020   126573093.613 6      -325.186          40.062    24086062.580   126573093.618 5      -325.186          34.937    24086082.020    98628436.525 5      -253.392          34.562    24086082.260    98628441.521 7      -253.392          42.250
R11  23188381.020   123911693.440 7      3982.663          42.375    23188381.260   123911693.451 6      3982.663          41.750    23188403.660    96375846.624 7      3097.627          45.875    23188404.060    96375847.625 7      3097.627          46.312
G20  22531461.260   118403632.350 7      4806.754          44.312    22531459.160   118403632.360 5      4806.754          31.062    22531468.040    92262605.808 5      3745.522          31.000
R01  21179272.200   113215330.547 7       590.226          43.750    21179271.940   113215330.551 7       590.226          42.500    21179287.840    88056434.998 7       459.065          42.875    21179286.640    88056435.990 7       459.065          42.625
R18  24095637.380   128624151.412 6      6857.717          41.750    24095637.760   128624151.405 6      6857.717          41.500    24095653.800   100041069.767 7      5333.780          43.812    24095654.020   100041066.772 7      5333.780          44.375
G06  20302236.820   106688969.762 8      2198.323          49.125    20302235.860   106688969.764 8      2198.323          49.000    20302244.820    83134290.333 8      1712.979          49.500    20302245.620    83134303.332 8      1712.979          52.187
> 2024 10 07 10 23 55.0000000  0 19
R23  23693484.740   126744132.472 6     -1772.567          36.000    23693483.120   126744132.468 5     -1772.567          35.312
G09  21973025.400   115469022.745 7        54.554          46.562    21973024.340   115469022.744 7        54.554          45.812    21973035.840    89975899.074 7        42.510          45.250    21973035.640    89975899.068 7        42.510          46.312
R02  20438149.020   109061880.622 8      2672.590          50.250    20438149.300   109061880.626 8      2672.590          48.687    20438159.480    84825952.119 7      2078.681          46.625    20438159.940    84825953.122 7      2078.681          46.937
G30  21845380.700   114798254.021 7      4875.048          47.125    21845379.520   114798254.023 7      4875.048          46.687    21845391.840    89453232.750 7      3798.738          46.062    21845392.400    89453241.751 7      3798.738          47.187
G19  22805927.960   119845950.904 7      -477.746          42.625    22805925.120   119845950.903 5      -477.746          33.437    22805938.280    93386454.893 5      -372.270          33.125
G04  24787570.440   130259540.210 6      -510.466          38.875    24787569.780   130259540.225 3      -510.466          23.000    24787590.740   101500969.758 3      -397.766          23.250    24787591.200   101501009.704 7      -397.766          42.500
R03  23111464.120   123717486.510 7      4759.680          42.062    23111464.840   123717486.525 6      4759.680          40.812    23111485.080    96224793.526 7      3701.973          43.687    23111485.180    96224793.520 7      3701.973          43.250
G07  21794169.180   114529083.379 7      2960.863          46.875    21794167.180   114529083.382 7      2960.863          45.562    21794176.280    89243450.036 7      2307.166          45.250    21794176.520    89243505.042 7      2307.166          47.437
G05  24792652.060   130286268.715 7      5085.869          43.562    24792651.100   130286268.720 6      5085.869          38.750    24792665.360   101521808.271 6      3963.015          38.875    24792665.540   101521818.272 7      3963.015          42.437
R12  23634189.460   126249617.823 7      5885.369          42.312    23634188.920   126249617.819 7      5885.369          42.375    23634221.580    98194288.272 7      4577.509          43.437    23634222.260    98194290.256 7      4577.509          43.875
G11  21663158.720   113840670.830 7      5001.742          46.937    21663157.280   113840670.837 6      5001.742          38.062    21663164.320    88707035.528 6      3897.461          38.375    21663164.860    88707042.522 8      3897.461          48.250
R17  20291041.700   108581468.588 7      4888.547          47.500    20291043.280   108581468.609 7      4888.547          46.062    20291056.900    84452312.114 8      3802.203          48.812    20291056.320    84452309.124 8      3802.203          48.875
R24  19697390.440   105330787.828 7       543.179          47.375    19697390.300   105330787.829 7       543.179          47.750    19697403.020    81923997.530 7       422.472          47.812    19697403.180    81923999.531 8       422.472          48.062
G17  24086125.780   126573418.910 6      -325.506          40.062    24086124.340   126573418.915 5      -325.506          35.000    24086143.960    98628689.983 5      -253.641          34.750    24086144.320    98628694.962 7      -253.641          42.250
R11  23187635.540   123907711.143 7      3981.917          42.375    23187636.500   123907711.155 6      3981.917          41.812    23187658.200    96372749.291 7      3097.047          44.687    23187658.600    96372750.291 7      3097.047          46.875
G20  22530546.420   118398825.658 7      4806.641          44.062    22530544.420   118398825.663 5      4806.641          31.062    22530553.440    92258860.332 5      3745.435          31.000
R01  21179161.920   113214740.420 7       590.039          43.750    21179161.700   113214740.416 7       590.039          42.687    21179177.540    88055975.993 7       458.919          42.375    21179175.920    88055976.985 7       458.919          42.312
R18  24094353.100   128617293.906 6      6857.386          41.750    24094352.440   128617293.891 6      6857.386          41.625    24094369.100   100035736.132 7      5333.522          43.250    24094369.620   100035733.136 7      5333.522          44.000
G06  20301818.680   106686771.790 8      2197.578          49.437    20301817.600   106686771.798 8      2197.578          50.500    20301826.580    83132577.628 8      1712.398          50.375    20301827.340    83132590.627 8      1712.398          50.437
> 2024 10 07 10 23 56.0000000  0 19
R23  23693817.060   126745905.009 6     -1772.482          36.000    23693814.180   126745905.007 5     -1772.482          35.312
G09  21973014.920   115468968.182 7        54.666          45.125    21973013.940   115468968.181 7        54.666          45.000    21973025.540    89975856.549 7        42.597          44.562    21973024.680    89975856.548 7        42.597          46.562
R02  20437648.400   109059208.167 8      2672.446          50.375    20437648.580   109059208.173 8      2672.446          48.375    20437658.440    84823873.543 7      2078.569          46.937    20437659.260    84823874.548 7      2078.569          47.312
G30  21844453.120   114793379.169 7      4874.841          45.937    21844451.860   114793379.171 7      4874.841          45.875    21844464.180    89449434.169 7      3798.577          45.500    21844464.520    89449443.171 7      3798.577          46.937
G19  22806018.900   119846428.705 7      -477.693          43.437    22806016.000   119846428.710 5      -477.693          33.437    22806029.180    93386827.198 5      -372.228          33.125
G04  24787667.800   130260050.757 6      -510.169          38.937    24787666.820   130260050.770 3      -510.169          23.000    24787687.920   101501367.571 3      -397.534          23.250    24787688.040   101501407.509 7      -397.534          42.687
R03  23110575.000   123712726.936 7      4759.595          42.062    23110575.740   123712726.956 6      4759.595          40.812    23110596.060    96221091.637 7      3701.908          43.187    23110596.000    96221091.635 7      3701.908          42.687
G07  21793605.600   114526122.727 7      2960.487          45.375    21793603.720   114526122.731 7      2960.487          45.312    21793612.900    89241143.036 7      2306.873          45.187    21793613.240    89241198.044 7      2306.873          47.125
G05  24791684.500   130281182.810 7      5086.073          43.750    24791683.220   130281182.823 6      5086.073          38.312    24791697.420   101517845.230 6      3963.173          38.375    24791698.280   101517855.234 7      3963.173          42.437
R12  23633087.700   126243732.384 7      5885.550          42.062    23633087.000   126243732.388 7      5885.550          42.437    23633120.520    98189710.725 7      4577.650          43.312    23633120.740    98189712.720 7      4577.650          44.562
G11  21662206.860   113835669.239 7      5001.566          46.000    21662205.360   113835669.249 6      5001.566          38.187    21662212.640    88703138.187 6      3897.324          37.750    21662213.060    88703145.179 8      3897.324          49.437
R17  20290128.380   108576580.370 7      4888.064          47.187    20290129.880   108576580.387 7      4888.064          46.187    20290143.260    84448510.169 7      3801.827          47.875    20290142.880    84448507.178 7      3801.827          47.812
R24  19697289.340   105330245.000 7       542.599          46.937    19697288.640   105330244.996 7       542.599          46.875    19697301.400    81923575.318 7       422.021          47.000    19697301.680    81923577.321 7       422.021          47.250
G17  24086187.540   126573744.144 6      -325.005          39.937    24086186.280   126573744.149 5      -325.005          35.000    24086205.800    98628943.383 5      -253.251          34.750    24086206.380    98628948.365 7      -253.251          42.312
R11  23186890.700   123903729.522 7      3981.448          42.625    23186891.360   123903729.537 6      3981.448          41.812    23186913.160    96369652.485 7      3096.682          45.062    23186913.540    96369653.481 7      3096.682          45.625
G20  22529631.460   118394019.048 7      4806.834          43.625    22529629.640   118394019.055 5      4806.834          31.062    22529639.000    92255114.920 5      3745.585          31.000
R01  21179051.520   113214150.391 7       590.176          43.937    21179051.440   113214150.387 7       590.176          42.687    21179066.860    88055517.072 6       459.026          41.687    21179065.780    88055518.068 6       459.026          41.875
R18  24093068.140   128610436.645 6      6857.353          41.750    24093067.820   128610436.628 6      6857.353          41.625    24093085.040   100030402.685 7      5333.497          43.187    24093085.120   100030399.690 7      5333.497          43.687
G06  20301400.380   106684574.502 8      2197.117          48.625    20301399.520   106684574.502 8      2197.117          49.250    20301408.540    83130865.445 8      1712.039          48.812    20301409.360    83130878.442 8      1712.039          50.937
> 2024 10 07 10 23 57.0000000  0 19
R23  23694148.820   126747677.585 6     -1772.591          36.000    23694146.420   126747677.605 5     -1772.591          35.312
G09  21973004.640   115468913.771 7        54.345          44.937    21973003.480   115468913.771 7        54.345          45.812    21973015.100    89975814.143 7        42.347          45.312    21973014.120    89975814.148 7        42.347          47.125
R02  20437147.300   109056535.992 8      2672.067          50.375    20437147.980   109056535.995 8      2672.067          48.625    20437157.780    84821795.180 7      2078.274          46.750    20437158.320    84821796.181 7      2078.274          46.937
G30  21843525.320   114788504.693 7      4874.321          46.875    21843524.240   114788504.695 7      4874.321          46.250    21843536.600    89445635.881 7      3798.172          45.625    21843536.900    89445644.878 7      3798.172          47.500
G19  22806109.640   119846906.645 6      -477.797          41.812    22806106.700   119846906.647 5      -477.797          32.750    22806119.900    93387199.610 5      -372.309          32.500
G04  24787764.620   130260561.252 6      -510.287          39.125    24787764.040   130260561.265 3      -510.287          23.000    24787785.280   101501765.341 3      -397.627          23.250    24787785.220   101501805.262 7      -397.627          42.937
R03  23109686.160   123707967.629 7      4759.285          42.750    23109686.500   123707967.644 6      4759.285          40.937    23109706.900    96217389.960 7      3701.666          42.750    23109706.780    96217389.958 7      3701.666          43.187
G07  21793042.040   114523162.597 7      2959.912          46.625    21793040.420   114523162.602 7      2959.912          45.812    21793049.640    89238836.443 7      2306.425          45.750    21793049.960    89238891.449 8      2306.425          48.187
G05  24790716.720   130276096.835 7      5086.104          44.000    24790715.440   130276096.840 6      5086.104          39.062    24790729.560   101513882.126 6      3963.198          39.187    24790730.440   101513892.134 7      3963.198          42.437
R12  23631986.080   126237846.932 7      5885.595          42.062    23631986.440   126237846.928 7      5885.595          42.437    23632018.940    98185133.163 7      4577.685          43.625    23632019.120    98185135.160 7      4577.685          45.000
G11  21661255.320   113830668.019 8      5001.136          48.062    21661253.700   113830668.030 6      5001.136          38.187    21661260.900    88699241.130 6      3896.989          38.562    21661261.360    88699248.126 8      3896.989          50.000
R17  20289215.420   108571692.911 7      4887.178          47.187    20289216.640   108571692.923 7      4887.178          46.500    20289229.860    84444708.808 8      3801.139          49.812    20289229.880    84444705.817 8      3801.139          50.250
R24  19697187.840   105329702.894 7       541.785          47.625    19697187.140   105329702.893 7       541.785          47.750    19697200.000    81923153.678 8       421.388          49.500    19697200.200    81923155.679 8       421.388          49.500
G17  24086249.720   126574069.291 6      -325.039          39.000    24086248.300   126574069.296 5      -325.039          34.875    24086267.680    98629196.725 5      -253.277          34.875    24086268.080    98629201.716 6      -253.277          41.937
R11  23186145.680   123899748.527 7      3980.724          43.000    23186146.500   123899748.536 7      3980.724          42.062    23186167.680    96366556.154 7      3096.118          44.750    23186168.240    96366557.154 7      3096.118          46.375
G20  22528717.100   118389212.448 7      4806.708          43.562    22528715.120   118389212.456 5      4806.708          31.187    22528724.540    92251369.521 5      3745.487          31.000
R01  21178941.520   113213560.390 7       590.025          43.687    21178940.680   113213560.396 7       590.025          42.687    21178956.640    88055058.184 7       458.909          42.500    21178954.960    88055059.182 7       458.909          42.125
R18  24091783.440   128603579.534 6      6856.929          41.750    24091783.760   128603579.530 6      6856.929          41.812    24091800.340   100025069.374 7      5333.167          43.125    24091800.020   100025066.379 7      5333.167          44.125
G06  20300982.280   106682377.785 8      2196.449          48.937    20300981.520   106682377.787 8      2196.449          50.875    20300990.460    83129153.715 8      1711.519          51.500    20300991.200    83129166.714 8      1711.519          51.937
> 2024 10 07 10 23 58.0000000  0 19
R23  23694480.800   126749450.403 5     -1773.108          35.625    23694477.460   126749450.396 5     -1773.108          35.312
G09  21972994.340   115468859.594 7        53.943          45.250    21972993.180   115468859.596 7        53.943          46.000    21973004.780    89975771.922 7        42.034          46.000    21973004.220    89975771.924 7        42.034          47.375
R02  20436646.340   109053864.184 8      2671.518          50.187    20436647.120   109053864.188 7      2671.518          47.812    20436656.960    84819717.101 8      2077.847          48.625    20436657.820    84819718.103 8      2077.847          49.125
G30  21842597.900   114783630.679 7      4873.785          46.562    21842596.700   114783630.684 7      4873.785          46.812    21842609.080    89441837.959 7      3797.754          46.687    21842609.300    89441846.955 7      3797.754          47.625
G19  22806200.540   119847384.835 7      -478.346          42.125    22806197.480   119847384.842 5      -478.346          32.750    22806210.760    93387572.218 5      -372.737          32.500
G04  24787861.820   130261071.779 6      -510.605          38.812    24787861.300   130261071.792 3      -510.605          23.000    24787882.280   101502163.134 3      -397.874          23.250    24787882.340   101502203.053 7      -397.874          43.125
R03  23108797.160   123703208.702 7      4758.689          42.750    23108797.640   123703208.714 6      4758.689          40.937    23108818.100    96213688.575 7      3701.202          43.437    23108818.000    96213688.575 7      3701.202          43.562
G07  21792478.740   114520203.095 7      2959.137          46.250    21792477.140   114520203.097 7      2959.137          45.750    21792486.420    89236530.335 7      2305.821          45.750    21792486.780    89236585.346 8      2305.821          48.625
G05  24789748.840   130271010.901 7      5085.892          44.125    24789747.660   130271010.908 6      5085.892          38.937    24789761.760   101509919.061 6      3963.033          39.125    24789762.740   101509929.073 7      3963.033          42.500
R12  23630884.360   126231961.576 7      5885.277          42.875    23630884.880   126231961.569 7      5885.277          42.437    23630917.120    98180555.670 7      4577.438          44.625    23630917.220    98180557.671 7      4577.438          45.812
G11  21660303.580   113825667.275 7      5000.476          46.875    21660302.180   113825667.283 6      5000.476          38.000    21660309.200    88695344.448 6      3896.475          38.250    21660309.800    88695351.445 8      3896.475          49.750
R17  20288302.000   108566806.327 7      4886.053          46.937    20288303.540   108566806.337 7      4886.053          46.687    20288316.620    84440908.131 8      3800.263          49.812    20288316.460    84440905.137 8      3800.263          50.000
R24  19697086.500   105329161.698 7       540.647          47.687    19697085.860   105329161.699 7       540.647          46.812    19697098.740    81922732.741 8       420.503          48.812    19697099.180    81922734.734 8       420.503          49.437
G17  24086312.260   126574394.444 6      -325.105          39.250    24086310.040   126574394.449 5      -325.105          35.250    24086329.700    98629450.064 5      -253.329          34.937    24086329.680    98629455.053 6      -253.329          41.937
R11  23185400.660   123895768.226 7      3979.978          42.125    23185401.440   123895768.220 6      3979.978          41.562    23185422.700    96363460.360 7      3095.538          46.000    23185423.380    96363461.356 7      3095.538          46.187
G20  22527802.280   118384405.956 7      4806.442          43.562    22527800.560   118384405.961 5      4806.442          31.187    22527810.140    92247624.203 5      3745.280          31.312
R01  21178831.420   113212970.543 7       589.608          43.437    21178830.480   113212970.547 7       589.608          42.687    21178846.120    88054599.408 7       458.584          42.562    21178844.880    88054600.398 7       458.584          42.562
R18  24090498.940   128596722.671 6      6856.607          41.375    24090499.260   128596722.664 6      6856.607          41.812    24090515.820   100019736.242 7      5332.916          43.750    24090515.680   100019733.245 7      5332.916          44.250
G06  20300564.500   106680181.760 8      2195.626          49.125    20300563.620   106680181.755 8      2195.626          50.187    20300572.560    83127442.517 8      1710.878          50.250    20300573.260    83127455.518 8      1710.878          51.625
> 2024 10 07 10 23 59.0000000  0 19
R23  23694811.580   126751223.512 5     -1773.311          35.625    23694809.720   126751223.497 5     -1773.311          35.312
G09  21972984.120   115468805.769 7        53.795          45.625    21972983.160   115468805.769 7        53.795          46.062    21972994.640    89975729.976 7        41.918          45.875    21972994.420    89975729.980 7        41.918          47.625
R02  20436146.100   109051192.890 8      2671.175          50.000    20436146.340   109051192.893 8      2671.175          48.437    20436156.300    84817639.423 8      2077.581          49.187    20436157.040    84817640.427 8      2077.581          49.687
G30  21841670.400   114778757.288 7      4873.273          46.812    21841669.340   114778757.290 7      4873.273          47.125    21841681.640    89438040.511 7      3797.356          47.375    21841682.060    89438049.506 7      3797.356          47.500
G19  22806291.560   119847863.374 6      -478.644          41.000    22806288.460   119847863.382 5      -478.644          32.125    22806301.960    93387945.103 5      -372.969          32.500
G04  24787959.120   130261582.427 6      -510.485          38.812    24787958.520   130261582.439 3      -510.485          23.000    24787979.300   101502561.021 3      -397.780          23.437    24787979.580   101502600.941 7      -397.780          43.187
R03  23107908.260   123698450.230 7      4758.375          42.250    23107908.660   123698450.259 6      4758.375          40.937    23107929.340    96209987.562 7      3700.958          44.000    23107928.980    96209987.560 7      3700.958          43.562
G07  21791915.660   114517244.328 7      2958.596          46.687    21791914.060   114517244.333 7      2958.596          45.812    21791923.420    89234224.807 7      2305.400          46.000    21791923.540    89234279.816 8      2305.400          48.625
G05  24788781.260   130265925.128 7      5085.908          43.125    24788779.880   130265925.135 6      5085.908          39.125    24788793.920   101505956.120 6      3963.045          39.125    24788795.100   101505966.130 7      3963.045          42.437
