     3.05           OBSERVATION DATA    MIXED               RINEX VERSION / TYPE
TPS2RIN 1.0.28.3459 TB                  20241016 133305 UTC PGM / RUN BY / DATE
Win64 build Jun 01, 2022 (c) Topcon Positioning Systems     COMMENT
Insert your comment here                                    COMMENT
SRC: 20241007_GUI32.tps                                     COMMENT
OPT: -v 3.05 -S                                             COMMENT
OPT: -p \Users\Thomas\Travaux\Projets\Volcano\Software\GPS\TCOMMENT
TB                  CSIC                                    OBSERVER / AGENCY
O0M3X53SBGM         TPS HIPER_SR        4.8 HSR Jul,08,2022 REC # / TYPE / VERS
FW: 4.8 HSR Jul,08,2022 p3                                  COMMENT
SN: HiPer SR 1212-12575                                     COMMENT
0001                TPSHIPER_SR                             ANT # / TYPE
        1.8000        0.0000        0.0000                  ANTENNA: DELTA H/E/N
GUI                                                         MARKER NAME
000                                                         MARKER NUMBER
GEODETIC                                                    MARKER TYPE
  5390082.6239 -1594589.2178  3007905.5826                  APPROX POSITION XYZ
  2024    10     7    11    35   42.0000000     GPS         TIME OF FIRST OBS
  2024    10     7    11    50   43.0000000     GPS         TIME OF LAST OBS
     1.000                                                  INTERVAL
   902 EPOCHS                                               COMMENT
G   16 C1C L1C D1C S1C C1W L1W D1W S1W C2W L2W D2W S2W C2X  SYS / # / OBS TYPES
       L2X D2X S2X                                          SYS / # / OBS TYPES
R   16 C1C L1C D1C S1C C1P L1P D1P S1P C2P L2P D2P S2P C2C  SYS / # / OBS TYPES
       L2C D2C S2C                                          SYS / # / OBS TYPES
    18                                                      # OF SATELLITES
   G05   842   842   842   842   841   841   841   841   841PRN / # OF OBS
         841   841   841   837   837   837   837            PRN / # OF OBS
   G06   903   903   903   903   903   903   903   903   903PRN / # OF OBS
         903   903   903   903   903   903   903            PRN / # OF OBS
   G07   903   903   903   903   903   903   903   903   903PRN / # OF OBS
         903   903   903   903   903   903   903            PRN / # OF OBS
   G09    98    98    98    98    94    94    94    94    95PRN / # OF OBS
          95    95    95    90    90    90    90            PRN / # OF OBS
   G11   730   730   730   730   722   722   722   722   722PRN / # OF OBS
         722   722   722   713   713   713   713            PRN / # OF OBS
   G13   903   903   903   903   903   903   903   903   903PRN / # OF OBS
         903   903   903     0     0     0     0            PRN / # OF OBS
   G14   698   698   698   698   678   678   678   678   677PRN / # OF OBS
         677   677   677   672   672   672   672            PRN / # OF OBS
   G20   903   903   903   903   903   903   903   903   903PRN / # OF OBS
         903   903   903     0     0     0     0            PRN / # OF OBS
   G30   903   903   903   903   903   903   903   903   903PRN / # OF OBS
         903   903   903   903   903   903   903            PRN / # OF OBS
   R01   251   251   251   251   246   246   246   246   246PRN / # OF OBS
         246   246   246   245   245   245   245            PRN / # OF OBS
   R02   903   903   903   903   903   903   903   903   903PRN / # OF OBS
         903   903   903   903   903   903   903            PRN / # OF OBS
   R03   258   258   258   258   247   247   247   247   247PRN / # OF OBS
         247   247   247   245   245   245   245            PRN / # OF OBS
   R11   136   136   136   136   114   114   114   114   114PRN / # OF OBS
         114   114   114   110   110   110   110            PRN / # OF OBS
   R12   903   903   903   903   903   903   903   903   903PRN / # OF OBS
         903   903   903   903   903   903   903            PRN / # OF OBS
   R13   443   443   443   443   431   431   431   431     0PRN / # OF OBS
           0     0     0     0     0     0     0            PRN / # OF OBS
   R17   687   687   687   687   678   678   678   678   678PRN / # OF OBS
         678   678   678   676   676   676   676            PRN / # OF OBS
   R18   866   866   866   866   866   866   866   866   866PRN / # OF OBS
         866   866   866   866   866   866   866            PRN / # OF OBS
   R24   391   391   391   391   381   381   381   381   381PRN / # OF OBS
         381   381   381   379   379   379   379            PRN / # OF OBS
G L1C                                                       SYS / PHASE SHIFT
G L1W -0.25000                                              SYS / PHASE SHIFT
G L2W  0.00000                                              SYS / PHASE SHIFT
G L2X  0.25000                                              SYS / PHASE SHIFT
R L1C                                                       SYS / PHASE SHIFT
R L1P -0.25000                                              SYS / PHASE SHIFT
R L2P -0.25000                                              SYS / PHASE SHIFT
R L2C                                                       SYS / PHASE SHIFT
  9 R01  1 R02 -4 R03  5 R11  0 R12 -1 R13 -2 R17  4 R18 -3 GLONASS SLOT / FRQ #
    R24  2                                                  GLONASS SLOT / FRQ #
                                                            GLONASS COD/PHS/BIS
               *** Undefined LeapSeconds ***                COMMENT
                                                            END OF HEADER
> 2024 10 07 11 35 42.0000000  0 11
R18  21345037.760   113941259.967 6      4767.905          39.375    21345038.460   113941259.994 6      4767.905          38.875    21345049.880    88621043.197 6      3708.370          41.625    21345050.560    88621040.221 6      3708.370          41.062
G09  24138238.320   126847285.572 5       -15.933          34.062    24138236.000   126847285.577 3       -15.933          23.562    24138252.900    98842116.059 3       -12.415          23.437    24138256.020    98842129.936 5       -12.415          35.125
G05  22656536.340   119060901.105 6      5233.268          37.187    22656535.240   119060901.105 4      5233.268          28.437    22656547.700    92774747.030 4      4077.871          28.125    22656547.520    92774775.043 6      4077.871          37.312
G20  20815194.120   109384587.167 7      4387.628          46.812    20815191.960   109384587.172 6      4387.628          38.375    20815200.740    85234769.091 6      3418.931          38.375
G07  22406935.380   117749233.285 7       794.622          45.437    22406934.100   117749233.287 7       794.622          42.937    22406944.100    91752652.126 7       619.186          42.875    22406944.740    91752692.141 7       619.186          45.500
G06  21615885.260   113592245.055 7      -102.608          47.250    21615884.500   113592245.058 7      -102.608          47.375    21615898.900    88513487.554 7       -79.954          47.375    21615899.560    88513488.561 8       -79.954          50.500
R02  20727315.360   110604927.007 8      2036.906          51.562    20727316.260   110604927.008 8      2036.906          50.187    20727328.800    86026114.553 7      1584.261          47.562    20727328.460    86026109.555 8      1584.261          48.125
R17  19968024.400   106852938.297 6      1128.555          36.937    19968029.460   106852938.344 6      1128.555          36.000    19968040.020    83107896.688 6       877.765          38.562    19968040.260    83107898.694 6       877.765          39.562
R12  21393818.940   114281945.687 7      4428.120          45.625    21393820.040   114281945.693 7      4428.120          46.000    21393838.160    88886069.705 7      3444.093          47.750    21393838.300    88886042.713 8      3444.093          48.000
G13  21612346.500   113573646.707 6      4566.288          40.625    21612344.300   113573646.701 2      4566.288          15.875    21612352.100    88498974.445 2      3558.147          15.750
G30  20822319.100   109422031.386 8      2634.072          49.625    20822318.240   109422031.393 8      2634.072          49.312    20822328.100    85263944.822 8      2052.524          49.625    20822328.540    85263951.823 8      2052.524          49.187
> 2024 10 07 11 35 43.0000000  0 11
R18  21344144.540   113936492.712 6      4766.868          39.375    21344145.040   113936492.737 6      4766.868          38.875    21344156.180    88617335.328 6      3707.564          41.937    21344157.260    88617332.350 6      3707.564          41.062
G09  24138241.080   126847301.710 5       -16.171          35.562    24138239.120   126847301.718 3       -16.171          23.812    24138256.320    98842128.619 3       -12.601          23.875    24138260.880    98842142.456 5       -12.601          35.125
G05  22655540.740   119055667.870 6      5233.285          36.375    22655539.500   119055667.867 4      5233.285          28.437    22655552.040    92770669.186 4      4077.885          28.125    22655551.420    92770697.191 6      4077.885          37.875
G20  20814359.200   109380199.669 7      4387.433          46.875    20814357.080   109380199.672 6      4387.433          37.687    20814365.920    85231350.264 6      3418.779          37.812
G07  22406784.440   117748438.950 7       794.077          45.562    22406782.860   117748438.957 7       794.077          42.500    22406792.920    91752033.164 7       618.761          42.625    22406793.680    91752073.172 7       618.761          45.562
G06  21615904.920   113592347.936 7      -103.070          47.375    21615904.200   113592347.930 7      -103.070          47.000    21615918.280    88513567.702 7       -80.314          46.750    21615918.960    88513568.712 8       -80.314          50.062
R02  20726933.820   110602890.207 8      2036.772          51.312    20726934.540   110602890.213 8      2036.772          50.437    20726946.720    86024530.371 7      1584.156          47.875    20726946.780    86024525.369 7      1584.156          47.750
R17  19967814.220   106851810.002 6      1128.120          36.937    19967819.320   106851810.017 6      1128.120          36.000    19967829.000    83107019.091 6       877.427          38.562    19967829.460    83107021.098 6       877.427          39.562
R12  21392990.360   114277518.079 7      4427.369          46.000    21392991.100   114277518.093 7      4427.369          45.125    21393009.020    88882626.019 7      3443.509          47.687    21393009.540    88882599.028 7      3443.509          47.687
G13  21611477.340   113569080.499 6      4565.906          39.187    21611475.420   113569080.493 2      4565.906          15.875    21611483.260    88495416.367 2      3557.849          15.750
G30  20821817.780   109419397.741 8      2633.362          49.187    20821817.180   109419397.748 8      2633.362          49.250    20821826.860    85261892.629 8      2051.971          49.500    20821827.460    85261899.628 8      2051.971          49.187
> 2024 10 07 11 35 44.0000000  0 11
R18  21343252.260   113931726.148 6      4766.285          39.375    21343251.400   113931726.160 6      4766.285          38.875    21343263.540    88613627.986 6      3707.111          41.687    21343264.440    88613625.019 6      3707.111          40.562
G09  24138244.460   126847317.696 5       -15.897          35.562    24138242.160   126847317.704 3       -15.897          23.812    24138259.380    98842141.062 3       -12.387          23.875    24138263.880    98842154.925 5       -12.387          30.937
G05  22654545.020   119050434.625 6      5233.075          36.375    22654543.680   119050434.630 4      5233.075          28.437    22654556.160    92766591.341 4      4077.721          28.125    22654555.880    92766619.362 6      4077.721          37.875
G20  20813524.320   109375812.361 7      4387.204          46.187    20813522.240   109375812.366 6      4387.204          38.812    20813531.100    85227931.587 6      3418.600          38.625
G07  22406633.360   117747644.964 7       793.772          45.375    22406631.640   117747644.969 7       793.772          43.125    22406641.980    91751414.471 7       618.524          43.250    22406642.720    91751454.478 7       618.524          45.875
G06  21615924.660   113592451.160 7      -103.457          47.125    21615923.780   113592451.157 7      -103.457          47.312    21615937.920    88513648.135 7       -80.616          46.875    21615938.560    88513649.144 8       -80.616          50.187
R02  20726552.160   110600853.390 8      2036.765          51.312    20726552.840   110600853.394 8      2036.765          50.187    20726565.060    86022946.175 7      1584.151          47.750    20726565.040    86022941.176 7      1584.151          47.375
R17  19967604.100   106850682.434 6      1127.301          36.937    19967607.400   106850682.486 6      1127.301          36.000    19967617.300    83106142.127 6       876.789          38.562    19967618.000    83106144.134 6       876.789          39.000
R12  21392161.700   114273091.106 7      4426.650          45.562    21392162.300   114273091.110 7      4426.650          45.937    21392180.340    88879182.816 7      3442.950          47.500    21392180.980    88879155.827 7      3442.950          47.625
G13  21610608.620   113564514.585 6      4565.572          39.187    21610606.600   113564514.582 2      4565.572          15.875    21610614.280    88491858.520 2      3557.589          15.750
G30  20821316.700   109416764.629 8      2632.776          49.187    20821316.060   109416764.637 8      2632.776          49.687    20821325.920    85259840.854 8      2051.514          49.812    20821326.740    85259847.854 8      2051.514          49.375
> 2024 10 07 11 35 45.0000000  0 11
R18  21342359.120   113926960.236 6      4765.665          39.187    21342359.300   113926960.242 6      4765.665          38.875    21342370.680    88609921.182 6      3706.629          41.687    21342371.580    88609918.200 6      3706.629          41.250
G09  24138246.680   126847333.527 5       -15.479          35.687    24138245.280   126847333.534 3       -15.479          23.812    24138262.440    98842153.379 3       -12.062          23.875    24138269.420    98842167.218 5       -12.062          30.937
G05  22653548.660   119045201.287 6      5233.428          37.750    22653548.000   119045201.292 4      5233.428          28.437    22653560.400    92762513.428 4      4077.996          28.125    22653560.040    92762541.428 6      4077.996          37.875
G20  20812689.200   109371425.176 7      4387.131          46.312    20812687.220   109371425.184 6      4387.131          38.312    20812696.160    85224513.007 6      3418.544          38.062
G07  22406482.340   117746851.306 7       793.488          45.875    22406480.880   117746851.308 7       793.488          42.812    22406491.040    91750796.033 7       618.303          42.812    22406491.240    91750836.043 7       618.303          45.937
G06  21615944.340   113592554.698 7      -103.661          47.687    21615943.580   113592554.692 7      -103.661          47.562    21615957.620    88513728.801 7       -80.775          47.500    21615958.340    88513729.811 8       -80.775          50.375
R02  20726170.380   110598816.502 8      2036.920          51.375    20726171.160   110598816.505 8      2036.920          50.312    20726182.920    86021361.930 7      1584.271          47.937    20726183.280    86021356.930 7      1584.271          47.562
R17  19967393.340   106849555.634 6      1126.439          36.937    19967396.460   106849555.684 6      1126.439          36.000    19967407.120    83105265.732 6       876.119          38.687    19967407.680    83105267.736 6       876.119          39.000
R12  21391332.480   114268664.674 7      4426.178          46.187    21391333.920   114268664.680 7      4426.178          45.812    21391351.420    88875740.041 8      3442.583          48.187    21391352.140    88875713.059 7      3442.583          47.937
G13  21609739.920   113559948.905 6      4565.575          39.875    21609737.900   113559948.902 2      4565.575          17.250    21609745.620    88488300.853 2      3557.591          17.375
G30  20820815.880   109414132.006 8      2632.399          49.562    20820815.160   109414132.008 8      2632.399          49.250    20820824.960    85257789.459 8      2051.220          49.687    20820825.780    85257796.460 8      2051.220          50.250
> 2024 10 07 11 35 46.0000000  0 11
R18  21341465.760   113922195.196 6      4764.507          39.187    21341466.460   113922195.210 6      4764.507          38.875    21341478.260    88606215.026 7      3705.728          42.000    21341478.840    88606212.043 6      3705.728          41.250
G09  24138249.360   126847349.347 5       -15.753          35.687    24138248.240   126847349.352 3       -15.753          23.812    24138265.720    98842165.690 3       -12.275          23.875    24138272.020    98842179.549 5       -12.275          30.937
G05  22652552.640   119039968.066 6      5233.150          37.625    22652552.160   119039968.065 4      5233.150          28.750    22652564.340    92758435.595 4      4077.779          28.125    22652564.560    92758463.604 6      4077.779          39.125
G20  20811854.480   109367038.260 7      4386.840          46.437    20811852.480   109367038.267 6      4386.840          37.875    20811861.300    85221094.631 6      3418.317          37.750
G07  22406331.700   117746058.088 7       793.022          45.500    22406329.680   117746058.092 7       793.022          42.812    22406340.120    91750177.940 7       617.939          42.937    22406340.460    91750217.951 7       617.939          45.875
G06  21615964.200   113592658.677 8      -104.208          48.062    21615963.660   113592658.674 7      -104.208          47.125    21615977.500    88513809.823 7       -81.201          47.187    21615978.280    88513810.831 8       -81.201          50.125
R02  20725788.860   110596779.707 8      2036.764          51.125    20725789.380   110596779.716 8      2036.764          50.687    20725801.260    86019777.758 7      1584.149          47.625    20725801.560    86019772.756 7      1584.149          47.812
R17  19967182.760   106848429.674 5      1125.604          35.312    19967186.340   106848429.716 6      1125.604          36.000    19967196.360    83104389.979 6       875.470          38.687    19967197.100    83104391.985 6       875.470          39.250
R12  21390503.720   114264238.930 7      4425.410          45.562    21390505.220   114264238.950 7      4425.410          45.812    21390523.200    88872297.813 7      3441.985          47.250    21390523.760    88872270.826 7      3441.985          47.937
G13  21608871.260   113555383.638 6      4565.167          38.875    21608869.380   113555383.635 2      4565.167          17.250    21608876.780    88484743.504 2      3557.273          17.375
G30  20820314.900   109411500.019 8      2631.639          49.125    20820314.240   109411500.024 8      2631.639          49.437    20820324.220    85255738.560 8      2050.627          49.750    20820324.960    85255745.561 8      2050.627          49.500
> 2024 10 07 11 35 47.0000000  0 11
R18  21340573.340   113917430.976 6      4764.029          39.187    21340573.860   113917430.990 6      4764.029          38.875    21340585.840    88602509.542 7      3705.356          42.000    21340586.460    88602506.562 6      3705.356          40.937
G09  24138252.360   126847365.202 5       -15.623          35.687    24138251.140   126847365.204 3       -15.623          23.812    24138268.900    98842178.034 3       -12.173          23.875    24138274.100    98842191.875 5       -12.173          30.937
G05  22651557.360   119034734.936 6      5233.251          37.625    22651556.220   119034734.935 4      5233.251          28.750    22651568.660    92754357.831 4      4077.858          28.875    22651568.580    92754385.834 6      4077.858          39.125
G20  20811019.700   109362651.682 7      4386.645          47.000    20811017.700   109362651.689 6      4386.645          38.250    20811026.660    85217676.522 6      3418.165          37.937
G07  22406180.700   117745265.410 7       792.596          45.500    22406179.080   117745265.420 7       792.596          42.375    22406189.320    91749560.267 7       617.607          42.625    22406189.940    91749600.276 7       617.607          45.875
G06  21615984.140   113592763.168 8      -104.496          48.125    21615983.460   113592763.170 7      -104.496          47.250    21615997.580    88513891.235 7       -81.426          47.187    21615998.320    88513892.249 8       -81.426          50.250
R02  20725407.060   110594743.077 8      2036.719          51.375    20725407.820   110594743.086 8      2036.719          49.875    20725419.380    86018193.711 7      1584.115          47.750    20725419.700    86018188.707 7      1584.115          47.437
R17  19966972.440   106847304.640 5      1125.001          35.312    19966975.000   106847304.687 6      1125.001          36.000    19966986.340    83103514.959 6       875.000          39.375    19966986.820    83103516.952 6       875.000          39.250
R12  21389675.560   114259813.958 7      4424.800          45.875    21389676.540   114259813.981 7      4424.800          45.562    21389694.520    88868856.178 7      3441.511          47.625    21389695.200    88868829.192 7      3441.511          47.750
G13  21608001.880   113550818.844 6      4564.831          39.562    21608000.960   113550818.843 2      4564.831          17.250    21608008.260    88481186.528 2      3557.011          17.375
G30  20819814.160   109408868.720 8      2631.177          49.562    20819813.500   109408868.725 8      2631.177          49.750    20819823.500    85253688.202 8      2050.268          50.125    20819824.220    85253695.200 8      2050.268          49.812
> 2024 10 07 11 35 48.0000000  0 11
R18  21339681.340   113912667.559 6      4762.815          38.875    21339681.720   113912667.562 6      4762.815          38.875    21339693.240    88598804.660 7      3704.411          42.062    21339694.040    88598801.678 6      3704.411          41.375
G09  24138256.100   126847380.935 5       -15.945          34.437    24138253.980   126847380.940 3       -15.945          23.812    24138272.040    98842190.279 3       -12.425          23.875    24138278.820    98842204.128 5       -12.425          30.937
G05  22650561.220   119029501.856 6      5232.953          37.625    22650560.300   119029501.853 4      5232.953          28.750    22650573.040    92750280.109 4      4077.626          28.875    22650572.940    92750308.124 6      4077.626          39.125
G20  20810185.040   109358265.325 7      4386.103          46.812    20810183.160   109358265.330 6      4386.103          38.312    20810191.820    85214258.579 6      3417.743          38.187
G07  22406029.800   117744473.116 7       791.984          45.562    22406028.380   117744473.121 7       791.984          42.875    22406038.420    91748942.887 7       617.130          42.687    22406039.020    91748982.896 7       617.130          45.562
G06  21616004.240   113592868.063 7      -105.232          47.187    21616003.340   113592868.060 7      -105.232          47.437    21616017.380    88513972.964 7       -81.999          47.437    21616018.260    88513973.975 8       -81.999          49.875
R02  20725025.480   110592706.482 8      2036.358          51.062    20725026.020   110592706.491 8      2036.358          50.250    20725037.560    86016609.684 7      1583.834          47.687    20725038.240    86016604.680 7      1583.834          47.437
R17  19966762.000   106846180.468 5      1123.628          35.312    19966764.840   106846180.501 5      1123.628          35.000    19966776.420    83102640.590 6       873.933          39.375    19966777.000    83102642.586 6       873.933          39.687
R12  21388847.460   114255389.667 7      4423.759          45.125    21388847.700   114255389.679 7      4423.759          45.125    21388865.980    88865415.061 7      3440.701          47.562    21388866.940    88865388.073 7      3440.701          47.125
G13  21607133.080   113546254.383 6      4564.011          39.562    21607132.420   113546254.385 2      4564.011          17.250    21607139.700    88477629.813 2      3556.372          17.375
G30  20819313.620   109406238.005 8      2630.200          48.625    20819312.760   109406238.015 8      2630.200          49.750    20819322.960    85251638.298 8      2049.507          49.625    20819323.500    85251645.298 8      2049.507          49.250
> 2024 10 07 11 35 49.0000000  0 11
R18  21338788.960   113907905.023 6      4761.959          38.875    21338789.460   113907905.053 6      4761.959          38.812    21338800.820    88595100.490 7      3703.746          42.062    21338801.700    88595097.516 6      3703.746          41.375
G09  24138259.260   126847396.750 5       -15.687          34.437    24138257.080   126847396.760 3       -15.687          23.812    24138275.340    98842202.589 3       -12.224          23.875    24138282.360    98842216.448 5       -12.224          30.937
G05  22649565.500   119024268.931 6      5232.813          37.625    22649564.440   119024268.931 4      5232.813          28.750    22649577.480    92746202.507 4      4077.517          28.875    22649576.860    92746230.516 6      4077.517          39.125
G20  20809350.220   109353879.301 7      4386.052          47.187    20809348.480   109353879.306 6      4386.052          38.000    20809357.180    85210840.901 6      3417.703          38.375
G07  22405878.860   117743681.369 7       791.690          46.625    22405877.680   117743681.376 7       791.690          42.437    22405887.940    91748325.943 7       616.901          42.687    22405888.360    91748365.952 7       616.901          45.375
G06  21616024.360   113592973.490 7      -105.565          47.625    21616023.360   113592973.487 7      -105.565          47.000    21616037.580    88514055.106 7       -82.259          47.062    21616038.380    88514056.118 8       -82.259          50.125
R02  20724643.880   110590670.074 8      2036.501          51.437    20724644.320   110590670.081 8      2036.501          50.187    20724655.980    86015025.805 7      1583.945          47.375    20724656.540    86015020.797 7      1583.945          46.750
R17  19966552.300   106845057.191 5      1122.914          35.312    19966553.980   106845057.236 5      1122.914          35.000    19966566.460    83101766.939 6       873.378          39.687    19966566.780    83101768.922 6       873.378          39.687
R12  21388019.240   114250966.205 7      4423.248          45.437    21388019.560   114250966.211 7      4423.248          45.062    21388038.360    88861974.592 8      3440.304          48.062    21388038.940    88861947.602 7      3440.304          47.750
G13  21606264.940   113541690.429 6      4563.772          39.000    21606264.160   113541690.434 2      4563.772          17.250    21606271.340    88474073.492 2      3556.186          17.375
G30  20818813.060   109403608.007 8      2629.781          48.250    20818812.460   109403608.012 8      2629.781          49.937    20818822.380    85249588.945 8      2049.180          49.750    20818823.000    85249595.945 8      2049.180          49.250
> 2024 10 07 11 35 50.0000000  0 11
R18  21337896.600   113903143.135 6      4761.786          38.875    21337897.160   113903143.144 6      4761.786          38.812    21337909.020    88591396.798 7      3703.611          42.000    21337909.760    88591393.813 6      3703.611          40.937
G09  24138262.460   126847412.415 5       -15.380          34.437    24138259.800   126847412.431 3       -15.380          23.812    24138278.680    98842214.781 3       -11.985          23.875    24138285.220    98842228.663 5       -11.985          30.937
G05  22648570.240   119019035.988 6      5232.865          36.875    22648568.360   119019035.987 4      5232.865          28.750    22648581.620    92742124.887 4      4077.557          28.875    22648580.840    92742152.883 6      4077.557          39.000
G20  20808515.660   109349493.480 7      4385.730          47.187    20808513.840   109349493.490 6      4385.730          38.125    20808522.600    85207423.382 6      3417.452          38.125
G07  22405728.120   117742890.013 7       791.115          46.000    22405727.220   117742890.018 7       791.115          42.625    22405737.420    91747709.298 7       616.453          42.562    22405738.060    91747749.305 7       616.453          46.062
G06  21616044.460   113593079.269 7      -105.939          47.125    21616043.580   113593079.268 7      -105.939          47.562    21616057.700    88514137.529 7       -82.550          47.250    21616058.460    88514138.545 8       -82.550          50.625
R02  20724262.120   110588633.690 8      2036.409          51.125    20724262.680   110588633.696 8      2036.409          50.125    20724274.260    86013441.943 7      1583.873          47.812    20724274.680    86013436.938 7      1583.873          47.812
R17  19966342.280   106843934.747 5      1122.186          35.312    19966345.260   106843934.752 5      1122.186          35.000    19966356.740    83100893.875 6       872.811          39.687    19966356.920    83100895.867 6       872.811          39.687
R12  21387191.360   114246543.316 7      4422.645          45.250    21387191.080   114246543.336 7      4422.645          46.000    21387210.480    88858534.578 7      3439.835          47.750    21387210.980    88858507.594 7      3439.835          47.875
G13  21605396.500   113537126.744 6      4563.504          38.937    21605395.760   113537126.751 2      4563.504          17.250    21605403.220    88470517.379 2      3555.977          17.375
G30  20818312.800   109400978.553 8      2629.151          48.937    20818312.240   109400978.560 8      2629.151          49.750    20818322.080    85247540.023 8      2048.689          49.875    20818322.580    85247547.028 8      2048.689          49.937
> 2024 10 07 11 35 51.0000000  0 11
R18  21337005.020   113898381.960 6      4761.187          38.937    21337005.160   113898381.982 6      4761.187          38.812    21337016.840    88587693.670 7      3703.145          42.000    21337017.860    88587690.690 6      3703.145          41.250
G09  24138265.440   126847427.955 5       -15.417          34.562    24138262.540   126847427.973 3       -15.417          23.937    24138282.040    98842226.873 4       -12.013          24.125    24138288.800    98842240.724 5       -12.013          34.375
G05  22647574.160   119013802.887 6      5233.223          36.875    22647572.560   119013802.886 4      5233.223          28.812    22647585.980    92738047.152 4      4077.836          28.812    22647585.940    92738075.167 6      4077.836          39.000
G20  20807681.220   109345107.767 7      4385.774          47.187    20807679.240   109345107.772 6      4385.774          38.375    20807688.260    85204005.939 6      3417.486          38.250
G07  22405577.380   117742098.925 7       790.974          46.000    22405576.640   117742098.930 7       790.974          43.062    22405587.120    91747092.864 7       616.344          43.000    22405587.640    91747132.869 7       616.344          46.312
G06  21616064.760   113593185.347 7      -106.101          47.875    21616063.880   113593185.341 7      -106.101          47.062    21616077.800    88514220.175 7       -82.676          47.250    21616078.680    88514221.186 8       -82.676          50.000
R02  20723880.560   110586597.207 8      2036.640          51.000    20723880.900   110586597.216 8      2036.640          50.125    20723892.400    86011858.007 7      1584.053          47.375    20723893.060    86011853.003 7      1584.053          47.187
R17  19966132.420   106842812.996 5      1121.537          35.312    19966136.540   106842812.992 5      1121.537          35.000    19966147.320    83100021.391 6       872.307          39.687    19966147.820    83100023.385 6       872.307          39.562
R12  21386363.640   114242120.997 7      4422.105          44.500    21386363.360   114242121.014 7      4422.105          45.187    21386382.840    88855095.002 7      3439.415          47.937    21386383.140    88855068.016 8      3439.415          48.062
G13  21604527.960   113532563.308 6      4563.382          38.312    21604527.280   113532563.315 2      4563.382          17.250    21604534.820    88466961.457 2      3555.882          17.375
G30  20817812.420   109398349.556 8      2628.873          49.250    20817812.040   109398349.563 8      2628.873          50.187    20817821.820    85245491.456 8      2048.473          50.187    20817822.300    85245498.461 8      2048.473          49.312
> 2024 10 07 11 35 52.0000000  0 11
R18  21336113.660   113893621.455 6      4760.235          38.937    21336113.160   113893621.467 6      4760.235          38.375    21336125.160    88583991.049 7      3702.405          42.500    21336125.940    88583988.064 6      3702.405          41.250
G09  24138267.820   126847443.268 5       -15.164          34.562    24138265.160   126847443.278 3       -15.164          23.937    24138285.060    98842238.783 4       -11.816          24.125    24138291.320    98842252.664 5       -11.816          34.375
G05  22646577.780   119008569.709 6      5233.187          36.437    22646576.680   119008569.717 4      5233.187          28.812    22646590.140    92733969.353 4      4077.808          28.812    22646590.120    92733997.389 6      4077.808          39.437
G20  20806846.600   109340722.146 7      4385.564          47.250    20806844.940   109340722.153 6      4385.564          38.500    20806853.700    85200588.576 6      3417.322          38.250
G07  22405426.960   117741308.135 7       790.602          46.437    22405426.340   117741308.137 7       790.602          43.187    22405436.680    91746476.653 7       616.053          42.937    22405437.200    91746516.660 7       616.053          46.312
G06  21616085.000   113593291.709 7      -106.599          47.250    21616084.040   113593291.708 7      -106.599          46.750    21616097.920    88514303.054 7       -83.064          46.875    21616098.940    88514304.070 8       -83.064          50.187
R02  20723498.940   110584560.634 8      2036.559          51.125    20723499.520   110584560.645 8      2036.559          49.812    20723510.940    86010274.008 7      1583.991          47.375    20723511.320    86010269.001 7      1583.991          47.500
R17  19965923.440   106841691.874 5      1120.807          35.312    19965926.120   106841691.889 5      1120.807          35.000    19965937.960    83099149.430 6       871.739          39.812    19965938.540    83099151.418 6       871.739          39.562
R12  21385536.180   114237699.203 7      4421.558          44.750    21385534.900   114237699.220 7      4421.558          45.000    21385554.980    88851655.830 8      3438.990          48.187    21385555.340    88851628.841 8      3438.990          48.062
G13  21603660.160   113528000.079 6      4563.214          38.312    21603659.080   113528000.084 2      4563.214          17.250    21603666.480    88463405.697 2      3555.751          17.375
G30  20817312.200   109395721.063 8      2628.132          48.937    20817311.980   109395721.070 8      2628.132          49.875    20817321.760    85243443.278 8      2047.895          49.750    20817322.460    85243450.278 8      2047.895          49.687
> 2024 10 07 11 35 53.0000000  0 11
R18  21335221.720   113888861.727 6      4759.426          38.937    21335221.000   113888861.731 6      4759.426          38.375    21335232.980    88580289.042 7      3701.776          42.562    21335234.120    88580286.056 6      3701.776          41.000
G09  24138269.840   126847458.450 5       -14.825          34.562    24138267.960   126847458.465 3       -14.825          23.937    24138288.380    98842250.602 4       -11.552          24.125    24138293.820    98842264.492 5       -11.552          34.375
G05  22645582.800   119003336.643 6      5233.207          36.437    22645580.820   119003336.645 4      5233.207          28.812    22645594.120    92729891.641 4      4077.824          28.812    22645594.200    92729919.642 6      4077.824          39.437
G20  20806011.860   109336336.776 7      4385.323          46.687    20806010.320   109336336.776 6      4385.323          38.500    20806019.080    85197171.407 6      3417.135          38.625
G07  22405276.640   117740517.756 7       790.233          46.437    22405275.800   117740517.758 7       790.233          42.875    22405286.320    91745860.774 7       615.766          43.062    22405286.700    91745900.787 7       615.766          46.312
G06  21616105.420   113593398.470 7      -106.909          47.625    21616104.600   113593398.464 7      -106.909          47.000    21616118.240    88514386.235 7       -83.306          47.000    21616119.360    88514387.244 8       -83.306          49.875
R02  20723117.100   110582524.079 8      2036.579          51.500    20723117.540   110582524.093 8      2036.579          49.750    20723129.140    86008690.025 7      1584.006          47.500    20723129.520    86008685.016 7      1584.006          47.937
R17  19965714.000   106840571.573 5      1120.135          35.250    19965715.680   106840571.583 5      1120.135          35.000    19965729.400    83098278.087 6       871.216          40.250    19965729.280    83098280.081 6       871.216          40.375
R12  21384708.140   114233278.102 7      4420.817          44.500    21384707.540   114233278.124 7      4420.817          45.000    21384727.400    88848217.210 7      3438.414          47.812    21384727.520    88848190.215 7      3438.414          47.750
G13  21602791.720   113523437.224 6      4562.831          37.687    21602790.760   113523437.226 2      4562.831          17.250    21602798.220    88459850.229 2      3555.453          17.375
G30  20816812.300   109393093.120 8      2627.661          48.562    20816811.820   109393093.135 8      2627.661          49.125    20816821.660    85241395.538 8      2047.528          49.875    20816822.400    85241402.541 8      2047.528          49.687
> 2024 10 07 11 35 54.0000000  0 11
R18  21334330.620   113884102.802 6      4758.701          38.937    21334329.620   113884102.795 6      4758.701          38.375    21334341.540    88576587.650 7      3701.212          42.312    21334342.760    88576584.667 6      3701.212          41.000
G09  24138273.360   126847473.700 5       -15.153          33.687    24138270.760   126847473.712 3       -15.153          23.937    24138291.580    98842262.471 4       -11.807          24.125    24138297.100    98842276.374 5       -11.807          34.375
G05  22644586.160   118998103.579 6      5233.117          36.187    22644585.140   118998103.586 4      5233.117          28.812    22644598.260    92725813.937 4      4077.754          28.812    22644597.700    92725841.940 6      4077.754          39.437
G20  20805177.380   109331951.657 7      4384.976          46.125    20805175.900   109331951.659 6      4384.976          38.500    20805184.620    85193754.433 6      3416.865          38.375
G07  22405126.180   117739727.830 7       789.700          46.000    22405125.800   117739727.835 7       789.700          43.500    22405136.040    91745245.245 7       615.351          43.187    22405136.440    91745285.256 7       615.351          46.312
G06  21616125.580   113593505.670 7      -107.333          46.750    21616125.000   113593505.664 7      -107.333          47.125    21616138.700    88514469.757 7       -83.636          47.000    21616140.040    88514470.769 8       -83.636          50.437
R02  20722735.820   110580487.599 8      2036.407          51.125    20722735.880   110580487.616 8      2036.407          50.187    20722747.400    86007106.094 7      1583.872          47.125    20722748.200    86007101.087 7      1583.872          47.625
R17  19965505.220   106839452.225 5      1118.901          35.250    19965507.500   106839452.229 5      1118.901          35.000    19965520.340    83097407.468 6       870.256          40.250    19965520.400    83097409.448 6       870.256          41.000
R12  21383880.680   114228857.705 7      4420.026          44.750    21383879.740   114228857.727 7      4420.026          44.687    21383900.120    88844779.121 8      3437.798          48.187    21383900.180    88844752.133 7      3437.798          47.875
G13  21601923.860   113518874.786 6      4562.253          38.437    21601922.460   113518874.791 2      4562.253          17.250    21601930.240    88456295.089 2      3555.003          17.375
G30  20816312.280   109390465.820 8      2627.026          48.437    20816311.780   109390465.830 8      2627.026          49.687    20816321.740    85239348.292 8      2047.033          50.125    20816322.360    85239355.296 8      2047.033          50.187
> 2024 10 07 11 35 55.0000000  0 11
R18  21333438.660   113879344.616 6      4757.850          38.062    21333438.620   113879344.625 6      4757.850          38.375    21333450.500    88572886.853 7      3700.550          42.250    21333451.260    88572883.863 6      3700.550          40.625
G09  24138277.240   126847488.813 5       -15.093          33.687    24138273.400   126847488.823 3       -15.093          23.937    24138295.040    98842274.236 4       -11.761          24.125    24138300.380    98842288.148 6       -11.761          37.500
G05  22643590.340   118992870.549 6      5233.615          36.187    22643589.520   118992870.553 4      5233.615          28.812    22643602.380    92721736.253 4      4078.142          28.812    22643602.780    92721764.260 6      4078.142          39.437
G20  20804343.300   109327566.776 7      4384.831          46.250    20804341.480   109327566.779 6      4384.831          38.750    20804350.300    85190337.643 6      3416.751          38.125
G07  22404976.100   117738938.318 7       789.457          44.500    22404975.580   117738938.318 7       789.457          43.062    22404985.800    91744630.037 7       615.162          43.187    22404986.220    91744670.042 7       615.162          45.875
G06  21616146.200   113593613.298 7      -107.732          46.750    21616145.440   113593613.295 7      -107.732          47.500    21616159.240    88514553.615 7       -83.947          47.750    21616160.360    88514554.629 8       -83.947          50.375
R02  20722354.260   110578451.209 8      2036.392          50.937    20722354.180   110578451.226 8      2036.392          50.312    20722365.680    86005522.233 7      1583.860          47.375    20722366.480    86005517.231 7      1583.860          47.062
R17  19965296.880   106838333.620 5      1118.299          35.250    19965298.140   106838333.638 5      1118.299          35.000    19965311.480    83096537.463 6       869.788          40.437    19965311.480    83096539.440 6       869.788          41.000
R12  21383053.220   114224437.952 7      4419.579          44.812    21383052.580   114224437.977 7      4419.579          45.187    21383072.760    88841341.546 8      3437.450          48.062    21383072.820    88841314.552 8      3437.450          48.312
G13  21601055.580   113514312.653 6      4562.065          38.437    21601054.300   113514312.658 3      4562.065          19.500    21601062.300    88452740.183 3      3554.856          19.500
G30  20815812.520   109387839.130 8      2626.403          48.687    20815811.960   109387839.135 8      2626.403          49.687    20815821.840    85237301.518 8      2046.548          50.125    20815822.520    85237308.521 8      2046.548          49.625
> 2024 10 07 11 35 56.0000000  0 11
R18  21332547.300   113874587.245 6      4756.996          38.062    21332547.120   113874587.251 6      4756.996          38.000    21332558.940    88569186.690 7      3699.886          42.500    21332559.980    88569183.716 6      3699.886          40.562
G09  24138280.160   126847503.892 5       -14.949          33.687    24138275.880   126847503.900 3       -14.949          23.937    24138298.180    98842285.978 4       -11.649          24.125    24138302.680    98842299.888 6       -11.649          37.500
G05  22642595.180   118987637.676 6      5232.866          36.562    22642593.940   118987637.681 4      5232.866          28.375    22642606.280    92717658.697 4      4077.558          28.187    22642606.700    92717686.707 6      4077.558          38.875
G20  20803508.780   109323182.159 8      4384.431          48.500    20803507.140   109323182.161 6      4384.431          38.312    20803516.200    85186921.060 6      3416.440          38.187
G07  22404826.000   117738149.264 7       788.786          46.500    22404825.360   117738149.261 7       788.786          43.375    22404835.820    91744015.184 7       614.639          43.250    22404835.800    91744055.195 7       614.639          46.312
G06  21616166.720   113593721.350 7      -108.282          47.437    21616166.080   113593721.344 8      -108.282          48.000    21616179.780    88514637.807 7       -84.375          47.687    21616180.900    88514638.820 8       -84.375          50.250
R02  20721972.600   110576414.903 8      2036.223          51.000    20721972.260   110576414.920 8      2036.223          50.375    20721983.960    86003938.435 7      1583.729          47.625    20721984.760    86003933.433 7      1583.729          47.125
R17  19965087.360   106837215.941 5      1117.228          35.250    19965090.620   106837215.940 5      1117.228          35.000    19965102.300    83095668.141 6       868.955          40.437    19965102.400    83095670.118 6       868.955          41.375
R12  21382225.700   114220018.939 7      4418.688          45.937    21382225.200   114220018.956 7      4418.688          44.875    21382245.580    88837904.536 7      3436.757          47.937    21382245.420    88837877.541 8      3436.757          48.687
G13  21600187.380   113509750.931 6      4561.465          38.812    21600186.180   113509750.935 3      4561.465          19.500    21600194.360    88449185.595 3      3554.388          19.500
G30  20815312.800   109385213.028 8      2625.828          49.750    20815312.220   109385213.036 8      2625.828          50.437    20815322.160    85235255.209 8      2046.100          50.125    20815322.820    85235262.212 8      2046.100          49.625
> 2024 10 07 11 35 57.0000000  0 11
R18  21331656.160   113869830.573 6      4756.372          38.062    21331655.640   113869830.571 6      4756.372          38.000    21331668.240    88565487.058 7      3699.400          42.375    21331668.920    88565484.078 6      3699.400          40.562
G09  24138283.360   126847518.825 5       -14.763          33.687    24138278.360   126847518.832 3       -14.763          23.937    24138301.000    98842297.603 4       -11.504          24.125    24138305.380    98842311.515 6       -11.504          37.500
G05  22641599.020   118982404.675 6      5233.116          36.562    22641598.300   118982404.677 4      5233.116          28.375    22641610.540    92713581.037 4      4077.753          28.187    22641610.620    92713609.048 6      4077.753          38.875
G20  20802674.360   109318797.659 7      4384.500          47.500    20802672.780   109318797.662 6      4384.500          38.875    20802681.860    85183504.569 6      3416.494          38.500
G07  22404675.800   117737360.494 7       788.722          47.250    22404675.300   117737360.494 7       788.722          43.437    22404685.720    91743400.560 7       614.589          42.937    22404685.660    91743440.573 7       614.589          46.187
G06  21616187.260   113593829.703 7      -108.400          47.000    21616186.760   113593829.695 7      -108.400          47.562    21616200.460    88514722.230 7       -84.468          46.937    21616201.340    88514723.240 8       -84.468          50.187
R02  20721590.860   110574378.553 8      2036.427          51.625    20721590.840   110574378.567 8      2036.427          50.500    20721602.520    86002354.608 7      1583.887          46.875    20721602.940    86002349.612 7      1583.887          47.375
R17  19964879.020   106836098.905 5      1116.350          35.250    19964881.620   106836098.912 5      1116.350          34.375    19964894.320    83094799.362 6       868.272          40.625    19964893.480    83094801.331 6       868.272          41.000
R12  21381398.900   114215600.482 7      4418.244          46.062    21381398.100   114215600.499 7      4418.244          46.375    21381418.480    88834467.954 8      3436.412          48.000    21381418.340    88834440.959 8      3436.412          48.625
G13  21599319.700   113505189.442 6      4561.549          38.687    21599318.160   113505189.446 3      4561.549          19.500    21599326.380    88445631.193 3      3554.454          19.500
G30  20814813.120   109382587.437 8      2625.477          49.875    20814812.840   109382587.444 8      2625.477          50.250    20814822.400    85233209.292 8      2045.826          50.000    20814823.200    85233216.294 8      2045.826          49.500
> 2024 10 07 11 35 58.0000000  0 11
R18  21330764.960   113865074.573 6      4755.723          38.500    21330764.080   113865074.558 6      4755.723          38.000    21330776.860    88561787.943 7      3698.896          42.375    21330778.060    88561784.963 6      3698.896          41.687
G09  24138285.600   126847533.618 5       -14.880          33.687    24138280.960   126847533.625 4       -14.880          24.687    24138303.700    98842309.116 4       -11.595          24.437    24138308.280    98842323.003 6       -11.595          37.500
G05  22640603.140   118977171.614 6      5232.850          37.687    22640602.740   118977171.613 4      5232.850          28.375    22640614.500    92709503.329 4      4077.545          28.187    22640615.000    92709531.336 6      4077.545          38.875
G20  20801840.260   109314413.312 7      4384.133          47.625    20801838.640   109314413.312 6      4384.133          38.437    20801847.480    85180088.192 6      3416.208          38.562
G07  22404525.780   117736572.089 7       788.010          46.687    22404525.340   117736572.091 7       788.010          43.250    22404535.720    91742786.216 7       614.034          42.937    22404535.960    91742826.227 7       614.034          46.312
G06  21616207.900   113593938.385 7      -109.030          47.187    21616207.380   113593938.377 7      -109.030          47.687    21616221.140    88514806.905 7       -84.959          47.187    21616221.940    88514807.921 8       -84.959          50.375
R02  20721209.360   110572342.167 8      2036.237          50.562    20721209.000   110572342.183 8      2036.237          50.062    20721220.680    86000770.749 7      1583.740          46.812    20721221.300    86000765.747 7      1583.740          47.062
R17  19964670.360   106834982.652 5      1115.645          35.250    19964673.700   106834982.608 5      1115.645          34.375    19964685.360    83093931.119 6       867.724          40.625    19964685.020    83093933.082 6       867.724          41.000
R12  21380571.860   114211182.609 7      4417.406          45.375    21380570.880   114211182.626 7      4417.406          46.375    21380591.840    88831031.835 8      3435.760          48.250    21380591.240    88831004.838 8      3435.760          48.062
G13  21598452.040   113500628.252 6      4560.858          38.687    21598450.260   113500628.260 3      4560.858          19.500    21598458.460    88442077.021 3      3553.915          19.500
G30  20814313.620   109379962.357 8      2624.605          49.625    20814313.160   109379962.365 8      2624.605          49.250    20814322.740    85231163.784 8      2045.147          49.312    20814323.660    85231170.784 8      2045.147          48.750
> 2024 10 07 11 35 59.0000000  0 11
R18  21329874.320   113860319.636 6      4754.541          38.500    21329872.940   113860319.631 6      4754.541          38.000    21329886.220    88558089.690 7      3697.977          42.562    21329887.440    88558086.701 6      3697.977          41.312
G09  24138288.580   126847548.629 5       -14.910          33.687    24138283.800   126847548.631 4       -14.910          24.687    24138306.500    98842320.796 4       -11.618          24.437    24138311.600    98842334.682 6       -11.618          37.500
G05  22639607.380   118971938.875 6      5232.843          39.437    22639607.280   118971938.877 4      5232.843          28.375    22639618.720    92705425.879 4      4077.540          28.187    22639619.660    92705453.904 6      4077.540          39.250
G20  20801005.860   109310029.493 7      4383.751          47.500    20801004.260   109310029.493 6      4383.751          38.562    20801013.300    85176672.234 6      3415.910          38.125
G07  22404375.920   117735784.372 7       787.538          46.312    22404375.580   117735784.372 7       787.538          43.125    22404385.680    91742172.407 7       613.666          43.062    22404385.900    91742212.422 7       613.666          46.125
G06  21616228.460   113594047.761 7      -109.420          46.375    21616228.200   113594047.753 7      -109.420          46.875    21616241.780    88514892.123 7       -85.262          46.750    21616242.560    88514893.132 8       -85.262          50.562
R02  20720827.960   110570306.113 8      2036.127          51.125    20720827.360   110570306.127 8      2036.127          49.812    20720838.700    85999187.150 7      1583.655          47.437    20720839.760    85999182.154 7      1583.655          46.625
R17  19964461.220   106833867.531 5      1114.475          35.250    19964464.060   106833867.506 5      1114.475          34.375    19964476.920    83093063.788 6       866.814          40.750    19964476.720    83093065.747 6       866.814          41.250
R12  21379745.020   114206765.688 7      4416.694          44.937    21379743.800   114206765.702 7      4416.694          45.062    21379764.900    88827596.456 8      3435.206          48.125    21379764.440    88827569.457 8      3435.206          48.500
G13  21597584.740   113496067.685 6      4560.460          39.187    21597582.380   113496067.693 3      4560.460          19.500    21597590.560    88438523.335 3      3553.605          19.500
G30  20813814.160   109377338.142 8      2623.995          49.812    20813813.960   109377338.152 8      2623.995          49.812    20813823.440    85229118.943 8      2044.672          49.937    20813824.240    85229125.943 8      2044.672          49.687
> 2024 10 07 11 36  0.0000000  0 11
R18  21328983.500   113855565.291 6      4753.999          38.500    21328982.800   113855565.265 6      4753.999          38.000    21328995.940    88554391.845 7      3697.555          42.562    21328997.020    88554388.861 7      3697.555          42.000
G09  24138291.740   126847563.356 5       -14.639          31.875    24138286.880   126847563.358 4       -14.639          24.687    24138309.420    98842332.256 4       -11.407          24.437    24138314.720    98842346.143 6       -11.407          36.937
G05  22638611.060   118966706.019 6      5232.865          39.437    22638611.500   118966706.026 4      5232.865          28.375    22638623.080    92701348.334 4      4077.557          28.187    22638624.060    92701376.360 6      4077.557          39.250
G20  20800171.660   109305645.714 7      4383.667          47.125    20800169.960   109305645.721 6      4383.667          38.750    20800179.180    85173256.306 6      3415.845          38.625
G07  22404226.160   117734996.876 7       787.322          46.500    22404225.860   117734996.876 7       787.322          43.437    22404236.080    91741558.772 7       613.498          43.687    22404236.220    91741598.786 7       613.498          46.437
G06  21616249.260   113594157.376 7      -109.695          46.437    21616248.940   113594157.368 7      -109.695          46.500    21616262.420    88514977.524 7       -85.476          46.375    21616263.220    88514978.536 8       -85.476          49.875
R02  20720446.300   110568269.892 8      2036.257          50.500    20720445.660   110568269.906 8      2036.257          49.687    20720457.220    85997603.420 7      1583.756          47.000    20720457.900    85997598.418 7      1583.756          46.500
R17  19964252.840   106832753.009 5      1114.238          35.250    19964256.740   106832752.947 5      1114.238          34.375    19964268.600    83092196.899 6       866.629          40.750    19964268.120    83092198.849 6       866.629          41.250
R12  21378918.080   114202349.212 7      4416.182          44.187    21378917.300   114202349.234 7      4416.182          45.062    21378937.960    88824161.432 7      3434.808          47.812    21378937.860    88824134.433 8      3434.808          49.375
G13  21596716.700   113491507.313 6      4560.223          39.562    21596714.620   113491507.320 3      4560.223          19.500    21596722.820    88434969.804 3      3553.421          19.500
G30  20813314.980   109374714.353 8      2623.574          50.000    20813314.600   109374714.360 8      2623.574          49.562    20813324.020    85227074.428 8      2044.343          49.875    20813324.600    85227081.426 8      2044.343          49.375
> 2024 10 07 11 36  1.0000000  0 11
R18  21328093.320   113850811.691 6      4753.272          38.500    21328092.160   113850811.676 6      4753.272          37.500    21328105.020    88550694.619 7      3696.990          42.687    21328106.540    88550691.653 7      3696.990          42.000
G09  24138294.900   126847578.017 5       -14.621          31.875    24138289.640   126847578.022 4       -14.621          24.687    24138312.100    98842343.670 4       -11.393          24.437    24138318.080    98842357.572 6       -11.393          36.937
G05  22637615.540   118961473.199 6      5232.803          37.812    22637615.940   118961473.204 4      5232.803          29.125    22637627.100    92697270.821 4      4077.509          28.937    22637627.800    92697298.821 6      4077.509          39.250
G20  20799337.300   109301262.168 7      4383.342          47.062    20799335.740   109301262.178 6      4383.342          38.500    20799345.020    85169840.560 6      3415.591          38.500
G07  22404076.140   117734209.832 7       786.714          46.062    22404076.180   117734209.832 7       786.714          43.875    22404086.400    91740945.480 7       613.024          43.875    22404086.580    91740985.489 7       613.024          46.750
G06  21616270.140   113594267.395 7      -110.264          46.062    21616269.560   113594267.387 7      -110.264          46.875    21616283.360    88515063.246 7       -85.920          46.500    21616284.000    88515064.255 8       -85.920          49.812
R02  20720064.800   110566233.753 8      2036.012          51.125    20720064.240   110566233.767 8      2036.012          50.000    20720075.580    85996019.757 7      1583.565          46.687    20720076.480    85996014.755 7      1583.565          46.750
