     3.05           OBSERVATION DATA    MIXED               RINEX VERSION / TYPE
TPS2RIN 1.0.28.3459 TB                  20241016 133434 UTC PGM / RUN BY / DATE
Win64 build Jun 01, 2022 (c) Topcon Positioning Systems     COMMENT
Insert your comment here                                    COMMENT
SRC: 20241007_GUI33.tps                                     COMMENT
OPT: -v 3.05 -S                                             COMMENT
OPT: -p \Users\Thomas\Travaux\Projets\Volcano\Software\GPS\TCOMMENT
TB                  CSIC                                    OBSERVER / AGENCY
O0M3X53SBGM         TPS HIPER_SR        4.8 HSR Jul,08,2022 REC # / TYPE / VERS
FW: 4.8 HSR Jul,08,2022 p3                                  COMMENT
SN: HiPer SR 1212-12575                                     COMMENT
0001                TPSHIPER_SR                             ANT # / TYPE
        1.8000        0.0000        0.0000                  ANTENNA: DELTA H/E/N
GUI                                                         MARKER NAME
000                                                         MARKER NUMBER
GEODETIC                                                    MARKER TYPE
  5389909.1460 -1595252.1487  3008199.7272                  APPROX POSITION XYZ
  2024    10     7    12     0   34.0000000     GPS         TIME OF FIRST OBS
  2024    10     7    12    15   33.0000000     GPS         TIME OF LAST OBS
     1.000                                                  INTERVAL
   900 EPOCHS                                               COMMENT
G   16 C1C L1C D1C S1C C1W L1W D1W S1W C2W L2W D2W S2W C2X  SYS / # / OBS TYPES
       L2X D2X S2X                                          SYS / # / OBS TYPES
R   16 C1C L1C D1C S1C C1P L1P D1P S1P C2P L2P D2P S2P C2C  SYS / # / OBS TYPES
       L2C D2C S2C                                          SYS / # / OBS TYPES
    15                                                      # OF SATELLITES
   G05   900   900   900   900   900   900   900   900   900PRN / # OF OBS
         900   900   900   900   900   900   900            PRN / # OF OBS
   G06   900   900   900   900   900   900   900   900   900PRN / # OF OBS
         900   900   900   900   900   900   900            PRN / # OF OBS
   G07   900   900   900   900   900   900   900   900   900PRN / # OF OBS
         900   900   900   900   900   900   900            PRN / # OF OBS
   G11   900   900   900   900   900   900   900   900   900PRN / # OF OBS
         900   900   900   900   900   900   900            PRN / # OF OBS
   G13   900   900   900   900   900   900   900   900   900PRN / # OF OBS
         900   900   900     0     0     0     0            PRN / # OF OBS
   G14   333   333   333   333   289   289   289   289   286PRN / # OF OBS
         286   286   286   253   253   253   253            PRN / # OF OBS
   G20   900   900   900   900   900   900   900   900   900PRN / # OF OBS
         900   900   900     0     0     0     0            PRN / # OF OBS
   G22   900   900   900   900   900   900   900   900   900PRN / # OF OBS
         900   900   900     0     0     0     0            PRN / # OF OBS
   G30   900   900   900   900   900   900   900   900   900PRN / # OF OBS
         900   900   900   900   900   900   900            PRN / # OF OBS
   R02   900   900   900   900   900   900   900   900   900PRN / # OF OBS
         900   900   900   900   900   900   900            PRN / # OF OBS
   R03   900   900   900   900   900   900   900   900   900PRN / # OF OBS
         900   900   900   900   900   900   900            PRN / # OF OBS
   R12   900   900   900   900   900   900   900   900   900PRN / # OF OBS
         900   900   900   900   900   900   900            PRN / # OF OBS
   R13   900   900   900   900   900   900   900   900     0PRN / # OF OBS
           0     0     0     0     0     0     0            PRN / # OF OBS
   R17   900   900   900   900   900   900   900   900   900PRN / # OF OBS
         900   900   900   900   900   900   900            PRN / # OF OBS
   R18   900   900   900   900   900   900   900   900   900PRN / # OF OBS
         900   900   900   900   900   900   900            PRN / # OF OBS
G L1C                                                       SYS / PHASE SHIFT
G L1W -0.25000                                              SYS / PHASE SHIFT
G L2W  0.00000                                              SYS / PHASE SHIFT
G L2X  0.25000                                              SYS / PHASE SHIFT
R L1C                                                       SYS / PHASE SHIFT
R L1P -0.25000                                              SYS / PHASE SHIFT
R L2P -0.25000                                              SYS / PHASE SHIFT
R L2C                                                       SYS / PHASE SHIFT
  6 R02 -4 R03  5 R12 -1 R13 -2 R17  4 R18 -3               GLONASS SLOT / FRQ #
                                                            GLONASS COD/PHS/BIS
               *** Undefined LeapSeconds ***                COMMENT
                                                            END OF HEADER
> 2024 10 07 12 00 34.0000000  0 14
G11  20842062.100   109525770.171 7      1679.872          47.250    20842060.540   109525770.166 6      1679.872          39.812    20842069.140    85344777.244 6      1308.991          39.000    20842069.680    85344799.238 8      1308.991          52.187
G13  21290235.760   111880943.990 7      4036.843          47.937    21290235.680   111880944.003 6      4036.843          36.812    21290243.320    87179982.282 6      3145.592          36.875
G20  20526104.580   107865404.425 7      3953.144          47.625    20526102.960   107865404.430 6      3953.144          41.250    20526110.400    84050983.219 6      3080.372          41.187
R03  21593250.540   115590346.789 7      3833.903          44.937    21593250.560   115590346.820 7      3833.903          45.125    21593264.860    89903675.165 7      2981.924          46.625    21593264.520    89903676.163 7      2981.924          45.312
R02  21066344.560   112414046.773 8      1973.788          48.750    21066344.640   112414046.779 7      1973.788          47.250    21066358.220    87433207.082 8      1535.168          49.375    21066358.800    87433208.081 8      1535.168          49.625
R18  21081691.860   112535495.260 7      3523.040          46.687    21081691.500   112535495.261 7      3523.040          46.687    21081704.800    87527670.689 8      2740.142          48.312    21081704.740    87527667.695 8      2740.142          48.187
G30  21098744.680   110874649.991 8      1764.033          48.312    21098743.100   110874649.996 8      1764.033          49.250    21098754.820    86395871.447 8      1374.571          49.500    21098755.600    86395874.446 8      1374.571          50.250
G06  22622564.720   118882372.445 7      -617.065          45.125    22622564.600   118882372.444 7      -617.065          44.687    22622582.700    92635686.070 7      -480.830          44.812    22622583.540    92635691.077 7      -480.830          47.875
R13  21610119.280   115396809.580 6      6072.497          40.687    21610118.300   115396809.607 6      6072.497          40.375
G22  24674888.720   129667415.693 6      5018.950          41.312    24674887.460   129667415.695 3      5018.950          22.250    24674917.160   101039546.995 3      3910.870          22.312
R12  21209061.900   113295009.469 7      3301.517          46.625    21209062.600   113295009.478 7      3301.517          47.187    21209079.160    88118410.572 8      2567.847          48.562    21209080.020    88118411.576 8      2567.847          48.875
R17  20712645.680   110837556.391 7        26.740          46.750    20712647.040   110837556.401 7        26.740          46.437    20712663.300    86207053.977 8        20.798          50.437    20712663.380    86207052.976 8        20.798          50.500
G05  22083127.720   116047633.181 7      5114.953          43.687    22083126.140   116047633.186 7      5114.953          43.437    22083136.020    90426746.592 7      3985.678          43.375    22083136.720    90426756.602 7      3985.678          46.812
G07  23162639.080   121720482.249 7       245.330          44.437    23162638.420   121720482.257 6       245.330          41.937    23162650.160    94847152.839 6       191.166          41.812    23162650.720    94847187.848 7       191.166          46.000
> 2024 10 07 12 00 35.0000000  0 14
G11  20841742.440   109524090.552 7      1679.502          46.437    20841740.840   109524090.551 6      1679.502          39.812    20841749.660    85343468.444 6      1308.703          39.312    20841750.100    85343490.437 8      1308.703          52.812
G13  21289467.620   111876907.340 7      4036.601          47.875    21289467.360   111876907.352 6      4036.601          37.375    21289475.340    87176836.841 6      3145.403          37.375
G20  20525352.400   107861451.498 8      3952.836          48.562    20525350.760   107861451.503 6      3952.836          41.375    20525358.200    84047903.016 6      3080.132          41.250
R03  21592534.360   115586512.909 7      3833.984          45.750    21592534.120   115586512.940 7      3833.984          45.187    21592548.740    89900693.261 7      2981.988          46.125    21592548.720    89900694.262 7      2981.988          46.625
R02  21065974.760   112412072.963 8      1973.901          49.062    21065975.280   112412072.964 7      1973.901          47.812    21065988.060    87431671.887 8      1535.256          49.000    21065988.700    87431672.884 8      1535.256          48.937
R18  21081031.660   112531972.669 7      3522.281          47.187    21081031.740   112531972.675 7      3522.281          46.687    21081044.420    87524930.898 8      2739.552          48.312    21081044.700    87524927.897 8      2739.552          48.500
G30  21098409.140   110872886.199 8      1763.603          49.250    21098407.440   110872886.206 8      1763.603          49.250    21098419.140    86394497.065 8      1374.236          49.125    21098419.860    86394500.065 8      1374.236          50.375
G06  22622682.240   118882989.643 7      -617.254          45.187    22622681.960   118882989.640 7      -617.254          44.875    22622700.060    92636166.980 7      -480.977          45.000    22622700.700    92636171.980 8      -480.977          48.312
R13  21608982.040   115390737.179 6      6072.349          41.500    21608981.200   115390737.207 6      6072.349          40.250
G22  24673933.840   129662396.793 6      5018.887          41.000    24673932.600   129662396.790 3      5018.887          22.250    24673961.840   101035636.162 3      3910.821          22.312
R12  21208444.020   113291708.280 7      3300.904          47.750    21208444.680   113291708.283 7      3300.904          47.687    21208461.560    88115842.995 8      2567.370          48.500    21208461.980    88115843.995 8      2567.370          48.750
R17  20712640.960   110837529.970 7        26.197          46.937    20712641.960   110837529.987 7        26.197          46.687    20712658.460    86207033.421 8        20.376          49.812    20712658.440    86207032.420 8        20.376          50.625
G05  22082154.340   116042518.239 7      5115.016          44.562    22082152.800   116042518.247 7      5115.016          43.312    22082162.520    90422760.929 7      3985.727          43.187    22082163.360    90422770.935 7      3985.727          47.250
G07  23162592.580   121720237.005 7       245.172          44.125    23162591.480   121720237.012 7       245.172          42.125    23162603.680    94846961.737 6       191.043          41.750    23162604.540    94846996.752 7       191.043          46.312
> 2024 10 07 12 00 36.0000000  0 14
G11  20841422.840   109522411.494 7      1678.593          45.875    20841421.420   109522411.491 6      1678.593          39.687    20841430.160    85342160.083 6      1307.995          39.562    20841430.640    85342182.077 8      1307.995          53.000
G13  21288699.440   111872870.923 8      4036.049          48.625    21288699.280   111872870.936 6      4036.049          36.750    21288707.320    87173691.583 6      3144.974          37.187
G20  20524600.460   107857498.803 7      3952.291          47.812    20524598.500   107857498.810 6      3952.291          41.312    20524605.980    84044822.990 6      3079.708          40.687
R03  21591818.100   115582678.991 7      3833.692          45.000    21591818.560   115582679.014 7      3833.692          44.687    21591832.040    89897711.310 7      2981.761          46.500    21591832.540    89897712.308 7      2981.761          45.937
R02  21065605.320   112410099.050 8      1973.694          49.375    21065605.700   112410099.053 7      1973.694          47.500    21065618.500    87430136.621 8      1535.095          48.937    21065618.580    87430137.620 8      1535.095          49.000
R18  21080371.920   112528450.828 7      3521.135          46.187    21080372.300   112528450.850 7      3521.135          47.125    21080385.080    87522191.697 8      2738.660          48.062    21080385.060    87522188.694 8      2738.660          48.250
G30  21098073.520   110871122.866 8      1762.803          48.687    21098071.820   110871122.876 8      1762.803          49.875    21098083.680    86393123.036 8      1373.613          49.625    21098084.360    86393126.036 8      1373.613          49.625
G06  22622799.940   118883607.010 7      -617.756          44.875    22622799.320   118883607.005 7      -617.756          44.875    22622817.660    92636648.031 7      -481.369          44.812    22622818.260    92636653.031 8      -481.369          48.062
R13  21607845.260   115384665.075 6      6071.706          41.500    21607843.660   115384665.100 6      6071.706          40.250
G22  24672978.960   129657377.600 6      5018.932          40.750    24672977.420   129657377.600 3      5018.932          22.250    24673006.560   101031725.095 3      3910.856          22.312
R12  21207826.200   113288407.825 7      3299.782          47.187    21207826.860   113288407.832 7      3299.782          47.125    21207843.540    88113275.973 8      2566.497          48.812    21207844.280    88113276.973 8      2566.497          49.062
R17  20712636.060   110837504.065 7        25.412          47.625    20712637.320   110837504.085 7        25.412          47.250    20712653.420    86207013.264 8        19.765          49.875    20712653.420    86207012.263 8        19.765          50.437
G05  22081181.280   116037403.327 7      5114.609          43.625    22081179.500   116037403.337 7      5114.609          43.187    22081188.980    90418775.285 7      3985.410          42.937    22081190.240    90418785.291 7      3985.410          46.625
G07  23162546.080   121719991.981 7       244.621          44.500    23162544.840   121719991.986 7       244.621          42.750    23162557.160    94846770.803 7       190.614          42.250    23162557.920    94846805.816 7       190.614          46.187
> 2024 10 07 12 00 37.0000000  0 14
G11  20841103.560   109520733.170 7      1677.879          46.687    20841101.800   109520733.170 6      1677.879          39.687    20841110.660    85340852.298 6      1307.438          39.375    20841111.220    85340874.293 8      1307.438          53.000
G13  21287931.440   111868834.972 8      4035.610          48.187    21287931.180   111868834.985 6      4035.610          37.062    21287939.320    87170546.696 6      3144.631          37.062
G20  20523848.020   107853546.561 7      3951.917          47.812    20523846.580   107853546.566 6      3951.917          41.562    20523853.900    84041743.319 6      3079.416          41.312
R03  21591102.300   115578845.202 7      3833.642          45.375    21591102.680   115578845.230 7      3833.642          45.312    21591115.640    89894729.474 7      2981.721          46.375    21591116.180    89894730.474 7      2981.721          46.125
R02  21065234.900   112408125.259 8      1973.612          49.125    21065236.340   112408125.263 7      1973.612          47.687    21065248.380    87428601.450 8      1535.031          48.812    21065249.020    87428602.451 8      1535.031          49.125
R18  21079712.460   112524930.015 7      3520.213          47.437    21079712.660   112524930.026 7      3520.213          46.750    21079725.520    87519453.280 8      2737.943          48.375    21079725.700    87519450.281 8      2737.943          48.000
G30  21097738.160   110869360.204 8      1762.226          49.000    21097736.400   110869360.209 8      1762.226          49.625    21097748.120    86391749.527 8      1373.163          49.437    21097748.580    86391752.524 8      1373.163          49.625
G06  22622917.340   118884224.745 7      -618.043          44.687    22622916.720   118884224.742 7      -618.043          44.812    22622935.200    92637129.372 7      -481.592          44.750    22622935.900    92637134.374 8      -481.592          48.125
R13  21606707.840   115378593.476 6      6071.270          40.437    21606706.340   115378593.501 6      6071.270          40.250
G22  24672023.940   129652358.369 6      5019.270          41.562    24672022.280   129652358.369 3      5019.270          22.375    24672051.360   101027813.995 3      3911.119          22.312
R12  21207208.360   113285108.308 8      3299.033          48.250    21207209.340   113285108.315 7      3299.033          47.937    21207226.120    88110709.675 8      2565.914          48.687    21207226.600    88110710.675 8      2565.914          49.062
R17  20712631.560   110837478.922 7        24.674          46.875    20712632.560   110837478.934 7        24.674          46.250    20712648.760    86206993.694 8        19.191          50.375    20712648.800    86206992.695 8        19.191          51.062
G05  22080207.840   116032288.637 7      5114.448          43.500    22080206.100   116032288.647 7      5114.448          43.000    22080215.580    90414789.817 7      3985.284          42.750    22080216.380    90414799.833 7      3985.284          46.312
G07  23162499.400   121719747.364 7       244.322          44.312    23162498.580   121719747.366 7       244.322          42.687    23162510.540    94846580.183 7       190.380          42.375    23162511.100    94846615.192 7       190.380          46.062
> 2024 10 07 12 00 38.0000000  0 14
G11  20840784.580   109519055.198 7      1677.844          46.375    20840782.360   109519055.197 6      1677.844          39.937    20840791.420    85339544.783 6      1307.411          39.062    20840791.900    85339566.774 8      1307.411          52.812
G13  21287163.600   111864799.060 8      4035.932          48.437    21287162.860   111864799.070 6      4035.932          36.750    21287171.340    87167401.834 6      3144.882          36.562
G20  20523096.160   107849594.370 7      3952.176          46.750    20523094.180   107849594.380 6      3952.176          41.500    20523101.740    84038663.691 6      3079.618          41.125
R03  21590385.820   115575011.151 7      3834.259          47.125    21590387.000   115575011.182 7      3834.259          45.250    21590400.000    89891747.432 7      2982.202          45.875    21590400.000    89891748.430 7      2982.202          45.625
R02  21064864.800   112406151.170 8      1974.319          49.937    21064866.060   112406151.171 7      1974.319          47.875    21064878.600    87427066.037 8      1535.581          49.250    21064878.940    87427067.042 8      1535.581          49.125
R18  21079052.920   112521409.778 7      3519.972          47.750    21079052.620   112521409.792 7      3519.972          47.125    21079066.000    87516715.320 8      2737.756          48.875    21079066.260    87516712.326 8      2737.756          48.250
G30  21097402.720   110867597.804 8      1762.310          49.312    21097401.000   110867597.812 8      1762.310          49.187    21097412.820    86390376.228 8      1373.229          49.375    21097413.260    86390379.226 8      1373.229          49.500
G06  22623035.160   118884842.459 7      -617.642          44.750    22623034.540   118884842.450 7      -617.642          44.937    22623052.660    92637610.691 7      -481.280          44.375    22623053.200    92637615.695 7      -481.280          47.937
R13  21605570.940   115372521.959 6      6071.581          40.437    21605569.380   115372521.971 6      6071.581          40.187
G22  24671068.360   129647338.746 6      5019.899          41.187    24671066.960   129647338.746 3      5019.899          22.375    24671096.040   101023902.594 3      3911.610          22.312
R12  21206591.000   113281809.328 8      3298.879          48.437    21206591.780   113281809.329 8      3298.879          48.000    21206608.400    88108143.806 8      2565.795          49.250    21206609.040    88108144.806 8      2565.795          48.687
R17  20712626.940   110837454.143 7        24.688          47.187    20712628.120   110837454.147 7        24.688          46.687    20712644.360    86206974.403 8        19.202          50.125    20712644.220    86206973.402 8        19.202          50.625
G05  22079234.200   116027173.780 7      5114.907          44.375    22079232.760   116027173.787 7      5114.907          43.312    22079242.080    90410804.214 7      3985.642          43.250    22079242.360    90410814.220 7      3985.642          46.125
G07  23162453.100   121719502.766 7       244.652          45.437    23162452.060   121719502.768 7       244.652          42.937    23162464.340    94846389.580 7       190.638          42.687    23162464.820    94846424.592 7       190.638          46.187
> 2024 10 07 12 00 39.0000000  0 14
G11  20840465.160   109517377.961 7      1676.947          45.875    20840463.040   109517377.953 6      1676.947          39.937    20840472.040    85338237.833 6      1306.712          39.312    20840472.820    85338259.827 8      1306.712          52.312
G13  21286395.580   111860763.608 7      4035.287          47.562    21286394.940   111860763.618 6      4035.287          36.750    21286403.560    87164257.326 6      3144.380          37.062
G20  20522343.920   107845642.623 7      3951.544          47.562    20522342.240   107845642.636 6      3951.544          41.000    20522349.760    84035584.406 6      3079.125          40.500
R03  21589669.820   115571177.263 7      3833.826          46.500    21589670.540   115571177.296 7      3833.826          45.187    21589684.000    89888765.520 7      2981.864          46.125    21589684.120    89888766.521 7      2981.864          46.687
R02  21064494.840   112404177.233 8      1973.876          49.687    21064495.940   112404177.233 7      1973.876          47.812    21064508.820    87425530.752 8      1535.237          49.125    21064509.200    87425531.756 8      1535.237          48.437
R18  21078393.260   112517890.507 7      3518.763          47.812    21078393.900   112517890.519 7      3518.763          46.750    21078406.800    87513978.108 8      2736.816          48.437    21078406.860    87513975.109 7      2736.816          47.875
G30  21097067.500   110865836.069 8      1761.371          48.875    21097065.800   110865836.077 8      1761.371          49.125    21097077.580    86389003.446 8      1372.497          49.437    21097078.420    86389006.445 8      1372.497          50.125
G06  22623152.440   118885460.548 7      -618.188          45.187    22623152.160   118885460.540 7      -618.188          44.937    22623170.380    92638092.290 7      -481.705          45.000    22623171.140    92638097.295 8      -481.705          48.000
R13  21604434.120   115366450.937 6      6070.867          40.250    21604432.620   115366450.935 6      6070.867          40.187
G22  24670113.320   129642319.078 6      5019.587          41.187    24670111.600   129642319.075 3      5019.587          22.375    24670140.940   101019991.157 3      3911.367          22.312
R12  21205973.600   113278511.280 7      3297.652          47.687    21205974.480   113278511.284 7      3297.652          47.375    21205990.880    88105578.660 8      2564.841          48.625    21205991.540    88105579.660 8      2564.841          48.875
R17  20712622.460   110837430.124 7        23.655          47.687    20712623.120   110837430.129 7        23.655          46.625    20712639.580    86206955.711 8        18.398          49.750    20712639.640    86206954.713 8        18.398          50.687
G05  22078260.840   116022059.130 7      5114.611          43.500    22078259.340   116022059.138 7      5114.611          42.625    22078268.620    90406818.779 7      3985.411          42.625    22078269.260    90406828.789 7      3985.411          46.562
G07  23162406.540   121719258.572 7       244.057          45.375    23162405.580   121719258.574 7       244.057          42.937    23162417.720    94846199.296 7       190.175          42.687    23162418.380    94846234.307 7       190.175          46.250
> 2024 10 07 12 00 40.0000000  0 14
G11  20840146.320   109515701.345 7      1676.238          45.937    20840144.140   109515701.344 6      1676.238          39.562    20840153.120    85336931.377 6      1306.160          38.875    20840153.760    85336953.370 8      1306.160          52.500
G13  21285627.680   111856728.487 7      4034.859          47.562    21285627.080   111856728.497 6      4034.859          36.812    21285635.900    87161113.071 6      3144.046          36.937
G20  20521592.020   107841691.215 7      3951.174          47.750    20521590.380   107841691.222 6      3951.174          41.125    20521597.900    84032505.382 6      3078.837          40.812
R03  21588953.860   115567343.425 7      3833.621          46.000    21588953.800   115567343.457 7      3833.621          44.875    21588967.880    89885783.644 7      2981.705          46.437    21588967.940    89885784.646 7      2981.705          46.375
R02  21064125.020   112402203.317 8      1973.840          48.875    21064125.960   112402203.318 8      1973.840          48.062    21064138.640    87423995.482 8      1535.209          48.375    21064139.320    87423996.488 8      1535.209          49.000
R18  21077734.300   112514372.072 7      3517.919          46.125    21077734.540   112514372.081 7      3517.919          46.312    21077747.600    87511241.543 7      2736.160          47.812    21077747.680    87511238.540 7      2736.160          47.562
G30  21096732.200   110864074.860 8      1760.864          48.375    21096730.740   110864074.867 8      1760.864          49.062    21096742.420    86387631.077 8      1372.102          49.000    21096743.180    86387634.078 8      1372.102          50.062
G06  22623269.920   118886078.884 7      -618.498          44.562    22623269.620   118886078.879 7      -618.498          44.125    22623288.040    92638574.099 7      -481.946          43.875    22623288.560    92638579.095 7      -481.946          47.875
R13  21603297.160   115360380.251 6      6070.396          40.250    21603295.740   115360380.262 6      6070.396          40.187
G22  24669157.960   129637299.232 6      5019.911          41.750    24669156.400   129637299.234 3      5019.911          22.375    24669185.780   101016079.582 3      3911.619          22.937
R12  21205356.300   113275213.999 7      3296.784          47.500    21205357.280   113275214.002 7      3296.784          47.625    21205373.920    88103014.112 8      2564.166          48.062    21205374.180    88103015.107 8      2564.166          48.687
R17  20712618.000   110837406.667 7        22.989          47.937    20712618.520   110837406.682 7        22.989          46.312    20712635.300    86206937.469 8        17.880          50.125    20712635.140    86206936.474 8        17.880          49.937
G05  22077287.580   116016944.585 7      5114.380          43.312    22077285.960   116016944.601 7      5114.380          43.437    22077295.280    90402833.423 7      3985.231          43.000    22077296.220    90402843.444 7      3985.231          46.562
G07  23162360.200   121719014.678 7       243.702          44.187    23162358.960   121719014.683 7       243.702          42.625    23162371.320    94846009.244 7       189.898          42.250    23162372.000    94846044.257 7       189.898          46.437
> 2024 10 07 12 00 41.0000000  0 14
G11  20839826.880   109514025.199 7      1675.869          46.750    20839825.000   109514025.196 6      1675.869          39.937    20839834.080    85335625.285 6      1305.872          39.437    20839834.800    85335647.278 8      1305.872          52.687
G13  21284859.960   111852693.521 8      4034.797          48.187    21284859.280   111852693.528 6      4034.797          36.937    21284868.160    87157968.946 6      3143.998          37.062
G20  20520839.940   107837739.964 7      3951.104          47.875    20520838.380   107837739.974 6      3951.104          41.187    20520845.880    84029426.488 6      3078.782          40.812
R03  21588237.500   115563509.436 7      3834.000          45.687    21588237.220   115563509.469 7      3834.000          44.875    21588251.820    89882801.662 7      2982.000          46.687    21588251.820    89882802.666 7      2982.000          46.062
R02  21063754.920   112400229.265 8      1974.113          49.687    21063756.220   112400229.271 7      1974.113          47.312    21063768.800    87422460.098 8      1535.421          48.687    21063769.300    87422461.106 8      1535.421          49.500
R18  21077075.400   112510854.349 7      3517.320          46.937    21077075.260   112510854.352 7      3517.320          46.375    21077088.560    87508505.528 8      2735.694          48.312    21077088.720    87508502.529 8      2735.694          48.125
G30  21096397.140   110862314.032 8      1760.575          49.125    21096395.600   110862314.039 8      1760.575          49.687    21096407.440    86386259.009 8      1371.877          49.937    21096407.900    86386262.015 8      1371.877          50.125
G06  22623387.900   118886697.315 7      -618.557          45.375    22623387.260   118886697.315 7      -618.557          44.437    22623405.820    92639055.981 7      -481.992          44.312    22623406.660    92639060.983 7      -481.992          47.812
R13  21602160.680   115354309.767 6      6070.364          40.437    21602159.060   115354309.779 6      6070.364          40.187
G22  24668203.040   129632279.094 6      5020.453          40.937    24668201.100   129632279.096 3      5020.453          22.375    24668230.500   101012167.780 3      3912.042          22.937
R12  21204739.080   113271917.337 8      3296.272          48.187    21204740.240   113271917.341 8      3296.272          48.000    21204756.680    88100450.035 8      2563.767          48.625    21204756.960    88100451.031 8      2563.767          48.875
R17  20712613.900   110837383.614 7        22.760          47.187    20712614.100   110837383.632 7        22.760          46.500    20712630.840    86206919.530 8        17.703          50.187    20712630.600    86206918.534 8        17.703          50.312
G05  22076314.380   116011830.004 7      5114.492          43.562    22076312.520   116011830.014 7      5114.492          43.062    22076322.200    90398848.041 7      3985.318          42.625    22076323.180    90398858.064 7      3985.318          46.437
G07  23162313.700   121718770.926 7       243.627          45.187    23162312.880   121718770.928 7       243.627          42.812    23162324.700    94845819.305 7       189.839          42.312    23162325.620    94845854.323 7       189.839          46.250
> 2024 10 07 12 00 42.0000000  0 14
G11  20839508.220   109512349.746 7      1675.050          46.437    20839506.160   109512349.741 6      1675.050          39.062    20839515.240    85334319.731 6      1305.234          38.625    20839515.880    85334341.721 8      1305.234          52.187
G13  21284092.080   111848658.957 8      4034.348          48.312    21284091.460   111848658.965 6      4034.348          37.312    21284100.500    87154825.132 6      3143.648          37.437
G20  20520088.140   107833789.128 7      3950.640          47.250    20520086.440   107833789.136 6      3950.640          40.750    20520093.840    84026347.917 6      3078.421          40.750
R03  21587521.420   115559675.615 7      3833.800          46.500    21587521.720   115559675.654 7      3833.800          45.125    21587535.720    89879819.797 7      2981.845          47.250    21587535.540    89879820.791 7      2981.845          45.937
R02  21063385.380   112398255.338 8      1973.872          49.187    21063386.120   112398255.333 7      1973.872          47.562    21063399.260    87420924.824 8      1535.234          49.187    21063399.480    87420925.825 8      1535.234          49.062
R18  21076416.480   112507337.555 7      3516.259          46.437    21076416.200   112507337.564 7      3516.259          46.625    21076429.980    87505770.244 8      2734.868          48.125    21076429.820    87505767.243 8      2734.868          48.062
G30  21096061.980   110860553.831 8      1759.914          48.062    21096060.640   110860553.836 8      1759.914          49.500    21096072.320    86384887.418 8      1371.362          49.312    21096072.640    86384890.422 8      1371.362          49.687
G06  22623505.320   118887316.090 7      -619.007          44.875    22623504.680   118887316.087 7      -619.007          43.937    22623523.380    92639538.125 7      -482.343          43.875    22623524.280    92639543.123 7      -482.343          47.937
R13  21601024.160   115348239.711 6      6069.882          40.437    21601021.960   115348239.728 6      6069.882          40.187
G22  24667247.960   129627258.903 6      5020.175          41.437    24667245.800   129627258.900 3      5020.175          22.375    24667275.260   101008255.937 3      3911.825          22.937
R12  21204122.300   113268621.562 7      3295.306          47.500    21204123.060   113268621.568 7      3295.306          47.312    21204139.620    88097886.659 8      2563.016          49.312    21204140.080    88097887.657 8      2563.016          49.500
R17  20712609.340   110837361.287 7        21.929          47.625    20712609.920   110837361.299 7        21.929          46.750    20712626.940    86206902.150 8        17.056          50.937    20712626.740    86206901.153 8        17.056          50.312
G05  22075341.100   116006715.580 7      5114.453          43.125    22075339.360   116006715.585 7      5114.453          42.875    22075348.800    90394862.774 7      3985.288          42.687    22075349.860    90394872.786 7      3985.288          46.312
G07  23162267.240   121718527.542 7       243.211          45.812    23162266.320   121718527.539 7       243.211          42.500    23162278.640    94845629.649 7       189.515          42.375    23162279.440    94845664.658 7       189.515          46.000
> 2024 10 07 12 00 43.0000000  0 14
G11  20839189.660   109510674.843 7      1674.870          47.375    20839187.380   109510674.840 6      1674.870          39.562    20839196.400    85333014.610 6      1305.093          39.250    20839197.140    85333036.597 8      1305.093          52.437
G13  21283324.480   111844624.645 8      4034.459          48.812    21283323.760   111844624.655 6      4034.459          37.375    21283332.660    87151681.519 6      3143.735          37.312
G20  20519336.620   107829838.553 8      3950.709          48.062    20519334.640   107829838.560 6      3950.709          40.937    20519342.180    84023269.544 6      3078.474          41.000
R03  21586804.980   115555841.761 7      3834.093          45.750    21586805.340   115555841.814 7      3834.093          45.250    21586819.620    89876837.926 7      2982.073          46.875    21586819.360    89876838.923 7      2982.073          47.187
R02  21063015.280   112396281.366 8      1974.199          49.312    21063015.680   112396281.369 7      1974.199          47.687    21063029.200    87419389.516 8      1535.488          49.187    21063029.400    87419390.518 8      1535.488          49.562
R18  21075757.880   112503821.541 7      3515.829          46.062    21075757.420   112503821.544 7      3515.829          46.812    21075771.540    87503035.568 8      2734.534          48.375    21075771.260    87503032.569 8      2734.534          48.562
G30  21095727.140   110858794.093 8      1759.757          48.312    21095725.720   110858794.098 8      1759.757          49.500    21095737.480    86383516.194 8      1371.239          49.562    21095737.900    86383519.197 8      1371.239          50.187
G06  22623623.160   118887935.034 7      -618.817          45.062    22623622.560   118887935.026 7      -618.817          43.562    22623641.000    92640020.398 7      -482.195          43.312    22623641.980    92640025.396 7      -482.195          47.875
R13  21599887.220   115342169.999 6      6069.873          40.437    21599885.540   115342170.011 6      6069.873          40.500
G22  24666292.060   129622238.495 7      5020.684          42.125    24666290.540   129622238.494 3      5020.684          22.375    24666319.940   101004343.924 3      3912.222          22.937
R12  21203505.580   113265326.559 8      3294.880          48.000    21203506.100   113265326.565 7      3294.880          47.500    21203522.980    88095323.881 8      2562.684          49.125    21203523.240    88095324.878 8      2562.684          49.187
R17  20712605.280   110837339.553 7        21.610          47.875    20712605.720   110837339.562 7        21.610          46.437    20712622.540    86206885.235 8        16.808          50.750    20712622.680    86206884.237 8        16.808          50.750
G05  22074368.300   116001601.243 7      5114.606          43.312    22074366.260   116001601.248 7      5114.606          43.437    22074375.560    90390877.578 7      3985.408          42.812    22074376.580    90390887.584 7      3985.408          46.562
G07  23162221.020   121718284.362 7       243.358          45.062    23162220.040   121718284.364 7       243.358          42.437    23162232.160    94845440.161 7       189.630          42.625    23162232.880    94845475.176 7       189.630          45.812
> 2024 10 07 12 00 44.0000000  0 14
G11  20838871.000   109509000.497 7      1673.973          46.875    20838869.040   109509000.494 6      1673.973          39.875    20838877.780    85331709.916 6      1304.395          39.187    20838878.560    85331731.908 8      1304.395          52.125
G13  21282556.860   111840590.602 8      4033.817          48.625    21282556.200   111840590.617 6      4033.817          37.062    21282564.960    87148538.112 6      3143.234          37.500
G20  20518584.940   107825888.246 7      3950.097          47.437    20518582.960   107825888.256 6      3950.097          41.187    20518590.420    84020191.383 6      3077.998          40.750
R03  21586088.360   115552007.911 7      3833.754          45.750    21586088.140   115552007.958 7      3833.754          45.250    21586103.300    89873856.038 7      2981.809          46.625    21586103.400    89873857.042 7      2981.809          46.437
R02  21062645.180   112394307.325 8      1973.944          48.750    21062645.260   112394307.336 7      1973.944          47.375    21062659.180    87417854.149 8      1535.290          49.687    21062659.580    87417855.154 8      1535.290          49.562
R18  21075099.100   112500306.305 7      3514.719          47.187    21075098.860   112500306.314 7      3514.719          46.437    21075113.120    87500301.500 8      2733.670          49.062    21075112.600    87500298.503 8      2733.670          48.562
G30  21095392.360   110857034.839 8      1758.889          48.000    21095390.900   110857034.846 8      1758.889          49.062    21095402.700    86382145.346 8      1370.563          48.937    21095403.200    86382148.348 8      1370.563          49.687
G06  22623740.820   118888554.187 7      -619.440          43.875    22623740.420   118888554.176 7      -619.440          43.875    22623758.940    92640502.831 7      -482.680          43.000    22623759.660    92640507.828 7      -482.680          47.750
R13  21598750.960   115336100.600 6      6069.178          40.125    21598748.680   115336100.601 6      6069.178          40.500
G22  24665336.660   129617217.829 6      5020.716          41.500    24665335.180   129617217.826 3      5020.716          22.375    24665364.500   101000431.711 3      3912.246          22.937
R12  21202889.120   113262032.303 7      3293.731          47.875    21202889.240   113262032.307 7      3293.731          47.500    21202906.120    88092761.686 8      2561.791          49.000    21202906.620    88092762.684 8      2561.791          49.187
R17  20712601.740   110837318.338 7        20.914          47.125    20712601.760   110837318.347 7        20.914          46.750    20712618.920    86206868.722 8        16.266          50.562    20712618.960    86206867.724 8        16.266          50.625
G05  22073395.300   115996486.932 7      5114.149          44.062    22073392.980   115996486.937 7      5114.149          43.250    22073402.140    90386892.407 7      3985.051          43.125    22073403.560    90386902.419 7      3985.051          45.875
G07  23162174.980   121718041.430 7       242.731          46.000    23162174.100   121718041.435 7       242.731          42.437    23162186.020    94845250.859 7       189.141          43.250    23162186.740    94845285.868 7       189.141          45.812
> 2024 10 07 12 00 45.0000000  0 14
G11  20838552.400   109507326.747 7      1673.311          46.750    20838550.540   109507326.747 6      1673.311          39.812    20838559.320    85330405.693 6      1303.878          39.312    20838560.040    85330427.685 8      1303.878          52.250
G13  21281789.260   111836556.878 7      4033.386          47.937    21281788.520   111836556.886 6      4033.386          37.562    21281797.500    87145394.955 6      3142.898          37.562
G20  20517833.060   107821938.240 7      3949.723          47.937    20517831.120   107821938.251 6      3949.723          40.562    20517838.820    84017113.458 6      3077.706          40.187
R03  21585372.540   115548174.033 7      3833.763          45.375    21585371.660   115548174.075 7      3833.763          44.250    21585387.640    89870874.127 7      2981.815          47.062    21585387.380    89870875.123 7      2981.815          46.562
R02  21062275.520   112392333.262 8      1973.953          48.812    21062275.380   112392333.268 7      1973.953          47.937    21062289.320    87416318.763 8      1535.296          49.500    21062289.600    87416319.770 8      1535.296          49.562
R18  21074440.480   112496791.932 7      3513.725          46.750    21074440.200   112496791.936 7      3513.725          46.187    21074454.640    87497568.099 8      2732.897          48.562    21074454.300    87497565.106 8      2732.897          48.812
G30  21095057.620   110855276.102 8      1758.317          48.312    21095056.240   110855276.107 8      1758.317          49.125    21095067.980    86380774.898 8      1370.117          48.937    21095068.740    86380777.899 8      1370.117          50.250
G06  22623858.760   118889173.525 7      -619.586          44.062    22623858.040   118889173.519 7      -619.586          43.500    22623876.680    92640985.419 7      -482.795          42.937    22623877.420    92640990.423 7      -482.795          47.437
R13  21597614.460   115330031.545 6      6068.819          40.125    21597612.360   115330031.530 6      6068.819          40.437
G22  24664381.300   129612196.997 6      5020.816          41.312    24664379.660   129612196.996 4      5020.816          24.000    24664409.160   100996519.372 3      3912.324          22.937
R12  21202272.360   113258738.804 8      3292.928          48.125    21202272.680   113258738.808 7      3292.928          47.125    21202289.620    88090200.073 8      2561.166          49.125    21202290.040    88090201.073 8      2561.166          48.875
R17  20712597.580   110837297.701 7        20.229          47.750    20712597.780   110837297.716 7        20.229          46.812    20712615.200    86206852.661 8        15.734          51.125    20712614.760    86206851.660 8        15.734          50.625
G05  22072421.640   115991372.700 7      5113.958          43.812    22072419.780   115991372.702 7      5113.958          42.937    22072428.960    90382907.297 7      3984.903          42.437    22072429.980    90382917.301 7      3984.903          45.812
G07  23162128.700   121717798.750 7       242.482          44.937    23162127.700   121717798.755 7       242.482          42.812    23162139.760    94845061.751 7       188.947          42.562    23162140.400    94845096.764 7       188.947          46.250
> 2024 10 07 12 00 46.0000000  0 14
G11  20838233.940   109505653.683 7      1672.803          47.062    20838232.140   109505653.682 6      1672.803          39.812    20838241.060    85329102.001 6      1303.483          39.312    20838241.760    85329123.999 8      1303.483          52.437
G13  21281021.760   111832523.541 8      4033.165          48.187    21281020.980   111832523.549 6      4033.165          37.125    21281030.060    87142252.101 6      3142.726          37.000
G20  20517081.560   107817988.661 7      3949.421          47.375    20517079.620   107817988.668 6      3949.421          40.937    20517087.040    84014035.858 6      3077.471          40.750
R03  21584656.180   115544340.242 7      3833.862          45.125    21584655.380   115544340.281 7      3833.862          44.687    21584671.640    89867892.298 7      2981.893          47.312    21584671.140    89867893.299 7      2981.893          46.937
R02  21061905.280   112390359.303 8      1973.988          48.625    21061905.220   112390359.304 7      1973.988          47.062    21061919.460    87414783.449 8      1535.324          49.437    21061919.860    87414784.456 8      1535.324          49.437
R18  21073782.540   112493278.464 7      3513.089          45.000    21073782.520   112493278.460 7      3513.089          46.250    21073796.540    87494835.391 8      2732.402          49.125    21073796.100    87494832.394 8      2732.402          48.562
G30  21094723.240   110853517.969 8      1757.921          49.187    21094721.880   110853517.977 8      1757.921          49.625    21094733.380    86379404.926 8      1369.809          49.062    21094734.220    86379407.932 8      1369.809          49.937
G06  22623976.760   118889793.214 7      -619.802          44.000    22623975.720   118889793.206 7      -619.802          43.687    22623994.560    92641468.284 7      -482.962          43.437    22623995.500    92641473.279 7      -482.962          47.500
R13  21596478.280   115323962.950 6      6068.515          39.812    21596475.540   115323962.927 6      6068.515          40.437
G22  24663425.660   129607176.105 6      5020.931          41.687    24663424.280   129607176.107 4      5020.931          24.000    24663453.720   100992606.987 3      3912.414          22.937
R12  21201656.160   113255446.167 7      3292.305          47.562    21201656.400   113255446.171 7      3292.305          47.312    21201673.180    88087639.144 8      2560.682          48.562    21201673.800    88087640.146 8      2560.682          49.000
R17  20712594.420   110837277.744 7        19.713          47.937    20712594.080   110837277.753 7        19.713          46.562    20712611.460    86206837.124 8        15.332          50.750    20712611.320    86206836.127 8        15.332          50.625
G05  22071448.320   115986258.647 7      5113.955          43.062    22071446.560   115986258.649 7      5113.955          42.937    22071455.760    90378922.323 7      3984.900          42.875    22071456.980    90378932.329 7      3984.900          46.437
G07  23162082.340   121717556.466 7       242.166          45.312    23162081.900   121717556.474 7       242.166          42.312    23162093.820    94844872.951 7       188.701          42.500    23162094.120    94844907.956 7       188.701          46.187
> 2024 10 07 12 00 47.0000000  0 14
G11  20837915.700   109503981.100 7      1672.314          46.437    20837913.920   109503981.105 6      1672.314          39.812    20837922.700    85327798.694 6      1303.101          39.437    20837923.460    85327820.687 8      1303.101          51.875
G13  21280254.380   111828490.375 8      4033.103          48.187    21280253.480   111828490.385 6      4033.103          37.437    21280262.480    87139109.379 6      3142.677          37.625
G20  20516330.000   107814039.249 7      3949.321          46.562    20516328.100   107814039.260 6      3949.321          40.125    20516335.620    84010958.390 6      3077.393          40.250
R03  21583939.920   115540506.311 7      3834.019          45.500    21583939.120   115540506.353 7      3834.019          44.437    21583955.620    89864910.351 7      2982.015          46.937    21583955.120    89864911.349 7      2982.015          47.125
R02  21061535.340   112388385.219 8      1974.195          48.312    21061535.360   112388385.223 7      1974.195          47.000    21061549.460    87413248.046 8      1535.485          49.312    21061549.940    87413249.056 8      1535.485          49.937
R18  21073124.420   112489765.692 7      3512.561          46.625    21073124.100   112489765.680 7      3512.561          46.250    21073138.760    87492103.231 8      2731.992          48.562    21073138.060    87492100.239 8      2731.992          48.625
G30  21094388.640   110851760.231 8      1757.586          48.500    21094387.360   110851760.233 8      1757.586          49.500    21094398.860    86378035.252 8      1369.548          49.625    21094399.600    86378038.255 8      1369.548          50.187
G06  22624094.660   118890412.980 7      -619.717          45.000    22624093.680   118890412.969 7      -619.717          44.000    22624112.400    92641951.197 7      -482.897          43.500    22624113.400    92641956.197 7      -482.897          47.750
R13  21595341.860   115317894.530 6      6068.459          39.812    21595339.540   115317894.529 6      6068.459          40.437
G22  24662470.320   129602154.908 7      5021.440          42.125    24662468.800   129602154.910 4      5021.440          24.000    24662498.260   100988694.357 3      3912.810          22.937
R12  21201039.640   113252154.204 8      3291.714          48.000    21201039.960   113252154.207 7      3291.714          47.312    21201057.060    88085078.722 8      2560.222          49.187    21201057.420    88085079.722 8      2560.222          49.312
R17  20712590.760   110837258.249 8        19.304          48.125    20712590.540   110837258.259 7        19.304          46.625    20712607.620    86206821.949 8        15.014          50.250    20712607.560    86206820.949 8        15.014          50.812
G05  22070475.240   115981144.546 7      5114.168          43.562    22070473.260   115981144.548 7      5114.168          42.500    22070482.680    90374937.311 7      3985.066          42.187    22070483.760    90374947.311 7      3985.066          46.187
G07  23162036.560   121717314.306 7       242.144          45.437    23162035.600   121717314.314 7       242.144          42.687    23162047.760    94844684.240 7       188.683          42.812    23162048.000    94844719.251 7       188.683          46.187
> 2024 10 07 12 00 48.0000000  0 14
G11  20837597.480   109502309.276 7      1671.328          47.375    20837595.760   109502309.278 6      1671.328          39.937    20837604.600    85326495.965 6      1302.334          39.562    20837605.400    85326517.957 8      1302.334          52.250
G13  21279487.020   111824457.687 8      4032.354          48.312    21279486.120   111824457.697 6      4032.354          37.437    21279495.120    87135967.027 6      3142.094          37.312
G20  20515578.340   107810090.308 7      3948.619          47.062    20515576.560   107810090.311 6      3948.619          40.375    20515584.120    84007881.285 6      3076.846          40.312
R03  21583223.960   115536672.527 7      3833.655          45.125    21583223.020   115536672.564 7      3833.655          44.375    21583239.580    89861928.520 7      2981.732          47.562    21583239.020    89861929.517 7      2981.732          47.375
R02  21061165.420   112386411.335 8      1973.744          48.125    21061164.960   112386411.328 7      1973.744          46.625    21061179.580    87411712.791 8      1535.134          48.937    21061179.940    87411713.796 8      1535.134          49.562
R18  21072466.700   112486253.927 7      3511.089          46.312    21072466.420   112486253.920 7      3511.089          47.000    21072480.900    87489371.864 8      2730.847          48.875    21072480.460    87489368.867 8      2730.847          48.250
G30  21094054.420   110850003.173 8      1756.590          49.187    21094052.980   110850003.175 8      1756.590          49.937    21094064.480    86376666.118 8      1368.771          50.062    21094065.300    86376669.121 8      1368.771          49.875
G06  22624212.600   118891033.182 7      -620.592          43.187    22624211.860   118891033.176 7      -620.592          43.437    22624230.200    92642434.459 7      -483.578          43.250    22624231.060    92642439.455 7      -483.578          47.500
R13  21594205.520   115311826.648 6      6067.568          39.375    21594203.080   115311826.665 6      6067.568          40.375
G22  24661514.680   129597133.685 6      5021.208          41.937    24661513.320   129597133.687 4      5021.208          24.000    24661542.780   100984781.710 4      3912.630          24.312
R12  21200423.320   113248863.151 7      3290.498          47.875    21200423.980   113248863.149 7      3290.498          47.437    21200440.900    88082519.014 8      2559.276          48.625    21200441.240    88082520.016 8      2559.276          49.437
R17  20712587.180   110837239.547 8        18.220          48.000    20712586.900   110837239.551 7        18.220          47.125    20712604.000    86206807.388 8        14.171          50.250    20712604.040    86206806.386 8        14.171          50.375
G05  22069501.860   115976030.703 7      5113.625          43.437    22069500.320   115976030.708 7      5113.625          42.875    22069509.360    90370952.507 7      3984.643          42.250    22069510.540    90370962.510 7      3984.643          46.125
G07  23161990.580   121717072.585 7       241.425          45.562    23161989.580   121717072.590 7       241.425          42.750    23162001.780    94844495.876 7       188.123          42.500    23162002.280    94844530.893 7       188.123          46.437
> 2024 10 07 12 00 49.0000000  0 14
G11  20837279.640   109500638.043 7      1670.965          47.625    20837277.760   109500638.045 6      1670.965          39.750    20837286.680    85325193.702 6      1302.051          39.125    20837287.220    85325215.696 8      1302.051          52.125
G13  21278719.640   111820425.291 8      4032.245          48.500    21278718.760   111820425.301 6      4032.245          37.375    21278727.820    87132824.904 6      3142.009          37.375
G20  20514826.980   107806141.667 7      3948.482          47.250    20514825.260   107806141.677 6      3948.482          40.687    20514832.580    84004804.430 6      3076.739          40.500
R03  21582507.880   115532838.789 7      3833.720          44.750    21582506.360   115532838.812 7      3833.720          44.375    21582523.460    89858946.717 7      2981.782          47.312    21582522.520    89858947.714 8      2981.782          48.062
R02  21060795.800   112384437.403 8      1973.920          48.750    21060795.160   112384437.409 7      1973.920          47.187    21060809.320    87410177.518 8      1535.271          49.312    21060809.920    87410178.528 8      1535.271          49.375
R18  21071809.020   112482742.981 7      3510.554          47.375    21071808.880   112482742.974 7      3510.554          46.500    21071823.500    87486641.128 8      2730.431          49.125    21071822.840    87486638.132 8      2730.431          48.562
G30  21093720.240   110848246.630 8      1756.270          48.875    21093718.860   110848246.630 8      1756.270          49.687    21093730.260    86375297.383 8      1368.522          49.625    21093730.880    86375300.387 8      1368.522          49.750
G06  22624330.640   118891653.570 7      -620.551          43.312    22624329.680   118891653.570 7      -620.551          43.062    22624348.420    92642917.867 7      -483.547          42.812    22624349.260    92642922.859 7      -483.547          47.125
R13  21593068.500   115305759.125 6      6067.438          39.375    21593067.360   115305759.145 6      6067.438          40.375
G22  24660559.100   129592112.304 6      5021.516          41.875    24660557.640   129592112.306 4      5021.516          24.000    24660587.180   100980868.941 4      3912.870          24.312
R12  21199807.720   113245572.904 7      3289.816          47.750    21199808.020   113245572.903 7      3289.816          47.375    21199824.960    88079959.929 8      2558.746          48.500    21199825.480    88079960.933 8      2558.746          49.812
R17  20712584.180   110837221.428 7        17.815          47.437    20712583.260   110837221.432 7        17.815          46.687    20712600.720    86206793.285 8        13.856          51.062    20712600.360    86206792.280 8        13.856          50.687
G05  22068529.340   115970916.941 7      5113.644          43.750    22068527.380   115970916.949 7      5113.644          42.937    22068536.300    90366967.763 7      3984.658          42.687    22068537.280    90366977.763 7      3984.658          45.875
G07  23161944.640   121716831.127 7       241.334          44.437    23161943.380   121716831.129 7       241.334          42.000    23161955.660    94844307.727 7       188.053          42.187    23161956.320    94844342.738 7       188.053          46.062
> 2024 10 07 12 00 50.0000000  0 14
G11  20836961.580   109498967.425 7      1670.251          46.875    20836959.800   109498967.425 6      1670.251          39.625    20836968.740    85323891.914 6      1301.494          39.437    20836969.360    85323913.905 8      1301.494          52.312
G13  21277952.260   111816393.218 7      4031.878          47.562    21277951.560   111816393.228 6      4031.878          37.312    21277960.320    87129683.035 6      3141.723          37.187
G20  20514075.720   107802193.351 7      3948.076          47.062    20514073.640   107802193.361 6      3948.076          40.562    20514081.260    84001727.818 6      3076.422          40.312
R03  21581791.580   115529005.064 7      3833.610          44.625    21581790.000   115529005.087 7      3833.610          44.187    21581807.080    89855964.939 7      2981.696          47.125    21581806.600    89855965.939 7      2981.696          47.062
R02  21060425.840   112382463.463 7      1973.949          47.937    21060425.160   112382463.456 7      1973.949          47.125    21060439.540    87408642.221 8      1535.294          49.187    21060440.140    87408643.227 8      1535.294          49.500
