     3.05           OBSERVATION DATA    MIXED               RINEX VERSION / TYPE
TPS2RIN 1.0.28.3459 TB                  20241016 133620 UTC PGM / RUN BY / DATE
Win64 build Jun 01, 2022 (c) Topcon Positioning Systems     COMMENT
Insert your comment here                                    COMMENT
SRC: 20241007_GUI34.tps                                     COMMENT
OPT: -v 3.05 -S                                             COMMENT
OPT: -p \Users\Thomas\Travaux\Projets\Volcano\Software\GPS\TCOMMENT
TB                  CSIC                                    OBSERVER / AGENCY
O0M3X53SBGM         TPS HIPER_SR        4.8 HSR Jul,08,2022 REC # / TYPE / VERS
FW: 4.8 HSR Jul,08,2022 p3                                  COMMENT
SN: HiPer SR 1212-12575                                     COMMENT
0001                TPSHIPER_SR                             ANT # / TYPE
        1.8000        0.0000        0.0000                  ANTENNA: DELTA H/E/N
GUI                                                         MARKER NAME
000                                                         MARKER NUMBER
GEODETIC                                                    MARKER TYPE
  5389610.0082 -1594915.7265  3009134.6287                  APPROX POSITION XYZ
  2024    10     7    12    24   53.0000000     GPS         TIME OF FIRST OBS
  2024    10     7    12    39   53.0000000     GPS         TIME OF LAST OBS
     1.000                                                  INTERVAL
   901 EPOCHS                                               COMMENT
G   16 C1C L1C D1C S1C C1W L1W D1W S1W C2W L2W D2W S2W C2X  SYS / # / OBS TYPES
       L2X D2X S2X                                          SYS / # / OBS TYPES
R   16 C1C L1C D1C S1C C1P L1P D1P S1P C2P L2P D2P S2P C2C  SYS / # / OBS TYPES
       L2C D2C S2C                                          SYS / # / OBS TYPES
    17                                                      # OF SATELLITES
   G05   901   901   901   901   901   901   901   901   901PRN / # OF OBS
         901   901   901   901   901   901   901            PRN / # OF OBS
   G06   901   901   901   901   901   901   901   901   901PRN / # OF OBS
         901   901   901   901   901   901   901            PRN / # OF OBS
   G07   901   901   901   901   901   901   901   901   901PRN / # OF OBS
         901   901   901   901   901   901   901            PRN / # OF OBS
   G11   901   901   901   901   901   901   901   901   901PRN / # OF OBS
         901   901   901   901   901   901   901            PRN / # OF OBS
   G13   901   901   901   901   901   901   901   901   901PRN / # OF OBS
         901   901   901     0     0     0     0            PRN / # OF OBS
   G14   901   901   901   901   901   901   901   901   901PRN / # OF OBS
         901   901   901   901   901   901   901            PRN / # OF OBS
   G20   901   901   901   901   901   901   901   901   901PRN / # OF OBS
         901   901   901     0     0     0     0            PRN / # OF OBS
   G22   901   901   901   901   901   901   901   901   901PRN / # OF OBS
         901   901   901     0     0     0     0            PRN / # OF OBS
   G30   901   901   901   901   901   901   901   901   901PRN / # OF OBS
         901   901   901   901   901   901   901            PRN / # OF OBS
   R01   238   238   238   238   238   238   238   238   238PRN / # OF OBS
         238   238   238   238   238   238   238            PRN / # OF OBS
   R02   901   901   901   901   901   901   901   901   901PRN / # OF OBS
         901   901   901   901   901   901   901            PRN / # OF OBS
   R03   901   901   901   901   901   901   901   901   901PRN / # OF OBS
         901   901   901   901   901   901   901            PRN / # OF OBS
   R12   901   901   901   901   901   901   901   901   901PRN / # OF OBS
         901   901   901   901   901   901   901            PRN / # OF OBS
   R13   901   901   901   901   901   901   901   901     0PRN / # OF OBS
           0     0     0     0     0     0     0            PRN / # OF OBS
   R14   901   901   901   901   901   901   901   901   901PRN / # OF OBS
         901   901   901   901   901   901   901            PRN / # OF OBS
   R17   901   901   901   901   901   901   901   901   901PRN / # OF OBS
         901   901   901   901   901   901   901            PRN / # OF OBS
   R18   901   901   901   901   901   901   901   901   901PRN / # OF OBS
         901   901   901   901   901   901   901            PRN / # OF OBS
G L1C                                                       SYS / PHASE SHIFT
G L1W -0.25000                                              SYS / PHASE SHIFT
G L2W  0.00000                                              SYS / PHASE SHIFT
G L2X  0.25000                                              SYS / PHASE SHIFT
R L1C                                                       SYS / PHASE SHIFT
R L1P -0.25000                                              SYS / PHASE SHIFT
R L2P -0.25000                                              SYS / PHASE SHIFT
R L2C                                                       SYS / PHASE SHIFT
  8 R01  1 R02 -4 R03  5 R12 -1 R13 -2 R14 -7 R17  4 R18 -3 GLONASS SLOT / FRQ #
                                                            GLONASS COD/PHS/BIS
               *** Undefined LeapSeconds ***                COMMENT
                                                            END OF HEADER
> 2024 10 07 12 24 53.0000000  0 17
G13  20827528.040   109449401.334 7      3601.424          47.125    20827526.780   109449401.339 6      3601.424          37.687    20827534.640    85285271.461 6      2806.305          37.500
G11  21091376.240   110835926.410 7       844.461          45.750    21091375.220   110835926.415 6       844.461          39.125    21091385.800    86365693.294 6       658.022          38.562    21091386.080    86365693.291 8       658.022          51.812
G30  21306998.560   111969030.458 7      1049.838          46.625    21306997.520   111969030.455 7      1049.838          47.875    21307009.260    87248635.725 8       818.056          48.062    21307009.800    87248640.732 8       818.056          48.937
R14  23872658.620   127254706.568 7      6988.657          42.500    23872659.700   127254706.550 6      6988.657          41.875    23872690.620    98976002.352 6      5435.622          41.250    23872691.540    98976005.355 6      5435.622          41.937
G05  21284999.880   111853431.628 7      4900.505          46.062    21284998.560   111853431.630 7      4900.505          45.875    21285007.320    87158544.807 7      3818.575          45.625    21285007.940    87158549.815 7      3818.575          47.937
R03  21146470.720   113198715.483 7      3823.511          46.000    21146470.780   113198715.500 7      3823.511          44.937    21146484.620    88043503.922 8      2973.842          48.125    21146485.180    88043504.926 7      2973.842          47.375
R13  20635320.040   110191466.949 7      5372.947          43.125    20635319.240   110191466.958 7      5372.947          42.062
G07  23739505.780   124751937.957 6       -82.188          41.250    23739504.500   124751937.962 6       -82.188          39.250    23739519.580    97209360.256 6       -64.042          38.562    23739520.020    97209385.251 7       -64.042          46.812
R17  21406864.240   114552429.872 7      -679.380          45.500    21406864.500   114552429.887 7      -679.380          44.875    21406885.620    89096425.623 8      -528.407          48.500    21406885.320    89096424.622 8      -528.407          48.750
G06  23430083.000   123125889.584 7      -860.685          42.437    23430082.140   123125889.581 6      -860.685          40.750    23430107.640    95942340.910 6      -670.664          41.062    23430108.420    95942345.904 7      -670.664          44.875
R18  20883894.080   111479641.436 8      2292.599          48.687    20883896.360   111479641.445 7      2292.599          47.562    20883908.380    86706448.545 8      1783.132          48.062    20883908.400    86706449.548 8      1783.132          48.375
R01  23812261.280   127290164.694 6       849.608          38.937    23812260.460   127290164.714 6       849.608          38.375    23812295.860    99003608.938 5       660.806          35.875    23812295.760    99003604.943 6       660.806          36.500
R12  21064805.340   112524404.468 7      2109.662          47.062    21064804.400   112524404.464 7      2109.662          46.750    21064822.300    87519055.261 8      1640.848          48.750    21064822.420    87519055.266 8      1640.848          48.812
R02  21124128.500   112722395.542 8      1955.662          48.687    21124127.220   112722395.532 7      1955.662          46.875    21124142.940    87673030.238 7      1521.071          47.937    21124143.520    87673035.242 7      1521.071          47.812
G20  20096469.360   105607655.504 7      3409.716          45.875    20096466.040   105607655.509 6      3409.716          40.562    20096474.220    82291697.033 6      2656.922          39.625
G22  23854961.840   125358666.593 7      5153.123          42.625    23854962.460   125358666.603 4      5153.123          29.187    23854992.480    97682093.713 4      4015.420          29.250
G14  23382045.160   122873488.163 7      4765.206          44.375    23382043.500   122873488.173 5      4765.206          31.375    23382070.600    95745661.042 5      3713.148          31.187    23382070.880    95745689.075 7      3713.148          45.875
> 2024 10 07 12 24 54.0000000  0 17
G13  20826842.660   109445800.009 7      3601.146          46.750    20826841.480   109445800.011 6      3601.146          37.562    20826849.480    85282465.231 6      2806.087          37.500
G11  21091215.880   110835082.314 7       843.809          46.937    21091214.540   110835082.324 6       843.809          38.875    21091224.940    86365035.556 6       657.513          38.375    21091225.460    86365035.552 8       657.513          51.375
G30  21306798.920   111967980.783 7      1049.421          47.437    21306797.860   111967980.783 8      1049.421          48.000    21306809.380    87247817.795 8       817.731          48.062    21306810.040    87247822.797 8       817.731          49.125
R14  23871347.680   127247717.889 7      6988.730          42.562    23871347.640   127247717.881 6      6988.730          41.875    23871379.540    98970566.714 6      5435.679          41.250    23871380.380    98970569.717 6      5435.679          41.500
G05  21284067.160   111848531.249 7      4900.223          46.812    21284066.000   111848531.254 7      4900.223          46.375    21284074.920    87154726.334 7      3818.355          46.375    21284075.420    87154731.344 8      3818.355          48.500
R03  21145756.680   113194892.012 7      3823.393          46.562    21145756.500   113194892.035 7      3823.393          45.375    21145770.420    88040530.110 8      2973.750          48.250    21145770.940    88040531.111 8      2973.750          48.125
R13  20634313.560   110186094.298 7      5372.230          42.625    20634312.860   110186094.302 7      5372.230          42.062
G07  23739521.440   124752020.153 6       -82.318          41.000    23739520.100   124752020.156 6       -82.318          39.562    23739535.380    97209424.297 6       -64.144          38.625    23739535.900    97209449.300 7       -64.144          47.000
R17  21406991.020   114553109.430 7      -679.710          46.125    21406991.500   114553109.444 7      -679.710          44.437    21407012.840    89096954.151 8      -528.663          48.250    21407012.560    89096953.150 8      -528.663          48.937
G06  23430246.720   123126750.317 7      -860.838          42.125    23430245.940   123126750.316 6      -860.838          40.937    23430271.340    95943011.582 6      -670.783          40.687    23430272.220    95943016.578 7      -670.783          45.437
R18  20883464.860   111477349.270 7      2291.731          47.687    20883466.920   111477349.287 7      2291.731          47.875    20883479.120    86704665.749 8      1782.458          49.000    20883479.080    86704666.752 8      1782.458          49.062
R01  23812102.440   127289315.106 6       849.570          39.062    23812101.560   127289315.110 6       849.570          38.375    23812137.600    99002948.094 5       660.776          35.875    23812136.860    99002944.103 6       660.776          36.312
R12  21064410.320   112522295.213 7      2108.789          46.937    21064409.740   112522295.208 7      2108.789          46.625    21064427.400    87517414.733 8      1640.169          49.125    21064427.580    87517414.734 8      1640.169          49.625
R02  21123761.900   112720439.854 8      1955.643          48.187    21123760.820   112720439.850 7      1955.643          47.000    21123776.420    87671509.147 8      1521.056          48.437    21123777.000    87671514.152 8      1521.056          48.437
G20  20095820.780   105604246.016 7      3409.191          46.000    20095817.140   105604246.021 6      3409.191          40.125    20095825.460    82289040.287 6      2656.513          39.687
G22  23853981.420   125353513.373 7      5153.216          43.062    23853981.760   125353513.386 4      5153.216          29.187    23854011.860    97678078.214 4      4015.493          29.250
G14  23381138.080   122868722.925 7      4765.081          43.625    23381136.760   122868722.930 5      4765.081          31.375    23381163.780    95741947.888 5      3713.050          31.500    23381164.000    95741975.918 7      3713.050          45.937
> 2024 10 07 12 24 55.0000000  0 17
G13  20826157.340   109442199.067 7      3600.711          46.250    20826156.200   109442199.071 6      3600.711          37.750    20826164.160    85279659.302 6      2805.749          37.500
G11  21091055.400   110834238.857 7       843.051          46.437    21091054.060   110834238.870 6       843.051          39.562    21091064.420    86364378.311 6       656.923          38.625    21091064.920    86364378.307 8       656.923          51.437
G30  21306599.120   111966931.689 7      1048.764          47.062    21306598.280   111966931.686 7      1048.764          47.937    21306609.720    87247000.317 7       817.219          47.750    21306610.560    87247005.321 8       817.219          48.750
R14  23870037.220   127240729.207 7      6988.625          42.375    23870037.120   127240729.207 6      6988.625          41.687    23870068.680    98965131.067 6      5435.597          41.812    23870069.340    98965134.078 6      5435.597          41.500
G05  21283134.800   111843631.183 7      4899.936          46.625    21283133.520   111843631.188 7      4899.936          46.562    21283142.280    87150908.103 7      3818.132          46.312    21283142.860    87150913.107 8      3818.132          48.625
R03  21145042.240   113191068.637 7      3823.221          45.500    21145042.240   113191068.657 7      3823.221          45.187    21145056.200    88037556.368 8      2973.616          48.375    21145056.840    88037557.369 8      2973.616          48.500
R13  20633307.620   110180722.343 7      5371.514          43.125    20633306.880   110180722.347 7      5371.514          42.312
G07  23739536.940   124752102.673 6       -82.793          40.812    23739535.780   124752102.673 6       -82.793          39.500    23739550.980    97209488.586 6       -64.514          38.562    23739551.520    97209513.587 7       -64.514          46.875
R17  21407117.840   114553789.498 7      -680.396          45.687    21407118.500   114553789.521 7      -680.396          44.812    21407140.080    89097483.086 8      -529.197          48.500    21407139.440    89097482.083 8      -529.197          49.000
G06  23430410.660   123127611.249 7      -861.066          42.562    23430409.760   123127611.246 6      -861.066          41.187    23430435.340    95943682.408 6      -670.961          41.375    23430436.200    95943687.404 7      -670.961          45.187
R18  20883035.680   111475058.043 7      2290.707          47.187    20883037.560   111475058.054 7      2290.707          47.812    20883050.120    86702883.681 8      1781.661          49.125    20883049.940    86702884.687 8      1781.661          48.875
R01  23811943.940   127288465.623 6       849.375          39.062    23811943.140   127288465.635 6       849.375          38.375    23811978.860    99002287.361 5       660.625          35.875    23811978.160    99002283.348 6       660.625          36.312
R12  21064015.860   112520186.914 7      2107.844          47.375    21064015.020   112520186.904 7      2107.844          46.750    21064032.820    87515774.941 8      1639.434          49.375    21064033.020    87515774.941 8      1639.434          49.375
R02  21123395.480   112718484.314 8      1955.453          48.187    21123394.380   112718484.304 7      1955.453          46.750    21123410.040    87669988.163 8      1520.908          48.500    21123410.560    87669993.165 8      1520.908          48.437
G20  20095171.780   105600837.059 7      3408.615          45.625    20095168.460   105600837.066 6      3408.615          40.687    20095176.660    82286383.957 6      2656.064          40.250
G22  23853000.660   125348360.275 7      5153.104          43.500    23853001.040   125348360.285 4      5153.104          29.187    23853031.380    97674062.808 4      4015.406          29.125
G14  23380231.160   122863957.967 7      4764.746          43.312    23380229.920   122863957.977 5      4764.746          31.500    23380257.040    95738234.952 5      3712.789          31.500    23380257.280    95738262.983 7      3712.789          46.062
> 2024 10 07 12 24 56.0000000  0 17
G13  20825472.300   109438598.432 8      3600.423          48.000    20825471.080   109438598.437 6      3600.423          37.187    20825478.900    85276853.613 6      2805.525          37.062
G11  21090894.880   110833395.942 7       842.535          47.375    21090893.740   110833395.949 6       842.535          39.187    21090904.020    86363721.485 6       656.521          38.750    21090904.680    86363721.481 8       656.521          51.562
G30  21306399.640   111965883.062 8      1048.254          48.187    21306398.680   111965883.062 8      1048.254          48.687    21306410.220    87246183.203 8       816.821          48.500    21306410.900    87246188.211 8       816.821          49.062
R14  23868726.200   127233740.402 7      6988.750          42.375    23868726.300   127233740.397 6      6988.750          41.937    23868757.400    98959695.325 6      5435.695          41.187    23868758.520    98959698.332 6      5435.695          41.750
G05  21282202.400   111838731.359 7      4899.626          47.687    21282201.140   111838731.367 7      4899.626          46.750    21282209.960    87147090.067 7      3817.890          46.687    21282210.300    87147095.077 8      3817.890          48.687
R03  21144328.340   113187245.270 7      3823.276          47.562    21144327.820   113187245.296 7      3823.276          45.250    21144342.240    88034582.642 8      2973.659          48.187    21144342.540    88034583.642 8      2973.659          48.062
R13  20632301.940   110175351.024 7      5370.925          43.812    20632301.280   110175351.031 7      5370.925          42.875
G07  23739552.820   124752185.345 6       -82.915          40.875    23739551.640   124752185.342 6       -82.915          39.250    23739566.700    97209552.996 6       -64.609          38.812    23739567.200    97209578.003 7       -64.609          46.750
R17  21407244.840   114554469.959 7      -680.759          46.437    21407245.760   114554469.982 7      -680.759          46.687    21407266.920    89098012.315 8      -529.479          48.937    21407266.800    89098011.315 8      -529.479          48.750
G06  23430574.480   123128472.305 7      -861.225          43.562    23430573.580   123128472.305 6      -861.225          41.562    23430599.160    95944353.336 6      -671.084          41.312    23430599.860    95944358.330 7      -671.084          45.375
R18  20882606.720   111472767.686 8      2289.837          50.000    20882608.400   111472767.698 8      2289.837          48.250    20882620.980    86701102.284 8      1780.984          48.437    20882621.220    86701103.290 8      1780.984          49.312
R01  23811784.580   127287616.192 6       849.288          39.062    23811783.860   127287616.207 6       849.288          38.375    23811819.880    99001626.654 5       660.557          35.625    23811819.580    99001622.648 6       660.557          36.312
R12  21063621.520   112518079.477 8      2106.889          48.687    21063620.460   112518079.473 8      2106.889          48.562    21063638.160    87514135.830 8      1638.691          48.812    21063638.620    87514135.833 8      1638.691          49.312
R02  21123029.520   112716528.850 8      1955.281          48.812    21123027.720   112716528.848 8      1955.281          48.625    21123043.660    87668467.245 8      1520.774          48.375    21123043.860    87668472.249 8      1520.774          48.062
G20  20094523.060   105597428.548 7      3408.184          46.375    20094519.980   105597428.556 6      3408.184          40.375    20094528.000    82283727.974 6      2655.728          39.687
G22  23852019.800   125343207.179 7      5153.127          43.812    23852020.500   125343207.190 4      5153.127          29.187    23852050.860    97670047.401 4      4015.424          29.125
G14  23379324.620   122859193.197 7      4764.584          42.250    23379323.220   122859193.204 5      4764.584          31.500    23379350.280    95734522.161 5      3712.663          31.500    23379350.460    95734550.190 7      3712.663          45.750
> 2024 10 07 12 24 57.0000000  0 17
G13  20824787.220   109434998.036 8      3600.344          48.437    20824786.100   109434998.038 6      3600.344          38.187    20824793.820    85274048.114 6      2805.463          37.500
G11  21090734.620   110832553.486 8       842.360          48.062    21090733.520   110832553.494 6       842.360          39.625    21090743.660    86363065.020 6       656.384          39.375    21090744.280    86363065.018 8       656.384          51.937
G30  21306200.120   111964834.809 7      1048.224          47.812    21306199.180   111964834.803 8      1048.224          48.750    21306210.700    87245366.378 8       816.798          48.187    21306211.520    87245371.380 8       816.798          49.125
R14  23867415.240   127226751.362 7      6989.383          42.937    23867414.800   127226751.366 6      6989.383          41.937    23867446.820    98954259.395 6      5436.187          41.187    23867447.380    98954262.411 6      5436.187          41.687
G05  21281270.200   111833831.662 7      4899.834          47.187    21281268.740   111833831.666 7      4899.834          47.375    21281277.560    87143272.118 7      3818.052          46.437    21281277.980    87143277.126 8      3818.052          48.187
R03  21143613.980   113183421.850 7      3823.622          47.875    21143613.420   113183421.868 7      3823.622          46.562    21143627.880    88031608.871 8      2973.928          48.625    21143628.300    88031609.872 8      2973.928          48.562
R13  20631296.340   110169980.226 7      5370.744          43.812    20631295.260   110169980.232 7      5370.744          42.875
G07  23739568.420   124752268.131 6       -82.752          40.937    23739567.280   124752268.133 6       -82.752          39.500    23739582.560    97209617.502 6       -64.482          38.625    23739582.960    97209642.501 7       -64.482          47.000
R17  21407372.520   114555150.710 7      -680.703          47.125    21407373.000   114555150.730 7      -680.703          46.312    21407394.160    89098541.767 8      -529.436          48.125    21407393.820    89098540.762 8      -529.436          48.750
G06  23430738.420   123129333.366 7      -860.861          43.062    23430737.500   123129333.361 6      -860.861          40.500    23430763.040    95945024.266 6      -670.801          40.875    23430764.140    95945029.260 7      -670.801          45.562
R18  20882177.880   111470478.117 8      2289.332          49.562    20882179.540   111470478.128 8      2289.332          48.687    20882192.280    86699321.506 8      1780.592          49.062    20882192.280    86699322.514 8      1780.592          49.437
R01  23811626.060   127286766.695 6       849.720          39.937    23811624.160   127286766.699 6       849.720          38.812    23811661.300    99000965.892 5       660.894          35.625    23811660.300    99000961.881 6       660.894          36.312
R12  21063227.060   112515972.770 8      2106.435          48.437    21063225.980   112515972.771 8      2106.435          48.750    21063243.920    87512497.286 8      1638.339          49.187    21063244.240    87512497.291 8      1638.339          49.625
R02  21122662.640   112714573.368 8      1955.647          49.000    21122661.520   112714573.361 7      1955.647          47.687    21122677.080    87666946.310 8      1521.059          48.562    21122677.580    87666951.314 8      1521.059          48.625
G20  20093874.340   105594020.403 7      3408.160          45.437    20093871.360   105594020.410 6      3408.160          40.750    20093879.440    82281072.277 6      2655.709          40.312
G22  23851039.120   125338054.018 7      5153.356          42.875    23851039.880   125338054.028 4      5153.356          28.812    23851070.400    97666031.951 4      4015.602          29.125
G14  23378418.180   122854428.538 7      4764.778          43.625    23378416.640   122854428.548 5      4764.778          31.500    23378443.400    95730809.450 5      3712.814          31.500    23378443.760    95730837.481 7      3712.814          45.562
> 2024 10 07 12 24 58.0000000  0 17
G13  20824102.400   109431397.922 7      3599.971          47.250    20824100.980   109431397.927 6      3599.971          37.375    20824108.720    85271242.830 6      2805.172          37.125
G11  21090574.300   110831711.582 7       841.699          47.812    21090573.220   110831711.592 6       841.699          39.125    21090583.440    86362408.987 6       655.870          39.187    21090583.940    86362408.983 8       655.870          51.750
G30  21306000.780   111963787.026 8      1047.584          48.000    21305999.640   111963787.025 8      1047.584          48.000    21306011.360    87244549.920 7       816.299          47.812    21306011.900    87244554.926 8       816.299          48.500
R14  23866104.460   127219762.230 7      6989.259          43.000    23866103.480   127219762.228 7      6989.259          42.250    23866135.860    98948823.395 6      5436.091          41.750    23866136.540    98948826.406 6      5436.091          41.875
G05  21280337.620   111828932.224 7      4899.322          46.250    21280336.340   111828932.231 7      4899.322          46.437    21280345.300    87139454.379 7      3817.653          46.125    21280345.720    87139459.387 8      3817.653          49.250
R03  21142899.960   113179598.430 7      3823.434          46.687    21142898.900   113179598.459 7      3823.434          46.937    21142913.920    88028635.106 8      2973.782          48.687    21142914.220    88028636.110 8      2973.782          48.250
R13  20630290.720   110164610.074 7      5369.806          43.812    20630289.720   110164610.083 7      5369.806          43.562
G07  23739583.820   124752351.123 6       -83.141          40.312    23739582.920   124752351.126 6       -83.141          39.937    23739598.300    97209682.163 6       -64.785          39.187    23739598.520    97209707.166 7       -64.785          46.812
R17  21407499.760   114555831.827 7      -681.315          46.500    21407500.220   114555831.839 7      -681.315          45.562    21407521.400    89099071.504 8      -529.912          48.187    21407521.020    89099070.501 8      -529.912          48.625
G06  23430902.460   123130194.593 7      -861.351          42.437    23430901.280   123130194.590 6      -861.351          41.000    23430927.060    95945695.325 6      -671.182          40.750    23430928.000    95945700.317 7      -671.182          45.562
R18  20881748.900   111468189.401 7      2288.272          47.562    20881750.440   111468189.408 7      2288.272          47.937    20881763.700    86697541.392 8      1779.767          49.000    20881763.700    86697542.398 8      1779.767          49.375
R01  23811466.960   127285917.244 6       849.343          39.937    23811465.660   127285917.250 6       849.343          38.812    23811503.260    99000305.153 5       660.600          35.625    23811501.820    99000301.140 6       660.600          36.125
R12  21062832.740   112513866.936 7      2105.404          47.500    21062831.820   112513866.932 7      2105.404          47.187    21062849.760    87510859.413 8      1637.537          49.000    21062849.800    87510859.418 8      1637.537          49.437
R02  21122296.240   112712617.979 8      1955.333          48.312    21122294.940   112712617.985 7      1955.333          47.625    21122310.740    87665425.452 8      1520.815          48.812    21122311.140    87665430.459 8      1520.815          48.062
G20  20093225.940   105590612.720 7      3407.500          45.375    20093222.920   105590612.727 6      3407.500          41.125    20093231.060    82278416.939 6      2655.195          40.625
G22  23850058.500   125332900.851 7      5153.128          42.937    23850059.340   125332900.862 4      5153.128          28.812    23850089.760    97662016.498 4      4015.425          29.125
G14  23377511.580   122849664.068 7      4764.390          44.125    23377509.940   122849664.078 5      4764.390          31.250    23377536.720    95727096.890 5      3712.512          31.500    23377537.500    95727124.915 7      3712.512          45.625
> 2024 10 07 12 24 59.0000000  0 17
G13  20823417.300   109427798.159 7      3599.463          47.375    20823415.960   109427798.164 6      3599.463          37.687    20823423.600    85268437.820 6      2804.776          37.500
G11  21090414.120   110830870.288 7       840.874          47.500    21090413.200   110830870.293 6       840.874          39.312    21090423.420    86361753.420 6       655.227          38.562    21090423.720    86361753.410 8       655.227          51.187
G30  21305801.440   111962739.750 7      1046.907          47.937    21305800.440   111962739.752 7      1046.907          47.812    21305812.000    87243733.862 7       815.771          47.437    21305812.240    87243738.869 8       815.771          48.937
R14  23864793.440   127212772.982 7      6989.167          43.000    23864792.380   127212772.980 7      6989.167          42.250    23864824.280    98943387.314 7      5436.019          42.000    23864825.280    98943390.323 6      5436.019          41.875
G05  21279405.380   111824033.017 7      4899.013          46.437    21279404.100   111824033.022 7      4899.013          46.187    21279412.880    87135636.815 7      3817.412          46.187    21279413.240    87135641.821 8      3817.412          48.062
R03  21142185.500   113175775.077 7      3823.272          45.812    21142184.700   113175775.097 7      3823.272          45.625    21142199.780    88025661.381 8      2973.656          48.687    21142200.200    88025662.382 8      2973.656          48.625
R13  20629285.340   110159240.551 7      5368.966          43.562    20629283.820   110159240.571 7      5368.966          42.250
G07  23739600.060   124752434.305 6       -83.302          40.812    23739598.860   124752434.308 6       -83.302          39.437    23739614.140    97209746.968 6       -64.910          38.562    23739614.700    97209771.971 7       -64.910          46.750
R17  21407627.200   114556513.369 7      -681.871          46.000    21407627.600   114556513.379 7      -681.871          44.875    21407649.140    89099601.572 8      -530.344          48.875    21407648.580    89099600.569 8      -530.344          48.562
G06  23431066.380   123131055.917 7      -861.508          43.000    23431065.240   123131055.917 6      -861.508          40.937    23431091.120    95946366.462 6      -671.305          40.875    23431092.060    95946371.460 7      -671.305          45.562
R18  20881320.340   111465901.506 7      2287.406          46.687    20881321.840   111465901.514 7      2287.406          47.750    20881335.140    86695761.913 8      1779.094          49.625    20881335.100    86695762.921 8      1779.094          49.437
R01  23811308.660   127285067.859 6       849.205          39.937    23811306.480   127285067.849 6       849.205          38.812    23811343.520    98999644.479 5       660.493          35.625    23811342.780    98999640.470 6       660.493          36.125
R12  21062438.660   112511761.976 7      2104.458          46.937    21062437.800   112511761.972 7      2104.458          46.625    21062455.520    87509222.220 8      1636.801          49.000    21062455.800    87509222.225 8      1636.801          49.562
R02  21121929.700   112710662.636 8      1955.210          48.312    21121928.680   112710662.639 7      1955.210          47.000    21121944.320    87663904.630 8      1520.719          48.500    21121944.940    87663909.634 8      1520.719          48.500
G20  20092577.520   105587205.513 7      3406.888          46.000    20092574.600   105587205.517 6      3406.888          40.812    20092582.700    82275761.971 6      2654.718          40.375
G22  23849078.140   125327747.748 7      5152.888          42.812    23849078.640   125327747.761 4      5152.888          28.812    23849109.300    97658001.087 4      4015.237          29.125
G14  23376604.880   122844899.832 7      4763.949          43.562    23376603.300   122844899.842 5      4763.949          31.250    23376630.060    95723384.514 5      3712.168          31.500    23376630.720    95723412.544 7      3712.168          45.750
> 2024 10 07 12 25  0.0000000  0 17
G13  20822732.340   109424198.752 7      3599.131          46.937    20822731.060   109424198.759 6      3599.131          37.687    20822738.660    85265633.085 6      2804.518          37.687
G11  21090254.240   110830029.571 7       840.206          47.250    21090253.140   110830029.579 6       840.206          39.000    21090263.360    86361098.315 6       654.706          38.875    21090263.900    86361098.311 8       654.706          51.375
G30  21305602.220   111961692.996 7      1046.349          47.250    21305601.180   111961693.001 7      1046.349          47.812    21305612.800    87242918.213 7       815.337          47.625    21305613.100    87242923.217 8       815.337          48.562
R14  23863482.000   127205783.655 7      6989.291          42.562    23863481.020   127205783.664 6      6989.291          41.937    23863513.420    98937951.166 7      5436.115          42.000    23863513.660    98937954.173 7      5436.115          42.187
G05  21278473.320   111819134.121 7      4898.575          45.875    21278472.020   111819134.126 7      4898.575          46.687    21278480.720    87131819.499 7      3817.071          46.500    21278481.300    87131824.503 8      3817.071          48.562
R03  21141471.440   113171951.804 7      3823.122          46.812    21141470.740   113171951.833 7      3823.122          44.937    21141485.780    88022687.741 8      2973.539          48.687    21141485.680    88022688.742 8      2973.539          48.250
R13  20628279.600   110153871.705 7      5368.350          42.750    20628278.280   110153871.727 7      5368.350          42.250
G07  23739616.300   124752517.755 6       -83.524          40.625    23739614.660   124752517.755 6       -83.524          39.125    23739630.020    97209811.986 6       -65.084          38.562    23739630.500    97209836.989 7       -65.084          46.687
R17  21407754.740   114557195.377 7      -682.340          45.000    21407755.440   114557195.387 7      -682.340          45.062    21407776.420    89100132.008 8      -530.709          48.187    21407776.260    89100131.007 8      -530.709          48.500
G06  23431230.020   123131917.446 7      -861.760          42.500    23431229.180   123131917.446 6      -861.760          40.250    23431255.000    95947037.757 6      -671.501          39.625    23431256.100    95947042.746 7      -671.501          45.687
R18  20880892.120   111463614.520 7      2286.409          46.250    20880893.440   111463614.523 7      2286.409          47.750    20880906.800    86693983.143 8      1778.318          49.312    20880906.840    86693984.148 8      1778.318          49.500
R01  23811149.580   127284218.576 6       849.001          39.187    23811147.320   127284218.547 6       849.001          38.687    23811185.160    98998983.884 5       660.334          35.625    23811184.040    98998979.879 6       660.334          36.125
R12  21062044.920   112509657.926 7      2103.460          47.000    21062043.940   112509657.925 7      2103.460          46.000    21062061.660    87507585.741 8      1636.025          49.062    21062062.020    87507585.746 8      1636.025          49.437
R02  21121563.460   112708707.365 8      1955.065          48.875    21121562.200   112708707.371 7      1955.065          46.875    21121577.760    87662383.857 8      1520.606          48.562    21121578.360    87662388.859 8      1520.606          48.125
G20  20091929.200   105583798.818 7      3406.306          45.250    20091926.260   105583798.822 6      3406.306          41.062    20091934.460    82273107.401 6      2654.265          40.875
G22  23848097.700   125322594.697 7      5152.880          42.625    23848098.160   125322594.707 4      5152.880          28.812    23848128.560    97653985.718 4      4015.231          28.562
G14  23375698.160   122840135.819 7      4763.777          43.812    23375696.820   122840135.826 5      4763.777          31.250    23375723.520    95719672.309 5      3712.034          31.187    23375724.300    95719700.340 7      3712.034          46.000
> 2024 10 07 12 25  1.0000000  0 17
G13  20822047.260   109420599.770 7      3598.653          47.437    20822046.260   109420599.777 6      3598.653          37.375    20822053.800    85262828.682 6      2804.146          37.312
G11  21090094.340   110829189.528 7       839.533          47.125    21090093.360   110829189.535 6       839.533          38.875    21090103.580    86360443.729 6       654.182          38.625    21090104.060    86360443.725 8       654.182          50.000
G30  21305403.340   111960646.832 7      1045.713          47.062    21305402.220   111960646.837 7      1045.713          47.625    21305413.660    87242103.017 7       814.842          47.375    21305414.260    87242108.017 8       814.842          48.687
R14  23862170.560   127198794.344 7      6989.184          42.562    23862169.920   127198794.347 7      6989.184          42.187    23862202.220    98932515.019 6      5436.032          41.875    23862202.580    98932518.022 6      5436.032          41.750
G05  21277541.040   111814235.556 7      4898.206          46.312    21277539.880   111814235.568 7      4898.206          46.750    21277548.500    87128002.437 7      3816.784          46.687    21277549.040    87128007.442 8      3816.784          48.562
R03  21140757.040   113168128.692 7      3822.860          46.750    21140756.720   113168128.718 7      3822.860          44.812    21140771.700    88019714.211 7      2973.335          47.937    21140771.700    88019715.206 8      2973.335          48.375
R13  20627274.500   110148503.627 7      5367.526          42.187    20627273.720   110148503.652 7      5367.526          42.312
G07  23739632.460   124752601.539 6       -84.002          39.562    23739630.620   124752601.546 6       -84.002          38.375    23739645.940    97209877.268 6       -65.456          37.562    23739646.100    97209902.271 7       -65.456          46.625
R17  21407882.460   114557877.926 7      -683.009          45.375    21407882.420   114557877.935 7      -683.009          44.750    21407904.000    89100662.860 7      -531.229          47.875    21407903.540    89100661.862 8      -531.229          48.312
G06  23431393.900   123132779.214 7      -862.132          42.125    23431393.000   123132779.214 6      -862.132          40.125    23431418.780    95947709.236 6      -671.791          40.437    23431420.060    95947714.223 7      -671.791          45.250
R18  20880463.920   111461328.506 7      2285.349          46.625    20880465.100   111461328.512 7      2285.349          47.437    20880478.740    86692205.125 8      1777.494          49.062    20880478.520    86692206.131 8      1777.494          49.312
R01  23810991.100   127283369.394 6       849.031          39.187    23810988.860   127283369.390 6       849.031          38.687    23811026.720    98998323.387 5       660.357          35.500    23811025.460    98998319.383 6       660.357          36.125
R12  21061651.100   112507554.838 7      2102.475          46.375    21061650.320   112507554.834 7      2102.475          46.562    21061668.080    87505950.010 8      1635.258          49.125    21061668.320    87505950.017 8      1635.258          49.000
R02  21121196.580   112706752.229 8      1954.914          48.437    21121195.960   112706752.225 7      1954.914          46.937    21121211.260    87660863.188 8      1520.489          48.062    21121211.880    87660868.192 8      1520.489          48.000
G20  20091281.120   105580392.690 7      3405.627          46.062    20091278.100   105580392.698 6      3405.627          41.312    20091286.360    82270453.276 6      2653.736          40.562
G22  23847116.680   125317441.772 7      5152.827          42.687    23847117.600   125317441.780 4      5152.827          28.375    23847147.880    97649970.448 4      4015.190          28.562
G14  23374791.400   122835372.121 7      4763.393          43.062    23374790.380   122835372.129 5      4763.393          31.187    23374816.880    95715960.357 5      3711.735          31.187    23374817.720    95715988.395 7      3711.735          45.750
> 2024 10 07 12 25  2.0000000  0 17
G13  20821362.560   109417001.158 7      3598.607          47.250    20821361.380   109417001.163 6      3598.607          37.750    20821369.200    85260024.569 6      2804.109          37.875
G11  21089934.680   110828350.088 7       839.340          46.875    21089933.700   110828350.093 6       839.340          39.250    21089943.900    86359789.614 6       654.031          39.062    21089944.220    86359789.608 8       654.031          51.125
G30  21305204.300   111959601.224 7      1045.399          46.625    21305203.220   111959601.229 7      1045.399          47.687    21305214.760    87241288.256 7       814.597          47.875    21305215.280    87241293.254 8       814.597          48.562
R14  23860859.640   127191804.931 7      6989.745          43.000    23860858.600   127191804.935 7      6989.745          42.187    23860890.800    98927078.815 6      5436.468          41.875    23860891.560    98927081.822 6      5436.468          41.812
G05  21276608.720   111809337.311 7      4898.152          46.375    21276607.800   111809337.310 7      4898.152          46.250    21276616.340    87124185.617 7      3816.742          46.625    21276617.200    87124190.623 8      3816.742          48.500
R03  21140042.720   113164305.684 7      3823.018          46.500    21140042.400   113164305.715 7      3823.018          44.875    21140057.780    88016740.752 8      2973.458          49.125    21140057.340    88016741.753 8      2973.458          48.875
R13  20626269.260   110143136.238 6      5367.170          40.250    20626268.280   110143136.250 7      5367.170          42.312
G07  23739648.520   124752685.593 6       -84.113          40.437    23739646.680   124752685.598 6       -84.113          39.125    23739661.960    97209942.754 6       -65.543          38.562    23739662.020    97209967.751 7       -65.543          47.125
R17  21408010.280   114558560.865 7      -682.950          45.625    21408010.200   114558560.869 7      -682.950          43.937    21408031.600    89101194.016 8      -531.183          48.875    21408031.360    89101193.018 8      -531.183          48.500
G06  23431558.340   123133641.124 7      -861.779          42.437    23431557.080   123133641.126 6      -861.779          40.437    23431582.980    95948380.821 6      -671.516          40.250    23431584.340    95948385.811 7      -671.516          45.437
R18  20880035.800   111459043.423 7      2284.812          46.437    20880037.040   111459043.429 7      2284.812          47.437    20880050.560    86690427.839 8      1777.076          49.062    20880050.200    86690428.846 8      1777.076          49.812
R01  23810831.800   127282520.410 6       848.970          39.187    23810830.300   127282520.408 6       848.970          38.687    23810867.460    98997663.010 5       660.310          35.500    23810866.320    98997659.021 6       660.310          36.375
R12  21061257.380   112505452.717 7      2101.799          47.250    21061256.560   112505452.705 7      2101.799          46.937    21061274.600    87504315.014 8      1634.732          49.375    21061274.580    87504315.021 8      1634.732          49.187
R02  21120830.300   112704797.252 8      1954.930          48.312    21120829.440   112704797.242 7      1954.930          47.375    21120845.020    87659342.643 8      1520.501          48.500    21120845.540    87659347.645 8      1520.501          48.187
G20  20090633.260   105576987.067 7      3405.463          46.187    20090630.060   105576987.075 6      3405.463          40.937    20090638.300    82267799.542 6      2653.607          40.500
G22  23846136.000   125312288.942 7      5152.901          42.625    23846136.980   125312288.944 4      5152.901          28.375    23846167.360    97645955.253 4      4015.248          28.562
G14  23373884.840   122830608.702 7      4763.441          43.500    23373883.860   122830608.712 5      4763.441          31.187    23373910.640    95712248.621 5      3711.772          31.187    23373911.020    95712276.644 7      3711.772          46.062
> 2024 10 07 12 25  3.0000000  0 17
G13  20820678.000   109413403.036 7      3598.013          47.312    20820676.660   109413403.043 6      3598.013          36.937    20820684.480    85257220.839 6      2803.646          37.250
G11  21089775.040   110827511.448 7       838.409          47.562    21089774.120   110827511.453 6       838.409          39.250    21089784.380    86359136.116 6       653.306          39.062    21089784.520    86359136.114 8       653.306          51.125
G30  21305005.360   111958556.218 8      1044.751          48.125    21305004.440   111958556.218 7      1044.751          47.937    21305015.880    87240473.962 7       814.092          47.812    21305016.600    87240478.964 8       814.092          48.687
R14  23859548.940   127184815.708 7      6989.353          42.500    23859547.280   127184815.701 6      6989.353          41.500    23859579.960    98921642.742 6      5436.164          41.687    23859580.520    98921645.747 6      5436.164          41.812
G05  21275676.660   111804439.421 7      4897.766          46.500    21275675.900   111804439.425 7      4897.766          46.562    21275684.280    87120369.088 7      3816.441          46.687    21275684.720    87120374.094 8      3816.441          49.000
R03  21139328.600   113160482.796 7      3822.921          45.562    21139328.360   113160482.825 7      3822.921          44.937    21139343.580    88013767.393 8      2973.383          48.500    21139343.020    88013768.390 8      2973.383          48.687
R13  20625264.020   110137769.680 6      5366.240          40.250    20625262.720   110137769.697 6      5366.240          41.625
G07  23739664.340   124752769.971 6       -84.635          40.062    23739662.740   124752769.970 6       -84.635          39.125    23739678.000    97210008.487 6       -65.949          38.625    23739678.060    97210033.482 7       -65.949          46.687
R17  21408138.060   114559244.417 7      -683.630          44.812    21408138.100   114559244.429 7      -683.630          43.937    21408159.520    89101725.657 8      -531.712          48.062    21408159.100    89101724.657 8      -531.712          49.187
G06  23431722.340   123134503.441 6      -862.332          41.312    23431721.040   123134503.433 6      -862.332          40.937    23431747.180    95949052.726 6      -671.947          40.750    23431748.140    95949057.717 7      -671.947          45.687
R18  20879607.560   111456759.413 7      2283.568          45.687    20879609.120   111456759.425 7      2283.568          47.437    20879622.640    86688651.391 8      1776.108          49.625    20879622.520    86688652.399 8      1776.108          50.250
R01  23810672.660   127281671.546 6       848.913          39.375    23810671.840   127281671.542 6       848.913          38.687    23810708.640    98997002.753 5       660.266          35.500    23810707.580    98996998.752 6       660.266          36.375
R12  21060864.360   112503351.589 7      2100.641          47.000    21060863.060   112503351.580 7      2100.641          46.625    21060881.220    87502680.818 8      1633.832          49.062    21060881.460    87502680.825 8      1633.832          49.375
R02  21120464.020   112702842.466 8      1954.646          48.062    21120462.960   112702842.459 7      1954.646          46.937    21120478.820    87657822.250 8      1520.281          48.250    21120478.960    87657827.254 8      1520.281          48.187
G20  20089985.380   105573582.064 7      3404.709          46.625    20089982.240   105573582.074 6      3404.709          40.812    20089990.260    82265146.293 6      2653.020          40.562
G22  23845155.380   125307136.335 7      5152.572          42.500    23845156.460   125307136.337 4      5152.572          28.375    23845186.800    97641940.237 4      4014.991          28.562
G14  23372978.620   122825845.667 7      4763.015          42.625    23372977.400   122825845.682 5      4763.015          31.187    23373004.260    95708537.179 5      3711.440          30.875    23373004.360    95708565.212 7      3711.440          45.937
> 2024 10 07 12 25  4.0000000  0 17
G13  20819993.260   109409804.918 7      3598.031          47.562    20819992.000   109409804.926 6      3598.031          37.562    20819999.920    85254417.113 6      2803.661          37.187
G11  21089615.600   110826673.023 7       838.060          47.500    21089614.540   110826673.028 6       838.060          39.250    21089624.740    86358482.793 6       653.034          38.812    21089625.060    86358482.787 8       653.034          51.125
G30  21304806.580   111957511.428 7      1044.544          47.562    21304805.480   111957511.430 7      1044.544          47.875    21304816.900    87239659.840 7       813.931          47.937    21304817.820    87239664.842 8       813.931          49.062
R14  23858237.440   127177825.931 7      6989.681          42.500    23858235.560   127177825.936 6      6989.681          41.500    23858268.420    98916206.255 6      5436.418          41.687    23858269.240    98916209.262 6      5436.418          41.625
G05  21274744.600   111799541.496 7      4897.828          46.437    21274743.840   111799541.493 7      4897.828          47.000    21274752.360    87116552.517 7      3816.489          46.750    21274752.860    87116557.525 8      3816.489          49.375
R03  21138614.200   113156659.649 7      3823.189          45.500    21138613.680   113156659.672 7      3823.189          45.375    21138629.400    88010793.840 8      2973.592          49.000    21138629.200    88010794.838 8      2973.592          49.000
R13  20624258.760   110132403.498 6      5365.704          41.750    20624257.860   110132403.501 7      5365.704          42.187
G07  23739680.440   124752854.259 6       -84.446          39.500    23739678.860   124752854.253 6       -84.446          39.187    23739694.020    97210074.164 6       -65.802          38.625    23739694.240    97210099.163 7       -65.802          46.875
R17  21408265.860   114559927.995 7      -683.945          43.937    21408265.540   114559928.016 7      -683.945          44.437    21408287.360    89102257.321 8      -531.957          48.937    21408286.540    89102256.323 8      -531.957          49.062
G06  23431886.340   123135365.537 6      -862.343          41.750    23431884.960   123135365.534 6      -862.343          40.375    23431911.240    95949724.467 6      -671.956          40.562    23431911.980    95949729.456 7      -671.956          45.875
R18  20879179.580   111454475.902 7      2283.057          46.625    20879181.220   111454475.911 8      2283.057          48.437    20879195.080    86686875.319 8      1775.711          49.625    20879194.800    86686876.328 8      1775.711          49.687
R01  23810513.600   127280822.520 6       848.950          39.375    23810513.400   127280822.502 6       848.950          38.187    23810549.320    98996342.372 5       660.295          35.500    23810548.860    98996338.365 6       660.295          36.375
R12  21060471.200   112501251.047 7      2100.023          46.312    21060469.940   112501251.042 7      2100.023          47.625    21060488.020    87501047.063 8      1633.351          48.687    21060488.260    87501047.068 8      1633.351          49.187
R02  21120097.500   112700887.531 8      1954.892          48.000    21120096.720   112700887.523 7      1954.892          46.750    21120112.600    87656301.741 8      1520.472          48.562    21120112.800    87656306.745 8      1520.472          48.562
G20  20089337.380   105570177.240 7      3404.543          46.437    20089334.200   105570177.245 6      3404.543          41.312    20089342.420    82262493.181 6      2652.891          41.000
G22  23844175.080   125301983.452 7      5152.688          43.375    23844175.900   125301983.459 4      5152.688          28.375    23844206.360    97637925.002 4      4015.082          28.562
G14  23372072.380   122821082.558 7      4762.887          42.562    23372071.000   122821082.571 5      4762.887          31.000    23372097.940    95704825.684 5      3711.341          30.875    23372098.120    95704853.713 7      3711.341          45.875
> 2024 10 07 12 25  5.0000000  0 17
G13  20819308.560   109406207.318 7      3597.514          47.750    20819307.540   109406207.323 6      3597.514          37.812    20819315.340    85251613.786 6      2803.257          37.625
G11  21089456.320   110825835.317 7       837.476          46.750    21089455.100   110825835.325 6       837.476          39.437    21089465.400    86357830.034 6       652.578          38.500    21089465.760    86357830.034 8       652.578          50.812
G30  21304608.040   111956467.287 7      1043.958          47.125    21304606.760   111956467.286 7      1043.958          47.500    21304618.340    87238846.223 7       813.474          47.562    21304619.160    87238851.223 8       813.474          48.437
R14  23856926.280   127170836.214 7      6989.791          42.312    23856924.200   127170836.217 6      6989.791          41.437    23856957.120    98910769.807 6      5436.504          41.375    23856958.140    98910772.814 6      5436.504          41.812
G05  21273812.700   111794644.016 7      4897.387          46.500    21273811.860   111794644.018 7      4897.387          46.625    21273820.400    87112736.307 7      3816.145          46.375    21273820.740    87112741.317 8      3816.145          48.250
R03  21137899.760   113152836.732 7      3822.951          46.250    21137899.340   113152836.750 7      3822.951          45.187    21137915.300    88007820.460 8      2973.407          48.875    21137915.160    88007821.462 8      2973.407          48.687
R13  20623253.940   110127038.066 7      5365.122          42.187    20623253.240   110127038.078 7      5365.122          42.187
G07  23739696.280   124752938.928 6       -84.604          39.062    23739695.020   124752938.920 6       -84.604          39.125    23739710.120    97210140.133 6       -65.925          38.312    23739710.620    97210165.139 7       -65.925          46.750
R17  21408393.360   114560612.165 7      -684.372          45.062    21408393.620   114560612.177 7      -684.372          44.000    21408415.260    89102789.433 7      -532.290          47.875    21408414.640    89102788.432 8      -532.290          48.375
G06  23432049.920   123136227.873 6      -862.278          41.500    23432049.160   123136227.873 6      -862.278          40.375    23432075.260    95950396.392 6      -671.905          39.937    23432075.860    95950401.384 7      -671.905          45.250
R18  20878752.020   111452193.438 7      2282.093          46.187    20878753.720   111452193.449 7      2282.093          47.312    20878767.500    86685100.069 8      1774.961          49.312    20878767.040    86685101.078 8      1774.961          49.812
R01  23810354.840   127279973.643 6       848.890          39.375    23810354.560   127279973.644 6       848.890          38.187    23810391.260    98995682.116 5       660.248          35.500    23810390.060    98995678.110 6       660.248          36.375
R12  21060077.940   112499151.511 7      2099.121          46.812    21060076.940   112499151.509 7      2099.121          46.125    21060094.720    87499414.097 8      1632.650          48.250    21060095.020    87499414.100 8      1632.650          48.812
R02  21119731.560   112698932.862 7      1954.642          47.937    21119730.380   112698932.860 7      1954.642          46.937    21119746.200    87654781.445 8      1520.277          48.062    21119746.360    87654786.448 8      1520.277          48.250
G20  20088689.620   105566773.044 7      3404.044          46.750    20088686.480   105566773.046 6      3404.044          40.750    20088694.660    82259840.554 6      2652.502          40.187
G22  23843194.600   125296830.708 7      5152.801          42.750    23843195.640   125296830.713 4      5152.801          28.375    23843225.860    97633909.873 4      4015.170          28.562
G14  23371166.040   122816319.762 7      4762.777          43.062    23371164.700   122816319.774 5      4762.777          31.000    23371191.580    95701114.430 5      3711.255          30.875    23371191.780    95701142.462 7      3711.255          45.375
> 2024 10 07 12 25  6.0000000  0 17
G13  20818624.080   109402609.918 7      3597.187          46.937    20818623.060   109402609.920 6      3597.187          37.312    20818630.700    85248810.617 6      2803.003          37.250
G11  21089297.040   110824998.054 7       836.982          46.750    21089295.760   110824998.064 6       836.982          38.812    21089306.080    86357177.615 6       652.194          38.625    21089306.440    86357177.611 8       652.194          50.937
G30  21304409.460   111955423.497 7      1043.534          47.625    21304408.120   111955423.505 7      1043.534          47.000    21304419.760    87238032.876 7       813.143          46.937    21304420.700    87238037.876 8       813.143          48.125
