     3.05           OBSERVATION DATA    MIXED               RINEX VERSION / TYPE
TPS2RIN 1.0.28.3459 TPS-USER            20260427 143651 UTC PGM / RUN BY / DATE
Win64 build Jun 01, 2022 (c) Topcon Positioning Systems     COMMENT
SRC: 20240708_LM008G3.tps                                   COMMENT
Observer            Agency                                  OBSERVER / AGENCY
O0M3X53SBGM         TPS HIPER_SR        4.8 HSR Jul,08,2022 REC # / TYPE / VERS
FW: 4.8 HSR Jul,08,2022 p3                                  COMMENT
SN: HiPer SR 1212-12575                                     COMMENT
000                 TPSHIPER_SR     NONE                    ANT # / TYPE
        1.77100        0.0000        0.0000                  ANTENNA: DELTA H/E/N
LM008G3                                                     MARKER NAME
  5389690.5332 -1601101.4179  3006200.3071                  APPROX POSITION XYZ
  2024     7     8    10    29   49.0000000     GPS         TIME OF FIRST OBS
  2024     7     8    10    55   51.0000000     GPS         TIME OF LAST OBS
     1.000                                                  INTERVAL
  1562 EPOCHS                                               COMMENT
G   12 C1C L1C D1C C1W L1W D1W C2W L2W D2W C2X L2X D2X      SYS / # / OBS TYPES
R   12 C1C L1C D1C C1P L1P D1P C2P L2P D2P C2C L2C D2C      SYS / # / OBS TYPES
    16                                                      # OF SATELLITES
   G02  1562  1562  1562  1562  1562  1562  1562  1562  1562PRN / # OF OBS
           0     0     0                                    PRN / # OF OBS
   G03  1562  1562  1562  1562  1562  1562  1562  1562  1562PRN / # OF OBS
        1562  1562  1562                                    PRN / # OF OBS
   G04    60    60    60    60    60    60    60    60    60PRN / # OF OBS
          60    60    60                                    PRN / # OF OBS
   G08  1562  1562  1562  1562  1562  1562  1562  1562  1562PRN / # OF OBS
        1562  1562  1562                                    PRN / # OF OBS
   G14  1562  1562  1562  1562  1562  1562  1562  1562  1562PRN / # OF OBS
        1562  1562  1562                                    PRN / # OF OBS
   G16   822   822   822   822   822   822   821   821   821PRN / # OF OBS
           0     0     0                                    PRN / # OF OBS
   G21  1562  1562  1562  1562  1562  1562  1562  1562  1562PRN / # OF OBS
           0     0     0                                    PRN / # OF OBS
   G27  1562  1562  1562  1562  1562  1562  1562  1562  1562PRN / # OF OBS
        1562  1562  1562                                    PRN / # OF OBS
   G32  1562  1562  1562  1562  1562  1562  1562  1562  1562PRN / # OF OBS
        1562  1562  1562                                    PRN / # OF OBS
   R03  1562  1562  1562  1562  1562  1562  1562  1562  1562PRN / # OF OBS
        1562  1562  1562                                    PRN / # OF OBS
   R04  1562  1562  1562  1562  1562  1562  1562  1562  1562PRN / # OF OBS
        1562  1562  1562                                    PRN / # OF OBS
   R05  1378  1378  1378  1374  1374  1374  1374  1374  1374PRN / # OF OBS
        1373  1373  1373                                    PRN / # OF OBS
   R09  1562  1562  1562  1562  1562  1562  1562  1562  1562PRN / # OF OBS
        1562  1562  1562                                    PRN / # OF OBS
   R10   330   330   330   326   326   326     0     0     0PRN / # OF OBS
           0     0     0                                    PRN / # OF OBS
   R16  1562  1562  1562  1562  1562  1562  1562  1562  1562PRN / # OF OBS
        1562  1562  1562                                    PRN / # OF OBS
   R18  1562  1562  1562  1562  1562  1562  1562  1562  1562PRN / # OF OBS
        1562  1562  1562                                    PRN / # OF OBS
G L1C                                                       SYS / PHASE SHIFT
G L1W -0.25000                                              SYS / PHASE SHIFT
G L2W  0.00000                                              SYS / PHASE SHIFT
G L2X  0.25000                                              SYS / PHASE SHIFT
R L1C                                                       SYS / PHASE SHIFT
R L1P -0.25000                                              SYS / PHASE SHIFT
R L2P -0.25000                                              SYS / PHASE SHIFT
R L2C                                                       SYS / PHASE SHIFT
  7 R03  5 R04  6 R05  1 R09 -2 R10 -7 R16 -1 R18 -3        GLONASS SLOT / FRQ #
                                                            GLONASS COD/PHS/BIS
               *** Undefined LeapSeconds ***                COMMENT
                                                            END OF HEADER
> 2024 07 08 10 29 49.0000000  0 13
G02  21336722.620   112125221.547 7      2613.307    21336720.980   112125221.554 6      2613.307    21336722.300    87370300.795 6      2036.343
G03  21428303.520   112606514.635 7      5732.436    21428303.000   112606514.640 7      5732.436    21428309.140    87745373.404 7      4466.834    21428309.980    87745376.402 8      4466.834
G14  23342774.740   122667122.817 7      5506.216    23342774.160   122667122.830 5      5506.216    23342780.100    95584779.210 5      4290.558    23342780.740    95584800.206 8      4290.558
G08  20731799.140   108946326.975 7      1995.772    20731798.080   108946326.980 8      1995.772    20731803.520    84893257.081 8      1555.147    20731804.720    84893261.090 8      1555.147
G21  21158660.440   111189496.676 7      1665.249    21158656.340   111189496.683 6      1665.249    21158659.260    86641158.012 6      1297.597
R16  21361256.380   114107954.030 7      -546.166    21361256.120   114107954.034 7      -546.166    21361265.880    88750652.535 8      -424.796    21361266.240    88750651.543 8      -424.796
G27  22847579.660   120064796.488 7       525.111    22847578.300   120064796.493 7       525.111    22847586.480    93556998.033 7       409.177    22847586.840    93556999.041 7       409.177
R18  21277158.340   113578890.714 7      1789.329    21277158.800   113578890.715 7      1789.329    21277167.920    88339195.943 8      1391.700    21277168.020    88339197.947 8      1391.700
R04  21076781.260   112865267.297 7      6083.344    21076782.580   112865267.331 7      6083.344    21076793.300    87784165.758 8      4731.490    21076792.920    87784166.764 8      4731.490
R03  20944382.980   112116925.920 7      2775.386    20944383.160   112116925.941 7      2775.386    20944392.980    87202093.236 8      2158.633    20944393.340    87202093.236 8      2158.633
G16  24963823.000   131185660.258 6      -828.557    24963821.240   131185660.263 4      -828.557    24963832.520   102222582.600 4      -645.629
R09  21175529.380   113076140.241 7      2883.000    21175528.440   113076140.242 7      2883.000    21175537.680    87948150.636 8      2242.333    21175537.520    87948152.632 8      2242.333
G32  24754240.720   130084416.959 6      2730.994    24754238.800   130084416.961 5      2730.994    24754251.240   101364520.887 5      2128.048    24754252.060   101364524.894 6      2128.048
> 2024 07 08 10 29 50.0000000  0 13
G02  21336225.520   112122608.152 8      2613.364    21336223.700   112122608.157 6      2613.364    21336224.980    87368264.379 6      2036.387
G03  21427212.980   112600782.335 7      5732.147    21427212.200   112600782.335 7      5732.147    21427218.340    87740906.672 7      4466.608    21427218.920    87740909.668 8      4466.608
G14  23341726.640   122661616.539 7      5506.112    23341726.380   122661616.546 5      5506.112    23341732.140    95580488.597 5      4290.477    23341732.960    95580509.587 7      4290.477
G08  20731419.520   108944331.281 7      1995.563    20731418.300   108944331.283 8      1995.563    20731423.800    84891701.994 8      1554.984    20731424.920    84891705.997 8      1554.984
G21  21158343.600   111187831.329 7      1665.419    21158339.340   111187831.339 6      1665.419    21158342.320    86639860.343 6      1297.729
R16  21361358.560   114108500.247 7      -546.372    21361358.280   114108500.248 7      -546.372    21361368.160    88751077.366 8      -424.956    21361368.460    88751076.372 8      -424.956
G27  22847479.540   120064271.289 7       525.080    22847478.440   120064271.289 7       525.080    22847486.640    93556588.775 7       409.153    22847486.640    93556589.780 7       409.153
R18  21276823.160   113577101.348 7      1789.407    21276823.580   113577101.352 7      1789.407    21276832.740    88337804.214 7      1391.761    21276832.720    88337806.216 8      1391.761
R04  21075645.260   112859184.066 7      6083.030    21075646.040   112859184.102 7      6083.030    21075656.900    87779434.352 8      4731.246    21075656.400    87779435.356 8      4731.246
R03  20943864.340   112114150.727 7      2774.850    20943864.480   112114150.750 7      2774.850    20943874.620    87199934.761 8      2158.216    20943874.900    87199934.759 8      2158.216
G16  24963980.580   131186488.806 7      -828.505    24963979.040   131186488.811 4      -828.505    24963990.320   102223228.205 4      -645.588
R09  21174989.600   113073257.497 7      2882.360    21174988.800   113073257.482 7      2882.360    21174998.020    87945908.501 8      2241.836    21174997.540    87945910.497 8      2241.836
G32  24753720.920   130081686.112 6      2730.659    24753719.500   130081686.124 5      2730.659    24753731.600   101362392.952 5      2127.786    24753732.720   101362396.973 6      2127.786
> 2024 07 08 10 29 52.0000000  0 13
G02  21335230.840   112117381.946 7      2612.840    21335229.060   112117381.953 6      2612.840    21335230.320    87364192.010 6      2035.979
G03  21425031.460   112589319.206 7      5731.026    21425030.980   112589319.203 7      5731.026    21425036.920    87731974.368 7      4465.734    21425037.920    87731977.369 8      4465.734
G14  23339631.220   122650605.429 7      5505.010    23339631.120   122650605.436 5      5505.010    23339637.040    95571908.505 5      4289.618    23339637.440    95571929.510 7      4289.618
G08  20730660.160   108940341.169 8      1994.548    20730659.040   108940341.174 8      1994.548    20730664.460    84888592.818 8      1554.193    20730665.520    84888596.825 8      1554.193
G21  21157710.160   111184501.173 7      1664.841    21157705.740   111184501.175 6      1664.841    21157708.760    86637265.409 6      1297.279
R16  21361563.260   114109594.073 7      -547.431    21361563.080   114109594.071 7      -547.431    21361572.840    88751928.116 8      -425.780    21361573.200    88751927.115 8      -425.780
G27  22847279.520   120063221.898 7       524.303    22847278.700   120063221.898 7       524.303    22847286.900    93555771.061 7       408.548    22847287.180    93555772.069 7       408.548
R18  21276153.160   113573522.878 7      1789.060    21276153.480   113573522.885 7      1789.060    21276162.120    88335020.966 7      1391.491    21276162.820    88335022.968 7      1391.491
R04  21073373.300   112847019.178 7      6081.901    21073374.520   112847019.209 7      6081.901    21073385.280    87769972.787 8      4730.367    21073385.320    87769973.789 8      4730.367
R03  20942828.280   112108603.171 7      2772.770    20942828.480   112108603.191 7      2772.770    20942838.500    87195619.991 8      2156.599    20942838.500    87195619.981 8      2156.599
G16  24964295.740   131188146.019 7      -828.849    24964294.420   131188146.021 4      -828.849    24964305.720   102224519.509 4      -645.856
R09  21173910.440   113067494.704 7      2880.575    21173909.980   113067494.694 7      2880.575    21173919.040    87941426.335 8      2240.448    21173918.720    87941428.327 8      2240.448
G32  24752682.420   130076226.098 6      2729.328    24752680.800   130076226.098 5      2729.328    24752692.360   101358138.390 5      2126.749    24752692.580   101358142.391 6      2126.749
> 2024 07 08 10 29 53.0000000  0 13
G02  21334733.540   112114769.174 7      2612.719    21334731.860   112114769.181 6      2612.719    21334733.380    87362156.080 6      2035.885
G03  21423941.140   112583588.408 7      5730.570    21423940.380   112583588.410 7      5730.570    21423946.420    87727508.819 7      4465.379    21423947.160    87727511.825 8      4465.379
G14  23338583.720   122645100.601 7      5504.601    23338583.620   122645100.605 5      5504.601    23338589.380    95567619.035 5      4289.299    23338590.100    95567640.038 7      4289.299
G08  20730280.600   108938346.804 8      1994.111    20730279.480   108938346.809 8      1994.111    20730284.980    84887038.768 8      1553.853    20730285.900    84887042.773 8      1553.853
G21  21157393.080   111182836.357 7      1664.765    21157388.920   111182836.362 6      1664.765    21157391.940    86635968.147 6      1297.220
R16  21361665.880   114110141.738 7      -547.885    21361665.840   114110141.736 7      -547.885    21361675.100    88752354.056 7      -426.133    21361675.920    88752353.056 8      -426.133
G27  22847179.980   120062697.727 7       523.936    22847178.940   120062697.737 7       523.936    22847187.160    93555362.614 7       408.262    22847187.800    93555363.622 7       408.262
R18  21275817.920   113571733.830 7      1788.972    21275818.340   113571733.834 7      1788.972    21275826.960    88333629.477 7      1391.423    21275827.440    88333631.484 8      1391.423
R04  21072237.720   112840937.569 7      6081.273    21072238.740   112840937.609 7      6081.273    21072249.580    87765242.651 8      4729.879    21072249.100    87765243.659 8      4729.879
R03  20942310.560   112105830.804 7      2771.899    20942310.540   112105830.819 7      2771.899    20942320.600    87193463.701 8      2155.921    20942320.600    87193463.695 8      2155.921
G16  24964453.560   131188974.711 6      -828.669    24964452.140   131188974.719 4      -828.669    24964463.580   102225165.235 4      -645.716
R09  21173371.240   113064614.765 7      2879.507    21173371.120   113064614.747 7      2879.507    21173379.740    87939186.366 8      2239.616    21173379.040    87939188.360 8      2239.616
G32  24752162.980   130073496.919 6      2729.030    24752161.420   130073496.922 5      2729.030    24752172.980   101356011.753 5      2126.517    24752173.420   101356015.758 6      2126.517
> 2024 07 08 10 29 54.0000000  0 13
G02  21334236.460   112112156.564 7      2612.517    21334234.520   112112156.569 6      2612.517    21334236.180    87360120.285 6      2035.727
G03  21422850.420   112577858.081 7      5730.166    21422849.900   112577858.081 7      5730.166    21422855.980    87723043.627 7      4465.065    21422856.420    87723046.627 8      4465.065
G14  23337536.600   122639596.203 7      5504.217    23337536.220   122639596.216 5      5504.217    23337541.800    95563329.915 5      4289.000    23337542.680    95563350.923 7      4289.000
G08  20729901.180   108936352.836 8      1993.800    20729899.960   108936352.836 8      1993.800    20729905.640    84885485.018 8      1553.610    20729906.460    84885489.025 8      1553.610
G21  21157076.020   111181171.669 7      1664.642    21157072.180   111181171.674 6      1664.642    21157075.120    86634670.988 6      1297.124
R16  21361768.180   114110689.806 7      -548.330    21361768.340   114110689.812 7      -548.330    21361777.900    88752780.342 7      -426.479    21361778.460    88752779.343 8      -426.479
G27  22847080.340   120062173.826 7       523.977    22847079.180   120062173.831 7       523.977    22847087.480    93554954.372 7       408.294    22847088.240    93554955.375 7       408.294
R18  21275482.960   113569944.806 7      1789.027    21275483.300   113569944.815 7      1789.027    21275491.480    88332238.020 7      1391.466    21275492.280    88332240.029 7      1391.466
R04  21071101.940   112834856.467 7      6080.857    21071103.100   112834856.506 7      6080.857    21071114.080    87760512.907 8      4729.556    21071113.840    87760513.911 8      4729.556
R03  20941792.720   112103059.322 7      2771.070    20941792.980   112103059.351 7      2771.070    20941803.000    87191308.117 8      2155.277    20941803.080    87191308.115 8      2155.277
G16  24964611.360   131189803.444 6      -828.744    24964609.780   131189803.449 4      -828.744    24964621.180   102225810.988 4      -645.774
R09  21172832.200   113061735.662 7      2878.682    21172832.200   113061735.644 7      2878.682    21172840.240    87936947.068 8      2238.975    21172840.060    87936949.060 8      2238.975
G32  24751644.100   130070768.297 6      2728.561    24751642.220   130070768.300 5      2728.561    24751653.640   101353885.558 5      2126.152    24751653.700   101353889.561 6      2126.152
> 2024 07 08 10 29 55.0000000  0 13
G02  21333739.140   112109544.045 7      2612.446    21333737.480   112109544.052 6      2612.446    21333739.040    87358084.553 6      2035.672
G03  21421760.100   112572128.143 7      5729.720    21421759.620   112572128.148 7      5729.720    21421765.580    87718578.742 7      4464.717    21421766.100    87718581.740 8      4464.717
G14  23336489.140   122634092.208 7      5503.741    23336488.720   122634092.223 5      5503.741    23336494.400    95559041.093 5      4288.629    23336495.200    95559062.088 8      4288.629
G08  20729521.640   108934359.202 8      1993.430    20729520.720   108934359.204 8      1993.430    20729526.200    84883931.541 8      1553.322    20729526.940    84883935.546 8      1553.322
G21  21156759.080   111179507.053 7      1664.498    21156755.400   111179507.063 6      1664.498    21156758.520    86633373.886 6      1297.011
R16  21361870.940   114111238.235 7      -548.680    21361870.900   114111238.241 7      -548.680    21361880.500    88753206.889 8      -426.751    21361881.000    88753205.895 8      -426.751
G27  22846980.580   120061650.230 7       523.397    22846979.520   120061650.232 7       523.397    22846987.840    93554546.371 7       407.842    22846988.440    93554547.368 7       407.842
R18  21275148.060   113568155.814 7      1788.929    21275148.020   113568155.818 7      1788.929    21275156.500    88330846.570 7      1391.390    21275157.200    88330848.582 7      1391.390
R04  21069966.240   112828775.825 7      6080.366    21069967.420   112828775.870 7      6080.366    21069978.780    87755783.521 8      4729.174    21069978.380    87755784.523 8      4729.174
R03  20941274.820   112100288.668 7      2770.202    20941275.300   112100288.699 7      2770.202    20941285.480    87189153.157 8      2154.602    20941285.480    87189153.160 8      2154.602
G16  24964769.120   131190632.113 7      -828.730    24964767.400   131190632.123 4      -828.730    24964778.660   102226456.694 4      -645.764
R09  21172292.880   113058857.339 7      2877.818    21172293.440   113058857.326 7      2877.818    21172301.260    87934708.388 8      2238.303    21172301.220    87934710.381 8      2238.303
G32  24751125.120   130068040.156 6      2727.713    24751123.260   130068040.161 5      2727.713    24751134.460   101351759.730 5      2125.491    24751135.540   101351763.732 6      2125.491
> 2024 07 08 10 29 56.0000000  0 13
G02  21333242.160   112106931.643 7      2612.269    21333240.500   112106931.648 6      2612.269    21333241.900    87356048.911 6      2035.534
G03  21420669.700   112566398.625 7      5729.273    21420669.320   112566398.624 7      5729.273    21420675.320    87714114.179 7      4464.369    21420675.960    87714117.179 8      4464.369
G14  23335441.600   122628588.570 7      5503.392    23335441.440   122628588.582 5      5503.392    23335447.240    95554752.542 5      4288.357    23335447.840    95554773.547 7      4288.357
G08  20729142.360   108932365.909 8      1993.105    20729141.340   108932365.912 8      1993.105    20729146.960    84882378.324 8      1553.069    20729147.740    84882382.331 8      1553.069
G21  21156442.320   111177842.499 7      1664.463    21156438.700   111177842.507 6      1664.463    21156441.680    86632076.832 6      1296.984
R16  21361973.660   114111787.067 8      -549.096    21361973.760   114111787.073 7      -549.096    21361983.440    88753633.754 8      -427.075    21361983.860    88753632.762 8      -427.075
G27  22846880.860   120061126.813 7       523.228    22846879.840   120061126.815 7       523.228    22846888.200    93554138.515 7       407.710    22846888.780    93554139.523 7       407.710
R18  21274812.760   113566366.849 7      1788.935    21274812.900   113566366.839 7      1788.935    21274821.220    88329455.140 7      1391.394    21274821.680    88329457.152 7      1391.394
R04  21068830.720   112822695.614 7      6079.942    21068832.340   112822695.661 7      6079.942    21068843.160    87751054.476 8      4728.844    21068842.920    87751055.474 8      4728.844
R03  20940757.480   112097518.827 7      2769.367    20940758.120   112097518.859 7      2769.367    20940768.020    87186998.841 8      2153.952    20940767.920    87186998.847 8      2153.952
G16  24964926.740   131191460.766 7      -828.738    24964924.940   131191460.774 4      -828.738    24964936.400   102227102.390 4      -645.770
R09  21171754.160   113055979.821 7      2877.097    21171754.480   113055979.812 7      2877.097    21171762.220    87932470.324 8      2237.742    21171762.060    87932472.318 8      2237.742
G32  24750606.060   130065312.428 6      2727.595    24750604.260   130065312.425 5      2727.595    24750615.380   101349634.221 5      2125.399    24750616.080   101349638.217 6      2125.399
> 2024 07 08 10 29 57.0000000  0 13
G02  21332745.200   112104319.352 7      2612.133    21332743.220   112104319.359 6      2612.133    21332744.820    87354013.361 6      2035.429
G03  21419579.720   112560669.527 7      5728.657    21419579.160   112560669.530 7      5728.657    21419585.140    87709649.953 7      4463.889    21419586.100    87709652.953 8      4463.889
G14  23334394.320   122623085.344 6      5502.883    23334394.200   122623085.352 5      5502.883    23334400.000    95550464.320 5      4287.961    23334400.640    95550485.323 7      4287.961
G08  20728763.340   108930372.995 8      1992.636    20728762.080   108930372.995 8      1992.636    20728767.640    84880825.402 8      1552.703    20728768.480    84880829.405 8      1552.703
G21  21156125.740   111176178.048 7      1664.221    21156121.920   111176178.053 6      1664.221    21156124.980    86630779.853 6      1296.796
R16  21362076.300   114112336.315 7      -549.576    21362076.540   114112336.308 7      -549.576    21362086.220    88754060.935 8      -427.448    21362086.420    88754059.943 8      -427.448
G27  22846781.500   120060603.687 7       522.834    22846780.300   120060603.692 7       522.834    22846788.680    93553730.885 7       407.403    22846789.100    93553731.892 7       407.403
R18  21274477.240   113564577.910 7      1788.805    21274477.680   113564577.906 7      1788.805    21274485.840    88328063.743 7      1391.293    21274486.700    88328065.755 7      1391.293
R04  21067695.540   112816615.861 7      6079.385    21067697.100   112816615.898 7      6079.385    21067707.840    87746325.780 8      4728.410    21067707.340    87746326.775 8      4728.410
R03  20940240.120   112094749.841 7      2768.321    20940240.860   112094749.869 7      2768.321    20940250.780    87184845.183 8      2153.139    20940250.580    87184845.187 8      2153.139
G16  24965084.060   131192289.367 7      -828.737    24965082.640   131192289.372 4      -828.737    24965094.240   102227748.041 4      -645.769
R09  21171215.400   113053103.153 7      2876.058    21171215.580   113053103.149 7      2876.058    21171223.560    87930232.924 8      2236.934    21171223.360    87930234.922 8      2236.934
G32  24750087.080   130062585.230 6      2726.793    24750085.400   130062585.229 5      2726.793    24750096.640   101347509.131 5      2124.774    24750097.120   101347513.149 6      2124.774
> 2024 07 08 10 29 58.0000000  0 13
G02  21332248.240   112101707.258 8      2612.107    21332246.140   112101707.262 6      2612.107    21332247.680    87351977.961 6      2035.408
G03  21418489.540   112554940.898 7      5728.441    21418489.000   112554940.902 7      5728.441    21418494.920    87705186.086 7      4463.720    21418495.780    87705189.090 8      4463.720
G14  23333346.980   122617582.549 7      5502.712    23333347.020   122617582.562 5      5502.712    23333352.700    95546176.433 5      4287.827    23333353.340    95546197.445 7      4287.827
G08  20728384.080   108928380.511 8      1992.302    20728382.980   108928380.514 8      1992.302    20728388.420    84879272.815 8      1552.443    20728389.240    84879276.820 8      1552.443
G21  21155809.020   111174513.726 7      1664.350    21155805.340   111174513.734 6      1664.350    21155808.240    86629482.980 6      1296.896
R16  21362179.320   114112886.010 7      -549.887    21362179.300   114112886.008 7      -549.887    21362189.240    88754488.478 8      -427.690    21362189.440    88754487.488 8      -427.690
G27  22846682.060   120060080.869 7       522.724    22846680.940   120060080.874 7       522.724    22846689.320    93553323.490 7       407.318    22846689.520    93553324.499 7       407.318
R18  21274142.420   113562789.022 7      1788.981    21274142.620   113562789.012 7      1788.981    21274150.400    88326672.379 7      1391.430    21274151.400    88326674.390 7      1391.430
R04  21066560.560   112810536.611 7      6079.083    21066561.200   112810536.653 7      6079.083    21066572.700    87741597.481 8      4728.176    21066572.360    87741598.474 8      4728.176
R03  20939722.940   112091981.748 7      2767.697    20939723.880   112091981.774 7      2767.697    20939733.620    87182692.221 8      2152.653    20939733.500    87182692.228 8      2152.653
G16  24965241.820   131193118.023 7      -828.638    24965240.280   131193118.031 4      -828.638    24965251.860   102228393.739 4      -645.692
R09  21170676.740   113050227.417 7      2875.340    21170677.020   113050227.421 7      2875.340    21170685.120    87927996.242 8      2236.375    21170685.000    87927998.238 8      2236.375
G32  24749568.060   130059858.578 6      2726.434    24749566.700   130059858.581 5      2726.434    24749577.800   101345384.466 5      2124.494    24749578.360   101345388.448 6      2124.494
> 2024 07 08 10 29 59.0000000  0 13
G02  21331751.180   112099095.297 7      2611.877    21331749.120   112099095.305 6      2611.877    21331750.880    87349942.668 6      2035.229
G03  21417399.520   112549212.712 7      5727.962    21417398.920   112549212.711 7      5727.962    21417404.740    87700722.565 7      4463.347    21417405.960    87700725.566 8      4463.347
G14  23332299.800   122612080.209 7      5502.130    23332299.980   122612080.222 5      5502.130    23332305.720    95541888.897 5      4287.374    23332306.260    95541909.908 7      4287.374
G08  20728005.140   108926388.377 7      1991.986    20728003.980   108926388.377 8      1991.986    20728009.380    84877720.501 8      1552.197    20728010.180    84877724.502 8      1552.197
G21  21155492.420   111172849.522 7      1664.178    21155488.620   111172849.529 6      1664.178    21155491.600    86628186.200 6      1296.762
R16  21362282.720   114113436.116 7      -550.203    21362282.500   114113436.104 7      -550.203    21362292.300    88754916.311 8      -427.936    21362292.540    88754915.317 8      -427.936
G27  22846582.540   120059558.337 7       522.321    22846581.380   120059558.339 7       522.321    22846589.860    93552916.312 7       407.003    22846589.780    93552917.321 7       407.003
R18  21273807.320   113561000.169 7      1788.815    21273807.360   113561000.164 7      1788.815    21273815.540    88325281.045 7      1391.300    21273816.300    88325283.047 7      1391.300
R04  21065425.240   112804457.836 7      6078.594    21065425.900   112804457.888 7      6078.594    21065437.440    87736869.560 8      4727.795    21065437.140    87736870.556 8      4727.795
R03  20939206.000   112089214.549 7      2766.759    20939206.860   112089214.575 7      2766.759    20939216.720    87180539.949 8      2151.923    20939216.420    87180539.954 8      2151.923
G16  24965399.820   131193946.663 7      -828.589    24965398.120   131193946.668 4      -828.589    24965409.540   102229039.424 4      -645.654
R09  21170138.420   113047352.490 7      2874.514    21170138.600   113047352.488 7      2874.514    21170146.520    87925760.167 8      2235.733    21170146.540    87925762.169 8      2235.733
G32  24749049.200   130057132.405 6      2725.913    24749047.960   130057132.410 5      2725.913    24749058.960   101343260.171 5      2124.088    24749059.600   101343264.151 6      2124.088
> 2024 07 08 10 30  0.0000000  0 13
G02  21331254.180   112096483.534 7      2611.618    21331252.140   112096483.539 6      2611.618    21331253.800    87347907.528 6      2035.027
G03  21416309.440   112543485.028 7      5727.397    21416309.000   112543485.030 7      5727.397    21416314.940    87696259.434 7      4462.907    21416315.740    87696262.432 8      4462.907
G14  23331252.840   122606578.334 6      5501.611    23331253.000   122606578.345 5      5501.611    23331258.680    95537601.728 5      4286.970    23331259.440    95537622.732 7      4286.970
G08  20727626.020   108924396.719 8      1991.327    20727624.880   108924396.719 8      1991.327    20727630.360    84876168.557 8      1551.683    20727631.300    84876172.560 8      1551.683
G21  21155176.000   111171185.489 7      1663.874    21155171.920   111171185.496 6      1663.874    21155175.000    86626889.551 6      1296.525
R16  21362385.660   114113986.681 7      -550.824    21362385.440   114113986.677 7      -550.824    21362395.220    88755344.539 8      -428.419    21362395.280    88755343.542 8      -428.419
G27  22846483.560   120059036.139 7       521.913    22846482.080   120059036.138 7       521.913    22846490.560    93552509.400 7       406.685    22846490.640    93552510.399 7       406.685
R18  21273471.980   113559211.438 7      1788.582    21273472.840   113559211.437 7      1788.582    21273480.180    88323889.806 7      1391.119    21273481.260    88323891.810 7      1391.119
R04  21064290.120   112798379.649 7      6077.918    21064290.840   112798379.691 7      6077.918    21064302.440    87732142.074 8      4727.269    21064301.920    87732143.073 8      4727.269
R03  20938689.560   112086448.311 7      2765.637    20938690.000   112086448.342 7      2765.637    20938699.820    87178388.435 8      2151.051    20938699.720    87178388.442 8      2151.051
G16  24965557.640   131194775.343 6      -828.720    24965555.820   131194775.348 4      -828.720    24965567.240   102229685.143 4      -645.756
R09  21169599.760   113044478.452 7      2873.537    21169600.540   113044478.450 7      2873.537    21169607.980    87923524.814 8      2234.973    21169608.280    87923526.815 8      2234.973
G32  24748530.760   130054406.807 6      2725.343    24748529.400   130054406.818 5      2725.343    24748540.180   101341136.316 5      2123.644    24748541.360   101341140.303 6      2123.644
> 2024 07 08 10 30  1.0000000  0 13
G02  21330757.100   112093871.923 7      2611.775    21330755.180   112093871.928 6      2611.775    21330756.800    87345872.506 6      2035.149
G03  21415219.680   112537757.799 7      5727.227    21415219.180   112537757.804 7      5727.227    21415225.140    87691796.660 7      4462.775    21415225.780    87691799.660 8      4462.775
G14  23330206.280   122601076.877 6      5501.551    23330205.940   122601076.887 5      5501.551    23330211.760    95533314.880 5      4286.923    23330212.300    95533335.889 7      4286.923
G08  20727247.080   108922405.418 8      1991.279    20727245.940   108922405.425 8      1991.279    20727251.440    84874616.898 8      1551.646    20727252.480    84874620.901 8      1551.646
G21  21154859.020   111169521.568 7      1664.079    21154855.320   111169521.573 6      1664.079    21154858.180    86625592.987 6      1296.685
R16  21362488.760   114114537.653 7      -550.953    21362488.620   114114537.654 7      -550.953    21362498.600    88755773.060 8      -428.519    21362498.460    88755772.057 8      -428.519
G27  22846384.320   120058514.227 7       521.953    22846382.800   120058514.232 7       521.953    22846391.320    93552102.712 7       406.717    22846391.580    93552103.697 7       406.717
R18  21273137.280   113557422.772 7      1788.889    21273137.480   113557422.767 7      1788.889    21273145.200    88322498.619 7      1391.358    21273145.920    88322500.615 7      1391.358
R04  21063155.340   112792301.963 7      6077.658    21063156.520   112792301.994 7      6077.658    21063167.340    87727414.980 8      4727.067    21063167.000    87727415.982 8      4727.067
R03  20938173.140   112083682.954 7      2765.160    20938173.480   112083682.977 7      2765.160    20938183.340    87176237.591 8      2150.680    20938183.320    87176237.593 8      2150.680
G16  24965715.620   131195604.046 6      -828.366    24965713.480   131195604.054 4      -828.366    24965724.920   102230330.877 4      -645.480
R09  21169062.140   113041605.303 7      2873.024    21169062.240   113041605.309 7      2873.024    21169069.940    87921290.145 8      2234.574    21169069.900    87921292.152 8      2234.574
G32  24748011.900   130051681.733 6      2725.013    24748011.000   130051681.737 5      2725.013    24748021.540   101339012.871 5      2123.387    24748023.420   101339016.862 6      2123.387
> 2024 07 08 10 30  2.0000000  0 13
G02  21330260.240   112091260.628 8      2611.087    21330258.240   112091260.633 6      2611.087    21330259.860    87343837.729 6      2034.613
G03  21414129.980   112532031.189 7      5726.170    21414129.520   112532031.192 7      5726.170    21414135.340    87687334.365 7      4461.950    21414136.000    87687337.367 8      4461.950
G14  23329159.520   122595576.006 6      5500.462    23329158.940   122595576.021 5      5500.462    23329164.960    95529028.495 5      4286.074    23329165.700    95529049.514 7      4286.074
G08  20726868.160   108920414.682 8      1990.383    20726867.160   108920414.684 8      1990.383    20726872.680    84873065.671 8      1550.948    20726873.600    84873069.674 8      1550.948
G21  21154542.260   111167857.908 7      1663.423    21154538.780   111167857.913 6      1663.423    21154541.660    86624296.625 6      1296.174
R16  21362592.100   114115089.180 7      -551.897    21362591.640   114115089.181 7      -551.897    21362601.660    88756202.021 8      -429.253    21362601.540    88756201.018 8      -429.253
G27  22846285.020   120057992.775 7       521.114    22846283.700   120057992.777 7       521.114    22846292.040    93551696.373 7       406.063    22846292.120    93551697.366 7       406.063
R18  21272802.440   113555634.311 7      1788.307    21272802.540   113555634.314 7      1788.307    21272810.060    88321107.596 7      1390.906    21272811.020    88321109.596 7      1390.906
R04  21062020.420   112786224.911 7      6076.648    21062021.360   112786224.953 7      6076.648    21062032.560    87722688.391 8      4726.282    21062032.240    87722689.397 8      4726.282
R03  20937656.560   112080918.643 7      2763.627    20937657.220   112080918.666 7      2763.627    20937666.980    87174087.574 8      2149.488    20937666.820    87174087.576 8      2149.488
G16  24965873.040   131196432.918 7      -829.091    24965871.400   131196432.925 4      -829.091    24965882.540   102230976.739 4      -646.045
R09  21168524.320   113038733.177 7      2871.517    21168524.220   113038733.183 7      2871.517    21168531.880    87919056.265 8      2233.402    21168532.120    87919058.269 8      2233.402
G32  24747493.520   130048957.275 6      2723.952    24747492.420   130048957.283 5      2723.952    24747503.120   101336889.921 5      2122.560    24747504.360   101336893.933 6      2122.560
> 2024 07 08 10 30  3.0000000  0 13
G02  21329763.160   112088649.564 7      2610.908    21329761.380   112088649.571 6      2610.908    21329763.000    87341803.137 6      2034.474
G03  21413040.340   112526305.098 7      5725.800    21413039.840   112526305.095 7      5725.800    21413045.540    87682872.474 7      4461.662    21413046.320    87682875.473 8      4461.662
G14  23328112.780   122590075.639 6      5500.139    23328112.080   122590075.652 5      5500.139    23328118.380    95524742.501 4      4285.822    23328119.000    95524763.512 7      4285.822
G08  20726489.500   108918424.416 8      1990.014    20726488.440   108918424.421 8      1990.014    20726494.000    84871514.812 8      1550.660    20726494.800    84871518.813 8      1550.660
G21  21154225.780   111166194.456 7      1663.397    21154222.220   111166194.461 6      1663.397    21154225.160    86623000.426 6      1296.153
R16  21362695.720   114115641.206 7      -552.295    21362695.080   114115641.199 7      -552.295    21362705.240    88756631.364 8      -429.563    21362704.860    88756630.362 8      -429.563
G27  22846185.840   120057471.678 7       520.828    22846184.420   120057471.683 7       520.828    22846192.900    93551290.315 7       405.840    22846192.840    93551291.314 7       405.840
R18  21272467.360   113553845.975 7      1788.292    21272467.580   113553845.982 7      1788.292    21272475.160    88319716.660 7      1390.894    21272476.000    88319718.658 7      1390.894
R04  21060885.860   112780148.438 7      6076.203    21060886.340   112780148.475 7      6076.203    21060897.780    87717962.241 8      4725.935    21060897.260    87717963.249 8      4725.935
R03  20937140.340   112078155.301 7      2762.813    20937140.960   112078155.324 7      2762.813    20937150.580    87171938.306 8      2148.854    20937150.680    87171938.312 8      2148.854
G16  24966030.680   131197261.863 7      -829.020    24966029.200   131197261.865 4      -829.020    24966040.340   102231622.660 4      -645.990
R09  21167986.340   113035861.961 7      2870.723    21167986.160   113035861.964 7      2870.723    21167993.940    87916823.095 8      2232.785    21167994.300    87916825.099 8      2232.785
G32  24746974.900   130046233.451 6      2723.623    24746974.020   130046233.453 5      2723.623    24746984.880   101334767.455 5      2122.304    24746985.800   101334771.431 6      2122.304
> 2024 07 08 10 30  4.0000000  0 13
G02  21329266.520   112086038.549 7      2610.856    21329264.520   112086038.557 6      2610.856    21329266.180    87339768.574 6      2034.433
G03  21411950.860   112520579.350 7      5725.483    21411950.280   112520579.350 7      5725.483    21411956.060    87678410.850 7      4461.415    21411956.880    87678413.846 7      4461.415
G14  23327066.140   122584575.590 6      5499.887    23327065.340   122584575.608 5      5499.887    23327071.720    95520456.753 4      4285.626    23327072.080    95520477.768 7      4285.626
G08  20726110.860   108916434.439 8      1989.733    20726109.680   108916434.441 8      1989.733    20726115.240    84869964.173 8      1550.441    20726116.020    84869968.180 8      1550.441
G21  21153909.460   111164531.027 7      1663.250    21153905.660   111164531.034 6      1663.250    21153908.720    86621704.246 6      1296.039
R16  21362799.120   114116193.537 7      -552.590    21362798.460   114116193.533 7      -552.590    21362808.480    88757060.953 8      -429.792    21362808.420    88757059.955 8      -429.792
G27  22846086.780   120056950.762 7       520.690    22846085.300   120056950.770 7       520.690    22846093.820    93550884.396 7       405.733    22846093.600    93550885.404 7       405.733
R18  21272132.100   113552057.584 7      1788.282    21272132.360   113552057.587 7      1788.282    21272140.420    88318325.691 7      1390.886    21272141.060    88318327.691 7      1390.886
R04  21059751.240   112774072.302 7      6075.894    21059752.020   112774072.342 7      6075.894    21059763.200    87713236.360 8      4725.695    21059762.580    87713237.368 8      4725.695
R03  20936624.100   112075392.738 7      2762.036    20936624.520   112075392.774 7      2762.036    20936634.460    87169789.662 8      2148.250    20936634.540    87169789.664 8      2148.250
G16  24966188.860   131198090.711 6      -828.998    24966186.940   131198090.716 4      -828.998    24966198.180   102232268.505 4      -645.973
R09  21167449.200   113032991.500 7      2870.024    21167448.620   113032991.499 7      2870.024    21167456.540    87914590.506 8      2232.241    21167456.680    87914592.502 8      2232.241
G32  24746456.460   130043510.021 6      2723.242    24746455.840   130043510.021 5      2723.242    24746466.480   101332645.304 5      2122.007    24746467.860   101332649.301 6      2122.007
> 2024 07 08 10 30  5.0000000  0 13
G02  21328769.540   112083427.669 7      2610.769    21328767.740   112083427.679 6      2610.769    21328769.320    87337734.124 6      2034.366
G03  21410861.380   112514854.066 7      5724.979    21410860.860   112514854.068 7      5724.979    21410866.640    87673949.596 7      4461.023    21410867.360    87673952.591 8      4461.023
G14  23326019.340   122579076.017 6      5499.313    23326018.920   122579076.032 5      5499.313    23326025.080    95516171.375 4      4285.179    23326025.580    95516192.386 7      4285.179
G08  20725731.940   108914444.856 7      1989.331    20725731.100   108914444.859 8      1989.331    20725736.620    84868413.853 8      1550.128    20725737.480    84868417.858 8      1550.128
G21  21153592.660   111162867.706 7      1663.151    21153589.300   111162867.713 6      1663.151    21153592.100    86620408.149 6      1295.962
R16  21362902.340   114116746.298 7      -553.008    21362902.100   114116746.299 7      -553.008    21362912.020    88757490.878 8      -430.117    21362911.960    88757489.878 8      -430.117
G27  22845987.720   120056430.141 7       520.349    22845986.160   120056430.148 7       520.349    22845994.740    93550478.717 7       405.466    22845994.880    93550479.723 7       405.466
R18  21271797.060   113550269.259 7      1788.211    21271797.080   113550269.265 7      1788.211    21271805.380    88316934.765 7      1390.831    21271805.860    88316936.765 7      1390.831
R04  21058616.460   112767996.689 7      6075.272    21058617.620   112767996.720 7      6075.272    21058628.560    87708510.880 8      4725.212    21058628.480    87708511.890 8      4725.212
R03  20936108.260   112072631.071 7      2761.146    20936108.520   112072631.102 7      2761.146    20936118.400    87167641.693 8      2147.558    20936118.700    87167641.695 8      2147.558
G16  24966346.900   131198919.530 6      -828.821    24966344.520   131198919.535 4      -828.821    24966355.920   102232914.326 4      -645.834
R09  21166911.800   113030121.881 7      2869.142    21166911.160   113030121.885 7      2869.142    21166918.980    87912358.590 8      2231.555    21166919.080    87912360.581 8      2231.555
G32  24745938.300   130040787.130 6      2722.569    24745937.560   130040787.132 5      2722.569    24745948.280   101330523.564 5      2121.482    24745950.000   101330527.555 6      2121.482
> 2024 07 08 10 30  6.0000000  0 13
G02  21328272.840   112080817.133 7      2610.476    21328270.980   112080817.146 6      2610.476    21328272.600    87335699.942 6      2034.137
G03  21409772.000   112509129.406 7      5724.410    21409771.480   112509129.406 7      5724.410    21409777.220    87669488.818 7      4460.579    21409778.040    87669491.819 8      4460.579
G14  23324972.620   122573577.027 6      5498.718    23324972.340   122573577.040 4      5498.718    23324978.600    95511886.448 4      4284.715    23324979.260    95511907.465 7      4284.715
G08  20725353.640   108912455.844 8      1988.795    20725352.620   108912455.843 8      1988.795    20725358.140    84866863.971 8      1549.710    20725359.140    84866867.972 8      1549.710
G21  21153276.140   111161204.668 7      1662.980    21153272.700   111161204.673 6      1662.980    21153275.520    86619112.278 6      1295.829
R16  21363005.560   114117299.705 7      -553.631    21363005.380   114117299.704 7      -553.631    21363015.640    88757921.304 8      -430.602    21363015.720    88757920.297 8      -430.602
G27  22845888.720   120055909.981 7       520.016    22845887.380   120055909.986 7       520.016    22845895.860    93550073.390 7       405.207    22845896.460    93550074.394 8       405.207
R18  21271462.320   113548481.145 7      1788.089    21271462.000   113548481.146 7      1788.089    21271470.860    88315544.006 7      1390.736    21271470.940    88315546.008 7      1390.736
R04  21057482.120   112761921.752 7      6074.651    21057483.380   112761921.781 7      6074.651    21057494.240    87703785.936 8      4724.729    21057493.980    87703786.944 8      4724.729
R03  20935592.500   112069870.473 7      2760.145    20935592.800   112069870.501 7      2760.145    20935602.700    87165494.557 8      2146.779    20935603.120    87165494.561 8      2146.779
G16  24966504.460   131199748.525 7      -828.891    24966502.320   131199748.530 4      -828.891    24966513.700   102233560.284 4      -645.889
R09  21166374.520   113027253.306 7      2868.150    21166373.940   113027253.310 7      2868.150    21166381.840    87910127.476 8      2230.783    21166382.040    87910129.462 8      2230.783
G32  24745420.420   130038064.919 6      2721.973    24745419.600   130038064.916 5      2721.973    24745430.180   101328402.357 5      2121.018    24745431.900   101328406.333 6      2121.018
> 2024 07 08 10 30  7.0000000  0 13
G02  21327776.000   112078206.621 7      2610.437    21327774.160   112078206.633 6      2610.437    21327775.900    87333665.777 6      2034.106
G03  21408682.620   112503405.064 8      5724.094    21408682.160   112503405.069 7      5724.094    21408687.960    87665028.292 7      4460.333    21408688.560    87665031.296 8      4460.333
G14  23323926.520   122568078.342 6      5498.322    23323926.020   122568078.355 4      5498.322    23323932.240    95507601.762 4      4284.407    23323932.800    95507622.767 7      4284.407
G08  20724975.300   108910467.083 8      1988.581    20724974.220   108910467.086 8      1988.581    20724979.700    84865314.285 8      1549.544    20724980.640    84865318.286 8      1549.544
G21  21152959.920   111159541.631 7      1663.046    21152956.280   111159541.633 6      1663.046    21152959.000    86617816.400 6      1295.880
R16  21363109.280   114117853.409 7      -553.894    21363109.180   114117853.415 7      -553.894    21363119.360    88758351.960 8      -430.806    21363119.340    88758350.956 8      -430.806
G27  22845789.780   120055389.977 7       519.862    22845788.400   120055389.982 7       519.862    22845797.020    93549668.188 7       405.088    22845797.720    93549669.181 7       405.088
R18  21271127.340   113546692.962 7      1788.091    21271127.040   113546692.965 7      1788.091    21271136.080    88314153.197 7      1390.738    21271136.180    88314155.203 7      1390.738
R04  21056347.700   112755847.188 7      6074.377    21056348.780   112755847.225 7      6074.377    21056359.660    87699061.286 8      4724.516    21056359.660    87699062.296 8      4724.516
R03  20935076.780   112067110.597 7      2759.393    20935077.000   112067110.633 7      2759.393    20935087.260    87163347.991 8      2146.195    20935087.500    87163347.997 8      2146.195
G16  24966661.820   131200577.462 6      -829.033    24966660.020   131200577.469 4      -829.033    24966671.560   102234206.202 4      -645.999
R09  21165837.340   113024385.438 7      2867.407    21165837.000   113024385.436 7      2867.407    21165845.140    87907896.914 8      2230.205    21165845.080    87907898.900 8      2230.205
G32  24744902.380   130035343.100 6      2721.410    24744901.740   130035343.094 5      2721.410    24744912.500   101326281.450 5      2120.580    24744913.700   101326285.443 6      2120.580
> 2024 07 08 10 30  8.0000000  0 13
G02  21327279.180   112075596.303 7      2610.096    21327277.500   112075596.308 6      2610.096    21327279.220    87331631.757 6      2033.841
G03  21407593.500   112497681.209 7      5723.473    21407592.900   112497681.214 7      5723.473    21407598.760    87660568.151 7      4459.849    21407599.320    87660571.154 8      4459.849
G14  23322880.440   122562580.088 6      5497.946    23322879.560   122562580.103 4      5497.946    23322885.940    95503317.410 4      4284.114    23322886.460    95503338.421 7      4284.114
G08  20724596.940   108908478.754 7      1987.988    20724595.720   108908478.756 8      1987.988    20724601.340    84863764.938 8      1549.082    20724602.280    84863768.943 8      1549.082
G21  21152643.720   111157878.756 7      1662.644    21152639.840   111157878.756 6      1662.644    21152642.720    86616520.652 6      1295.567
R16  21363213.300   114118407.575 7      -554.502    21363212.980   114118407.573 7      -554.502    21363223.080    88758782.966 8      -431.279    21363223.180    88758781.965 8      -431.279
G27  22845690.740   120054870.307 7       519.368    22845689.480   120054870.304 7       519.368    22845698.120    93549263.242 7       404.702    22845699.020    93549264.233 7       404.702
R18  21270792.120   113544904.874 7      1787.900    21270792.000   113544904.878 7      1787.900    21270801.360    88312762.460 7      1390.589    21270801.240    88312764.462 7      1390.589
R04  21055213.300   112749773.200 7      6073.624    21055214.840   112749773.226 7      6073.624    21055225.400    87694337.066 8      4723.930    21055225.340    87694338.072 8      4723.930
R03  20934561.240   112064351.650 7      2758.339    20934561.520   112064351.678 7      2758.339    20934571.780    87161202.135 8      2145.375    20934572.000    87161202.137 8      2145.375
G16  24966819.580   131201406.404 7      -829.130    24966817.760   131201406.412 4      -829.130    24966829.340   102234852.117 4      -646.075
R09  21165300.260   113021518.454 7      2866.476    21165300.020   113021518.458 7      2866.476    21165308.360    87905667.040 8      2229.481    21165308.500    87905669.026 8      2229.481
G32  24744384.460   130032621.785 6      2720.890    24744384.020   130032621.784 5      2720.890    24744394.700   101324160.958 5      2120.174    24744396.080   101324164.979 6      2120.174
> 2024 07 08 10 30  9.0000000  0 13
G02  21326782.540   112072985.985 7      2610.291    21326780.900   112072985.990 6      2610.291    21326782.360    87329597.743 6      2033.993
G03  21406504.440   112491957.684 7      5723.340    21406503.880   112491957.684 7      5723.340    21406509.520    87656108.261 7      4459.746    21406510.240    87656111.261 8      4459.746
G14  23321834.120   122557082.125 6      5497.806    23321833.220   122557082.143 4      5497.806    23321839.720    95499033.290 4      4284.005    23321840.340    95499054.296 7      4284.005
G08  20724218.460   108906490.674 7      1987.955    20724217.440   108906490.677 8      1987.955    20724222.980    84862215.787 8      1549.056    20724223.820    84862219.790 8      1549.056
G21  21152327.200   111156215.840 7      1662.876    21152323.420   111156215.842 6      1662.876    21152326.320    86615224.873 6      1295.748
R16  21363317.060   114118961.986 7      -554.555    21363316.840   114118961.982 7      -554.555    21363326.680    88759214.169 8      -431.320    21363327.060    88759213.168 8      -431.320
G27  22845591.980   120054350.768 7       519.464    22845590.640   120054350.773 7       519.464    22845599.160    93548858.406 7       404.777    22845599.680    93548859.401 7       404.777
R18  21270457.140   113543116.723 7      1788.159    21270457.100   113543116.724 7      1788.159    21270466.460    88311371.684 8      1390.791    21270466.220    88311373.686 8      1390.791
R04  21054079.360   112743699.487 7      6073.677    21054080.080   112743699.510 7      6073.677    21054091.420    87689613.067 8      4723.971    21054090.960    87689614.067 8      4723.971
R03  20934046.140   112061593.430 7      2757.944    20934046.640   112061593.453 7      2757.944    20934056.600    87159056.843 8      2145.068    20934057.100    87159056.845 8      2145.068
G16  24966977.020   131202235.226 7      -828.797    24966975.540   131202235.231 4      -828.797    24966987.220   102235497.938 4      -645.816
R09  21164763.720   113018652.215 7      2865.938    21164763.820   113018652.216 7      2865.938    21164771.360    87903437.733 8      2229.063    21164771.820    87903439.723 8      2229.063
G32  24743866.620   130029900.895 6      2720.665    24743866.260   130029900.892 5      2720.665    24743876.800   101322040.786 5      2119.999    24743878.100   101322044.758 6      2119.999
> 2024 07 08 10 30 10.0000000  0 13
G02  21326285.660   112070375.851 7      2609.996    21326284.180   112070375.855 6      2609.996    21326285.760    87327563.872 6      2033.763
G03  21405415.400   112486234.633 7      5722.767    21405414.660   112486234.632 7      5722.767    21405420.560    87651648.745 7      4459.299    21405421.300    87651651.745 8      4459.299
G14  23320787.800   122551584.654 6      5497.242    23320787.180   122551584.669 4      5497.242    23320793.520    95494749.546 4      4283.565    23320794.040    95494770.552 7      4283.565
G08  20723840.360   108904503.023 7      1987.382    20723839.320   108904503.022 8      1987.382    20723844.700    84860666.966 8      1548.610    20723845.540    84860670.966 8      1548.610
G21  21152011.080   111154553.062 7      1662.716    21152007.060   111154553.067 6      1662.716    21152009.800    86613929.208 6      1295.623
R16  21363421.020   114119516.820 7      -555.046    21363420.720   114119516.813 7      -555.046    21363430.940    88759645.699 8      -431.703    21363431.060    88759644.697 8      -431.703
G27  22845493.180   120053831.565 7       519.079    22845491.600   120053831.570 7       519.079    22845500.360    93548453.829 7       404.477    22845500.740    93548454.828 7       404.477
R18  21270122.020   113541328.623 7      1787.987    21270122.120   113541328.618 7      1787.987    21270131.880    88309980.933 7      1390.656    21270131.520    88309982.935 7      1390.656
R04  21052945.040   112737626.302 7      6072.889    21052946.220   112737626.344 7      6072.889    21052957.120    87684889.496 8      4723.358    21052956.920    87684890.493 8      4723.358
R03  20933531.120   112058836.135 7      2756.888    20933531.340   112058836.163 7      2756.888    20933541.480    87156912.286 8      2144.246    20933541.800    87156912.288 8      2144.246
G16  24967134.420   131203064.082 7      -828.874    24967133.340   131203064.084 4      -828.874    24967144.940   102236143.785 4      -645.876
R09  21164227.120   113015786.894 7      2864.822    21164227.180   113015786.890 7      2864.822    21164234.840    87901209.139 8      2228.195    21164235.280    87901211.134 8      2228.195
G32  24743348.980   130027180.495 6      2720.228    24743348.580   130027180.495 5      2720.228    24743358.900   101319920.983 5      2119.658    24743360.500   101319924.984 6      2119.658
> 2024 07 08 10 30 11.0000000  0 13
G02  21325789.180   112067765.929 7      2609.957    21325787.520   112067765.937 6      2609.957    21325789.120    87325530.173 6      2033.733
G03  21404326.420   112480512.112 7      5722.308    21404325.720   112480512.114 7      5722.308    21404331.640    87647189.638 7      4458.941    21404332.360    87647192.637 8      4458.941
G14  23319742.040   122546087.674 6      5496.823    23319740.840   122546087.686 4      5496.823    23319747.520    95490466.191 4      4283.238    23319747.980    95490487.196 7      4283.238
G08  20723462.180   108902515.836 8      1987.076    20723461.140   108902515.839 8      1987.076    20723466.580    84859118.511 8      1548.371    20723467.560    84859122.514 8      1548.371
G21  21151694.520   111152890.493 7      1662.672    21151690.560   111152890.498 6      1662.672    21151693.440    86612633.699 6      1295.589
R16  21363524.680   114120072.137 7      -555.427    21363524.800   114120072.138 7      -555.427    21363534.640    88760077.615 8      -431.999    21363534.640    88760076.618 8      -431.999
G27  22845394.280   120053312.706 7       518.868    22845393.000   120053312.711 7       518.868    22845401.640    93548049.523 7       404.313    22845402.120    93548050.525 7       404.313
R18  21269786.980   113539540.655 7      1788.010    21269787.240   113539540.648 7      1788.010    21269797.120    88308590.289 8      1390.675    21269796.500    88308592.292 8      1390.675
R04  21051811.080   112731553.687 7      6072.409    21051812.120   112731553.721 7      6072.409    21051823.220    87680166.342 8      4722.985    21051822.940    87680167.348 8      4722.985
R03  20933016.120   112056079.813 7      2755.914    20933016.780   112056079.842 7      2755.914    20933026.340    87154768.490 8      2143.488    20933027.140    87154768.491 8      2143.488
G16  24967292.280   131203893.027 6      -828.907    24967290.960   131203893.029 4      -828.907    24967302.680   102236789.704 4      -645.902
R09  21163690.720   113012922.471 7      2864.120    21163691.240   113012922.469 7      2864.120    21163698.680    87898981.255 8      2227.649    21163698.880    87898983.257 8      2227.649
G32  24742831.640   130024460.767 6      2719.381    24742830.940   130024460.769 5      2719.381    24742841.420   101317801.727 5      2118.998    24742843.200   101317805.720 6      2118.998
> 2024 07 08 10 30 12.0000000  0 13
G02  21325292.660   112065156.189 7      2609.716    21325290.860   112065156.197 6      2609.716    21325292.500    87323496.608 6      2033.545
G03  21403237.500   112474790.030 7      5721.904    21403236.840   112474790.035 7      5721.904    21403242.800    87642730.875 7      4458.627    21403243.680    87642733.874 8      4458.627
G14  23318696.440   122540591.140 6      5496.272    23318694.780   122540591.153 4      5496.272    23318701.540    95486183.178 4      4282.809    23318702.040    95486204.179 7      4282.809
G08  20723084.240   108900529.039 8      1986.717    20723083.060   108900529.041 8      1986.717    20723088.560    84857570.353 8      1548.091    20723089.280    84857574.358 8      1548.091
G21  21151378.100   111151228.039 7      1662.495    21151374.260   111151228.046 6      1662.495    21151377.260    86611338.281 6      1295.450
R16  21363628.640   114120627.886 7      -555.900    21363628.820   114120627.887 7      -555.900    21363638.660    88760509.860 8      -432.367    21363638.700    88760508.862 8      -432.367
G27  22845295.620   120052794.163 7       518.421    22845294.400   120052794.173 7       518.421    22845303.020    93547645.459 7       403.964    22845303.920    93547646.459 7       403.964
R18  21269452.500   113537752.752 7      1787.971    21269452.480   113537752.742 7      1787.971    21269462.300    88307199.696 8      1390.644    21269461.840    88307201.696 8      1390.644
R04  21050677.440   112725481.586 7      6071.900    21050678.320   112725481.607 7      6071.900    21050689.280    87675443.591 8      4722.589    21050688.800    87675444.591 8      4722.589
