     3.05           OBSERVATION DATA    MIXED               RINEX VERSION / TYPE
TPS2RIN 1.0.28.3459 TPS-USER            20260427 143338 UTC PGM / RUN BY / DATE
Win64 build Jun 01, 2022 (c) Topcon Positioning Systems     COMMENT
SRC: 20240402_LM06.tps                                      COMMENT
Observer            Agency                                  OBSERVER / AGENCY
O0M3X53SBGM         TPS HIPER_SR        4.8 HSR Jul,08,2022 REC # / TYPE / VERS
FW: 4.8 HSR Jul,08,2022 p3                                  COMMENT
SN: HiPer SR 1212-12575                                     COMMENT
000                 TPSHIPER_SR     NONE                    ANT # / TYPE
        1.8000        0.0000        0.0000                  ANTENNA: DELTA H/E/N
DELTA H stands for **SLANT** height here!                   COMMENT
LM.006                                                      MARKER NAME
  5390177.3258 -1600539.8902  3005686.5238                  APPROX POSITION XYZ
  2024     4     2    15    19   37.0000000     GPS         TIME OF FIRST OBS
  2024     4     2    15    34   38.0000000     GPS         TIME OF LAST OBS
     1.000                                                  INTERVAL
   902 EPOCHS                                               COMMENT
G   12 C1C L1C D1C C1W L1W D1W C2W L2W D2W C2X L2X D2X      SYS / # / OBS TYPES
R   12 C1C L1C D1C C1P L1P D1P C2P L2P D2P C2C L2C D2C      SYS / # / OBS TYPES
    17                                                      # OF SATELLITES
   G02   902   902   902   902   902   902   902   902   902PRN / # OF OBS
           0     0     0                                    PRN / # OF OBS
   G07   902   902   902   902   902   902   902   902   902PRN / # OF OBS
         902   902   902                                    PRN / # OF OBS
   G08   902   902   902   902   902   902   902   902   902PRN / # OF OBS
         902   902   902                                    PRN / # OF OBS
   G10   902   902   902   902   902   902   902   902   902PRN / # OF OBS
         902   902   902                                    PRN / # OF OBS
   G16   902   902   902   902   902   902   902   902   902PRN / # OF OBS
           0     0     0                                    PRN / # OF OBS
   G21   902   902   902   902   902   902   902   902   902PRN / # OF OBS
           0     0     0                                    PRN / # OF OBS
   G23   902   902   902   902   902   902   902   902   902PRN / # OF OBS
         902   902   902                                    PRN / # OF OBS
   G26   902   902   902   902   902   902   902   902   902PRN / # OF OBS
         902   902   902                                    PRN / # OF OBS
   G27   902   902   902   902   902   902   902   902   902PRN / # OF OBS
         902   902   902                                    PRN / # OF OBS
   R01   902   902   902   902   902   902   902   902   902PRN / # OF OBS
         902   902   902                                    PRN / # OF OBS
   R02   902   902   902   902   902   902   902   902   902PRN / # OF OBS
         902   902   902                                    PRN / # OF OBS
   R14   902   902   902   902   902   902   902   902   902PRN / # OF OBS
         902   902   902                                    PRN / # OF OBS
   R15   902   902   902   902   902   902   902   902   902PRN / # OF OBS
         902   902   902                                    PRN / # OF OBS
   R16   902   902   902   902   902   902   902   902   902PRN / # OF OBS
         902   902   902                                    PRN / # OF OBS
   R17   902   902   902   902   902   902   902   902   902PRN / # OF OBS
         902   902   902                                    PRN / # OF OBS
   R18   902   902   902   902   902   902   902   902   902PRN / # OF OBS
         902   902   902                                    PRN / # OF OBS
   R24   902   902   902   902   902   902   902   902   902PRN / # OF OBS
         902   902   902                                    PRN / # OF OBS
G L1C                                                       SYS / PHASE SHIFT
G L1W -0.25000                                              SYS / PHASE SHIFT
G L2W  0.00000                                              SYS / PHASE SHIFT
G L2X  0.25000                                              SYS / PHASE SHIFT
R L1C                                                       SYS / PHASE SHIFT
R L1P -0.25000                                              SYS / PHASE SHIFT
R L2P -0.25000                                              SYS / PHASE SHIFT
R L2C                                                       SYS / PHASE SHIFT
  8 R01  1 R02 -4 R14 -7 R15  0 R16 -1 R17  4 R18 -3 R24  2 GLONASS SLOT / FRQ #
                                                            GLONASS COD/PHS/BIS
               *** Undefined LeapSeconds ***                COMMENT
                                                            END OF HEADER
> 2024 04 02 15 19 37.0000000  0 17
G02  21894346.640   115055579.645 7      4002.686    21894345.280   115055579.652 6      4002.686    21894354.340    89653741.782 6      3118.976
G26  23475148.520   123362734.088 6      -770.693    23475146.580   123362734.093 6      -770.693    23475166.680    96126864.589 6      -600.540    23475166.760    96126869.597 7      -600.540
R02  23376936.800   124743782.802 7      5785.426    23376934.380   124743782.790 6      5785.426    23376959.640    97023030.577 7      4499.776    23376959.900    97023032.577 7      4499.776
G27  21036110.280   110545481.792 7      1754.431    21036108.980   110545481.802 8      1754.431    21036119.940    86139372.273 8      1367.089    21036120.280    86139373.272 8      1367.089
R14  19910266.160   106132875.715 8      -166.149    19910266.180   106132875.715 8      -166.149    19910282.440    82547850.522 8      -129.227    19910282.720    82547848.521 8      -129.227
G16  21203292.540   111424024.224 7       399.056    21203291.020   111424024.229 6       399.056    21203303.620    86823943.021 6       310.953
G10  22168398.840   116495723.904 7      1587.290    22168397.320   116495723.917 7      1587.290    22168412.100    90775888.912 7      1236.849    22168411.580    90775941.918 8      1236.849
G21  20567192.820   108081325.806 8      3143.816    20567191.120   108081325.808 6      3143.816    20567199.520    84219251.849 6      2449.727
R17  20252583.560   108375653.558 7      2309.128    20252582.400   108375653.564 7      2309.128    20252595.260    84292227.641 8      1795.988    20252595.240    84292227.645 8      1795.988
G08  20966040.380   110177274.899 7      3435.153    20966039.400   110177274.904 7      3435.153    20966048.880    85852458.044 7      2676.742    20966049.960    85852461.048 8      2676.742
R15  19850065.400   106072717.689 8      3969.529    19850063.380   106072717.679 7      3969.529    19850075.140    82501050.224 8      3087.411    19850075.260    82501048.228 8      3087.411
R01  22652708.940   121091768.566 6      3980.899    22652709.660   121091768.575 6      3980.899    22652734.780    94182585.993 6      3096.255    22652733.900    94182581.983 6      3096.255
R24  21654885.520   115798386.208 7       235.876    21654884.940   115798386.199 7       235.876    21654900.420    90065475.133 7       183.459    21654900.160    90065462.130 7       183.459
G23  24276526.040   127574003.203 6       -93.529    24276524.500   127574003.210 4       -93.529    24276538.500    99408362.339 4       -72.880    24276538.460    99408373.340 7       -72.880
R16  23693456.360   126566174.907 7      6607.723    23693457.160   126566174.930 7      6607.723    23693470.040    98440411.662 7      5139.340    23693469.840    98440413.657 7      5139.340
G07  23804455.280   125093251.538 7      3107.012    23804453.840   125093251.548 6      3107.012    23804464.400    97475287.516 6      2421.048    23804463.960    97475294.527 7      2421.048
R18  22253091.060   118788538.934 7      4312.474    22253091.780   118788538.935 7      4312.474    22253107.780    92391166.133 7      3354.146    22253108.080    92391168.140 7      3354.146
> 2024 04 02 15 19 38.0000000  0 17
G02  21893584.820   115051577.097 7      4002.502    21893583.760   115051577.104 6      4002.502    21893592.420    89650622.918 6      3118.833
G26  23475295.020   123363504.878 6      -770.795    23475293.280   123363504.880 6      -770.795    23475313.380    96127465.194 6      -600.620    23475313.600    96127470.202 7      -600.620
R02  23375852.520   124737997.301 7      5785.704    23375850.020   124737997.288 6      5785.704    23375875.440    97018530.736 7      4499.992    23375875.840    97018532.740 7      4499.992
G27  21035776.180   110543727.325 8      1754.523    21035775.180   110543727.327 8      1754.523    21035786.100    86138005.143 8      1367.161    21035786.400    86138006.141 8      1367.161
R14  19910297.400   106133042.079 8      -166.546    19910297.480   106133042.077 8      -166.546    19910313.800    82547979.906 8      -129.536    19910314.020    82547977.903 8      -129.536
G16  21203216.580   111423625.345 7       398.870    21203215.140   111423625.353 6       398.870    21203227.700    86823632.205 6       310.808
G10  22168096.660   116494136.802 7      1586.943    22168095.340   116494136.807 7      1586.943    22168110.120    90774652.203 7      1236.579    22168109.620    90774705.211 8      1236.579
G21  20566594.620   108078182.154 8      3143.575    20566593.020   108078182.159 6      3143.575    20566601.120    84216802.254 6      2449.539
R17  20252151.800   108373344.479 7      2309.108    20252150.780   108373344.497 7      2309.108    20252163.840    84290431.695 8      1795.973    20252163.220    84290431.695 8      1795.973
G08  20965386.680   110173839.748 7      3435.149    20965385.700   110173839.753 7      3435.149    20965395.180    85849781.301 7      2676.739    20965396.280    85849784.303 8      2676.739
R15  19849322.560   106068748.484 8      3968.881    19849320.580   106068748.480 7      3968.881    19849332.400    82497963.067 8      3086.908    19849332.080    82497961.071 8      3086.908
R01  22651963.820   121087787.851 6      3980.780    22651964.520   121087787.866 6      3980.780    22651990.020    94179489.904 6      3096.162    22651989.020    94179485.901 6      3096.162
R24  21654841.040   115798150.134 7       236.185    21654840.520   115798150.125 7       236.185    21654856.320    90065291.508 7       183.699    21654855.960    90065278.499 7       183.699
G23  24276543.660   127574096.944 6       -93.801    24276542.340   127574096.952 4       -93.801    24276556.420    99408435.387 4       -73.091    24276556.620    99408446.400 7       -73.091
R16  23692219.360   126559567.262 7      6607.604    23692220.040   126559567.293 7      6607.604    23692232.820    98435272.380 7      5139.247    23692232.960    98435274.377 7      5139.247
G07  23803864.180   125090144.801 7      3106.526    23803862.540   125090144.811 6      3106.526    23803873.240    97472866.682 6      2420.670    23803873.060    97472873.678 7      2420.670
R18  22252283.020   118784226.560 7      4312.331    22252283.960   118784226.556 7      4312.331    22252299.560    92387812.058 7      3354.035    22252300.060    92387814.063 7      3354.035
> 2024 04 02 15 19 39.0000000  0 17
G02  22192616.280   116622998.890 7      4002.001    22192615.280   116622998.895 6      4002.001    22192623.960    90875107.436 6      3118.442
G26  23775234.020   124939695.003 6      -771.034    23775232.280   124939695.006 6      -771.034    23775252.540    97355665.290 6      -600.806    23775252.600    97355670.298 7      -600.806
R02  23674561.700   126331967.663 7      5785.280    23674559.480   126331967.651 6      5785.280    23674584.780    98258285.459 7      4499.662    23674585.360    98258287.458 7      4499.662
G27  21335235.240   112117394.742 8      1754.210    21335234.000   112117394.744 8      1754.210    21335245.060    87364239.490 8      1366.917    21335245.080    87364240.489 8      1366.917
R14  20210120.880   107731271.407 8      -167.383    20210121.360   107731271.407 8      -167.383    20210137.480    83791047.157 8      -130.186    20210137.860    83791045.156 8      -130.186
G16  21502933.180   112998647.298 7       398.114    21502931.860   112998647.310 6       398.114    21502944.300    88050922.035 6       310.219
G10  22467587.620   118067971.831 7      1586.177    22467586.260   118067971.833 7      1586.177    22467600.940    92001017.156 7      1235.982    22467600.500    92001070.164 8      1235.982
G21  20865789.540   109650462.079 8      3142.909    20865787.900   109650462.084 6      3142.909    20865796.140    85441955.444 6      2449.020
R17  20551513.220   109975287.916 7      2308.723    20551512.400   109975287.925 7      2308.723    20551525.280    85536387.693 8      1795.674    20551524.660    85536387.689 8      1795.674
G08  21264526.200   111745828.121 7      3434.871    21264525.160   111745828.126 7      3434.871    21264534.720    87074707.308 7      2676.523    21264535.500    87074710.307 8      2676.523
R15  20148372.860   107666784.030 7      3967.945    20148370.860   107666784.029 8      3967.945    20148383.000    83740879.603 8      3086.180    20148383.000    83740877.603 8      3086.180
R01  22951012.440   122686374.279 6      3979.607    22951012.860   122686374.291 6      3979.607    22951039.380    95422834.922 6      3095.250    22951038.000    95422830.923 6      3095.250
R24  21954589.680   117401039.183 7       236.118    21954588.760   117401039.182 7       236.118    21954604.540    91311982.984 7       183.647    21954604.500    91311969.977 7       183.647
G23  24576354.240   129149610.941 6       -94.359    24576352.660   129149610.946 4       -94.359    24576366.720   100636108.633 4       -73.526    24576366.920   100636119.646 7       -73.526
R16  23990776.120   128154403.923 7      6607.248    23990776.380   128154403.945 7      6607.248    23990789.840    99675700.888 7      5138.971    23990789.500    99675702.885 7      5138.971
G07  24103065.820   126662461.589 7      3106.071    24103064.440   126662461.597 6      3106.071    24103075.280    98698048.591 6      2420.315    24103075.440    98698055.589 7      2420.315
R18  22551268.120   120380231.237 7      4312.000    22551269.320   120380231.235 7      4312.000    22551285.260    93629149.033 7      3353.778    22551285.100    93629151.041 7      3353.778
> 2024 04 02 15 19 40.0000000  0 17
G02  22191854.740   116618997.183 7      4001.361    22191853.860   116618997.188 6      4001.361    22191862.480    90871989.225 6      3117.944
G26  23775381.200   124940466.211 6      -771.492    23775379.020   124940466.216 6      -771.492    23775399.160    97356266.227 6      -601.162    23775399.360    97356271.237 7      -601.162
R02  23673478.040   126326182.381 7      5785.085    23673475.660   126326182.384 6      5785.085    23673500.520    98253785.803 7      4499.510    23673501.080    98253787.806 7      4499.510
G27  21334901.500   112115640.703 8      1753.786    21334900.320   112115640.705 8      1753.786    21334911.220    87362872.700 8      1366.586    21334911.320    87362873.704 8      1366.586
R14  20210152.520   107731439.216 8      -168.273    20210152.840   107731439.216 8      -168.273    20210169.020    83791177.665 8      -130.879    20210169.240    83791175.664 8      -130.879
G16  21502857.760   112998249.386 7       397.605    21502856.100   112998249.396 6       397.605    21502868.580    88050611.962 6       309.822
G10  22467285.720   118066385.958 7      1585.509    22467284.300   118066385.966 7      1585.509    22467299.280    91999781.416 7      1235.461    22467298.840    91999834.421 8      1235.461
G21  20865191.440   109647319.423 8      3142.332    20865189.780   109647319.428 6      3142.332    20865198.200    85439506.622 6      2448.570
R17  20551081.660   109972979.423 8      2308.251    20551080.920   109972979.435 7      2308.251    20551093.960    85534592.199 8      1795.306    20551093.260    85534592.193 8      1795.306
G08  21263872.600   111742393.309 7      3434.576    21263871.560   111742393.311 8      3434.576    21263880.960    87072030.829 7      2676.293    21263881.880    87072033.830 8      2676.293
R15  20147630.500   107662816.602 8      3966.890    20147628.800   107662816.598 7      3966.890    20147640.520    83737793.822 8      3085.359    20147640.280    83737791.819 8      3085.359
R01  22950268.220   122682394.917 6      3978.931    22950267.920   122682394.924 6      3978.931    22950294.320    95419739.869 6      3094.724    22950292.920    95419735.874 6      3094.724
R24  21954545.780   117400803.091 7       235.981    21954544.720   117400803.081 7       235.981    21954560.300    91311799.344 7       183.541    21954560.100    91311786.341 7       183.541
G23  24576372.200   129149705.532 6       -94.966    24576370.600   129149705.537 4       -94.966    24576384.620   100636182.340 4       -73.999    24576384.880   100636193.351 7       -73.999
R16  23989539.240   128147796.807 7      6607.039    23989539.360   128147796.824 7      6607.039    23989552.800    99670562.015 7      5138.808    23989552.580    99670564.010 7      5138.808
G07  24102474.900   126659355.955 7      3105.214    24102473.460   126659355.957 6      3105.214    24102484.200    98695628.610 6      2419.648    24102484.620    98695635.611 7      2419.648
R18  22550460.800   120375919.533 7      4311.458    22550460.960   120375919.539 7      4311.458    22550477.600    93625795.500 7      3353.356    22550477.840    93625797.508 7      3353.356
> 2024 04 02 15 19 41.0000000  0 17
G02  22191093.520   116614995.828 7      4001.244    22191092.400   116614995.836 6      4001.244    22191101.180    90868871.290 6      3117.853
G26  23775527.860   124941237.566 6      -771.379    23775525.800   124941237.574 6      -771.379    23775545.860    97356867.279 6      -601.074    23775545.920    97356872.291 7      -601.074
R02  23672393.840   126320397.162 7      5785.216    23672391.440   126320397.163 6      5785.216    23672416.280    98249286.180 7      4499.612    23672416.740    98249288.181 7      4499.612
G27  21334567.760   112113886.824 8      1753.781    21334566.540   112113886.829 8      1753.781    21334577.480    87361506.042 8      1366.582    21334577.560    87361507.045 8      1366.582
R14  20210184.140   107731607.699 8      -168.744    20210184.340   107731607.702 8      -168.744    20210200.580    83791308.699 8      -131.245    20210200.920    83791306.698 8      -131.245
G16  21502782.140   112997851.927 7       397.287    21502780.400   112997851.934 6       397.287    21502792.980    88050302.246 6       309.574
G10  22466984.040   118064800.685 7      1584.961    22466982.620   118064800.695 7      1584.961    22466997.540    91998546.138 7      1235.034    22466997.200    91998599.147 8      1235.034
G21  20864593.600   109644177.240 8      3142.011    20864591.960   109644177.245 6      3142.011    20864600.220    85437058.172 6      2448.320
R17  20550650.320   109970671.193 8      2308.138    20550649.480   109970671.216 7      2308.138    20550662.480    85532796.915 8      1795.219    20550662.000    85532796.913 8      1795.219
G08  21263218.980   111738958.625 7      3434.649    21263218.000   111738958.628 7      3434.649    21263227.380    87069354.446 8      2676.350    21263228.240    87069357.452 8      2676.350
R15  20146888.240   107658850.048 8      3966.081    20146886.140   107658850.050 7      3966.081    20146898.220    83734708.724 8      3084.730    20146897.760    83734706.722 8      3084.730
R01  22949524.240   122678416.196 6      3978.430    22949523.380   122678416.187 6      3978.430    22949550.220    95416645.317 6      3094.335    22949548.880    95416641.309 6      3094.335
R24  21954501.740   117400566.974 7       236.229    21954500.740   117400566.965 7       236.229    21954516.200    91311615.694 7       183.733    21954515.860    91311602.687 7       183.733
G23  24576390.600   129149800.511 6       -95.252    24576388.480   129149800.522 4       -95.252    24576402.760   100636256.352 4       -74.222    24576403.140   100636267.361 7       -74.222
R16  23988302.480   128141189.968 7      6606.784    23988302.620   128141189.988 7      6606.784    23988316.160    99665423.361 7      5138.610    23988315.900    99665425.352 7      5138.610
G07  24101884.080   126656250.797 7      3104.964    24101882.600   126656250.799 6      3104.964    24101893.300    98693209.004 6      2419.453    24101893.960    98693216.009 7      2419.453
R18  22549653.000   120371608.076 7      4311.442    22549653.120   120371608.093 7      4311.442    22549669.780    93622442.158 7      3353.344    22549670.200    93622444.164 7      3353.344
> 2024 04 02 15 19 42.0000000  0 17
G02  22190332.320   116610994.973 7      4000.681    22190330.980   116610994.980 6      4000.681    22190339.860    90865753.743 6      3117.414
G26  23775674.800   124942009.219 7      -771.639    23775672.700   124942009.226 6      -771.639    23775692.820    97357468.564 6      -601.277    23775692.520    97357473.568 7      -601.277
R02  23671309.780   126314612.039 7      5785.109    23671307.300   126314612.045 6      5785.109    23671332.060    98244786.638 7      4499.529    23671332.920    98244788.637 7      4499.529
G27  21334234.240   112112133.206 8      1753.611    21334232.860   112112133.211 8      1753.611    21334243.800    87360139.582 8      1366.450    21334244.040    87360140.587 8      1366.450
R14  20210215.780   107731776.976 8      -169.538    20210216.140   107731776.974 8      -169.538    20210232.400    83791440.347 8      -131.863    20210232.820    83791438.347 8      -131.863
G16  21502706.800   112997455.022 7       396.715    21502704.860   112997455.032 6       396.715    21502717.540    88049992.963 6       309.129
G10  22466682.420   118063216.079 7      1584.336    22466681.200   118063216.084 7      1584.336    22466696.120    91997311.380 7      1234.547    22466695.800    91997364.383 8      1234.547
G21  20863995.820   109641035.628 8      3141.422    20863994.120   109641035.633 6      3141.422    20864002.440    85434610.160 6      2447.862
R17  20550219.100   109968363.316 7      2307.821    20550218.140   109968363.336 7      2307.821    20550231.260    85531001.897 8      1794.972    20550230.700    85531001.898 8      1794.972
G08  21262565.620   111735524.179 7      3434.464    21262564.400   111735524.181 7      3434.464    21262573.780    87066678.254 8      2676.206    21262574.860    87066681.253 8      2676.206
R15  20146145.980   107654884.416 8      3965.279    20146143.920   107654884.420 7      3965.279    20146156.080    83731624.342 8      3084.106    20146155.900    83731622.341 8      3084.106
R01  22948779.980   122674438.189 6      3977.559    22948778.920   122674438.182 6      3977.559    22948806.320    95413551.334 6      3093.657    22948804.740    95413547.329 6      3093.657
R24  21954457.820   117400330.927 7       236.223    21954456.520   117400330.931 7       236.223    21954471.740    91311432.102 7       183.729    21954471.920    91311419.094 7       183.729
G23  24576408.620   129149895.977 6       -95.699    24576406.560   129149895.987 4       -95.699    24576420.980   100636330.743 4       -74.571    24576421.560   100636341.746 7       -74.571
R16  23987066.000   128134583.509 7      6606.287    23987065.860   128134583.526 7      6606.287    23987079.400    99660284.998 7      5138.223    23987079.220    99660286.991 7      5138.223
G07  24101293.260   126653146.274 7      3104.312    24101291.960   126653146.284 6      3104.312    24101302.500    98690789.902 6      2418.945    24101302.960    98690796.902 7      2418.945
R18  22548845.120   120367297.031 7      4310.923    22548845.640   120367297.051 7      4310.923    22548862.200    93619089.135 7      3352.940    22548862.340    93619091.139 7      3352.940
> 2024 04 02 15 19 43.0000000  0 17
G02  22189571.060   116606994.516 7      4000.396    22189569.600   116606994.524 6      4000.396    22189578.560    90862636.510 6      3117.192
G26  23775821.580   124942781.094 6      -771.955    23775819.600   124942781.101 6      -771.955    23775839.680    97358070.023 6      -601.524    23775839.440    97358075.032 7      -601.524
R02  23670225.000   126308826.932 7      5785.212    23670223.240   126308826.938 6      5785.212    23670247.960    98240287.106 7      4499.609    23670248.720    98240289.106 7      4499.609
G27  21333900.400   112110379.808 8      1753.447    21333899.200   112110379.818 8      1753.447    21333910.080    87358773.300 8      1366.322    21333910.620    87358774.303 8      1366.322
R14  20210247.720   107731946.928 8      -170.139    20210248.060   107731946.928 8      -170.139    20210264.340    83791572.527 8      -132.330    20210264.620    83791570.528 8      -132.330
G16  21502631.000   112997058.577 7       396.410    21502629.440   112997058.590 6       396.410    21502642.100    88049684.041 6       308.891
G10  22466381.160   118061632.072 7      1583.917    22466379.840   118061632.077 7      1583.917    22466394.680    91996077.088 7      1234.221    22466394.360    91996130.090 8      1234.221
G21  20863398.060   109637894.485 7      3141.082    20863396.340   109637894.490 6      3141.082    20863404.540    85432162.521 6      2447.596
R17  20549787.980   109966055.674 7      2307.700    20549786.960   109966055.692 7      2307.700    20549800.060    85529207.061 8      1794.878    20549799.600    85529207.067 8      1794.878
G08  21261911.980   111732089.900 7      3434.354    21261911.000   111732089.905 7      3434.354    21261920.220    87064002.196 7      2676.120    21261921.020    87064005.196 8      2676.120
R15  20145404.160   107650919.652 8      3964.517    20145402.140   107650919.651 7      3964.517    20145414.180    83728540.630 8      3083.513    20145413.760    83728538.632 8      3083.513
R01  22948036.020   122670460.773 6      3977.368    22948034.760   122670460.777 6      3977.368    22948061.500    95410457.803 6      3093.508    22948060.640    95410453.804 6      3093.508
R24  21954413.740   117400094.901 7       236.228    21954412.700   117400094.902 7       236.228    21954427.660    91311248.522 7       183.733    21954427.780    91311235.513 7       183.733
G23  24576426.560   129149991.847 6       -95.838    24576424.740   129149991.857 4       -95.838    24576439.240   100636405.445 4       -74.679    24576439.900   100636416.440 7       -74.679
R16  23985829.000   128127977.301 7      6606.425    23985829.080   128127977.324 7      6606.425    23985842.800    99655146.834 7      5138.331    23985842.760    99655148.829 7      5138.331
G07  24100702.280   126650042.288 7      3103.890    24100701.280   126650042.293 6      3103.890    24100711.900    98688371.207 6      2418.616    24100712.640    98688378.211 7      2418.616
R18  22548037.540   120362986.315 7      4310.753    22548038.120   120362986.334 7      4310.753    22548054.680    93615736.360 7      3352.808    22548054.920    93615738.366 7      3352.808
> 2024 04 02 15 19 44.0000000  0 17
G02  22188809.840   116602994.436 7      3999.849    22188808.440   116602994.441 6      3999.849    22188817.360    90859519.562 6      3116.765
G26  23775968.200   124943553.098 6      -772.244    23775966.480   124943553.111 6      -772.244    23775986.580    97358671.585 6      -601.749    23775986.300    97358676.595 7      -601.749
R02  23669140.660   126303041.874 7      5784.925    23669139.540   126303041.880 6      5784.925    23669163.780    98235787.608 7      4499.386    23669164.840    98235789.605 7      4499.386
G27  21333566.820   112108626.573 8      1753.128    21333565.660   112108626.578 8      1753.128    21333576.480    87357407.132 8      1366.074    21333577.100    87357408.134 8      1366.074
R14  20210279.800   107732117.554 8      -170.962    20210279.880   107732117.554 8      -170.962    20210296.200    83791705.226 8      -132.970    20210296.840    83791703.227 8      -132.970
G16  21502555.840   112996662.584 7       395.699    21502554.100   112996662.596 6       395.699    21502566.800    88049375.466 6       308.337
G10  22466079.940   118060048.640 7      1583.213    22466078.540   118060048.650 7      1583.213    22466093.300    91994843.248 7      1233.673    22466093.060    91994896.254 8      1233.673
G21  20862800.500   109634753.806 7      3140.487    20862798.660   109634753.808 6      3140.487    20862806.780    85429715.240 6      2447.132
R17  20549356.860   109963748.260 7      2307.230    20549355.900   109963748.275 7      2307.230    20549368.720    85527412.403 8      1794.512    20549368.420    85527412.410 8      1794.512
G08  21261258.460   111728655.737 7      3434.105    21261257.440   111728655.739 7      3434.105    21261266.740    87061326.225 7      2675.926    21261267.560    87061329.225 8      2675.926
R15  20144662.380   107646955.682 8      3963.601    20144660.280   107646955.675 7      3963.601    20144672.380    83725457.540 8      3082.801    20144672.420    83725455.542 8      3082.801
R01  22947291.880   122666484.022 6      3976.404    22947291.000   122666484.015 6      3976.404    22947317.580    95407364.783 6      3092.758    22947316.680    95407360.779 6      3092.758
R24  21954369.640   117399858.846 7       236.053    21954368.380   117399858.847 7       236.053    21954383.220    91311064.913 7       183.597    21954383.520    91311051.902 7       183.597
G23  24576444.420   129150088.085 6       -96.304    24576442.960   129150088.090 4       -96.304    24576457.400   100636480.432 4       -75.042    24576458.220   100636491.433 7       -75.042
R16  23984592.200   128121371.435 7      6605.781    23984592.180   128121371.441 7      6605.781    23984606.180    99650008.930 7      5137.830    23984605.900    99650010.923 7      5137.830
G07  24100111.760   126646938.814 7      3103.248    24100110.700   126646938.816 6      3103.248    24100121.220    98685952.909 6      2418.116    24100121.680    98685959.910 7      2418.116
R18  22547229.540   120358675.902 7      4310.303    22547230.880   120358675.917 7      4310.303    22547247.200    93612383.819 7      3352.458    22547247.080    93612385.827 7      3352.458
> 2024 04 02 15 19 45.0000000  0 17
G02  22188048.620   116598994.729 7      3999.317    22188047.320   116598994.733 6      3999.317    22188056.280    90856402.911 6      3116.351
G26  23776115.040   124944325.270 6      -772.368    23776113.480   124944325.273 6      -772.368    23776133.540    97359273.269 6      -601.845    23776133.500    97359278.282 7      -601.845
R02  23668056.180   126297256.863 7      5784.871    23668055.440   126297256.874 6      5784.871    23668079.740    98231288.147 7      4499.344    23668080.760    98231290.144 7      4499.344
G27  21333233.080   112106873.499 8      1752.864    21333231.920   112106873.506 8      1752.864    21333242.900    87356041.100 8      1365.868    21333243.260    87356042.102 8      1365.868
R14  20210311.920   107732288.870 8      -171.802    20210311.980   107732288.871 8      -171.802    20210328.440    83791838.468 8      -133.624    20210328.640    83791836.466 8      -133.624
G16  21502480.520   112996267.011 7       395.249    21502478.980   112996267.024 6       395.249    21502491.380    88049067.222 6       307.986
G10  22465779.080   118058465.808 7      1582.378    22465777.320   118058465.815 7      1582.378    22465792.280    91993609.870 7      1233.021    22465792.060    91993662.876 8      1233.021
G21  20862202.820   109631613.593 8      3139.885    20862201.220   109631613.598 6      3139.885    20862209.520    85427268.319 6      2446.664
R17  20548925.620   109961441.119 7      2306.793    20548924.680   109961441.131 7      2306.793    20548937.680    85525617.956 8      1794.173    20548937.320    85525617.960 8      1794.173
G08  21260605.040   111725221.710 7      3433.907    21260603.900   111725221.713 7      3433.907    21260613.360    87058650.356 7      2675.771    21260614.240    87058653.358 8      2675.771
R15  20143920.840   107642992.551 8      3962.583    20143918.580   107642992.547 7      3962.583    20143930.720    83722375.100 8      3082.009    20143930.400    83722373.102 8      3082.009
R01  22946547.820   122662507.827 6      3975.779    22946547.360   122662507.831 6      3975.779    22946573.400    95404272.207 6      3092.273    22946572.640    95404268.198 6      3092.273
R24  21954325.340   117399622.761 7       235.889    21954324.060   117399622.757 7       235.889    21954338.920    91310881.281 7       183.469    21954339.280    91310868.268 7       183.469
G23  24576462.980   129150184.736 6       -97.009    24576461.320   129150184.746 4       -97.009    24576475.860   100636555.750 4       -75.592    24576476.220   100636566.751 7       -75.592
R16  23983355.360   128114765.793 7      6605.454    23983355.520   128114765.800 6      6605.454    23983369.440    99644871.202 7      5137.575    23983369.540    99644873.195 7      5137.575
G07  24099521.500   126643835.873 7      3102.483    24099520.180   126643835.875 6      3102.483    24099530.800    98683535.029 6      2417.520    24099531.140    98683542.036 7      2417.520
R18  22546422.220   120354365.765 7      4309.889    22546423.540   120354365.774 7      4309.889    22546439.720    93609031.479 7      3352.136    22546439.800    93609033.487 7      3352.136
> 2024 04 02 15 19 46.0000000  0 17
G02  22187287.620   116594995.260 7      3999.491    22187286.220   116594995.270 6      3999.491    22187295.240    90853286.451 6      3116.486
G26  23776261.740   124945097.508 6      -772.114    23776260.400   124945097.516 6      -772.114    23776280.440    97359875.026 6      -601.647    23776280.720    97359880.040 7      -601.647
R02  23666971.680   126291471.831 7      5785.239    23666971.760   126291471.842 6      5785.239    23666995.900    98226788.680 7      4499.630    23666996.460    98226790.679 7      4499.630
G27  21332899.440   112105120.490 7      1753.192    21332898.340   112105120.492 8      1753.192    21332909.360    87354675.111 8      1366.124    21332909.760    87354676.117 8      1366.124
R14  20210344.260   107732460.757 8      -171.953    20210344.340   107732460.747 8      -171.953    20210360.500    83791972.135 8      -133.742    20210360.880    83791970.135 8      -133.742
G16  21502405.460   112995871.782 7       395.199    21502403.660   112995871.795 6       395.199    21502416.060    88048759.245 6       307.947
G10  22465477.680   118056883.414 7      1582.319    22465476.080   118056883.416 7      1582.319    22465491.100    91992376.834 7      1232.976    22465490.960    91992429.844 8      1232.976
G21  20861605.340   109628473.720 7      3139.893    20861603.620   109628473.725 6      3139.893    20861611.920    85424821.663 6      2446.670
R17  20548494.720   109959134.098 8      2307.155    20548493.540   109959134.110 7      2307.155    20548506.460    85523823.602 8      1794.454    20548506.260    85523823.602 8      1794.454
G08  21259951.680   111721787.731 7      3434.139    21259950.360   111721787.728 7      3434.139    21259959.820    87055974.522 7      2675.953    21259960.600    87055977.524 8      2675.953
R15  20143179.480   107639030.111 8      3962.309    20143177.040   107639030.107 8      3962.309    20143189.260    83719293.201 8      3081.796    20143189.200    83719291.205 8      3081.796
R01  22945804.000   122658532.126 6      3975.783    22945803.240   122658532.133 6      3975.783    22945830.000    95401180.014 6      3092.276    22945829.160    95401176.017 6      3092.276
R24  21954280.980   117399386.498 7       236.432    21954279.460   117399386.496 7       236.432    21954294.640    91310697.523 7       183.891    21954295.140    91310684.511 7       183.891
G23  24576481.320   129150281.620 6       -96.801    24576479.660   129150281.631 4       -96.801    24576494.180   100636631.242 4       -75.430    24576494.780   100636642.241 7       -75.430
R16  23982118.740   128108160.285 7      6605.593    23982119.520   128108160.305 6      6605.593    23982132.680    99639733.578 7      5137.684    23982132.860    99639735.575 7      5137.684
G07  24098931.220   126640733.271 7      3102.658    24098929.700   126640733.276 6      3102.658    24098940.420    98681117.420 6      2417.656    24098940.780    98681124.418 7      2417.656
R18  22545615.100   120350055.755 7      4310.071    22545616.260   120350055.754 7      4310.071    22545632.400    93605679.260 7      3352.277    22545632.580    93605681.266 7      3352.277
> 2024 04 02 15 19 47.0000000  0 17
G02  22186526.500   116590996.220 7      3998.793    22186525.340   116590996.225 6      3998.793    22186534.180    90850170.322 6      3115.942
G26  23776408.920   124945869.983 6      -772.663    23776407.460   124945869.990 6      -772.663    23776427.480    97360476.952 6      -602.075    23776427.640    97360481.956 7      -602.075
R02  23665887.880   126285686.908 7      5784.873    23665887.420   126285686.917 6      5784.873    23665911.660    98222289.299 7      4499.346    23665912.080    98222291.297 7      4499.346
G27  21332565.880   112103367.699 7      1752.618    21332564.820   112103367.701 8      1752.618    21332575.760    87353309.296 8      1365.676    21332576.240    87353310.299 8      1365.676
R14  20210377.160   107732633.379 8      -172.995    20210376.760   107732633.372 8      -172.995    20210393.020    83792106.390 8      -134.551    20210393.280    83792104.393 8      -134.551
G16  21502330.440   112995477.029 7       394.438    21502328.600   112995477.042 6       394.438    21502341.120    88048451.637 6       307.355
G10  22465176.860   118055301.651 7      1581.396    22465175.180   118055301.664 7      1581.396    22465190.120    91991144.299 7      1232.257    22465189.680    91991197.307 8      1232.257
G21  20861007.960   109625334.359 8      3139.093    20861006.220   109625334.362 6      3139.093    20861014.520    85422375.412 6      2446.046
R17  20548063.840   109956827.387 8      2306.579    20548062.620   109956827.407 7      2306.579    20548075.480    85522029.502 8      1794.006    20548075.380    85522029.502 8      1794.006
G08  21259298.180   111718353.907 7      3433.688    21259297.100   111718353.902 7      3433.688    21259306.460    87053298.813 8      2675.601    21259307.340    87053301.815 8      2675.601
R15  20142438.560   107635068.572 8      3961.078    20142435.680   107635068.566 7      3961.078    20142447.940    83716212.000 8      3080.838    20142447.620    83716210.001 8      3080.838
R01  22945060.420   122654557.129 6      3974.629    22945059.240   122654557.127 6      3974.629    22945085.780    95398088.358 6      3091.378    22945085.020    95398084.353 6      3091.378
R24  21954236.180   117399150.266 7       236.175    21954235.540   117399150.262 7       236.175    21954250.320    91310513.773 7       183.691    21954251.100    91310500.763 7       183.691
G23  24576500.220   129150378.975 6       -97.542    24576498.080   129150378.985 4       -97.542    24576512.760   100636707.099 4       -76.007    24576513.400   100636718.096 7       -76.007
R16  23980882.640   128101555.070 7      6605.047    23980883.020   128101555.064 7      6605.047    23980896.160    99634596.177 7      5137.259    23980896.140    99634598.174 7      5137.259
G07  24098341.080   126637631.287 7      3101.776    24098339.400   126637631.291 6      3101.776    24098350.100    98678700.287 6      2416.968    24098350.720    98678707.281 7      2416.968
R18  22544807.740   120345746.096 7      4309.513    22544808.880   120345746.094 7      4309.513    22544825.160    93602327.298 7      3351.843    22544825.040    93602329.307 7      3351.843
> 2024 04 02 15 19 48.0000000  0 17
G02  22185765.860   116586997.590 7      3998.218    22185764.520   116586997.598 6      3998.218    22185773.360    90847054.508 6      3115.494
G26  23776556.140   124946642.641 6      -773.049    23776554.520   124946642.654 6      -773.049    23776574.480    97361079.015 6      -602.376    23776574.520    97361084.021 7      -602.376
R02  23664803.700   126279902.063 7      5784.464    23664803.720   126279902.066 7      5784.464    23664827.780    98217789.965 7      4499.027    23664828.500    98217791.962 7      4499.027
G27  21332232.340   112101615.084 7      1752.320    21332231.300   112101615.089 8      1752.320    21332242.240    87351943.616 8      1365.444    21332242.740    87351944.619 8      1365.444
R14  20210409.340   107732806.681 8      -173.849    20210409.400   107732806.676 8      -173.849    20210425.500    83792241.172 8      -135.216    20210425.840    83792239.173 8      -135.216
G16  21502255.260   112995082.749 7       393.842    21502253.540   112995082.759 6       393.842    21502266.200    88048144.398 6       306.890
G10  22464875.800   118053720.484 7      1580.656    22464874.360   118053720.492 7      1580.656    22464889.200    91989912.219 7      1231.680    22464888.960    91989965.227 8      1231.680
G21  20860410.700   109622195.479 8      3138.364    20860408.980   109622195.482 6      3138.364    20860417.180    85419929.533 6      2445.478
R17  20547632.660   109954520.915 7      2306.172    20547631.540   109954520.930 7      2306.172    20547644.420    85520235.575 8      1793.690    20547644.260    85520235.575 8      1793.690
G08  21258644.700   111714920.233 7      3433.385    21258643.700   111714920.230 7      3433.385    21258653.040    87050623.223 8      2675.365    21258653.940    87050626.225 8      2675.365
R15  20141696.800   107631107.907 8      3960.031    20141694.360   107631107.900 7      3960.031    20141706.620    83713131.480 8      3080.024    20141706.600    83713129.482 8      3080.024
R01  22944316.520   122650582.703 6      3973.977    22944316.200   122650582.699 6      3973.977    22944341.940    95394997.151 6      3090.871    22944341.540    95394993.156 6      3090.871
R24  21954192.500   117398913.997 7       235.964    21954191.780   117398913.990 7       235.964    21954205.900    91310330.004 7       183.527    21954206.460    91310316.994 7       183.527
G23  24576518.060   129150476.679 6       -97.942    24576516.700   129150476.690 4       -97.942    24576531.420   100636783.230 4       -76.318    24576531.960   100636794.235 7       -76.318
R16  23979645.840   128094950.112 7      6604.536    23979646.440   128094950.116 7      6604.536    23979659.820    99629458.989 7      5136.861    23979659.980    99629460.982 7      5136.861
G07  24097750.560   126634529.825 7      3100.992    24097749.220   126634529.827 6      3100.992    24097760.120    98676283.557 6      2416.357    24097761.100    98676290.554 7      2416.357
R18  22544000.580   120341436.780 7      4308.896    22544001.780   120341436.784 7      4308.896    22544017.740    93598975.615 7      3351.363    22544018.080    93598977.621 7      3351.363
> 2024 04 02 15 19 49.0000000  0 17
G02  22185005.120   116582999.362 7      3998.025    22185003.540   116582999.367 6      3998.025    22185012.480    90843939.006 6      3115.344
G26  23776703.280   124947415.499 6      -772.987    23776701.580   124947415.509 6      -772.987    23776721.480    97361681.240 6      -602.327    23776721.520    97361686.246 7      -602.327
R02  23663719.980   126274117.170 7      5784.829    23663719.800   126274117.184 7      5784.829    23663743.560    98213290.595 7      4499.311    23663744.240    98213292.597 7      4499.311
G27  21331898.920   112099862.685 7      1752.284    21331897.840   112099862.690 8      1752.284    21331908.820    87350578.108 8      1365.416    21331909.240    87350579.113 8      1365.416
R14  20210441.840   107732980.654 8      -174.337    20210441.780   107732980.652 8      -174.337    20210458.180    83792376.479 8      -135.595    20210458.400    83792374.482 8      -135.595
G16  21502180.120   112994688.947 7       393.477    21502178.680   112994688.955 6       393.477    21502191.360    88047837.533 6       306.605
G10  22464574.960   118052139.927 7      1580.244    22464573.440   118052139.935 7      1580.244    22464588.420    91988680.619 7      1231.359    22464588.080    91988733.624 8      1231.359
G21  20859813.420   109619057.078 8      3138.169    20859811.700   109619057.083 6      3138.169    20859820.020    85417484.025 6      2445.326
R17  20547201.540   109952214.731 8      2305.970    20547200.260   109952214.746 7      2305.970    20547213.360    85518441.877 8      1793.533    20547212.800    85518441.877 8      1793.533
G08  21257991.200   111711486.745 7      3433.289    21257990.340   111711486.740 8      3433.289    21257999.640    87047947.780 7      2675.290    21258000.620    87047950.780 8      2675.290
R15  20140955.780   107627148.134 8      3959.242    20140953.240   107627148.133 8      3959.242    20140965.620    83710051.663 8      3079.410    20140965.820    83710049.667 8      3079.410
R01  22943573.060   122646608.946 6      3973.319    22943572.420   122646608.963 6      3973.319    22943598.660    95391906.473 6      3090.359    22943598.520    95391902.476 6      3090.359
R24  21954148.540   117398677.728 7       236.215    21954147.820   117398677.732 7       236.215    21954161.780    91310146.239 7       183.723    21954162.340    91310133.232 7       183.723
G23  24576536.900   129150574.862 6       -98.471    24576535.520   129150574.872 4       -98.471    24576550.040   100636859.736 4       -76.730    24576550.860   100636870.743 7       -76.730
R16  23978409.760   128088345.478 7      6604.421    23978410.220   128088345.487 7      6604.421    23978423.340    99624322.049 7      5136.772    23978423.420    99624324.038 7      5136.772
G07  24097160.560   126631428.910 7      3100.622    24097159.180   126631428.918 6      3100.622    24097169.780    98673867.262 6      2416.069    24097170.660    98673874.267 7      2416.069
R18  22543193.240   120337127.761 7      4308.796    22543194.320   120337127.775 7      4308.796    22543210.800    93595624.176 7      3351.286    22543210.660    93595626.186 7      3351.286
> 2024 04 02 15 19 50.0000000  0 17
G02  22184244.280   116579001.697 7      3997.432    22184242.660   116579001.699 6      3997.432    22184251.640    90840823.948 6      3114.882
G26  23776850.700   124948188.720 6      -773.363    23776848.640   124948188.730 6      -773.363    23776868.660    97362283.746 6      -602.620    23776869.220    97362288.750 7      -602.620
R02  23662636.140   126268332.442 7      5784.707    23662635.780   126268332.456 7      5784.707    23662659.460    98208791.362 7      4499.217    23662660.160    98208793.364 7      4499.217
G27  21331565.540   112098110.638 8      1751.933    21331564.420   112098110.643 8      1751.933    21331575.440    87349212.872 8      1365.143    21331575.940    87349213.874 8      1365.143
R14  20210474.680   107733155.470 8      -175.158    20210474.740   107733155.468 8      -175.158    20210490.980    83792512.438 8      -136.234    20210491.240    83792510.441 8      -136.234
G16  21502105.420   112994295.739 7       392.934    21502103.820   112994295.755 6       392.934    21502116.520    88047531.135 6       306.183
G10  22464274.340   118050560.135 7      1579.504    22464273.000   118050560.140 7      1579.504    22464287.840    91987449.607 7      1230.782    22464287.440    91987502.615 8      1230.782
G21  20859216.280   109615919.328 8      3137.496    20859214.520   109615919.332 6      3137.496    20859222.800    85415039.029 6      2444.802
R17  20546770.720   109949908.968 7      2305.580    20546769.500   109949908.983 7      2305.580    20546782.640    85516648.503 8      1793.229    20546782.200    85516648.503 8      1793.229
G08  21257337.820   111708053.552 7      3433.030    21257337.040   111708053.551 7      3433.030    21257346.400    87045272.562 7      2675.088    21257347.320    87045275.568 8      2675.088
R15  20140214.920   107623189.379 8      3958.242    20140212.300   107623189.378 7      3958.242    20140224.920    83706972.632 8      3078.633    20140224.940    83706970.633 8      3078.633
R01  22942829.980   122642635.985 6      3972.602    22942829.440   122642635.997 6      3972.602    22942855.160    95388816.403 6      3089.802    22942854.900    95388812.408 6      3089.802
R24  21954104.080   117398441.668 7       235.945    21954104.300   117398441.677 7       235.945    21954117.420    91309962.636 7       183.513    21954118.380    91309949.629 7       183.513
G23  24576555.900   129150673.594 6       -98.920    24576554.460   129150673.601 4       -98.920    24576568.840   100636936.668 4       -77.080    24576569.420   100636947.656 7       -77.080
R16  23977173.360   128081741.291 7      6604.083    23977174.040   128081741.308 7      6604.083    23977187.520    99619185.460 7      5136.509    23977187.180    99619187.448 7      5136.509
G07  24096570.180   126628328.673 7      3100.046    24096569.060   126628328.678 6      3100.046    24096579.740    98671451.487 6      2415.621    24096581.040    98671458.493 7      2415.621
R18  22542386.120   120332819.217 7      4308.432    22542386.880   120332819.218 7      4308.432    22542403.620    93592273.078 7      3351.003    22542403.760    93592275.082 7      3351.003
> 2024 04 02 15 19 51.0000000  0 17
G02  22183483.840   116575004.362 7      3997.216    22183482.120   116575004.364 6      3997.216    22183490.880    90837709.148 6      3114.714
G26  23776997.660   124948962.090 6      -773.439    23776995.980   124948962.098 6      -773.439    23777015.760    97362886.366 6      -602.680    23777016.040    97362891.374 7      -602.680
R02  23661552.180   126262547.738 7      5784.758    23661551.480   126262547.744 7      5784.758    23661575.420    98204292.138 7      4499.256    23661575.840    98204294.139 7      4499.256
G27  21331232.140   112096358.730 8      1751.887    21331231.040   112096358.735 8      1751.887    21331242.040    87347847.747 8      1365.107    21331242.620    87347848.746 8      1365.107
R14  20210507.780   107733330.934 8      -175.776    20210507.620   107733330.926 8      -175.776    20210523.900    83792648.897 8      -136.715    20210524.300    83792646.898 8      -136.715
G16  21502030.520   112993902.970 7       392.611    21502029.100   112993902.978 6       392.611    21502041.680    88047225.075 6       305.930
G10  22463973.680   118048980.892 7      1579.039    22463972.420   118048980.894 7      1579.039    22463987.340    91986219.028 7      1230.420    22463987.240    91986272.034 8      1230.420
G21  20858619.360   109612782.000 8      3137.193    20858617.540   109612782.005 6      3137.193    20858625.960    85412594.363 6      2444.566
R17  20546339.800   109947603.408 8      2305.481    20546338.760   109947603.417 7      2305.481    20546351.840    85514855.286 8      1793.152    20546351.220    85514855.288 8      1793.152
G08  21256684.460   111704620.458 7      3433.118    21256683.720   111704620.458 7      3433.118    21256693.020    87042597.420 7      2675.157    21256693.960    87042600.424 8      2675.157
R15  20139474.200   107619231.402 8      3957.655    20139471.700   107619231.398 7      3957.655    20139484.160    83703894.199 8      3078.176    20139484.220    83703892.200 8      3078.176
R01  22942086.660   122638663.620 6      3972.173    22942086.460   122638663.624 6      3972.173    22942112.340    95385726.794 6      3089.468    22942112.040    95385722.797 6      3089.468
R24  21954059.560   117398205.511 7       236.190    21954060.160   117398205.528 7       236.190    21954073.280    91309778.959 7       183.703    21954074.300    91309765.952 7       183.703
G23  24576574.940   129150772.669 6       -99.262    24576573.500   129150772.674 4       -99.262    24576587.840   100637013.868 4       -77.347    24576588.260   100637024.864 7       -77.347
R16  23975936.680   128075137.362 7      6603.937    23975937.800   128075137.389 7      6603.937    23975951.320    99614049.066 7      5136.396    23975951.080    99614051.061 7      5136.396
G07  24095980.540   126625228.935 7      3099.589    24095979.300   126625228.943 6      3099.589    24095990.020    98669036.111 6      2415.265    24095990.860    98669043.117 7      2415.265
R18  22541579.140   120328510.913 7      4308.320    22541579.680   120328510.911 7      4308.320    22541596.660    93588922.181 7      3350.915    22541596.800    93588924.189 7      3350.915
> 2024 04 02 15 19 52.0000000  0 17
G02  22182723.000   116571007.419 7      3996.761    22182721.520   116571007.426 6      3996.761    22182730.340    90834594.655 6      3114.359
G26  23777145.000   124949735.616 6      -773.546    23777142.880   124949735.623 6      -773.546    23777162.940    97363489.113 6      -602.763    23777163.280    97363494.119 7      -602.763
R02  23660468.040   126256763.146 7      5784.498    23660467.780   126256763.166 7      5784.498    23660491.400    98199793.011 7      4499.054    23660491.820    98199795.014 7      4499.054
G27  21330898.860   112094607.011 7      1751.541    21330897.780   112094607.018 8      1751.541    21330908.620    87346482.773 8      1364.837    21330909.360    87346483.771 8      1364.837
R14  20210540.560   107733507.090 8      -176.523    20210540.600   107733507.083 8      -176.523    20210556.960    83792785.902 8      -137.296    20210557.500    83792783.905 8      -137.296
G16  21501955.920   112993510.653 7       392.029    21501954.480   112993510.663 6       392.029    21501967.200    88046919.367 6       305.477
G10  22463673.300   118047402.232 7      1578.375    22463671.980   118047402.242 7      1578.375    22463686.920    91984988.910 7      1229.902    22463686.740    91985041.916 8      1229.902
G21  20858022.320   109609645.157 7      3136.572    20858020.600   109609645.162 6      3136.572    20858029.040    85410150.069 6      2444.082
R17  20545909.340   109945298.105 7      2305.157    20545908.140   109945298.114 7      2305.157    20545921.080    85513062.276 8      1792.900    20545920.700    85513062.279 8      1792.900
G08  21256031.180   111701187.519 7      3432.907    21256030.380   111701187.519 8      3432.907    21256039.820    87039922.407 8      2674.992    21256040.640    87039925.411 8      2674.992
R15  20138733.820   107615274.264 8      3956.753    20138731.160   107615274.257 8      3956.753    20138743.680    83700816.426 8      3077.475    20138743.400    83700814.432 8      3077.475
R01  22941344.660   122634691.899 6      3971.493    22941343.380   122634691.887 6      3971.493    22941369.200    95382637.678 6      3088.939    22941369.140    95382633.681 6      3088.939
R24  21954015.360   117397969.317 7       236.242    21954016.060   117397969.334 7       236.242    21954029.400    91309595.248 7       183.744    21954030.180    91309582.243 7       183.744
G23  24576593.920   129150872.137 6       -99.626    24576592.600   129150872.139 4       -99.626    24576606.880   100637091.370 4       -77.630    24576607.060   100637102.367 7       -77.630
R16  23974700.540   128068533.723 7      6603.622    23974701.540   128068533.740 7      6603.622    23974715.700    99608912.896 7      5136.150    23974715.180    99608914.891 7      5136.150
G07  24095391.040   126622129.718 7      3099.041    24095389.580   126622129.722 6      3099.041    24095400.220    98666621.136 6      2414.837    24095400.900    98666628.130 7      2414.837
R18  22540772.120   120324202.927 7      4307.853    22540772.460   120324202.944 7      4307.853    22540789.500    93585571.544 7      3350.552    22540789.960    93585573.550 7      3350.552
> 2024 04 02 15 19 53.0000000  0 17
G02  22181962.540   116567010.867 7      3996.329    22181960.900   116567010.869 6      3996.329    22181969.900    90831480.455 6      3114.023
G26  23777291.980   124950509.346 6      -773.938    23777290.240   124950509.356 6      -773.938    23777310.320    97364092.013 6      -603.069    23777310.320    97364097.022 7      -603.069
R02  23659384.280   126250978.693 7      5784.261    23659383.940   126250978.697 7      5784.261    23659407.400    98195293.973 7      4498.869    23659408.000    98195295.975 7      4498.869
G27  21330565.560   112092855.468 8      1751.293    21330564.400   112092855.473 8      1751.293    21330575.420    87345117.925 8      1364.644    21330576.100    87345118.926 8      1364.644
R14  20210573.940   107733683.966 8      -177.315    20210573.760   107733683.961 8      -177.315    20210590.200    83792923.462 8      -137.912    20210590.540    83792921.462 8      -137.912
G16  21501881.140   112993118.769 7       391.605    21501879.840   112993118.784 6       391.605    21501892.440    88046613.995 6       305.147
G10  22463373.100   118045824.166 7      1577.683    22463371.700   118045824.173 7      1577.683    22463386.700    91983759.244 7      1229.363    22463386.440    91983812.249 8      1229.363
G21  20857425.380   109606508.783 7      3135.988    20857423.620   109606508.791 6      3135.988    20857432.260    85407706.142 6      2443.627
R17  20545478.400   109942993.056 7      2304.923    20545477.280   109942993.071 7      2304.923    20545490.320    85511269.458 8      1792.718    20545489.840    85511269.459 8      1792.718
G08  21255378.020   111697754.741 7      3432.583    21255377.160   111697754.741 8      3432.583    21255386.500    87037247.509 8      2674.740    21255387.220    87037250.513 8      2674.740
R15  20137993.640   107611317.991 8      3955.796    20137990.480   107611317.979 7      3955.796    20138003.440    83697739.317 8      3076.730    20138003.200    83697737.323 8      3076.730
R01  22940601.960   122630720.801 6      3970.678    22940599.900   122630720.803 6      3970.678    22940626.340    95379549.071 6      3088.305    22940626.120    95379545.080 6      3088.305
R24  21953971.480   117397733.093 7       236.093    21953972.380   117397733.113 7       236.093    21953985.060    91309411.512 7       183.628    21953985.780    91309398.511 7       183.628
G23  24576613.220   129150971.990 6      -100.185    24576611.560   129150971.995 4      -100.185    24576625.760   100637169.182 4       -78.066    24576625.860   100637180.181 7       -78.066
R16  23973464.600   128061930.341 7      6603.221    23973465.480   128061930.355 7      6603.221    23973479.600    99603776.932 7      5135.838    23973478.980    99603778.923 7      5135.838
G07  24094801.480   126619031.039 7      3098.307    24094799.860   126619031.046 6      3098.307    24094810.640    98664206.581 6      2414.265    24094811.200    98664213.594 7      2414.265
R18  22539964.620   120319895.247 7      4307.450    22539965.600   120319895.259 7      4307.450    22539982.660    93582221.135 7      3350.239    22539982.640    93582223.145 7      3350.239
> 2024 04 02 15 19 54.0000000  0 17
G02  22181202.120   116563014.654 7      3996.150    22181200.460   116563014.659 6      3996.150    22181209.340    90828366.525 6      3113.883
G26  23777439.320   124951283.232 6      -773.987    23777437.440   124951283.239 6      -773.987    23777457.540    97364695.039 6      -603.107    23777457.800    97364700.045 7      -603.107
