     3.05           OBSERVATION DATA    MIXED               RINEX VERSION / TYPE
TPS2RIN 1.0.28.3459 TPS-USER            20260427 143533 UTC PGM / RUN BY / DATE
Win64 build Jun 01, 2022 (c) Topcon Positioning Systems     COMMENT
SRC: 20240708_LM007G1.tps                                   COMMENT
Observer            Agency                                  OBSERVER / AGENCY
O0M3X53SBGM         TPS HIPER_SR        4.8 HSR Jul,08,2022 REC # / TYPE / VERS
FW: 4.8 HSR Jul,08,2022 p3                                  COMMENT
SN: HiPer SR 1212-12575                                     COMMENT
000                 TPSHIPER_SR     NONE                    ANT # / TYPE
        1.7570        0.0000        0.0000                  ANTENNA: DELTA H/E/N
LM007                                                       MARKER NAME
  5389677.5001 -1601149.6712  3006197.5356                  APPROX POSITION XYZ
  2024     7     8    10     3   10.0000000     GPS         TIME OF FIRST OBS
  2024     7     8    10    23   59.0000000     GPS         TIME OF LAST OBS
     1.000                                                  INTERVAL
  1250 EPOCHS                                               COMMENT
G   12 C1C L1C D1C C1W L1W D1W C2W L2W D2W C2X L2X D2X      SYS / # / OBS TYPES
R   12 C1C L1C D1C C1P L1P D1P C2P L2P D2P C2C L2C D2C      SYS / # / OBS TYPES
    20                                                      # OF SATELLITES
   G02  1250  1250  1250  1250  1250  1250  1250  1250  1250PRN / # OF OBS
           0     0     0                                    PRN / # OF OBS
   G03  1250  1250  1250  1250  1250  1250  1250  1250  1250PRN / # OF OBS
        1250  1250  1250                                    PRN / # OF OBS
   G07  1250  1250  1250  1250  1250  1250  1250  1250  1250PRN / # OF OBS
        1250  1250  1250                                    PRN / # OF OBS
   G08  1250  1250  1250  1250  1250  1250  1250  1250  1250PRN / # OF OBS
        1250  1250  1250                                    PRN / # OF OBS
   G10  1157  1157  1157  1155  1155  1155  1155  1155  1155PRN / # OF OBS
        1157  1157  1157                                    PRN / # OF OBS
   G14   864   864   864   862   862   862   862   862   862PRN / # OF OBS
         858   858   858                                    PRN / # OF OBS
   G16  1250  1250  1250  1250  1250  1250  1250  1250  1250PRN / # OF OBS
           0     0     0                                    PRN / # OF OBS
   G21  1250  1250  1250  1250  1250  1250  1250  1250  1250PRN / # OF OBS
           0     0     0                                    PRN / # OF OBS
   G27  1250  1250  1250  1250  1250  1250  1250  1250  1250PRN / # OF OBS
        1250  1250  1250                                    PRN / # OF OBS
   G30   217   217   217   217   217   217   217   217   217PRN / # OF OBS
         217   217   217                                    PRN / # OF OBS
   G32  1250  1250  1250  1250  1250  1250  1250  1250  1250PRN / # OF OBS
        1250  1250  1250                                    PRN / # OF OBS
   R02   611   611   611   611   611   611   611   611   611PRN / # OF OBS
         611   611   611                                    PRN / # OF OBS
   R03  1250  1250  1250  1250  1250  1250  1250  1250  1250PRN / # OF OBS
        1250  1250  1250                                    PRN / # OF OBS
   R04  1250  1250  1250  1250  1250  1250  1250  1250  1250PRN / # OF OBS
        1250  1250  1250                                    PRN / # OF OBS
   R09  1250  1250  1250  1250  1250  1250  1250  1250  1250PRN / # OF OBS
        1250  1250  1250                                    PRN / # OF OBS
   R15   683   683   683   676   676   676   676   676   676PRN / # OF OBS
         675   675   675                                    PRN / # OF OBS
   R16  1250  1250  1250  1250  1250  1250  1250  1250  1250PRN / # OF OBS
        1250  1250  1250                                    PRN / # OF OBS
   R17  1074  1074  1074  1069  1069  1069  1069  1069  1069PRN / # OF OBS
        1068  1068  1068                                    PRN / # OF OBS
   R18  1250  1250  1250  1250  1250  1250  1250  1250  1250PRN / # OF OBS
        1250  1250  1250                                    PRN / # OF OBS
   R19   398   398   398   392   392   392   392   392   392PRN / # OF OBS
         391   391   391                                    PRN / # OF OBS
G L1C                                                       SYS / PHASE SHIFT
G L1W -0.25000                                              SYS / PHASE SHIFT
G L2W  0.00000                                              SYS / PHASE SHIFT
G L2X  0.25000                                              SYS / PHASE SHIFT
R L1C                                                       SYS / PHASE SHIFT
R L1P -0.25000                                              SYS / PHASE SHIFT
R L2P -0.25000                                              SYS / PHASE SHIFT
R L2C                                                       SYS / PHASE SHIFT
  9 R02 -4 R03  5 R04  6 R09 -2 R15  0 R16 -1 R17  4 R18 -3 GLONASS SLOT / FRQ #
    R19  3                                                  GLONASS SLOT / FRQ #
                                                            GLONASS COD/PHS/BIS
               *** Undefined LeapSeconds ***                COMMENT
                                                            END OF HEADER
> 2024 07 08 10 03 10.0000000  0 18
G30  25362680.740   133281782.332 5      2159.809    25362678.960   133281782.334 3      2159.809    25362689.360   103855959.240 3      1682.968    25362689.300   103855976.242 5      1682.968
G02  21573950.000   113371862.410 8      2907.320    21573948.300   113371862.415 6      2907.320    21573949.440    88341710.142 6      2265.444
G03  22669834.620   119130792.052 7      6330.244    22669833.760   119130792.054 7      6330.244    22669840.840    92829223.263 7      4932.657    22669841.640    92829226.262 7      4932.657
G08  20829903.860   109461874.910 8      2577.523    20829902.720   109461874.915 8      2577.523    20829908.000    85294983.866 8      2008.460    20829908.860    85294987.867 8      2008.460
G21  21099757.340   110879965.690 7      1912.806    21099753.660   110879965.695 6      1912.806    21099756.120    86399966.486 6      1490.498
R16  20719750.120   110681168.573 8       337.628    20719749.700   110681168.569 7       337.628    20719758.140    86085381.256 8       262.599    20719758.300    86085380.260 8       262.599
G27  22477466.340   118119864.428 7       984.088    22477465.380   118119864.433 7       984.088    22477471.760    92041472.843 7       766.822    22477472.720    92041473.835 7       766.822
R18  21223907.940   113294647.272 7      1857.548    21223909.160   113294647.281 7      1857.548    21223916.820    88118089.880 8      1444.759    21223916.720    88118092.883 8      1444.759
R04  22387915.060   119886303.855 7      6641.780    22387916.640   119886303.892 6      6641.780    22387927.180    93244965.619 7      5165.829    22387927.380    93244966.602 7      5165.829
R03  21378388.820   114440189.563 7      4119.514    21378388.620   114440189.586 7      4119.514    21378399.160    89009080.882 8      3204.066    21378399.400    89009081.886 8      3204.066
G16  24123177.960   126768113.326 6      -718.077    24123176.360   126768113.325 4      -718.077    24123183.400    98780356.076 4      -559.541
R09  21644224.100   115578940.247 7      4248.162    21644222.120   115578940.240 7      4248.162    21644231.860    89894772.653 8      3304.126    21644231.660    89894774.654 8      3304.126
G10  24365220.060   128040056.641 7      -202.423    24365218.920   128040056.643 6      -202.423    24365228.260    99771503.031 6      -157.732    24365228.540    99771503.036 7      -157.732
R15  23546297.960   125824208.613 6     -1413.917    23546296.700   125824208.608 6     -1413.917    23546310.060    97863356.877 7     -1099.713    23546310.840    97863355.887 7     -1099.713
R02  23397846.320   124855365.015 7       911.037    23397846.380   124855365.011 7       911.037    23397858.120    97109776.883 7       708.584    23397858.500    97109776.886 7       708.584
G07  24563349.140   129081254.005 6      1407.551    24563347.200   129081254.023 5      1407.551    24563353.120   100582804.556 5      1096.793    24563353.280   100582810.568 7      1096.793
R17  23753771.180   127111198.632 7       898.577    23753771.000   127111198.644 7       898.577    23753785.880    98864342.762 7       698.893    23753785.720    98864339.764 7       698.893
G32  25103989.720   131922351.815 6      3488.551    25103988.440   131922351.822 5      3488.551    25103998.960   102796693.048 5      2718.351    25104000.200   102796695.042 6      2718.351
> 2024 07 08 10 03 11.0000000  0 18
G30  25362270.580   133279622.798 5      2159.022    25362268.160   133279622.798 3      2159.022    25362278.580   103854276.485 3      1682.355    25362280.060   103854293.487 5      1682.355
G02  21573396.740   113368955.001 8      2907.125    21573394.880   113368955.009 6      2907.125    21573396.120    88339444.628 6      2265.292
G03  22668629.860   119124461.842 7      6329.927    22668629.340   119124461.847 7      6329.927    22668636.200    92824290.633 7      4932.410    22668636.920    92824293.631 7      4932.410
G08  20829413.520   109459297.389 8      2577.188    20829412.200   109459297.391 8      2577.188    20829417.520    85292975.404 8      2008.198    20829418.200    85292979.405 8      2008.198
G21  21099393.140   110878052.871 7      1912.504    21099389.800   110878052.878 6      1912.504    21099392.040    86398475.979 6      1490.262
R16  20719687.120   110680831.144 8       336.922    20719686.540   110680831.142 8       336.922    20719694.900    86085118.819 8       262.051    20719695.320    86085117.823 8       262.051
G27  22477279.060   118118880.255 7       983.863    22477278.160   118118880.254 7       983.863    22477284.560    92040705.949 7       766.647    22477285.480    92040706.942 7       766.647
R18  21223559.820   113292789.606 7      1857.479    21223561.080   113292789.620 7      1857.479    21223568.740    88116645.037 8      1444.706    21223568.780    88116648.038 8      1444.706
R04  22386674.940   119879661.928 7      6641.616    22386675.440   119879661.967 6      6641.616    22386688.560    93239799.684 7      5165.701    22386687.600    93239800.677 7      5165.701
R03  21377619.400   114436070.227 7      4118.779    21377619.200   114436070.255 7      4118.779    21377629.840    89005876.958 8      3203.495    21377629.840    89005877.960 8      3203.495
G16  24123314.440   126768831.329 6      -718.235    24123313.120   126768831.331 4      -718.235    24123319.880    98780915.549 4      -559.664
R09  21643428.060   115574692.405 7      4247.247    21643426.460   115574692.411 7      4247.247    21643436.220    89891468.792 7      3303.414    21643436.340    89891470.790 8      3303.414
G10  24365258.580   128040258.991 7      -202.616    24365257.400   128040258.991 6      -202.616    24365266.980    99771660.705 6      -157.883    24365266.940    99771660.703 7      -157.883
R15  23546563.160   125825622.469 6     -1414.015    23546562.120   125825622.465 6     -1414.015    23546574.140    97864456.529 7     -1099.789    23546575.680    97864455.545 6     -1099.789
R02  23397675.780   124854454.176 7       910.300    23397675.400   124854454.174 7       910.300    23397687.440    97109068.450 7       708.011    23397687.440    97109068.453 7       708.011
G07  24563081.420   129079846.294 6      1407.425    24563079.300   129079846.307 5      1407.425    24563085.320   100581707.638 5      1096.694    24563085.320   100581713.634 7      1096.694
R17  23753603.420   127110299.796 7       898.648    23753602.500   127110299.803 7       898.648    23753618.080    98863643.661 7       698.949    23753617.760    98863640.661 7       698.949
G32  25103325.540   131918863.338 7      3488.038    25103324.840   131918863.346 5      3488.038    25103335.300   102793974.758 5      2717.952    25103335.920   102793976.753 6      2717.952
> 2024 07 08 10 03 12.0000000  0 18
G30  25361858.700   133277463.704 5      2158.904    25361857.160   133277463.704 3      2158.904    25361867.720   103852594.072 3      1682.263    25361869.160   103852611.049 5      1682.263
G02  21572843.580   113366047.921 8      2906.873    21572841.740   113366047.926 6      2906.873    21572842.960    88337179.369 6      2265.096
G03  22667425.380   119118132.020 7      6329.605    22667424.840   119118132.025 7      6329.605    22667431.680    92819358.298 7      4932.160    22667432.700    92819361.298 7      4932.160
G08  20828923.020   109456720.293 8      2576.900    20828921.720   109456720.300 8      2576.900    20828927.180    85290967.281 8      2007.974    20828927.980    85290971.284 8      2007.974
G21  21099029.180   110876140.322 7      1912.489    21099025.780   110876140.326 6      1912.489    21099028.260    86396985.677 6      1490.251
R16  20719623.920   110680494.505 8       336.313    20719623.360   110680494.501 7       336.313    20719631.820    86084856.983 8       261.577    20719632.240    86084855.988 8       261.577
G27  22477091.900   118117896.446 7       983.724    22477090.940   118117896.449 7       983.724    22477097.280    92039939.345 7       766.539    22477098.180    92039940.338 7       766.539
R18  21223212.040   113290932.094 7      1857.534    21223213.000   113290932.098 7      1857.534    21223220.760    88115200.291 8      1444.749    21223220.880    88115203.294 8      1444.749
R04  22385434.560   119873020.290 7      6641.507    22385433.780   119873020.332 6      6641.507    22385449.100    93234633.984 7      5165.617    22385447.760    93234634.992 7      5165.617
R03  21376849.720   114431951.783 7      4118.057    21376849.600   114431951.808 7      4118.057    21376860.440    89002673.726 8      3202.933    21376860.600    89002674.728 8      3202.933
G16  24123451.060   126769549.556 6      -718.288    24123449.860   126769549.563 4      -718.288    24123456.540    98781475.200 4      -559.705
R09  21642632.440   115570445.475 7      4246.538    21642630.980   115570445.476 7      4246.538    21642640.820    89888165.624 8      3302.863    21642640.780    89888167.625 8      3302.863
G10  24365296.880   128040461.710 7      -202.800    24365295.860   128040461.706 6      -202.800    24365305.480    99771818.655 6      -158.026    24365305.600    99771818.659 7      -158.026
R15  23546827.820   125827036.363 6     -1413.944    23546827.820   125827036.367 6     -1413.944    23546838.720    97865556.227 6     -1099.734    23546840.180    97865555.246 6     -1099.734
R02  23397505.040   124853544.128 7       909.642    23397504.840   124853544.124 7       909.642    23397516.740    97108360.633 7       707.500    23397517.220    97108360.638 7       707.500
G07  24562813.380   129078438.922 6      1407.226    24562811.480   129078438.932 5      1407.226    24562817.580   100580610.973 5      1096.540    24562817.660   100580616.976 7      1096.540
R17  23753435.560   127109401.037 7       898.729    23753435.200   127109401.047 7       898.729    23753450.360    98862944.619 7       699.011    23753449.740    98862941.616 7       699.011
G32  25102661.760   131915375.343 6      3487.799    25102661.200   131915375.350 5      3487.799    25102671.660   102791256.844 5      2717.766    25102672.660   102791258.853 6      2717.766
> 2024 07 08 10 03 13.0000000  0 18
G30  25361447.840   133275304.901 5      2158.339    25361446.180   133275304.904 3      2158.339    25361456.920   103850911.892 3      1681.823    25361457.020   103850928.906 5      1681.823
G02  21572290.200   113363140.911 8      2906.811    21572288.600   113363140.916 6      2906.811    21572289.740    88334914.169 6      2265.047
G03  22666220.900   119111802.364 7      6329.335    22666220.360   119111802.364 7      6329.335    22666227.180    92814426.099 7      4931.949    22666228.560    92814429.099 7      4931.949
G08  20828432.660   109454143.434 7      2576.559    20828431.380   109454143.439 7      2576.559    20828436.740    85288959.339 8      2007.708    20828437.620    85288963.342 8      2007.708
G21  21098665.180   110874227.870 7      1912.259    21098661.800   110874227.877 6      1912.259    21098664.240    86395495.459 6      1490.072
R16  20719560.960   110680158.422 8       335.645    20719560.760   110680158.423 7       335.645    20719568.880    86084595.591 8       261.057    20719569.180    86084594.597 8       261.057
G27  22476904.720   118116912.832 7       983.434    22476903.680   118116912.832 7       983.434    22476910.300    92039172.886 7       766.312    22476911.000    92039173.880 7       766.312
R18  21222864.160   113289074.492 7      1857.412    21222864.680   113289074.493 7      1857.412    21222872.740    88113755.496 8      1444.654    21222872.840    88113758.496 8      1444.654
R04  22384194.220   119866378.738 7      6641.348    22384194.700   119866378.775 6      6641.348    22384208.120    93229468.347 7      5165.493    22384207.480    93229469.357 7      5165.493
R03  21376080.340   114427833.999 7      4117.226    21376080.480   114427834.025 7      4117.226    21376091.340    88999471.000 8      3202.287    21376091.400    88999471.997 8      3202.287
G16  24123587.840   126770267.814 6      -718.476    24123586.500   126770267.822 4      -718.476    24123593.460    98782034.872 4      -559.851
R09  21641837.360   115566199.287 7      4245.678    21641836.140   115566199.280 7      4245.678    21641845.640    89884863.034 8      3302.194    21641845.600    89884865.030 8      3302.194
G10  24365335.700   128040664.578 7      -203.151    24365334.560   128040664.582 6      -203.151    24365344.280    99771976.734 6      -158.299    24365344.280    99771976.740 7      -158.299
R15  23547092.000   125828450.094 7     -1413.790    23547092.080   125828450.109 6     -1413.790    23547104.160    97866655.810 6     -1099.615    23547104.740    97866654.828 6     -1099.615
R02  23397335.000   124852634.676 7       909.015    23397334.420   124852634.666 7       909.015    23397346.640    97107653.273 7       707.012    23397346.780    97107653.278 7       707.012
G07  24562545.420   129077031.652 6      1407.156    24562543.460   129077031.652 5      1407.156    24562549.900   100579514.383 5      1096.485    24562550.240   100579520.371 6      1096.485
R17  23753267.480   127108502.169 7       898.718    23753267.240   127108502.179 7       898.718    23753282.480    98862245.487 7       699.003    23753281.880    98862242.486 7       699.003
G32  25101998.380   131911887.681 7      3487.365    25101997.700   131911887.688 5      3487.365    25102007.900   102788539.193 5      2717.427    25102008.940   102788541.210 6      2717.427
> 2024 07 08 10 03 14.0000000  0 18
G30  25361037.700   133273146.509 5      2158.315    25361035.420   133273146.511 3      2158.315    25361046.240   103849230.025 3      1681.804    25361046.420   103849247.060 5      1681.804
G02  21571736.860   113360234.178 8      2906.704    21571735.380   113360234.180 6      2906.704    21571736.680    88332649.178 6      2264.964
G03  22665016.400   119105473.031 7      6329.193    22665015.900   119105473.033 7      6329.193    22665022.740    92809494.159 7      4931.838    22665023.960    92809497.163 7      4931.838
G08  20827942.420   109451566.934 8      2576.330    20827941.200   109451566.934 8      2576.330    20827946.580    85286951.675 8      2007.530    20827947.300    85286955.678 8      2007.530
G21  21098301.640   110872315.649 7      1912.142    21098297.900   110872315.654 6      1912.142    21098300.360    86394005.413 6      1489.981
R16  20719498.300   110679823.038 8       335.094    20719497.840   110679823.042 8       335.094    20719506.320    86084334.731 8       260.628    20719506.540    86084333.736 8       260.628
G27  22476717.340   118115929.508 7       983.294    22476716.700   118115929.510 7       983.294    22476723.020    92038406.665 7       766.203    22476723.520    92038407.659 7       766.203
R18  21222516.240   113287216.954 7      1857.510    21222516.380   113287216.949 7      1857.510    21222524.800    88112310.744 8      1444.730    21222524.880    88112313.747 8      1444.730
R04  22382953.680   119859737.417 7      6641.242    22382955.600   119859737.448 6      6641.242    22382967.200    93224302.881 7      5165.410    22382967.320    93224303.891 7      5165.410
R03  21375311.080   114423717.022 7      4116.545    21375311.260   114423717.039 7      4116.545    21375322.280    88996268.902 8      3201.757    21375322.420    88996269.901 8      3201.757
G16  24123724.520   126770986.233 6      -718.515    24123723.160   126770986.240 4      -718.515    24123730.260    98782594.672 4      -559.882
R09  21641042.440   115561953.933 7      4244.982    21641041.060   115561953.929 7      4244.982    21641050.680    89881561.096 8      3301.652    21641050.640    89881563.094 8      3301.652
G10  24365374.240   128040867.745 7      -203.352    24365373.380   128040867.747 6      -203.352    24365383.000    99772135.042 6      -158.456    24365383.060    99772135.047 7      -158.456
R15  23547356.600   125829863.890 7     -1413.886    23547356.700   125829863.893 6     -1413.886    23547369.820    97867755.437 6     -1099.689    23547369.560    97867754.450 7     -1099.689
R02  23397164.800   124851725.997 7       908.257    23397164.160   124851725.984 7       908.257    23397176.460    97106946.519 7       706.422    23397176.500    97106946.526 7       706.422
G07  24562277.440   129075624.622 6      1406.915    24562275.720   129075624.627 5      1406.915    24562282.180   100578417.995 5      1096.297    24562282.260   100578423.998 6      1096.297
R17  23753099.580   127107603.288 7       898.887    23753099.380   127107603.300 7       898.887    23753114.620    98861546.354 7       699.135    23753114.080    98861543.354 7       699.135
G32  25101334.360   131908400.499 6      3486.962    25101334.360   131908400.507 5      3486.962    25101344.300   102785821.922 5      2717.113    25101345.000   102785823.934 6      2717.113
> 2024 07 08 10 03 15.0000000  0 18
G30  25360626.800   133270988.381 5      2157.872    25360624.700   133270988.389 3      2157.872    25360635.580   103847548.372 3      1681.459    25360635.440   103847565.382 5      1681.459
G02  21571183.940   113357327.473 7      2906.520    21571182.360   113357327.481 6      2906.520    21571183.580    88330384.215 6      2264.821
G03  22663811.820   119099143.827 7      6328.884    22663811.400   119099143.835 7      6328.884    22663818.320    92804562.314 7      4931.598    22663819.200    92804565.322 7      4931.598
G08  20827451.960   109448990.588 8      2576.096    20827450.960   109448990.593 8      2576.096    20827456.200    85284944.128 8      2007.347    20827456.960    85284948.133 8      2007.347
G21  21097937.680   110870403.441 7      1912.058    21097934.000   110870403.446 6      1912.058    21097936.480    86392515.381 6      1489.915
R16  20719435.480   110679488.138 7       334.505    20719435.080   110679488.139 8       334.505    20719443.480    86084074.253 8       260.171    20719443.900    86084073.256 8       260.171
G27  22476530.700   118114946.327 7       982.971    22476529.460   118114946.327 7       982.971    22476536.120    92037640.543 7       765.951    22476536.640    92037641.540 8       765.951
R18  21222168.280   113285359.296 7      1857.584    21222168.380   113285359.288 7      1857.584    21222176.660    88110865.894 8      1444.787    21222176.640    88110868.901 8      1444.787
R04  22381713.660   119853096.135 7      6641.211    22381714.980   119853096.166 6      6641.211    22381725.940    93219137.423 7      5165.386    22381726.880    93219138.425 7      5165.386
R03  21374542.220   114419600.601 7      4115.960    21374542.220   114419600.629 7      4115.960    21374553.280    88993067.245 8      3201.302    21374553.260    88993068.243 8      3201.302
G16  24123860.960   126771704.604 6      -718.473    24123859.660   126771704.609 4      -718.473    24123867.160    98783154.432 4      -559.849
R09  21640247.480   115557709.249 7      4244.216    21640246.360   115557709.242 7      4244.216    21640256.080    89878259.671 8      3301.057    21640255.920    89878261.667 8      3301.057
G10  24365412.820   128041070.989 7      -203.415    24365412.100   128041070.988 7      -203.415    24365421.660    99772293.408 6      -158.505    24365421.720    99772293.410 7      -158.505
R15  23547620.700   125831277.511 7     -1413.605    23547620.760   125831277.504 6     -1413.605    23547634.820    97868854.908 6     -1099.470    23547634.360    97868853.915 7     -1099.470
R02  23396994.640   124850817.862 7       907.690    23396994.060   124850817.861 7       907.690    23397006.220    97106240.190 7       705.981    23397006.260    97106240.197 7       705.981
G07  24562009.320   129074217.654 6      1406.944    24562008.020   129074217.656 5      1406.944    24562014.360   100577321.651 5      1096.320    24562014.680   100577327.656 6      1096.320
R17  23752931.680   127106704.176 7       899.097    23752931.420   127106704.186 7       899.097    23752946.520    98860847.039 7       699.298    23752946.220    98860844.034 7       699.298
G32  25100671.220   131904913.594 6      3486.596    25100670.980   131904913.599 5      3486.596    25100680.740   102783104.855 5      2716.828    25100681.660   102783106.857 6      2716.828
> 2024 07 08 10 03 16.0000000  0 18
G30  25360216.420   133268830.776 5      2157.521    25360214.360   133268830.784 3      2157.521    25360224.920   103845867.121 3      1681.185    25360223.840   103845884.134 5      1681.185
G02  21570630.780   113354421.150 7      2906.302    21570629.320   113354421.162 6      2906.302    21570630.520    88328119.551 6      2264.651
G03  22662607.520   119092815.083 7      6328.629    22662607.340   119092815.088 7      6328.629    22662614.020    92799630.817 7      4931.399    22662614.700    92799633.819 7      4931.399
G08  20826961.920   109446414.727 8      2575.815    20826960.740   109446414.734 8      2575.815    20826966.040    85282936.966 8      2007.128    20826966.880    85282940.971 8      2007.128
G21  21097574.020   110868491.589 7      1911.896    21097570.220   110868491.591 6      1911.896    21097572.820    86391025.624 6      1489.789
R16  20719373.180   110679154.066 8       333.808    20719372.520   110679154.067 7       333.808    20719381.000    86083814.415 8       259.629    20719381.380    86083813.421 8       259.629
G27  22476343.600   118113963.559 7       982.748    22476342.420   118113963.559 7       982.748    22476349.100    92036874.741 7       765.778    22476349.900    92036875.737 8       765.778
R18  21221820.140   113283501.843 7      1857.532    21221820.100   113283501.846 7      1857.532    21221828.620    88109421.215 8      1444.747    21221828.500    88109424.220 8      1444.747
R04  22380473.860   119846455.260 7      6640.806    22380474.140   119846455.289 6      6640.806    22380485.380    93213972.298 7      5165.071    22380486.540    93213973.286 7      5165.071
R03  21373773.500   114415485.173 7      4115.070    21373773.520   114415485.204 7      4115.070    21373784.400    88989866.355 8      3200.610    21373784.600    88989867.356 8      3200.610
G16  24123997.640   126772423.283 6      -718.667    24123996.220   126772423.290 4      -718.667    24124003.820    98783714.435 4      -560.000
R09  21639453.340   115553465.563 7      4243.284    21639451.840   115553465.567 7      4243.284    21639461.440    89874959.034 8      3300.332    21639461.080    89874961.033 8      3300.332
G10  24365451.540   128041274.674 7      -203.723    24365450.760   128041274.676 7      -203.723    24365460.400    99772452.111 7      -158.745    24365460.600    99772452.112 7      -158.745
R15  23547885.260   125832691.285 7     -1413.709    23547884.920   125832691.278 6     -1413.709    23547899.740    97869954.497 7     -1099.551    23547899.180    97869953.504 7     -1099.551
R02  23396824.500   124849910.694 7       906.867    23396824.000   124849910.695 7       906.867    23396835.960    97105534.608 7       705.341    23396836.340    97105534.613 7       705.341
G07  24561740.880   129072811.107 6      1406.562    24561740.440   129072811.112 5      1406.562    24561746.760   100576225.634 5      1096.022    24561746.780   100576231.623 6      1096.022
R17  23752764.180   127105805.193 7       899.078    23752763.580   127105805.200 7       899.078    23752778.380    98860147.830 7       699.283    23752778.320    98860144.823 7       699.283
G32  25100007.920   131901427.220 6      3486.328    25100007.480   131901427.219 5      3486.328    25100017.420   102780388.191 5      2716.619    25100018.240   102780390.181 6      2716.619
> 2024 07 08 10 03 17.0000000  0 18
G30  25359805.000   133266673.550 5      2157.279    25359803.960   133266673.555 3      2157.279    25359814.320   103844186.168 3      1680.997    25359814.960   103844203.166 5      1680.997
G02  21570077.960   113351515.013 7      2906.126    21570076.220   113351515.023 6      2906.126    21570077.520    88325855.027 6      2264.513
G03  22661403.280   119086486.580 7      6328.448    22661403.040   119086486.585 7      6328.448    22661409.560    92794699.522 7      4931.258    22661410.480    92794702.522 7      4931.258
G08  20826471.700   109443839.168 8      2575.623    20826470.560   109443839.171 8      2575.623    20826475.900    85280930.037 8      2006.979    20826476.760    85280934.042 8      2006.979
G21  21097210.080   110866579.901 7      1911.783    21097206.360   110866579.906 6      1911.783    21097208.940    86389535.997 6      1489.701
R16  20719310.620   110678820.670 7       333.159    20719310.220   110678820.668 8       333.159    20719318.780    86083555.100 8       259.124    20719318.960    86083554.108 8       259.124
G27  22476156.900   118112981.049 7       982.473    22476155.480   118112981.051 7       982.473    22476162.040    92036109.147 7       765.563    22476163.000    92036110.144 8       765.563
R18  21221472.260   113281644.382 7      1857.565    21221472.020   113281644.386 7      1857.565    21221480.740    88107976.523 8      1444.773    21221480.660    88107979.530 8      1444.773
R04  22379233.780   119839814.536 7      6640.905    22379233.580   119839814.561 6      6640.905    22379245.840    93208807.286 7      5165.149    22379246.300    93208808.282 7      5165.149
R03  21373004.580   114411370.487 7      4114.442    21373004.840   114411370.502 7      4114.442    21373015.840    88986666.039 8      3200.121    21373015.820    88986667.040 8      3200.121
G16  24124135.220   126773142.061 6      -718.769    24124132.920   126773142.071 4      -718.769    24124140.520    98784274.514 4      -560.080
R09  21638658.580   115549222.668 7      4242.668    21638657.440   115549222.650 7      4242.668    21638666.920    89871658.986 8      3299.853    21638666.620    89871660.982 8      3299.853
G10  24365490.660   128041478.585 7      -203.909    24365489.660   128041478.590 7      -203.909    24365499.220    99772611.005 7      -158.890    24365499.500    99772611.007 7      -158.890
R15  23548149.600   125834104.960 7     -1413.468    23548149.000   125834104.953 6     -1413.468    23548164.060    97871054.016 7     -1099.364    23548163.760    97871053.019 7     -1099.364
R02  23396654.460   124849004.232 7       906.258    23396654.040   124849004.230 7       906.258    23396666.160    97104829.578 7       704.868    23396666.720    97104829.587 7       704.868
G07  24561473.740   129071404.720 6      1406.521    24561472.880   129071404.723 5      1406.521    24561479.320   100575129.728 5      1095.990    24561479.180   100575135.710 6      1095.990
R17  23752595.760   127104906.111 7       899.320    23752595.380   127104906.125 7       899.320    23752610.140    98859448.540 7       699.471    23752610.380    98859445.535 7       699.471
G32  25099344.500   131897941.268 6      3485.797    25099344.140   131897941.268 5      3485.797    25099354.240   102777671.861 5      2716.206    25099355.100   102777673.862 6      2716.206
> 2024 07 08 10 03 18.0000000  0 18
G30  25359394.200   133264516.631 5      2156.397    25359393.420   133264516.636 3      2156.397    25359403.800   103842505.452 3      1680.309    25359404.900   103842522.470 5      1680.309
G02  21569524.740   113348609.020 7      2905.705    21569523.120   113348609.025 6      2905.705    21569524.420    88323590.613 6      2264.186
G03  22660198.800   119080158.314 7      6327.890    22660198.700   119080158.322 7      6327.890    22660205.360    92789768.408 7      4930.823    22660206.500    92789771.410 7      4930.823
G08  20825981.580   109441263.904 8      2574.887    20825980.520   109441263.906 8      2574.887    20825985.920    85278923.332 8      2006.406    20825986.640    85278927.337 8      2006.406
G21  21096846.420   110864668.345 7      1911.316    21096842.460   110864668.353 6      1911.316    21096845.260    86388046.475 6      1489.337
R16  20719248.600   110678487.853 8       332.297    20719247.800   110678487.856 7       332.297    20719256.440    86083296.243 8       258.453    20719256.700    86083295.246 8       258.453
G27  22475969.820   118111998.731 7       982.110    22475968.540   118111998.730 7       982.110    22475975.220    92035343.698 7       765.280    22475976.160    92035344.697 8       765.280
R18  21221124.040   113279786.876 7      1857.270    21221123.860   113279786.879 7      1857.270    21221132.920    88106531.792 8      1444.543    21221132.660    88106534.801 8      1444.543
R04  22377993.120   119833173.958 7      6640.473    22377994.320   119833173.984 6      6640.473    22378006.820    93203642.403 7      5164.812    22378006.080    93203643.396 7      5164.812
R03  21372236.080   114407256.488 7      4113.393    21372236.160   114407256.516 7      4113.393    21372247.140    88983466.266 8      3199.305    21372246.840    88983467.268 8      3199.305
G16  24124271.980   126773860.937 6      -719.353    24124269.800   126773860.944 4      -719.353    24124277.280    98784834.666 4      -560.535
R09  21637863.980   115544980.515 7      4241.609    21637862.880   115544980.505 7      4241.609    21637872.340    89868359.552 8      3299.029    21637872.060    89868361.549 8      3299.029
G10  24365529.180   128041682.699 7      -204.461    24365528.500   128041682.703 7      -204.461    24365538.140    99772770.046 7      -159.321    24365537.840    99772770.057 7      -159.321
R15  23548413.680   125835518.547 7     -1413.679    23548413.420   125835518.532 6     -1413.679    23548428.840    97872153.447 7     -1099.528    23548428.200    97872152.448 7     -1099.528
R02  23396484.760   124848098.392 7       905.321    23396484.220   124848098.393 7       905.321    23396496.320    97104125.040 7       704.138    23396496.780    97104125.047 7       704.138
G07  24561206.380   129069998.491 6      1406.057    24561205.360   129069998.494 5      1406.057    24561211.620   100574033.950 5      1095.629    24561211.720   100574039.943 6      1095.629
R17  23752427.820   127104006.943 7       899.085    23752427.440   127104006.958 7       899.085    23752442.380    98858749.179 7       699.288    23752442.340    98858746.172 7       699.288
G32  25098681.340   131894455.645 6      3485.278    25098680.700   131894455.645 5      3485.278    25098691.140   102774955.793 5      2715.801    25098691.240   102774957.790 6      2715.801
> 2024 07 08 10 03 19.0000000  0 18
G30  25358983.940   133262360.178 5      2156.142    25358983.080   133262360.183 3      2156.142    25358993.340   103840825.103 3      1680.111    25358992.640   103840842.107 5      1680.111
G02  21568971.800   113345703.298 7      2905.704    21568970.280   113345703.300 6      2905.704    21568971.500    88321326.412 6      2264.185
G03  22658994.740   119073830.400 7      6327.723    22658994.400   119073830.410 7      6327.723    22659001.260    92784837.574 7      4930.693    22659002.440    92784840.574 7      4930.693
G08  20825491.620   109438689.002 8      2574.726    20825490.580   109438689.005 8      2574.726    20825495.900    85276916.917 8      2006.280    20825496.660    85276920.922 8      2006.280
G21  21096482.640   110862757.063 7      1911.124    21096478.880   110862757.067 6      1911.124    21096481.460    86386557.162 6      1489.187
R16  20719186.200   110678155.794 8       331.805    20719185.860   110678155.801 7       331.805    20719194.440    86083037.973 8       258.071    20719194.600    86083036.977 8       258.071
G27  22475782.940   118111016.783 7       981.848    22475781.780   118111016.787 7       981.848    22475788.400    92034578.541 7       765.077    22475789.160    92034579.541 8       765.077
R18  21220776.100   113277929.508 7      1857.270    21220776.000   113277929.509 7      1857.270    21220785.180    88105087.169 8      1444.544    21220784.820    88105090.176 8      1444.544
R04  22376753.280   119826533.632 7      6640.194    22376754.520   119826533.669 7      6640.194    22376767.100    93198477.715 7      5164.595    22376766.480    93198478.717 7      5164.595
R03  21371467.660   114403143.341 7      4112.791    21371467.920   114403143.366 7      4112.791    21371478.600    88980267.146 8      3198.837    21371478.640    88980268.147 8      3198.837
G16  24124408.360   126774579.923 6      -718.927    24124406.460   126774579.930 4      -718.927    24124414.100    98785394.903 4      -560.203
R09  21637070.000   115540739.299 7      4240.963    21637068.640   115540739.286 7      4240.963    21637077.980    89865060.822 8      3298.526    21637077.860    89865062.821 8      3298.526
G10  24365568.220   128041887.141 7      -204.612    24365567.380   128041887.140 7      -204.612    24365577.160    99772929.342 7      -159.438    24365576.920    99772929.344 7      -159.438
R15  23548678.100   125836932.289 6     -1414.030    23548677.360   125836932.260 6     -1414.030    23548693.140    97873252.979 7     -1099.801    23548692.820    97873251.984 7     -1099.801
R02  23396315.280   124847193.302 7       904.664    23396314.580   124847193.303 7       904.664    23396326.860    97103421.075 7       703.627    23396327.400    97103421.082 7       703.627
G07  24560938.880   129068592.525 6      1405.928    24560937.940   129068592.525 5      1405.928    24560944.120   100572938.386 5      1095.528    24560944.180   100572944.381 6      1095.528
R17  23752259.120   127103107.842 7       899.107    23752259.000   127103107.862 7       899.107    23752274.220    98858049.874 7       699.306    23752274.200    98858046.869 7       699.306
G32  25098017.820   131890970.495 6      3485.007    25098017.420   131890970.495 5      3485.007    25098028.120   102772240.100 5      2715.590    25098028.120   102772242.115 6      2715.590
> 2024 07 08 10 03 20.0000000  0 18
G30  25358574.380   133260204.029 5      2155.896    25358572.740   133260204.039 3      2155.896    25358582.880   103839144.991 3      1679.919    25358582.580   103839162.021 5      1679.919
G02  21568418.820   113342797.765 7      2905.345    21568417.320   113342797.773 6      2905.345    21568418.660    88319062.362 6      2263.905
G03  22657790.580   119067502.733 7      6327.441    22657790.340   119067502.741 7      6327.441    22657797.060    92779906.924 7      4930.473    22657798.640    92779909.928 7      4930.473
G08  20825001.740   109436114.400 8      2574.428    20825000.560   109436114.405 8      2574.428    20825005.940    85274910.736 8      2006.048    20825006.600    85274914.736 8      2006.048
G21  21096118.980   110860845.906 7      1911.040    21096115.140   110860845.908 6      1911.040    21096117.700    86385067.943 6      1489.122
R16  20719124.020   110677824.377 8       331.075    20719123.940   110677824.381 8       331.075    20719132.420    86082780.194 8       257.503    20719132.500    86082779.195 8       257.503
G27  22475596.180   118110035.071 7       981.559    22475594.760   118110035.073 7       981.559    22475601.500    92033813.571 7       764.851    22475602.300    92033814.573 7       764.851
R18  21220428.280   113276072.125 7      1857.346    21220427.720   113276072.126 7      1857.346    21220437.220    88103642.537 8      1444.603    21220436.920    88103645.542 8      1444.603
R04  22375513.040   119819893.467 7      6640.011    22375515.080   119819893.504 7      6640.011    22375526.680    93193313.155 7      5164.453    22375526.240    93193314.163 7      5164.453
R03  21370699.880   114399030.940 7      4112.000    21370699.980   114399030.963 7      4112.000    21370710.400    88977068.622 8      3198.222    21370710.260    88977069.621 8      3198.222
G16  24124545.160   126775299.064 6      -719.292    24124543.320   126775299.071 4      -719.292    24124550.920    98785955.262 4      -560.488
R09  21636275.880   115536498.900 7      4239.901    21636274.720   115536498.890 7      4239.901    21636283.800    89861762.736 8      3297.700    21636283.920    89861764.737 8      3297.700
G10  24365607.400   128042091.800 7      -204.877    24365606.400   128042091.800 7      -204.877    24365616.080    99773088.807 7      -159.645    24365615.960    99773088.813 7      -159.645
R15  23548942.600   125838345.814 6     -1413.616    23548942.040   125838345.796 6     -1413.616    23548957.720    97874352.377 7     -1099.479    23548957.160    97874351.386 7     -1099.479
R02  23396145.580   124846288.893 7       903.976    23396144.780   124846288.880 7       903.976    23396157.420    97102717.626 7       703.092    23396158.020    97102717.632 7       703.092
G07  24560671.200   129067186.711 6      1405.856    24560670.400   129067186.713 5      1405.856    24560676.480   100571842.959 5      1095.472    24560676.920   100571848.974 7      1095.472
R17  23752091.120   127102208.647 7       899.223    23752091.200   127102208.668 7       899.223    23752106.340    98857350.498 7       699.396    23752106.320    98857347.491 7       699.396
G32  25097354.800   131887485.795 6      3484.508    25097354.120   131887485.799 5      3484.508    25097365.280   102769524.747 5      2715.201    25097365.300   102769526.748 6      2715.201
> 2024 07 08 10 03 21.0000000  0 18
G30  25358164.080   133258048.263 5      2155.573    25358162.640   133258048.271 3      2155.573    25358172.620   103837465.174 3      1679.667    25358173.140   103837482.176 5      1679.667
G02  21567866.140   113339892.374 7      2905.302    21567864.360   113339892.377 6      2905.302    21567865.820    88316798.422 6      2263.871
G03  22656586.640   119061175.274 7      6327.294    22656586.240   119061175.281 7      6327.294    22656592.920    92774976.457 7      4930.359    22656594.280    92774979.457 7      4930.359
G08  20824511.880   109433540.071 8      2574.161    20824510.700   109433540.079 8      2574.161    20824516.120    85272904.761 8      2005.840    20824516.740    85272908.764 8      2005.840
G21  21095755.420   110858934.897 8      1910.868    21095751.580   110858934.904 6      1910.868    21095754.020    86383578.851 6      1488.988
R16  20719062.200   110677493.548 8       330.435    20719061.980   110677493.557 7       330.435    20719070.480    86082522.884 8       257.005    20719070.620    86082521.888 8       257.005
G27  22475409.620   118109053.572 7       981.309    22475408.160   118109053.572 7       981.309    22475414.860    92033048.761 7       764.656    22475415.560    92033049.762 7       764.656
R18  21220080.320   113274214.715 7      1857.411    21220079.800   113274214.708 7      1857.411    21220089.260    88102197.875 8      1444.653    21220089.200    88102200.882 8      1444.653
R04  22374272.780   119813253.466 7      6639.911    22374274.620   119813253.510 7      6639.911    22374286.140    93188148.718 7      5164.375    22374286.040    93188149.726 7      5164.375
R03  21369931.320   114394919.286 7      4111.283    21369932.260   114394919.312 7      4111.283    21369942.420    88973870.665 8      3197.664    21369942.260    88973871.666 8      3197.664
G16  24124682.000   126776018.239 6      -719.142    24124680.260   126776018.249 4      -719.142    24124687.780    98786515.653 4      -560.371
R09  21635481.900   115532259.238 7      4239.136    21635481.120   115532259.222 7      4239.136    21635489.620    89858465.222 8      3297.106    21635490.040    89858467.220 8      3297.106
G10  24365646.440   128042296.663 7      -204.990    24365645.240   128042296.660 7      -204.990    24365655.040    99773248.436 7      -159.732    24365655.060    99773248.434 7      -159.732
R15  23549207.300   125839759.355 6     -1413.507    23549206.520   125839759.338 6     -1413.507    23549221.860    97875451.763 7     -1099.394    23549221.600    97875450.778 7     -1099.394
R02  23395976.240   124845385.123 7       903.418    23395975.560   124845385.121 7       903.418    23395987.700    97102014.697 7       702.659    23395988.380    97102014.702 7       702.659
G07  24560403.920   129065781.120 6      1405.584    24560403.000   129065781.120 5      1405.584    24560409.060   100570747.691 5      1095.260    24560409.480   100570753.678 6      1095.260
R17  23751923.480   127101309.388 7       899.338    23751923.020   127101309.393 7       899.338    23751938.480    98856651.043 7       699.485    23751938.040    98856648.035 7       699.485
G32  25096692.120   131884001.414 6      3484.194    25096690.980   131884001.417 5      3484.194    25096702.380   102766809.643 5      2714.957    25096702.280   102766811.658 7      2714.957
> 2024 07 08 10 03 22.0000000  0 18
G30  25357754.000   133255892.900 5      2155.060    25357752.260   133255892.910 3      2155.060    25357762.400   103835785.670 3      1679.267    25357763.940   103835802.657 5      1679.267
G02  21567313.360   113336987.223 7      2904.980    21567311.500   113336987.228 6      2904.980    21567313.080    88314534.663 6      2263.620
G03  22655382.660   119054848.156 7      6327.046    22655382.140   119054848.161 7      6327.046    22655388.920    92770046.237 7      4930.166    22655389.920    92770049.231 7      4930.166
G08  20824022.060   109430966.087 8      2573.890    20824020.940   109430966.086 8      2573.890    20824026.300    85270899.052 8      2005.629    20824027.100    85270903.053 8      2005.629
G21  21095391.720   110857024.084 7      1910.720    21095387.880   110857024.092 6      1910.720    21095390.560    86382089.904 6      1488.872
R16  20719000.400   110677163.415 8       329.806    20719000.300   110677163.419 8       329.806    20719008.680    86082266.104 8       256.516    20719008.680    86082265.108 8       256.516
G27  22475223.060   118108072.352 7       981.207    22475221.440   118108072.349 7       981.207    22475228.040    92032284.165 7       764.577    22475228.500    92032285.165 7       764.577
R18  21219732.320   113272357.334 7      1857.370    21219731.660   113272357.327 7      1857.370    21219741.580    88100753.243 8      1444.621    21219741.240    88100756.252 8      1444.621
R04  22373032.820   119806613.697 7      6639.630    22373034.620   119806613.752 7      6639.630    22373045.700    93182984.461 7      5164.157    22373046.040    93182985.469 7      5164.157
R03  21369163.560   114390808.424 7      4110.467    21369164.580   114390808.450 7      4110.467    21369174.180    88970673.326 8      3197.030    21369174.540    88970674.329 8      3197.030
G16  24124818.780   126776737.596 6      -719.407    24124817.160   126776737.603 4      -719.407    24124824.700    98787076.180 4      -560.577
R09  21634687.780   115528020.360 7      4238.534    21634687.460   115528020.348 7      4238.534    21634695.760    89855168.321 8      3296.637    21634696.000    89855170.320 8      3296.637
G10  24365685.260   128042501.798 7      -205.281    24365684.360   128042501.803 7      -205.281    24365694.040    99773408.277 7      -159.959    24365694.120    99773408.286 7      -159.959
R15  23549471.800   125841172.862 6     -1413.513    23549471.440   125841172.863 6     -1413.513    23549486.040    97876551.173 7     -1099.399    23549486.100    97876550.191 7     -1099.399
R02  23395807.160   124844482.127 7       902.657    23395806.580   124844482.131 7       902.657    23395818.840    97101312.375 7       702.067    23395819.120    97101312.376 7       702.067
G07  24560136.560   129064375.735 6      1405.344    24560135.600   129064375.734 5      1405.344    24560141.820   100569652.588 5      1095.073    24560142.280   100569658.587 6      1095.073
R17  23751755.460   127100410.033 7       899.414    23751755.020   127100410.048 7       899.414    23751770.540    98855951.545 7       699.544    23751770.120    98855948.538 7       699.544
G32  25096029.020   131880517.507 6      3483.648    25096028.140   131880517.502 5      3483.648    25096039.500   102764094.913 5      2714.531    25096039.800   102764096.915 7      2714.531
> 2024 07 08 10 03 23.0000000  0 18
G30  25357344.080   133253737.863 5      2154.795    25357342.240   133253737.873 3      2154.795    25357352.340   103834106.418 3      1679.061    25357354.100   103834123.426 5      1679.061
G02  21566760.420   113334082.242 7      2904.829    21566758.800   113334082.247 6      2904.829    21566760.120    88312271.037 6      2263.503
G03  22654178.740   119048521.293 7      6326.678    22654178.300   119048521.298 7      6326.678    22654184.960    92765116.214 7      4929.879    22654185.860    92765119.216 7      4929.879
G08  20823532.260   109428392.401 8      2573.523    20823531.160   109428392.404 8      2573.523    20823536.560    85268893.583 8      2005.343    20823537.380    85268897.580 8      2005.343
G21  21095028.080   110855113.445 7      1910.534    21095024.540   110855113.448 6      1910.534    21095027.000    86380601.090 6      1488.728
R16  20718938.820   110676833.937 8       329.046    20718938.880   110676833.943 8       329.046    20718947.100    86082009.847 8       255.925    20718947.080    86082008.851 8       255.925
G27  22475036.320   118107091.402 7       980.774    22475034.760   118107091.407 7       980.774    22475041.380    92031519.795 7       764.240    22475041.800    92031520.793 7       764.240
R18  21219384.180   113270499.964 7      1857.346    21219383.360   113270499.952 7      1857.346    21219393.480    88099308.616 8      1444.603    21219393.340    88099311.625 8      1444.603
R04  22371792.900   119799974.107 7      6639.428    22371795.180   119799974.152 7      6639.428    22371806.180    93177820.330 7      5163.999    22371806.060    93177821.328 7      5163.999
R03  21368395.660   114386698.267 7      4109.782    21368396.900   114386698.306 7      4109.782    21368406.480    88967476.549 8      3196.497    21368406.700    88967477.551 8      3196.497
G16  24124955.800   126777457.015 6      -719.460    24124954.040   126777457.023 4      -719.460    24124961.460    98787636.761 4      -560.618
R09  21633894.060   115523782.292 7      4237.655    21633894.340   115523782.285 7      4237.655    21633902.000    89851872.048 8      3295.954    21633902.340    89851874.049 8      3295.954
G10  24365724.080   128042707.157 7      -205.469    24365723.360   128042707.162 7      -205.469    24365733.160    99773568.293 7      -160.105    24365733.240    99773568.300 7      -160.105
R15  23549735.920   125842586.339 6     -1413.499    23549736.780   125842586.319 6     -1413.499    23549750.120    97877650.515 7     -1099.388    23549750.640    97877649.537 7     -1099.388
R02  23395637.860   124843579.836 7       901.923    23395637.220   124843579.832 7       901.923    23395649.660    97100610.587 7       701.496    23395650.040    97100610.590 7       701.496
G07  24559869.200   129062970.551 6      1405.068    24559868.220   129062970.554 5      1405.068    24559874.520   100568557.632 5      1094.858    24559874.620   100568563.631 7      1094.858
R17  23751587.100   127099510.593 7       899.464    23751586.480   127099510.613 7       899.464    23751602.480    98855251.982 7       699.583    23751602.060    98855248.977 7       699.583
G32  25095365.940   131877033.960 6      3483.213    25095365.280   131877033.954 5      3483.213    25095376.680   102761380.456 5      2714.192    25095376.560   102761382.463 7      2714.192
> 2024 07 08 10 03 24.0000000  0 18
G30  25356933.540   133251583.183 5      2154.584    25356932.260   133251583.195 3      2154.584    25356942.180   103832427.446 3      1678.897    25356943.100   103832444.466 5      1678.897
G02  21566207.980   113331177.463 7      2904.707    21566205.960   113331177.468 6      2904.707    21566207.380    88310007.575 6      2263.408
G03  22652974.720   119042194.708 7      6326.513    22652974.140   119042194.718 7      6326.513    22652981.040    92760186.412 7      4929.750    22652982.000    92760189.412 7      4929.750
G08  20823042.600   109425819.037 8      2573.260    20823041.520   109425819.042 8      2573.260    20823046.840    85266888.366 8      2005.138    20823047.820    85266892.367 8      2005.138
G21  21094664.600   110853202.972 7      1910.508    21094660.860   110853202.972 6      1910.508    21094663.440    86379112.408 6      1488.708
R16  20718877.200   110676505.148 8       328.471    20718877.340   110676505.154 8       328.471    20718885.640    86081754.120 8       255.478    20718885.500    86081753.122 8       255.478
G27  22474849.420   118106110.708 7       980.696    22474848.100   118106110.713 7       980.696    22474854.800    92030755.616 7       764.179    22474855.180    92030756.615 7       764.179
R18  21219036.180   113268642.639 7      1857.425    21219035.440   113268642.622 7      1857.425    21219045.580    88097864.026 8      1444.664    21219045.420    88097867.035 8      1444.664
R04  22370552.840   119793334.708 7      6639.356    22370555.280   119793334.758 7      6639.356    22370567.060    93172656.355 7      5163.944    22370566.460    93172657.352 7      5163.944
R03  21367628.240   114382588.880 7      4109.121    21367629.240   114382588.916 7      4109.121    21367638.940    88964280.361 8      3195.983    21367638.880    88964281.361 8      3195.983
G16  24125093.040   126778176.598 6      -719.546    24125091.040   126778176.608 4      -719.546    24125098.380    98788197.466 4      -560.685
R09  21633100.580   115519545.076 7      4236.811    21633101.080   115519545.074 7      4236.811    21633108.380    89848576.438 8      3295.297    21633108.940    89848578.438 8      3295.297
G10  24365763.460   128042912.782 7      -205.624    24365762.400   128042912.786 7      -205.624    24365772.380    99773728.516 7      -160.226    24365772.520    99773728.516 7      -160.226
R15  23550001.040   125843999.771 6     -1413.496    23550001.080   125843999.759 6     -1413.496    23550014.500    97878749.860 6     -1099.385    23550015.020    97878748.873 7     -1099.385
R02  23395469.160   124842678.265 7       901.317    23395468.280   124842678.266 7       901.317    23395480.720    97099909.363 7       701.024    23395480.720    97099909.362 7       701.024
G07  24559602.180   129061565.594 6      1405.003    24559600.800   129061565.594 5      1405.003    24559607.280   100567462.847 5      1094.808    24559607.800   100567468.836 7      1094.808
R17  23751418.960   127098611.165 7       899.468    23751418.720   127098611.175 7       899.468    23751434.440    98854552.411 7       699.586    23751434.080    98854549.400 7       699.586
G32  25094702.880   131873550.812 7      3483.068    25094702.380   131873550.806 5      3483.068    25094713.920   102758666.321 5      2714.079    25094714.140   102758668.324 7      2714.079
> 2024 07 08 10 03 25.0000000  0 18
G30  25356525.040   133249429.007 5      2154.018    25356522.220   133249429.017 3      2154.018    25356532.260   103830748.866 3      1678.456    25356532.480   103830765.853 5      1678.456
G02  21565655.060   113328272.939 7      2904.534    21565653.280   113328272.941 6      2904.534    21565654.700    88307744.308 6      2263.273
G03  22651771.040   119035868.455 7      6326.173    22651770.480   119035868.465 7      6326.173    22651777.100    92755256.870 7      4929.486    22651777.800    92755259.874 7      4929.486
G08  20822552.820   109423246.043 8      2572.885    20822551.780   109423246.045 8      2572.885    20822557.260    85264883.432 8      2004.846    20822558.160    85264887.435 8      2004.846
G21  21094300.980   110851292.746 8      1910.194    21094297.300   110851292.748 6      1910.194    21094299.840    86377623.920 6      1488.463
R16  20718815.860   110676177.056 8       327.795    20718815.940   110676177.060 8       327.795    20718824.240    86081498.934 8       254.952    20718824.140    86081497.933 8       254.952
G27  22474662.800   118105130.349 7       980.283    22474661.640   118105130.352 7       980.283    22474668.200    92029991.694 7       763.857    22474668.560    92029992.693 7       763.857
R18  21218688.300   113266785.395 7      1857.291    21218687.700   113266785.380 7      1857.291    21218697.680    88096419.496 8      1444.560    21218697.660    88096422.505 8      1444.560
R04  22369313.640   119786695.555 7      6639.197    22369315.820   119786695.594 7      6639.197    22369327.980    93167492.561 7      5163.820    22369326.600    93167493.562 7      5163.820
R03  21366860.820   114378480.280 7      4108.249    21366861.840   114378480.316 7      4108.249    21366871.500    88961084.783 8      3195.305    21366871.480    88961085.785 8      3195.305
G16  24125229.740   126778896.338 6      -719.793    24125227.960   126778896.346 4      -719.793    24125235.440    98788758.288 4      -560.877
R09  21632307.340   115515308.743 7      4236.052    21632308.140   115515308.734 7      4236.052    21632314.760    89845281.498 8      3294.707    21632315.500    89845283.500 8      3294.707
G10  24365802.760   128043118.703 7      -205.904    24365801.700   128043118.702 7      -205.904    24365811.580    99773888.970 7      -160.445    24365811.840    99773888.972 7      -160.445
R15  23550265.340   125845413.158 6     -1413.130    23550264.320   125845413.180 6     -1413.130    23550278.240    97879849.170 6     -1099.101    23550279.520    97879848.186 7     -1099.101
R02  23395300.540   124841777.439 7       900.587    23395299.380   124841777.442 7       900.587    23395312.020    97099208.720 7       700.457    23395311.940    97099208.719 7       700.457
G07  24559334.760   129060160.886 6      1404.654    24559333.540   129060160.883 5      1404.654    24559340.000   100566368.268 5      1094.536    24559340.940   100566374.265 7      1094.536
R17  23751250.780   127097711.714 7       899.573    23751250.360   127097711.737 7       899.573    23751266.180    98853852.844 7       699.668    23751265.740    98853849.841 7       699.668
G32  25094040.100   131870068.156 6      3482.491    25094039.460   131870068.153 5      3482.491    25094051.120   102755952.571 5      2713.629    25094051.460   102755954.584 6      2713.629
> 2024 07 08 10 03 26.0000000  0 18
