     3.05           OBSERVATION DATA    MIXED               RINEX VERSION / TYPE
TPS2RIN 1.0.28.3459 TPS-USER            20260427 143336 UTC PGM / RUN BY / DATE
Win64 build Jun 01, 2022 (c) Topcon Positioning Systems     COMMENT
SRC: 20240402_LM006.tps                                     COMMENT
Observer            Agency                                  OBSERVER / AGENCY
O0M3X53SBGM         TPS HIPER_SR        4.8 HSR Jul,08,2022 REC # / TYPE / VERS
FW: 4.8 HSR Jul,08,2022 p3                                  COMMENT
SN: HiPer SR 1212-12575                                     COMMENT
000                 TPSHIPER_SR     NONE                    ANT # / TYPE
        1.8000        0.0000        0.0000                  ANTENNA: DELTA H/E/N
DELTA H stands for **SLANT** height here!                   COMMENT
LM.006                                                      MARKER NAME
  5390184.0041 -1600526.6284  3005688.6510                  APPROX POSITION XYZ
  2024     4     2    15     4   53.0000000     GPS         TIME OF FIRST OBS
  2024     4     2    15    11   24.0000000     GPS         TIME OF LAST OBS
     1.000                                                  INTERVAL
   392 EPOCHS                                               COMMENT
G   12 C1C L1C D1C C1W L1W D1W C2W L2W D2W C2X L2X D2X      SYS / # / OBS TYPES
R   12 C1C L1C D1C C1P L1P D1P C2P L2P D2P C2C L2C D2C      SYS / # / OBS TYPES
    16                                                      # OF SATELLITES
   G02   392   392   392   392   392   392   392   392   392PRN / # OF OBS
           0     0     0                                    PRN / # OF OBS
   G07   392   392   392   392   392   392   392   392   392PRN / # OF OBS
         392   392   392                                    PRN / # OF OBS
   G08   392   392   392   392   392   392   392   392   392PRN / # OF OBS
         392   392   392                                    PRN / # OF OBS
   G10   392   392   392   392   392   392   392   392   392PRN / # OF OBS
         392   392   392                                    PRN / # OF OBS
   G16   392   392   392   392   392   392   392   392   392PRN / # OF OBS
           0     0     0                                    PRN / # OF OBS
   G21   392   392   392   392   392   392   392   392   392PRN / # OF OBS
           0     0     0                                    PRN / # OF OBS
   G23   392   392   392   392   392   392   392   392   392PRN / # OF OBS
         392   392   392                                    PRN / # OF OBS
   G26   392   392   392   392   392   392   392   392   392PRN / # OF OBS
         392   392   392                                    PRN / # OF OBS
   G27   392   392   392   392   392   392   392   392   392PRN / # OF OBS
         392   392   392                                    PRN / # OF OBS
   R01   392   392   392   392   392   392   392   392   392PRN / # OF OBS
         392   392   392                                    PRN / # OF OBS
   R02   392   392   392   392   392   392   392   392   392PRN / # OF OBS
         392   392   392                                    PRN / # OF OBS
   R14   392   392   392   392   392   392   392   392   392PRN / # OF OBS
         392   392   392                                    PRN / # OF OBS
   R15   392   392   392   392   392   392   392   392   392PRN / # OF OBS
         392   392   392                                    PRN / # OF OBS
   R17   392   392   392   392   392   392   392   392   392PRN / # OF OBS
         392   392   392                                    PRN / # OF OBS
   R18   392   392   392   392   392   392   392   392   392PRN / # OF OBS
         392   392   392                                    PRN / # OF OBS
   R24   392   392   392   392   392   392   392   392   392PRN / # OF OBS
         392   392   392                                    PRN / # OF OBS
G L1C                                                       SYS / PHASE SHIFT
G L1W -0.25000                                              SYS / PHASE SHIFT
G L2W  0.00000                                              SYS / PHASE SHIFT
G L2X  0.25000                                              SYS / PHASE SHIFT
R L1C                                                       SYS / PHASE SHIFT
R L1P -0.25000                                              SYS / PHASE SHIFT
R L2P -0.25000                                              SYS / PHASE SHIFT
R L2C                                                       SYS / PHASE SHIFT
  7 R01  1 R02 -4 R14 -7 R15  0 R17  4 R18 -3 R24  2        GLONASS SLOT / FRQ #
                                                            GLONASS COD/PHS/BIS
               *** Undefined LeapSeconds ***                COMMENT
                                                            END OF HEADER
> 2024 04 02 15 04 53.0000000  0 16
G02  22297413.500   117173697.707 7      4326.698    22297411.860   117173697.712 6      4326.698    22297422.780    91304219.268 6      3371.453
G26  23061473.200   121188870.015 7      -601.903    23061472.700   121188870.020 6      -601.903    23061491.540    94432946.831 6      -469.015    23061491.920    94432951.838 7      -469.015
R02  24036036.840   128260890.835 7      5743.262    24036037.680   128260890.828 6      5743.262    24036059.380    99758563.812 6      4466.981    24036059.040    99758565.803 6      4466.981
G27  21045145.440   110592978.279 7      1887.596    21045144.660   110592978.279 8      1887.596    21045154.360    86176385.616 8      1470.854    21045154.860    86176386.618 8      1470.854
R14  19636241.520   104672202.722 8       463.247    19636241.260   104672202.720 8       463.247    19636256.080    81411778.966 8       360.303    19636256.240    81411776.965 8       360.303
G16  21005648.100   110385422.101 7       792.099    21005646.960   110385422.109 6       792.099    21005657.320    86014648.873 6       617.220
G10  22180414.640   116558863.589 7      2094.041    22180413.640   116558863.588 7      2094.041    22180427.880    90825087.354 7      1631.721    22180427.420    90825140.360 7      1631.721
G21  20832797.660   109477082.983 8      3554.808    20832796.240   109477082.993 6      3554.808    20832804.880    85306852.942 6      2769.980
R17  20354897.240   108923159.706 8      2540.273    20354897.000   108923159.718 7      2540.273    20354909.260    84718065.889 8      1975.768    20354908.920    84718065.889 8      1975.768
G08  21254945.460   111695485.044 7      3533.923    21254944.220   111695485.044 7      3533.923    21254953.700    87035479.440 7      2753.707    21254954.620    87035482.446 8      2753.707
R15  20267383.280   108302743.107 8      4658.707    20267381.040   108302743.106 8      4658.707    20267392.720    84235515.193 8      3623.438    20267392.740    84235513.197 8      3623.438
R01  23054588.360   123239988.948 6      4459.886    23054587.100   123239988.938 6      4459.886    23054617.820    95853457.655 6      3468.800    23054617.140    95853452.652 6      3468.800
R24  21394250.160   114404666.174 7       216.849    21394249.580   114404666.178 7       216.849    21394263.820    88981474.618 7       168.660    21394263.400    88981461.621 7       168.660
G23  23992733.720   126082660.270 6       266.666    23992732.540   126082660.275 4       266.666    23992745.220    98246275.361 4       207.792    23992746.180    98246286.374 7       207.792
G07  24067006.820   126472979.385 6      3550.381    24067005.640   126472979.375 5      3550.381    24067015.620    98550401.531 5      2766.530    24067016.660    98550408.546 7      2766.530
R18  22690578.440   121123855.832 7      4566.690    22690579.120   121123855.832 7      4566.690    22690596.880    94207517.484 7      3551.870    22690597.440    94207519.490 7      3551.870
> 2024 04 02 15 04 54.0000000  0 16
G02  22296590.300   117169371.110 7      4326.444    22296588.600   117169371.112 6      4326.444    22296599.320    91300847.902 6      3371.255
G26  23061587.780   121189472.045 7      -602.004    23061587.300   121189472.042 7      -602.004    23061606.040    94433415.948 7      -469.094    23061606.420    94433420.950 7      -469.094
R02  24034960.600   128255147.487 7      5743.489    24034960.880   128255147.477 6      5743.489    24034982.960    99754096.765 6      4467.158    24034982.820    99754098.750 6      4467.158
G27  21044786.380   110591090.700 7      1887.585    21044785.460   110591090.699 8      1887.585    21044795.220    86174914.775 8      1470.845    21044795.520    86174915.774 8      1470.845
R14  19636154.840   104671739.806 8       462.578    19636154.360   104671739.806 8       462.578    19636169.260    81411418.916 8       359.783    19636169.520    81411416.914 8       359.783
G16  21005497.260   110384630.267 7       791.735    21005496.200   110384630.275 6       791.735    21005506.640    86014031.860 6       616.936
G10  22180016.320   116556769.854 7      2093.539    22180015.260   116556769.853 7      2093.539    22180029.340    90823455.880 7      1631.329    22180029.080    90823508.888 8      1631.329
G21  20832121.240   109473528.374 8      3554.424    20832119.880   109473528.379 6      3554.424    20832128.480    85304083.125 6      2769.681
R17  20354422.440   108920619.546 7      2540.098    20354422.340   108920619.561 7      2540.098    20354434.480    84716090.214 8      1975.632    20354434.260    84716090.214 8      1975.632
G08  21254273.100   111691951.216 7      3533.802    21254271.980   111691951.219 7      3533.802    21254281.240    87032725.814 7      2753.612    21254282.240    87032728.816 8      2753.612
R15  20266511.500   108298084.726 8      4658.025    20266509.280   108298084.730 7      4658.025    20266520.940    84231892.014 8      3622.908    20266520.800    84231890.018 8      3622.908
R01  23053753.820   123235529.289 6      4459.382    23053752.700   123235529.295 6      4459.382    23053782.800    95849989.058 6      3468.408    23053782.420    95849984.064 6      3468.408
R24  21394209.600   114404449.413 7       216.768    21394208.920   114404449.406 7       216.768    21394223.260    88981306.028 7       168.598    21394222.860    88981293.027 7       168.598
G23  23992683.020   126082393.898 6       266.350    23992681.900   126082393.903 4       266.350    23992694.700    98246067.804 4       207.545    23992695.480    98246078.819 7       207.545
G07  24066331.220   126469428.989 6      3550.122    24066330.120   126469428.983 5      3550.122    24066340.100    98547634.997 5      2766.329    24066340.620    98547642.009 7      2766.329
R18  22689723.200   121119289.200 7      4566.463    22689723.380   121119289.201 7      4566.463    22689741.380    94203965.676 7      3551.693    22689741.760    94203967.678 7      3551.693
> 2024 04 02 15 04 55.0000000  0 16
G02  22295767.000   117165044.597 7      4326.775    22295765.260   117165044.602 6      4326.775    22295776.180    91297476.602 6      3371.513
G26  23061702.400   121190074.010 7      -601.574    23061701.780   121190074.009 7      -601.574    23061720.680    94433885.011 7      -468.759    23061721.060    94433890.017 7      -468.759
R02  24033884.480   128249403.773 7      5744.166    24033884.820   128249403.763 6      5744.166    24033906.380    99749629.422 6      4467.685    24033906.640    99749631.417 6      4467.685
G27  21044427.100   110589202.991 8      1887.993    21044426.260   110589202.993 8      1887.993    21044435.980    86173443.839 8      1471.163    21044436.420    86173444.841 8      1471.163
R14  19636068.000   104671277.382 8       462.417    19636067.620   104671277.380 8       462.417    19636082.580    81411059.249 8       359.658    19636082.800    81411057.247 8       359.658
G16  21005346.820   110383838.614 7       791.838    21005345.640   110383838.624 6       791.838    21005355.920    86013414.981 6       617.016
G10  22179618.060   116554676.418 7      2093.573    22179616.700   116554676.418 7      2093.573    22179631.040    90821824.640 7      1631.355    22179630.980    90821877.644 8      1631.355
G21  20831444.960   109469973.957 7      3554.574    20831443.600   109469973.965 6      3554.574    20831451.960    85301313.462 6      2769.798
R17  20353947.920   108918079.416 8      2540.382    20353947.700   108918079.426 8      2540.382    20353959.640    84714114.566 8      1975.853    20353959.660    84714114.564 8      1975.853
G08  21253600.400   111688417.187 7      3534.382    21253599.280   111688417.192 7      3534.382    21253608.860    87029972.035 7      2754.064    21253609.760    87029975.039 8      2754.064
R15  20265639.800   108293426.799 8      4657.971    20265637.460   108293426.801 7      4657.971    20265649.340    84228269.191 8      3622.866    20265649.020    84228267.194 8      3622.866
R01  23052919.580   123231069.803 6      4459.708    23052918.520   123231069.823 6      4459.708    23052948.960    95846520.603 6      3468.661    23052948.180    95846515.600 6      3468.661
R24  21394168.760   114404232.322 7       217.514    21394168.500   114404232.321 7       217.514    21394182.720    88981137.182 8       169.177    21394182.640    88981124.183 8       169.177
G23  23992632.280   126082127.701 6       266.407    23992631.280   126082127.709 4       266.407    23992644.200    98245860.388 4       207.590    23992644.940    98245871.406 7       207.590
G07  24065655.800   126465878.810 6      3550.484    24065654.600   126465878.810 6      3550.484    24065664.560    98544868.632 5      2766.611    24065665.060    98544875.645 7      2766.611
R18  22688867.980   121114722.579 7      4566.863    22688867.700   121114722.580 7      4566.863    22688885.960    94200413.866 7      3552.005    22688886.380    94200415.872 7      3552.005
> 2024 04 02 15 04 56.0000000  0 16
G02  22294943.840   117160717.972 7      4326.602    22294941.920   117160717.974 6      4326.602    22294952.720    91294105.215 6      3371.378
G26  23061817.080   121190675.724 7      -601.671    23061816.240   121190675.727 6      -601.671    23061835.060    94434353.888 6      -468.834    23061835.380    94434358.890 7      -468.834
R02  24032807.940   128243659.448 7      5744.639    24032807.980   128243659.438 6      5744.639    24032829.980    99745161.603 6      4468.053    24032830.080    99745163.603 6      4468.053
G27  21044067.780   110587314.930 8      1888.151    21044067.000   110587314.933 8      1888.151    21044076.680    86171972.621 8      1471.287    21044077.260    86171973.622 8      1471.287
R14  19635981.120   104670815.236 8       461.929    19635980.920   104670815.228 8       461.929    19635995.800    81410699.797 8       359.278    19635995.920    81410697.798 8       359.278
G16  21005196.300   110383046.925 7       791.621    21005195.040   110383046.935 6       791.621    21005205.480    86012798.079 6       616.847
G10  22179219.600   116552583.051 7      2093.224    22179218.340   116552583.054 7      2093.224    22179232.700    90820193.453 7      1631.084    22179232.700    90820246.457 8      1631.084
G21  20830768.380   109466419.543 8      3554.296    20830767.180   109466419.548 6      3554.296    20830775.600    85298543.789 6      2769.581
R17  20353473.360   108915539.080 8      2540.400    20353473.000   108915539.092 7      2540.400    20353484.920    84712138.749 8      1975.867    20353484.980    84712138.749 8      1975.867
G08  21252927.960   111684882.784 7      3534.557    21252926.840   111684882.791 7      3534.557    21252936.180    87027217.959 7      2754.201    21252937.240    87027220.961 8      2754.201
R15  20264767.900   108288769.105 8      4657.521    20264765.860   108288769.098 7      4657.521    20264777.660    84224646.539 8      3622.516    20264777.640    84224644.543 8      3622.516
R01  23052085.500   123226610.347 6      4459.389    23052084.240   123226610.351 6      4459.389    23052114.220    95843052.143 6      3468.413    23052113.680    95843047.140 6      3468.413
R24  21394127.600   114404014.737 7       217.801    21394127.540   114404014.738 7       217.801    21394141.860    88980967.949 7       169.401    21394142.140    88980954.944 8       169.401
G23  23992581.880   126081861.455 7       266.203    23992580.740   126081861.460 4       266.203    23992593.660    98245652.930 4       207.431    23992594.020    98245663.943 7       207.431
G07  24064980.080   126462328.698 6      3549.923    24064979.000   126462328.697 5      3549.923    24064989.000    98542102.316 5      2766.174    24064989.860    98542109.327 7      2766.174
R18  22688013.040   121110155.739 7      4566.883    22688012.620   121110155.745 7      4566.883    22688030.380    94196861.896 7      3552.020    22688031.000    94196863.900 7      3552.020
> 2024 04 02 15 04 57.0000000  0 16
G02  22294120.600   117156391.351 7      4326.781    22294118.620   117156391.356 6      4326.781    22294129.360    91290733.839 6      3371.518
G26  23061931.600   121191277.276 7      -601.267    23061930.680   121191277.276 6      -601.267    23061949.640    94434822.629 6      -468.520    23061949.780    94434827.633 7      -468.520
R02  24031731.520   128237914.659 7      5745.247    24031731.380   128237914.649 6      5745.247    24031753.860    99740693.440 6      4468.525    24031753.600    99740695.433 6      4468.525
G27  21043708.400   110585426.652 8      1888.536    21043707.640   110585426.656 7      1888.536    21043717.360    86170501.237 7      1471.587    21043717.820    86170502.238 8      1471.587
R14  19635894.540   104670353.492 8       461.721    19635894.260   104670353.492 8       461.721    19635909.260    81410340.665 8       359.116    19635909.480    81410338.666 8       359.116
G16  21005045.560   110382255.322 7       791.727    21005044.300   110382255.332 6       791.727    21005054.980    86012181.245 6       616.930
G10  22178821.400   116550489.924 7      2093.192    22178819.980   116550489.921 7      2093.192    22178834.400    90818562.449 7      1631.059    22178834.280    90818615.450 8      1631.059
G21  20830092.160   109462865.237 8      3554.412    20830090.820   109462865.239 6      3554.412    20830099.280    85295774.202 6      2769.672
R17  20352998.460   108912998.669 7      2540.595    20352998.360   108912998.682 7      2540.595    20353010.240    84710162.876 8      1976.018    20353010.040    84710162.876 8      1976.018
G08  21252255.260   111681348.124 7      3535.038    21252254.120   111681348.131 7      3535.038    21252263.560    87024463.678 7      2754.575    21252264.580    87024466.682 8      2754.575
R15  20263896.620   108284111.750 8      4657.365    20263894.260   108284111.746 7      4657.365    20263906.160    84221024.150 8      3622.395    20263905.940    84221022.154 8      3622.395
R01  23051251.660   123222150.998 6      4459.365    23051249.900   123222150.994 6      4459.365    23051280.400    95839583.781 6      3468.395    23051279.480    95839578.780 6      3468.395
R24  21394087.220   114403796.796 7       218.242    21394087.100   114403796.795 7       218.242    21394101.080    88980798.435 7       169.744    21394101.340    88980785.432 7       169.744
G23  23992530.660   126081595.277 6       266.273    23992530.180   126081595.284 4       266.273    23992542.940    98245445.524 4       207.485    23992543.860    98245456.546 7       207.485
G07  24064304.820   126458778.679 6      3550.049    24064303.220   126458778.679 5      3550.049    24064313.520    98539336.075 5      2766.272    24064313.680    98539343.077 7      2766.272
R18  22687157.180   121105588.851 7      4567.005    22687156.640   121105588.855 7      4567.005    22687174.800    94193309.882 7      3552.115    22687175.340    94193311.886 7      3552.115
> 2024 04 02 15 04 58.0000000  0 16
G02  22293297.040   117152064.715 7      4326.548    22293295.160   117152064.717 6      4326.548    22293306.100    91287362.438 6      3371.336
G26  23062046.020   121191878.660 7      -601.359    23062045.220   121191878.659 7      -601.359    23062063.980    94435291.244 6      -468.592    23062064.140    94435296.244 7      -468.592
R02  24030654.620   128232169.293 7      5745.622    24030654.460   128232169.286 6      5745.622    24030676.660    99736224.821 6      4468.817    24030676.920    99736226.824 6      4468.817
G27  21043349.220   110583538.126 8      1888.525    21043348.300   110583538.128 8      1888.525    21043358.000    86169029.659 8      1471.578    21043358.460    86169030.658 8      1471.578
R14  19635808.120   104669892.131 8       461.114    19635807.700   104669892.132 8       461.114    19635822.640    81409981.821 8       358.644    19635823.000    81409979.824 8       358.644
G16  21004894.840   110381463.790 7       791.452    21004893.680   110381463.795 6       791.452    21004904.300    86011564.457 6       616.716
G10  22178423.040   116548396.966 7      2092.737    22178421.740   116548396.969 7      2092.737    22178436.180    90816931.575 7      1630.704    22178436.120    90816984.579 8      1630.704
G21  20829415.760   109459311.007 7      3554.103    20829414.380   109459311.012 6      3554.103    20829423.000    85293004.678 6      2769.431
R17  20352523.840   108910458.125 8      2540.465    20352523.420   108910458.137 7      2540.465    20352535.460    84708186.901 8      1975.917    20352535.120    84708186.901 8      1975.917
G08  21251582.480   111677813.179 7      3535.054    21251581.500   111677813.184 7      3535.054    21251590.920    87021709.178 7      2754.588    21251591.740    87021712.180 8      2754.588
R15  20263025.280   108279454.705 8      4656.803    20263022.700   108279454.701 8      4656.803    20263034.660    84217402.010 8      3621.958    20263034.540    84217400.014 8      3621.958
R01  23050417.580   123217691.702 6      4459.079    23050415.660   123217691.695 6      4459.079    23050445.940    95836115.455 6      3468.172    23050445.100    95836110.447 6      3468.172
R24  21394046.480   114403578.423 7       218.524    21394046.060   114403578.429 7       218.524    21394059.880    88980628.589 7       169.963    21394060.500    88980615.580 8       169.963
G23  23992480.220   126081329.143 7       266.040    23992479.480   126081329.148 5       266.040    23992492.440    98245238.146 5       207.304    23992493.000    98245249.167 7       207.304
G07  24063629.160   126455228.751 6      3549.968    24063627.760   126455228.750 5      3549.968    24063638.000    98536569.896 5      2766.209    24063638.000    98536576.893 6      2766.209
R18  22686301.600   121101021.843 7      4566.918    22686301.600   121101021.844 7      4566.918    22686319.400    94189757.769 7      3552.048    22686319.620    94189759.773 7      3552.048
> 2024 04 02 15 04 59.0000000  0 16
G02  22292473.920   117147738.247 7      4326.254    22292471.800   117147738.254 6      4326.254    22292482.820    91283991.168 6      3371.107
G26  23062160.100   121192480.085 7      -601.535    23062159.640   121192480.085 7      -601.535    23062178.460    94435759.885 7      -468.729    23062178.800    94435764.885 7      -468.729
R02  24029577.720   128226423.648 7      5745.600    24029577.980   128226423.649 6      5745.600    24029600.420    99731755.985 6      4468.800    24029599.960    99731757.989 6      4468.800
G27  21042989.800   110581649.563 8      1888.461    21042988.880   110581649.563 8      1888.461    21042998.600    86167558.041 8      1471.528    21042999.220    86167559.040 8      1471.528
R14  19635721.540   104669431.347 8       460.375    19635721.360   104669431.342 8       460.375    19635736.160    81409623.419 8       358.070    19635736.540    81409621.422 8       358.070
G16  21004744.280   110380672.534 7       790.975    21004743.040   110380672.542 6       790.975    21004753.800    86010947.886 6       616.344
G10  22178024.940   116546304.393 7      2092.281    22178023.380   116546304.395 7      2092.281    22178037.940    90815300.996 7      1630.349    22178038.060    90815354.002 8      1630.349
G21  20828739.420   109455757.087 7      3553.654    20828738.040   109455757.092 6      3553.654    20828746.680    85290235.392 6      2769.081
R17  20352048.820   108907917.711 7      2540.223    20352048.760   108907917.726 7      2540.223    20352060.700    84706211.021 8      1975.729    20352060.480    84706211.022 8      1975.729
G08  21250909.980   111674278.162 7      3534.912    21250908.800   111674278.167 7      3534.912    21250918.320    87018954.617 7      2754.477    21250919.000    87018957.621 8      2754.477
R15  20262153.840   108274798.232 8      4656.086    20262151.660   108274798.227 7      4656.086    20262163.200    84213780.302 8      3621.400    20262163.060    84213778.306 8      3621.400
R01  23049583.120   123213232.716 6      4458.590    23049580.940   123213232.709 6      4458.590    23049611.720    95832647.353 6      3467.792    23049611.640    95832642.356 6      3467.792
R24  21394005.660   114403359.939 7       218.435    21394005.320   114403359.943 7       218.435    21394019.060    88980458.651 7       169.894    21394019.340    88980445.640 7       169.894
G23  23992429.520   126081063.283 7       265.614    23992428.820   126081063.288 5       265.614    23992441.920    98245030.984 5       206.972    23992442.420    98245041.993 7       206.972
G07  24062953.960   126451679.192 6      3549.427    24062952.360   126451679.192 5      3549.427    24062962.560    98533804.005 5      2765.787    24062962.860    98533811.003 6      2765.787
R18  22685446.120   121096454.958 7      4566.764    22685445.880   121096454.959 7      4566.764    22685463.840    94186205.754 7      3551.928    22685464.120    94186207.758 7      3551.928
> 2024 04 02 15 05  0.0000000  0 16
G02  22291650.700   117143411.839 7      4326.327    22291648.500   117143411.844 6      4326.327    22291659.600    91280619.942 6      3371.164
G26  23062274.660   121193081.427 7      -601.472    23062274.100   121193081.429 7      -601.472    23062292.920    94436228.459 6      -468.680    23062292.920    94436233.465 7      -468.680
R02  24028500.980   128220677.543 7      5746.202    24028501.020   128220677.541 6      5746.202    24028523.100    99727286.778 6      4469.268    24028523.220    99727288.782 6      4469.268
G27  21042630.440   110579760.817 7      1888.818    21042629.480   110579760.814 8      1888.818    21042639.200    86166086.282 8      1471.806    21042639.860    86166087.282 8      1471.806
R14  19635635.200   104668970.946 8       460.176    19635635.100   104668970.941 8       460.176    19635649.880    81409265.319 8       357.914    19635650.380    81409263.324 8       357.914
G16  21004593.700   110379881.412 7       790.963    21004592.560   110379881.422 6       790.963    21004603.440    86010331.421 6       616.335
G10  22177626.640   116544212.103 7      2092.048    22177625.320   116544212.105 7      2092.048    22177639.780    90813670.645 7      1630.167    22177639.680    90813723.650 7      1630.167
G21  20828063.280   109452203.330 8      3553.531    20828061.780   109452203.335 6      3553.531    20828070.380    85287466.236 6      2768.985
R17  20351574.200   108905377.268 8      2540.418    20351573.900   108905377.280 7      2540.418    20351585.920    84704235.119 8      1975.881    20351585.820    84704235.119 8      1975.881
G08  21250237.080   111670742.923 7      3535.194    21250236.120   111670742.926 8      3535.194    21250245.600    87016199.884 7      2754.697    21250246.060    87016202.888 8      2754.697
R15  20261282.480   108270142.180 8      4655.734    20261280.060   108270142.184 8      4655.734    20261292.060    84210158.933 8      3621.127    20261291.520    84210156.937 8      3621.127
R01  23048749.040   123208773.883 6      4458.533    23048746.500   123208773.879 6      4458.533    23048777.660    95829179.404 6      3467.748    23048777.200    95829174.405 6      3467.748
R24  21393964.360   114403141.138 7       218.891    21393963.980   114403141.147 7       218.891    21393978.080    88980288.474 7       170.248    21393978.560    88980275.467 7       170.248
G23  23992379.400   126080797.528 7       265.585    23992378.360   126080797.536 5       265.585    23992391.240    98244823.900 5       206.949    23992391.780    98244834.919 7       206.949
G07  24062278.700   126448129.802 6      3549.250    24062276.920   126448129.796 6      3549.250    24062287.220    98531038.236 6      2765.649    24062287.560    98531045.242 6      2765.649
R18  22684590.700   121091888.067 6      4566.756    22684590.880   121091888.071 7      4566.756    22684608.300    94182653.738 7      3551.921    22684608.720    94182655.740 7      3551.921
> 2024 04 02 15 05  1.0000000  0 16
G02  22290827.460   117139085.453 7      4326.394    22290825.280   117139085.457 6      4326.394    22290836.320    91277248.740 6      3371.216
G26  23062389.120   121193682.603 7      -600.985    23062388.420   121193682.605 7      -600.985    23062407.280    94436696.906 7      -468.300    23062407.360    94436701.908 7      -468.300
R02  24027424.220   128214930.988 7      5746.880    24027424.080   128214930.986 6      5746.880    24027446.620    99722817.225 6      4469.795    24027446.580    99722819.226 6      4469.795
G27  21042271.060   110577871.894 8      1889.042    21042270.060   110577871.897 8      1889.042    21042279.760    86164614.395 8      1471.981    21042280.300    86164615.394 8      1471.981
R14  19635548.860   104668510.940 8       459.818    19635548.660   104668510.940 8       459.818    19635563.560    81408907.534 8       357.637    19635564.020    81408905.537 8       357.637
G16  21004443.340   110379090.411 7       790.982    21004442.180   110379090.424 6       790.982    21004452.780    86009715.048 6       616.350
G10  22177228.540   116542120.024 7      2092.015    22177227.120   116542120.028 7      2092.015    22177241.560    90812040.457 7      1630.142    22177241.100    90812093.461 8      1630.142
G21  20827387.080   109448649.694 8      3553.657    20827385.500   109448649.696 6      3553.657    20827394.320    85284697.167 6      2769.083
R17  20351099.540   108902836.758 7      2540.570    20351098.800   108902836.773 7      2540.570    20351111.060    84702259.167 8      1975.999    20351111.100    84702259.167 8      1975.999
G08  21249564.420   111667207.443 8      3535.619    21249563.440   111667207.448 8      3535.619    21249572.760    87013444.966 7      2755.028    21249573.320    87013447.970 8      2755.028
R15  20260411.180   108265486.554 8      4655.398    20260408.920   108265486.550 7      4655.398    20260420.720    84206537.886 8      3620.865    20260420.700    84206535.890 8      3620.865
R01  23047915.200   123204315.186 6      4458.613    23047912.140   123204315.176 6      4458.613    23047943.300    95825711.545 6      3467.810    23047943.040    95825706.546 6      3467.810
R24  21393923.620   114402921.970 7       219.439    21393922.780   114402921.976 7       219.439    21393936.960    88980118.002 8       170.675    21393937.180    88980105.001 7       170.675
G23  23992328.920   126080531.886 7       265.652    23992327.680   126080531.894 5       265.652    23992340.800    98244616.908 5       207.001    23992341.740    98244627.918 7       207.001
G07  24061603.200   126444580.556 6      3549.320    24061601.520   126444580.551 6      3549.320    24061611.720    98528272.590 5      2765.704    24061612.140    98528279.594 7      2765.704
R18  22683734.620   121087321.094 7      4567.130    22683735.000   121087321.095 7      4567.130    22683752.880    94179101.652 7      3552.212    22683753.060    94179103.656 7      3552.212
> 2024 04 02 15 05  2.0000000  0 16
G02  22290004.080   117134759.195 7      4326.231    22290002.080   117134759.200 6      4326.231    22290013.060    91273877.638 6      3371.089
G26  23062503.840   121194283.800 7      -601.106    23062502.880   121194283.802 6      -601.106    23062521.740    94437165.371 6      -468.395    23062521.820    94437170.371 7      -468.395
R02  24026347.340   128209184.115 7      5747.012    24026347.200   128209184.102 6      5747.012    24026369.600    99718347.422 6      4469.898    24026369.620    99718349.424 6      4469.898
G27  21041911.620   110575982.856 8      1889.193    21041910.620   110575982.858 8      1889.193    21041920.260    86163142.413 8      1472.099    21041920.900    86163143.410 8      1472.099
R14  19635462.680   104668051.424 8       459.274    19635462.540   104668051.422 8       459.274    19635477.340    81408550.121 8       357.213    19635477.820    81408548.126 8       357.213
G16  21004292.880   110378299.641 7       790.655    21004291.600   110378299.652 6       790.655    21004302.360    86009098.854 6       616.095
G10  22176830.560   116540028.309 7      2091.567    22176829.140   116540028.312 7      2091.567    22176843.640    90810410.546 7      1629.792    22176843.140    90810463.551 8      1629.792
G21  20826711.060   109445096.304 8      3553.383    20826709.320   109445096.309 6      3553.383    20826718.080    85281928.294 6      2768.870
R17  20350624.860   108900296.296 8      2540.460    20350624.180   108900296.311 7      2540.460    20350636.280    84700283.254 8      1975.914    20350636.400    84700283.255 8      1975.914
G08  21248891.540   111663671.832 7      3535.724    21248890.500   111663671.831 7      3535.724    21248899.980    87010689.936 7      2755.109    21248900.660    87010692.940 8      2755.109
R15  20259540.100   108260831.403 8      4654.937    20259537.920   108260831.402 8      4654.937    20259549.320    84202917.214 8      3620.507    20259549.600    84202915.217 8      3620.507
R01  23047081.020   123199856.718 6      4458.310    23047078.400   123199856.717 6      4458.310    23047109.980    95822243.878 6      3467.574    23047108.760    95822238.877 6      3467.574
R24  21393882.600   114402702.505 7       219.661    21393881.800   114402702.512 7       219.661    21393896.020    88979947.303 7       170.847    21393896.100    88979934.302 7       170.847
G23  23992278.360   126080266.439 7       265.408    23992277.160   126080266.446 5       265.408    23992290.340    98244410.066 5       206.812    23992290.740    98244421.079 7       206.812
G07  24060928.140   126441031.600 6      3548.700    24060926.160   126441031.597 6      3548.700    24060936.400    98525507.171 6      2765.221    24060936.760    98525514.182 6      2765.221
R18  22682879.180   121082754.211 6      4566.907    22682879.740   121082754.199 7      4566.907    22682897.380    94175549.630 7      3552.039    22682897.520    94175551.634 7      3552.039
> 2024 04 02 15 05  3.0000000  0 16
G02  22289180.640   117130433.063 7      4326.125    22289178.800   117130433.070 6      4326.125    22289189.820    91270506.634 6      3371.007
G26  23062618.420   121194884.963 7      -601.102    23062617.380   121194884.968 7      -601.102    23062636.080    94437633.810 6      -468.391    23062636.200    94437638.814 7      -468.391
R02  24025270.480   128203436.852 7      5747.424    24025269.920   128203436.845 6      5747.424    24025293.000    99713877.327 6      4470.219    24025292.960    99713879.326 7      4470.219
G27  21041551.940   110574093.739 8      1889.176    21041551.140   110574093.742 8      1889.176    21041560.840    86161670.370 8      1472.085    21041561.500    86161671.371 8      1472.085
R14  19635376.740   104667592.439 8       458.770    19635376.440   104667592.442 8       458.770    19635391.240    81408193.130 8       356.821    19635391.640    81408191.133 8       356.821
G16  21004142.420   110377509.074 7       790.462    21004141.240   110377509.079 6       790.462    21004151.940    86008482.817 6       615.944
G10  22176432.440   116537936.910 7      2091.246    22176431.120   116537936.918 7      2091.246    22176445.700    90808780.892 7      1629.542    22176445.340    90808833.898 8      1629.542
G21  20826035.100   109441543.159 8      3553.046    20826033.220   109441543.167 6      3553.046    20826041.880    85279159.616 6      2768.607
R17  20350150.280   108897755.894 8      2540.444    20350149.420   108897755.906 8      2540.444    20350161.700    84698307.381 8      1975.901    20350161.300    84698307.386 8      1975.901
G08  21248218.700   111660136.078 7      3535.887    21248217.760   111660136.075 7      3535.887    21248227.140    87007934.801 7      2755.237    21248227.920    87007937.805 8      2755.237
R15  20258669.000   108256176.725 8      4654.447    20258666.840   108256176.721 7      4654.447    20258678.440    84199296.904 8      3620.125    20258678.380    84199294.908 8      3620.125
R01  23046247.060   123195398.494 6      4458.101    23046244.780   123195398.493 6      4458.101    23046275.080    95818776.397 6      3467.412    23046274.700    95818771.390 6      3467.412
R24  21393841.460   114402482.781 7       219.869    21393840.980   114402482.785 7       219.869    21393854.900    88979776.401 7       171.009    21393855.100    88979763.400 7       171.009
G23  23992227.680   126080001.206 7       265.101    23992226.700   126080001.211 5       265.101    23992239.900    98244203.392 5       206.572    23992240.380    98244214.397 7       206.572
G07  24060252.640   126437482.877 6      3548.452    24060250.880   126437482.882 5      3548.452    24060261.160    98522741.937 6      2765.027    24060261.880    98522748.939 6      2765.027
R18  22682023.720   121078187.345 7      4566.899    22682023.900   121078187.340 7      4566.899    22682041.860    94171997.639 7      3552.033    22682042.180    94171999.643 7      3552.033
> 2024 04 02 15 05  4.0000000  0 16
G02  22288357.560   117126106.973 7      4325.858    22288355.560   117126106.978 6      4325.858    22288366.680    91267135.655 6      3370.799
G26  23062732.560   121195486.016 7      -601.166    23062731.640   121195486.018 7      -601.166    23062750.540    94438102.158 7      -468.441    23062750.420    94438107.162 7      -468.441
R02  24024193.360   128197689.144 7      5747.701    24024193.260   128197689.132 6      5747.701    24024215.800    99709406.879 6      4470.434    24024215.880    99709408.870 6      4470.434
G27  21041192.300   110572204.417 8      1889.193    21041191.500   110572204.420 8      1889.193    21041201.260    86160198.169 8      1472.098    21041202.080    86160199.166 8      1472.098
R14  19635290.720   104667133.917 8       458.140    19635290.340   104667133.915 8       458.140    19635305.080    81407836.491 8       356.331    19635305.700    81407834.492 8       356.331
G16  21003992.100   110376718.627 7       790.171    21003990.780   110376718.637 6       790.171    21004001.480    86007866.880 6       615.718
G10  22176034.620   116535845.763 7      2090.794    22176033.220   116535845.766 7      2090.794    22176047.860    90807151.427 7      1629.190    22176047.520    90807204.435 8      1629.190
G21  20825358.840   109437990.146 8      3552.734    20825357.100   109437990.153 6      3552.734    20825365.760    85276391.038 6      2768.365
R17  20349675.520   108895215.418 7      2540.312    20349674.700   108895215.428 7      2540.312    20349686.820    84696331.456 8      1975.798    20349686.720    84696331.463 8      1975.798
G08  21247545.860   111656600.104 7      3535.856    21247544.720   111656600.104 7      3535.856    21247554.260    87005179.501 7      2755.213    21247554.880    87005182.501 8      2755.213
R15  20257797.740   108251522.424 8      4653.870    20257795.860   108251522.417 7      4653.870    20257807.480    84195676.890 8      3619.677    20257807.740    84195674.896 8      3619.677
R01  23045412.800   123190940.391 6      4457.762    23045410.580   123190940.384 6      4457.762    23045440.980    95815309.000 6      3467.148    23045440.560    95815303.990 6      3467.148
R24  21393800.740   114402262.752 7       220.010    21393799.980   114402262.754 7       220.010    21393813.800    88979605.259 7       171.119    21393813.780    88979592.264 8       171.119
G23  23992177.740   126079736.064 7       264.873    23992176.280   126079736.066 5       264.873    23992189.520    98243996.787 5       206.394    23992189.880    98244007.792 7       206.394
G07  24059577.160   126433934.306 6      3548.244    24059575.540   126433934.306 5      3548.244    24059585.860    98519976.811 5      2764.865    24059586.160    98519983.811 7      2764.865
R18  22681168.360   121073620.449 7      4566.789    22681168.360   121073620.439 7      4566.789    22681186.300    94168445.613 7      3551.947    22681186.260    94168447.615 7      3551.947
> 2024 04 02 15 05  5.0000000  0 16
G02  22287534.260   117121781.167 7      4325.533    22287532.380   117121781.172 6      4325.533    22287543.440    91263764.903 6      3370.545
G26  23062846.960   121196087.200 7      -601.325    23062845.960   121196087.199 6      -601.325    23062864.920    94438570.611 6      -468.565    23062865.360    94438575.609 7      -468.565
R02  24023116.260   128191941.234 7      5747.990    24023115.980   128191941.221 6      5747.990    24023138.100    99704936.271 6      4470.659    24023138.580    99704938.269 6      4470.659
G27  21040832.880   110570315.159 8      1889.121    21040832.100   110570315.166 8      1889.121    21040841.820    86158726.019 8      1472.042    21040842.580    86158727.018 8      1472.042
R14  19635204.960   104666676.107 8       457.399    19635204.740   104666676.100 8       457.399    19635219.380    81407480.409 8       355.755    19635219.840    81407478.410 8       355.755
G16  21003841.720   110375928.554 7       789.843    21003840.360   110375928.556 6       789.843    21003851.220    86007251.228 6       615.462
G10  22175636.740   116533755.113 7      2090.266    22175635.300   116533755.116 7      2090.266    22175650.020    90805522.351 7      1628.779    22175649.680    90805575.357 8      1628.779
G21  20824682.680   109434437.529 7      3552.349    20824681.040   109434437.536 6      3552.349    20824689.800    85273622.769 6      2768.064
R17  20349200.860   108892675.139 8      2540.104    20349199.920   108892675.153 7      2540.104    20349211.980    84694355.689 8      1975.636    20349211.840    84694355.694 8      1975.636
G08  21246872.840   111653064.125 7      3535.967    21246871.960   111653064.130 7      3535.967    21246881.360    87002424.197 7      2755.299    21246882.220    87002427.202 8      2755.299
R15  20256927.220   108246868.762 8      4653.303    20256924.980   108246868.752 8      4653.303    20256936.520    84192057.377 8      3619.236    20256936.520    84192055.383 8      3619.236
R01  23044579.040   123186482.715 6      4457.437    23044576.780   123186482.686 6      4457.437    23044607.380    95811841.914 6      3466.896    23044606.940    95811836.917 6      3466.896
R24  21393759.300   114402042.702 7       219.988    21393758.800   114402042.711 7       219.988    21393772.720    88979434.117 7       171.102    21393772.740    88979421.118 7       171.102
G23  23992126.920   126079471.283 7       264.499    23992125.900   126079471.283 5       264.499    23992139.060    98243790.465 5       206.103    23992139.480    98243801.476 7       206.103
G07  24058902.140   126430386.193 6      3547.569    24058900.420   126430386.193 6      3547.569    24058910.800    98517212.043 6      2764.340    24058910.880    98517219.058 7      2764.340
R18  22680312.460   121069053.750 7      4566.582    22680312.820   121069053.757 7      4566.582    22680331.100    94164893.761 7      3551.786    22680331.120    94164895.770 7      3551.786
> 2024 04 02 15 05  6.0000000  0 16
G02  22286711.040   117117455.403 7      4325.778    22286709.120   117117455.403 6      4325.778    22286720.200    91260394.187 6      3370.736
G26  23062961.220   121196688.292 7      -601.027    23062960.420   121196688.289 7      -601.027    23062979.460    94439038.993 6      -468.333    23062979.720    94439043.997 7      -468.333
R02  24022039.040   128186192.872 7      5748.723    24022038.820   128186192.862 7      5748.723    24022061.240    99700465.326 6      4471.229    24022061.660    99700467.321 6      4471.229
G27  21040473.440   110568425.732 8      1889.510    21040472.460   110568425.734 8      1889.510    21040482.300    86157253.736 8      1472.345    21040482.880    86157254.734 8      1472.345
R14  19635119.220   104666218.713 8       457.278    19635118.840   104666218.708 8       457.278    19635133.560    81407124.651 8       355.661    19635133.900    81407122.654 8       355.661
G16  21003691.240   110375138.619 7       789.915    21003690.100   110375138.629 6       789.915    21003700.920    86006635.695 6       615.518
G10  22175238.900   116531664.715 7      2090.282    22175237.540   116531664.718 7      2090.282    22175252.200    90803893.474 7      1628.791    22175251.860    90803946.484 8      1628.791
G21  20824006.700   109430885.075 8      3552.389    20824005.100   109430885.080 6      3552.389    20824013.620    85270854.628 6      2768.095
R17  20348725.940   108890134.869 7      2540.312    20348725.080   108890134.882 7      2540.312    20348737.440    84692379.922 8      1975.798    20348737.180    84692379.929 8      1975.798
G08  21246200.140   111649527.975 7      3536.275    21246198.960   111649527.980 7      3536.275    21246208.520    86999668.761 7      2755.539    21246209.340    86999671.763 8      2755.539
R15  20256056.280   108242215.516 8      4653.126    20256053.960   108242215.509 7      4653.126    20256065.880    84188438.188 8      3619.098    20256066.040    84188436.194 8      3619.098
R01  23043745.320   123182025.180 6      4457.284    23043742.720   123182025.171 6      4457.284    23043773.060    95808374.989 6      3466.776    23043772.520    95808369.981 6      3466.776
R24  21393718.040   114401822.350 7       220.568    21393717.460   114401822.359 7       220.568    21393731.740    88979262.728 7       171.553    21393731.840    88979249.731 7       171.553
G23  23992076.660   126079206.621 7       264.617    23992075.440   126079206.621 5       264.617    23992088.740    98243584.234 5       206.195    23992089.180    98243595.248 7       206.195
G07  24058226.960   126426838.177 6      3547.989    24058225.280   126426838.179 6      3547.989    24058235.640    98514447.359 6      2764.667    24058235.600    98514454.364 7      2764.667
R18  22679457.300   121064487.071 7      4566.761    22679457.660   121064487.069 7      4566.761    22679475.300    94161341.908 7      3551.925    22679475.420    94161343.910 7      3551.925
> 2024 04 02 15 05  7.0000000  0 16
G02  22285887.820   117113129.647 7      4325.397    22285886.120   117113129.652 6      4325.397    22285897.160    91257023.482 6      3370.439
G26  23063075.660   121197289.242 7      -601.274    23063074.840   121197289.247 6      -601.274    23063093.780    94439507.274 6      -468.525    23063094.140    94439512.278 7      -468.525
R02  24020961.240   128180444.043 7      5748.698    24020961.620   128180444.041 7      5748.698    24020983.980    99695994.027 6      4471.210    24020983.860    99695996.030 6      4471.210
G27  21040113.740   110566536.092 7      1889.348    21040112.920   110566536.094 8      1889.348    21040122.700    86155781.292 8      1472.219    21040123.120    86155782.291 8      1472.219
R14  19635033.300   104665761.718 8       456.447    19635032.940   104665761.711 8       456.447    19635047.840    81406769.207 8       355.014    19635048.640    81406767.210 8       355.014
G16  21003540.760   110374348.803 7       789.394    21003539.880   110374348.813 6       789.394    21003550.720    86006020.248 6       615.112
G10  22174841.440   116529574.543 7      2089.713    22174839.920   116529574.543 7      2089.713    22174854.420    90802264.774 7      1628.347    22174853.940    90802317.780 7      1628.347
G21  20823330.760   109427332.737 8      3551.902    20823329.100   109427332.739 6      3551.902    20823337.720    85268086.580 6      2767.716
R17  20348251.520   108887594.542 7      2539.949    20348250.120   108887594.556 7      2539.949    20348262.720    84690404.120 8      1975.516    20348262.980    84690404.118 8      1975.516
G08  21245527.560   111645991.543 8      3536.227    21245526.040   111645991.546 7      3536.227    21245535.560    86996913.100 7      2755.502    21245536.500    86996916.104 8      2755.502
R15  20255185.340   108237562.668 8      4652.262    20255183.340   108237562.664 7      4652.262    20255195.080    84184819.315 8      3618.426    20255195.400    84184817.323 8      3618.426
R01  23042911.080   123177567.745 6      4457.035    23042909.540   123177567.754 6      4457.035    23042938.660    95804908.128 6      3466.583    23042938.320    95804903.123 6      3466.583
R24  21393677.000   114401601.594 7       220.548    21393676.220   114401601.603 7       220.548    21393690.480    88979091.024 7       171.537    21393690.320    88979078.023 7       171.537
G23  23992026.080   126078942.051 7       264.147    23992025.240   126078942.051 5       264.147    23992038.200    98243378.078 5       205.829    23992038.820    98243389.102 7       205.829
G07  24057552.140   126423290.390 6      3547.070    24057550.040   126423290.395 5      3547.070    24057560.460    98511682.854 5      2763.951    24057561.200    98511689.866 7      2763.951
R18  22678601.720   121059920.319 7      4566.373    22678602.020   121059920.328 7      4566.373    22678620.100    94157790.002 7      3551.623    22678620.500    94157792.008 7      3551.623
> 2024 04 02 15 05  8.0000000  0 16
G02  22285064.740   117108804.306 7      4325.419    22285062.960   117108804.309 6      4325.419    22285073.980    91253653.095 6      3370.456
G26  23063190.200   121197890.444 7      -601.004    23063189.340   121197890.449 6      -601.004    23063208.240    94439975.741 6      -468.314    23063208.460    94439980.747 7      -468.314
R02  24019883.920   128174695.151 7      5749.085    24019884.460   128174695.151 7      5749.085    24019906.620    99691522.668 6      4471.511    24019906.740    99691524.663 6      4471.511
G27  21039754.320   110564646.625 7      1889.656    21039753.440   110564646.628 8      1889.656    21039763.220    86154308.978 8      1472.459    21039763.840    86154309.975 8      1472.459
R14  19634947.880   104665305.507 8       456.010    19634947.320   104665305.500 8       456.010    19634962.260    81406414.374 8       354.674    19634962.600    81406412.377 8       354.674
G16  21003390.760   110373559.476 7       789.304    21003389.460   110373559.483 6       789.304    21003400.400    86005405.179 6       615.042
G10  22174443.440   116527484.989 7      2089.463    22174442.240   116527484.991 7      2089.463    22174456.900    90800636.558 7      1628.153    22174456.600    90800689.564 8      1628.153
G21  20822654.500   109423780.916 8      3551.782    20822653.100   109423780.921 6      3551.782    20822661.920    85265318.932 6      2767.622
R17  20347776.260   108885054.505 7      2540.195    20347775.340   108885054.523 7      2540.195    20347787.920    84688428.534 8      1975.707    20347787.880    84688428.530 8      1975.707
G08  21244854.280   111642455.259 7      3536.452    21244853.140   111642455.267 7      3536.452    21244862.560    86994157.556 7      2755.677    21244863.420    86994160.558 8      2755.677
R15  20254315.280   108232910.590 8      4651.889    20254312.820   108232910.591 7      4651.889    20254324.520    84181201.034 8      3618.136    20254324.340    84181199.042 8      3618.136
R01  23042076.900   123173110.865 6      4456.863    23042075.160   123173110.872 6      4456.863    23042105.300    95801441.691 6      3466.449    23042104.680    95801436.686 6      3466.449
R24  21393634.800   114401380.816 7       221.027    21393635.060   114401380.831 7       221.027    21393649.100    88978919.308 7       171.910    21393649.460    88978906.307 7       171.910
G23  23991976.080   126078677.944 7       264.108    23991975.080   126078677.946 5       264.108    23991988.100    98243172.284 5       205.799    23991988.620    98243183.308 7       205.799
G07  24056876.780   126419743.062 6      3547.337    24056874.860   126419743.059 6      3547.337    24056885.440    98508918.704 5      2764.159    24056885.720    98508925.705 6      2764.159
R18  22677745.980   121055353.895 7      4566.464    22677746.300   121055353.904 7      4566.464    22677764.380    94154238.350 7      3551.694    22677764.580    94154240.354 7      3551.694
> 2024 04 02 15 05  9.0000000  0 16
G02  22284241.560   117104478.913 7      4325.414    22284239.900   117104478.915 6      4325.414    22284250.860    91250282.668 6      3370.453
G26  23063304.560   121198491.449 7      -600.848    23063303.620   121198491.449 7      -600.848    23063322.500    94440444.061 6      -468.193    23063322.820    94440449.063 7      -468.193
R02  24018806.580   128168945.722 7      5749.643    24018807.060   128168945.728 7      5749.643    24018829.140    99687050.890 6      4471.945    24018829.360    99687052.885 6      4471.945
G27  21039394.700   110562756.894 8      1889.847    21039393.740   110562756.896 8      1889.847    21039403.620    86152836.462 8      1472.608    21039404.400    86152837.455 8      1472.608
R14  19634862.500   104664849.611 8       455.741    19634861.860   104664849.598 8       455.741    19634876.840    81406059.778 8       354.465    19634877.280    81406057.777 8       354.465
G16  21003240.800   110372770.164 7       789.280    21003239.360   110372770.174 6       789.280    21003250.240    86004790.127 6       615.024
G10  22174045.960   116525395.574 7      2089.334    22174044.560   116525395.573 8      2089.334    22174059.320    90799008.443 7      1628.053    22174058.800    90799061.446 8      1628.053
G21  20821978.840   109420229.143 8      3551.771    20821977.120   109420229.145 6      3551.771    20821986.000    85262551.318 6      2767.614
R17  20347302.000   108882514.306 8      2540.312    20347300.700   108882514.321 8      2540.312    20347313.260    84686452.827 8      1975.798    20347313.020    84686452.828 8      1975.798
G08  21244181.540   111638918.660 7      3536.727    21244179.980   111638918.665 7      3536.727    21244189.640    86991401.767 7      2755.891    21244190.320    86991404.768 8      2755.891
R15  20253444.740   108228258.814 8      4651.596    20253442.220   108228258.815 8      4651.596    20253454.040    84177582.992 8      3617.908    20253454.000    84177580.998 8      3617.908
R01  23041243.360   123168654.074 6      4456.729    23041241.900   123168654.067 6      4456.729    23041271.760    95797975.314 6      3466.345    23041270.780    95797970.313 6      3466.345
R24  21393593.760   114401159.643 7       221.345    21393594.200   114401159.655 7       221.345    21393607.800    88978747.285 7       172.157    21393607.940    88978734.278 7       172.157
G23  23991925.740   126078413.857 7       264.136    23991924.960   126078413.860 5       264.136    23991937.820    98242966.508 5       205.820    23991938.520    98242977.530 7       205.820
G07  24056201.860   126416195.861 6      3547.215    24056199.800   126416195.852 5      3547.215    24056210.540    98506154.649 5      2764.064    24056210.700    98506161.647 6      2764.064
R18  22676890.340   121050787.344 7      4566.556    22676891.180   121050787.345 7      4566.556    22676909.000    94150686.596 7      3551.766    22676909.120    94150688.594 7      3551.766
> 2024 04 02 15 05 10.0000000  0 16
G02  22283418.500   117100153.609 7      4325.338    22283416.840   117100153.616 6      4325.338    22283427.820    91246912.308 6      3370.393
G26  23063418.860   121199092.399 7      -600.798    23063417.920   121199092.404 7      -600.798    23063436.880    94440912.336 7      -468.154    23063437.280    94440917.340 7      -468.154
R02  24017729.340   128163195.927 7      5750.085    24017729.900   128163195.936 7      5750.085    24017751.620    99682578.819 6      4472.289    24017751.840    99682580.819 6      4472.289
G27  21039035.180   110560867.033 8      1890.024    21039034.140   110560867.035 8      1890.024    21039043.920    86151363.839 8      1472.746    21039044.700    86151364.837 8      1472.746
R14  19634776.960   104664394.194 8       455.272    19634776.500   104664394.187 8       455.272    19634791.120    81405705.563 8       354.101    19634791.620    81405703.568 8       354.101
G16  21003090.700   110371981.045 7       789.182    21003089.320   110371981.060 6       789.182    21003100.260    86004175.225 6       614.947
G10  22173648.480   116523306.468 8      2089.079    22173647.220   116523306.473 7      2089.079    22173661.700    90797380.579 7      1627.854    22173661.300    90797433.586 8      1627.854
G21  20821302.960   109416677.580 8      3551.632    20821301.260   109416677.584 6      3551.632    20821310.040    85259783.876 6      2767.505
R17  20346827.060   108879974.125 8      2540.299    20346825.840   108879974.137 8      2540.299    20346838.480    84684477.138 8      1975.788    20346838.160    84684477.138 8      1975.788
G08  21243508.240   111635381.887 7      3536.952    21243507.140   111635381.892 8      3536.952    21243516.720    86988645.842 7      2756.066    21243517.520    86988648.841 8      2756.066
R15  20252573.720   108223607.492 8      4651.224    20252571.760   108223607.490 8      4651.224    20252583.660    84173965.295 8      3617.618    20252583.840    84173963.305 8      3617.618
R01  23040409.340   123164197.496 6      4456.517    23040408.140   123164197.489 6      4456.517    23040437.460    95794509.106 6      3466.180    23040437.000    95794504.105 6      3466.180
R24  21393552.580   114400938.237 8       221.611    21393552.640   114400938.247 7       221.611    21393566.400    88978575.076 7       172.364    21393566.420    88978562.071 7       172.364
G23  23991875.760   126078149.952 7       263.948    23991874.700   126078149.957 5       263.948    23991887.500    98242760.872 5       205.674    23991888.200    98242771.892 7       205.674
G07  24055526.840   126412648.893 6      3546.809    24055525.040   126412648.890 5      3546.809    24055535.680    98503390.784 5      2763.747    24055536.220    98503397.789 7      2763.747
R18  22676034.920   121046220.814 7      4566.606    22676035.280   121046220.814 7      4566.606    22676053.340    94147134.856 7      3551.805    22676053.500    94147136.862 7      3551.805
> 2024 04 02 15 05 11.0000000  0 16
G02  22282595.740   117095828.292 7      4325.409    22282593.900   117095828.297 6      4325.409    22282604.760    91243541.943 6      3370.448
G26  23063533.460   121199693.205 7      -600.654    23063532.400   121199693.212 7      -600.654    23063551.260    94441380.502 6      -468.042    23063551.540    94441385.502 7      -468.042
R02  24016651.480   128157445.634 7      5750.522    24016652.220   128157445.637 7      5750.522    24016673.620    99678106.367 6      4472.628    24016674.200    99678108.366 6      4472.628
G27  21038675.580   110558976.931 8      1890.306    21038674.540   110558976.933 8      1890.306    21038684.260    86149891.032 8      1472.966    21038684.900    86149892.028 8      1472.966
