     3.05           OBSERVATION DATA    MIXED               RINEX VERSION / TYPE
TPS2RIN 1.0.29.3920 TPS-USER            20240511 200041 UTC PGM / RUN BY / DATE
Win64 build Feb 23, 2024 (c) Topcon Positioning Systems     COMMENT
SRC: 20240510_MI00.tps                                      COMMENT
OPT: -S -v 3.05                                             COMMENT
Observer            Agency                                  OBSERVER / AGENCY
O0M3X53SBGM         TPS HIPER_SR        4.8 HSR Jul,08,2022 REC # / TYPE / VERS
FW: 4.8 HSR Jul,08,2022 p3                                  COMMENT
SN: HiPer SR 1212-12575                                     COMMENT
000                 TPSHIPER_SR     NONE                    ANT # / TYPE
        1.8000        0.0000        0.0000                  ANTENNA: DELTA H/E/N
MI00                                                        MARKER NAME
  5384025.1844 -1582421.3226  3022844.8060                  APPROX POSITION XYZ
  2024     5    10     8    43   55.0000000     GPS         TIME OF FIRST OBS
  2024     5    10     8    58   55.0000000     GPS         TIME OF LAST OBS
     1.000                                                  INTERVAL
   901 EPOCHS                                               COMMENT
G   16 C1C L1C D1C S1C C1W L1W D1W S1W C2W L2W D2W S2W C2X  SYS / # / OBS TYPES
       L2X D2X S2X                                          SYS / # / OBS TYPES
R   16 C1C L1C D1C S1C C1P L1P D1P S1P C2P L2P D2P S2P C2C  SYS / # / OBS TYPES
       L2C D2C S2C                                          SYS / # / OBS TYPES
    14                                                      # OF SATELLITES
   G04   845   845   845   845   845   845   845   845   845PRN / # OF OBS
         845   845   845   845   845   845   845            PRN / # OF OBS
   G16   901   901   901   901   901   901   901   901   901PRN / # OF OBS
         901   901   901     0     0     0     0            PRN / # OF OBS
   G18   901   901   901   901   901   901   901   901   901PRN / # OF OBS
         901   901   901   901   901   901   901            PRN / # OF OBS
   G25   526   526   526   526   525   525   525   525   526PRN / # OF OBS
         526   526   526   526   526   526   526            PRN / # OF OBS
   G26   901   901   901   901   901   901   901   901   901PRN / # OF OBS
         901   901   901   901   901   901   901            PRN / # OF OBS
   G27   901   901   901   901   900   900   900   900   900PRN / # OF OBS
         900   900   900   880   880   880   880            PRN / # OF OBS
   G28   901   901   901   901   901   901   901   901   901PRN / # OF OBS
         901   901   901   901   901   901   901            PRN / # OF OBS
   G29   901   901   901   901   901   901   901   901   901PRN / # OF OBS
         901   901   901   901   901   901   901            PRN / # OF OBS
   G31   901   901   901   901   901   901   901   901   901PRN / # OF OBS
         901   901   901   901   901   901   901            PRN / # OF OBS
   R09   450   450   450   450   450   450   450   450   450PRN / # OF OBS
         450   450   450   450   450   450   450            PRN / # OF OBS
   R10   901   901   901   901   901   901   901   901     0PRN / # OF OBS
           0     0     0     0     0     0     0            PRN / # OF OBS
   R11   901   901   901   901   901   901   901   901   901PRN / # OF OBS
         901   901   901   901   901   901   901            PRN / # OF OBS
   R21   901   901   901   901   901   901   901   901   901PRN / # OF OBS
         901   901   901   901   901   901   901            PRN / # OF OBS
   R22   901   901   901   901   901   901   901   901   901PRN / # OF OBS
         901   901   901   901   901   901   901            PRN / # OF OBS
G L1C                                                       SYS / PHASE SHIFT
G L1W -0.25000                                              SYS / PHASE SHIFT
G L2W  0.00000                                              SYS / PHASE SHIFT
G L2X  0.25000                                              SYS / PHASE SHIFT
R L1C                                                       SYS / PHASE SHIFT
R L1P -0.25000                                              SYS / PHASE SHIFT
R L2P -0.25000                                              SYS / PHASE SHIFT
R L2C                                                       SYS / PHASE SHIFT
  5 R09 -2 R10 -7 R11  0 R21  4 R22 -3                      GLONASS SLOT / FRQ #
                                                            GLONASS COD/PHS/BIS
    18    18  1929     7GPS                                 LEAP SECONDS
                                                            END OF HEADER
> 2024 05 10 08 43 55.0000000  0 14
G18  21690271.320   113983143.496 7      3364.257          46.125    21690269.960   113983143.504 6      3364.257          39.312    21690273.940    88818040.750 6      2621.499          39.000    21690273.540    88818040.756 8      2621.499          50.875
G04  24808777.540   130371006.454 5      3724.820          34.375    24808776.680   130371006.466 2      3724.820          12.687    24808784.080   101587805.815 2      2902.457          13.437    24808789.200   101587837.800 6      2902.457          39.500
R09  23276142.160   124293302.807 6       -82.234          40.625    23276140.940   124293302.798 6       -82.234          39.750    23276154.760    96672614.048 7       -63.960          45.500    23276154.640    96672611.039 7       -63.960          46.125
R22  22423670.980   119699079.439 7      6628.093          43.625    22423672.760   119699079.447 7      6628.093          44.187    22423678.960    93099316.939 7      5155.183          46.562    22423679.380    93099319.946 7      5155.183          46.500
G29  23127109.500   121533778.254 7      -515.304          44.000    23127107.480   121533778.267 7      -515.304          42.250    23127113.140    94701652.209 7      -401.536          42.312    23127114.460    94701663.207 7      -401.536          45.125
G27  23334170.160   122621891.198 6      5251.810          37.375
R10  20702013.680   110353367.319 7      1722.478          44.562    20702013.340   110353367.341 7      1722.478          43.625
R11  20797272.060   111134315.313 7      4606.081          46.937    20797272.240   111134315.325 7      4606.081          46.437    20797280.160    86437832.178 8      3582.507          49.562    20797279.940    86437832.174 8      3582.507          50.125
G28  20609710.880   108304757.678 7      1204.884          43.875    20609709.980   108304757.685 6      1204.884          36.062    20609712.040    84393323.328 5       938.870          35.625    20609712.500    84393327.325 8       938.870          49.437
G16  23290055.100   122390067.915 6      4531.160          41.812    23290053.660   122390067.925 4      4531.160          29.937    23290059.180    95368901.251 4      3530.774          29.812
G25  24445067.000   128459687.958 5        84.401          32.062    24445063.900   128459687.970 4        84.401          28.750    24445078.000   100098483.549 4        65.767          28.437    24445079.040   100098499.523 6        65.767          40.750
G26  21278621.400   111819914.265 7      3610.330          46.812    21278620.460   111819914.265 6      3610.330          38.500    21278625.880    87132409.223 6      2813.244          38.562    21278625.380    87132430.223 8      2813.244          48.437
G31  20621866.820   108368650.877 8      3114.777          48.625    20621865.960   108368650.879 7      3114.777          42.875    20621866.900    84443106.743 7      2427.099          42.937    20621867.680    84443117.744 8      2427.099          49.625
R21  19496772.700   104331163.607 7      3745.056          43.812    19496772.520   104331163.624 7      3745.056          43.375    19496781.440    81146499.304 7      2912.821          46.812    19496780.680    81146497.303 7      2912.821          46.937
> 2024 05 10 08 43 56.0000000  0 14
G18  21689630.900   113979779.417 7      3363.814          46.312    21689629.840   113979779.424 6      3363.814          39.562    21689633.880    88815419.387 6      2621.154          39.500    21689633.300    88815419.398 8      2621.154          51.437
G04  24808068.360   130367282.097 5      3724.073          35.000    24808068.180   130367282.107 2      3724.073          12.687    24808075.540   101584903.713 2      2901.875          13.437    24808080.660   101584935.692 6      2901.875          39.500
R09  23276157.640   124293385.283 6       -82.752          39.500    23276157.320   124293385.265 6       -82.752          39.750    23276170.200    96672678.179 7       -64.362          46.375    23276170.140    96672675.164 7       -64.362          46.312
R22  22422429.500   119692451.371 7      6627.905          44.375    22422431.140   119692451.374 7      6627.905          44.312    22422437.180    93094161.775 7      5155.037          47.187    22422437.760    93094164.778 7      5155.037          47.187
G29  23127207.540   121534293.510 7      -515.370          45.125    23127205.820   121534293.520 7      -515.370          43.250    23127211.020    94702053.701 7      -401.587          43.062    23127212.360    94702064.696 7      -401.587          45.437
G27  23333170.180   122616639.620 6      5251.441          37.375    23333173.400   122616639.565 2      5251.441          15.750    23333172.340    95545437.979 2      4092.032          15.437
R10  20701690.860   110351644.958 7      1722.151          44.750    20701690.420   110351644.977 7      1722.151          43.625
R11  20796409.940   111129709.247 7      4606.027          46.687    20796410.440   111129709.256 7      4606.027          45.625    20796418.080    86434249.686 8      3582.466          51.125    20796417.880    86434249.684 8      3582.466          51.750
G28  20609481.460   108303552.955 7      1204.485          44.937    20609480.760   108303552.963 6      1204.485          36.062    20609482.920    84392384.581 5       938.560          35.687    20609483.300    84392388.578 8       938.560          49.750
G16  23289192.940   122385536.729 7      4531.208          42.312    23289191.500   122385536.739 4      4531.208          29.937    23289196.780    95365370.463 4      3530.811          29.812
G25  24445052.080   128459603.472 5        84.516          32.062    24445047.800   128459603.483 4        84.516          28.750    24445061.820   100098417.708 4        65.857          28.437    24445063.100   100098433.672 6        65.857          40.750
G26  21277934.260   111816304.040 7      3610.131          47.187    21277933.360   111816304.037 6      3610.131          38.687    21277938.840    87129596.056 6      2813.089          39.000    21277938.160    87129617.061 8      2813.089          48.500
G31  20621274.160   108365536.348 8      3114.210          48.250    20621273.140   108365536.348 7      3114.210          43.187    20621274.260    84440679.836 7      2426.657          42.937    20621274.860    84440690.839 8      2426.657          50.687
R21  19496072.940   104327418.868 7      3744.360          43.687    19496072.300   104327418.885 7      3744.360          43.187    19496081.640    81143586.727 7      2912.280          47.750    19496080.740    81143584.730 7      2912.280          47.437
> 2024 05 10 08 43 57.0000000  0 14
G18  21688990.920   113976415.921 7      3363.150          46.500    21688989.720   113976415.928 6      3363.150          39.625    21688993.820    88812798.479 6      2620.637          39.312    21688993.080    88812798.490 8      2620.637          51.687
G04  24807360.840   130363558.171 5      3723.739          35.000    24807359.280   130363558.182 2      3723.739          12.687    24807367.240   101582001.953 2      2901.615          13.437    24807372.220   101582033.950 6      2901.615          39.500
R09  23276173.400   124293468.004 6       -82.959          39.500    23276172.420   124293467.994 6       -82.959          39.750    23276185.660    96672742.515 7       -64.524          46.437    23276185.380    96672739.507 7       -64.524          46.625
R22  22421187.780   119685823.553 7      6627.566          43.437    22421189.840   119685823.554 7      6627.566          44.500    22421195.560    93089006.806 7      5154.773          47.562    22421196.080    93089009.809 7      5154.773          47.312
G29  23127305.860   121534808.832 7      -515.380          44.812    23127303.700   121534808.845 7      -515.380          42.937    23127309.000    94702455.244 7      -401.595          43.375    23127310.640    94702466.241 7      -401.595          45.562
G27  23332170.820   122611388.279 6      5251.219          37.812    23332171.940   122611388.297 3      5251.219          18.125    23332176.420    95541346.127 2      4091.859          17.187
R10  20701367.860   110349922.965 7      1721.697          44.562    20701367.200   110349922.995 7      1721.697          43.437
R11  20795548.260   111125103.351 8      4605.739          48.000    20795548.660   111125103.358 7      4605.739          46.125    20795556.340    86430667.321 8      3582.241          52.125    20795556.200    86430667.319 8      3582.241          52.375
G28  20609252.260   108302348.811 7      1203.820          44.500    20609251.620   108302348.819 6      1203.820          36.000    20609253.700    84391446.287 6       938.041          36.125    20609254.060    84391450.284 8       938.041          50.312
G16  23288330.540   122381005.606 6      4531.040          41.500    23288329.180   122381005.616 4      4531.040          29.937    23288334.660    95361839.722 4      3530.680          29.812
G25  24445036.220   128459519.032 5        84.324          32.062    24445031.860   128459519.037 4        84.324          28.750    24445045.880   100098351.904 4        65.707          28.437    24445047.140   100098367.862 6        65.707          40.750
G26  21277247.080   111812693.923 7      3609.985          47.312    21277246.380   111812693.920 6      3609.985          39.375    21277251.820    87126782.982 6      2812.976          38.875    21277251.200    87126803.982 8      2812.976          49.125
G31  20620681.520   108362422.338 8      3113.704          48.500    20620680.660   108362422.337 7      3113.704          43.562    20620681.640    84438253.334 7      2426.263          43.562    20620682.460    84438264.337 8      2426.263          50.437
R21  19495373.280   104323674.972 7      3743.407          44.312    19495373.080   104323674.984 7      3743.407          43.125    19495381.920    81140674.806 8      2911.539          48.000    19495381.240    81140672.809 8      2911.539          48.125
> 2024 05 10 08 43 58.0000000  0 14
G18  21688350.800   113973053.127 7      3362.446          46.437    21688349.940   113973053.131 6      3362.446          39.625    21688353.900    88810178.120 6      2620.088          39.250    21688353.420    88810178.127 8      2620.088          51.812
G04  24806652.400   130359834.929 5      3723.071          34.187    24806650.780   130359834.942 2      3723.071          12.687    24806658.880   101579100.727 2      2901.094          13.437    24806663.860   101579132.722 6      2901.094          40.250
R09  23276188.400   124293551.179 6       -83.338          39.812    23276187.400   124293551.172 6       -83.338          39.375    23276201.120    96672807.205 7       -64.819          47.125    23276200.840    96672804.198 7       -64.819          46.687
R22  22419946.520   119679196.107 7      6627.377          44.062    22419947.700   119679196.111 7      6627.377          45.062    22419954.240    93083852.132 7      5154.627          47.500    22419954.520    93083855.137 7      5154.627          47.750
G29  23127403.680   121535324.398 7      -515.603          44.187    23127401.740   121535324.408 7      -515.603          43.687    23127407.400    94702856.978 7      -401.769          43.062    23127408.600    94702867.971 7      -401.769          45.125
G27  23331171.660   122606137.440 6      5250.458          37.812    23331173.860   122606137.426 3      5250.458          18.125    23331175.040    95537254.500 2      4091.266          17.562
R10  20701044.540   110348201.516 7      1721.290          44.687    20701044.620   110348201.541 7      1721.290          43.750
R11  20794686.360   111120497.704 7      4605.586          47.750    20794686.620   111120497.711 7      4605.586          46.562    20794694.260    86427085.161 8      3582.122          51.437    20794694.000    86427085.158 8      3582.122          52.500
G28  20609023.320   108301145.353 7      1203.201          44.250    20609022.580   108301145.361 6      1203.201          36.312    20609024.760    84390508.527 6       937.559          36.125    20609025.020    84390512.520 8       937.559          50.187
G16  23287468.560   122376474.617 6      4531.042          41.875    23287467.100   122376474.625 5      4531.042          30.312    23287472.320    95358309.083 5      3530.682          30.187
G25  24445020.180   128459434.791 5        83.849          32.062    24445015.680   128459434.799 4        83.849          28.750    24445029.980   100098286.252 4        65.337          28.375    24445031.000   100098302.226 6        65.337          40.625
G26  21276560.200   111809084.052 8      3609.774          48.125    21276559.440   111809084.049 6      3609.774          39.125    21276564.860    87123970.100 6      2812.811          38.812    21276564.360    87123991.100 8      2812.811          48.812
G31  20620089.040   108359309.005 8      3113.044          49.000    20620088.240   108359309.007 7      3113.044          43.375    20620089.220    84435827.363 7      2425.748          43.312    20620090.100    84435838.368 8      2425.748          50.250
R21  19494673.940   104319932.079 7      3742.327          43.375    19494673.920   104319932.088 7      3742.327          43.937    19494682.480    81137763.667 7      2910.699          47.937    19494681.740    81137761.668 7      2910.699          47.937
> 2024 05 10 08 43 59.0000000  0 14
G18  21687711.000   113969690.766 7      3362.273          46.312    21687710.100   113969690.765 6      3362.273          40.000    21687714.160    88807558.097 6      2619.953          39.750    21687713.360    88807558.101 8      2619.953          51.687
G04  24805943.760   130356112.078 5      3722.755          34.187    24805942.380   130356112.093 2      3722.755          12.687    24805950.900   101576199.810 2      2900.848          13.437    24805955.560   101576231.791 6      2900.848          40.250
R09  23276204.620   124293634.551 6       -83.335          39.812    23276203.560   124293634.547 6       -83.335          39.375    23276216.960    96672872.037 7       -64.816          46.125    23276216.380    96672869.031 7       -64.816          47.312
R22  22418704.800   119672568.826 7      6627.395          44.437    22418706.320   119672568.833 7      6627.395          44.500    22418712.580    93078697.589 7      5154.640          47.250    22418713.120    93078700.589 7      5154.640          47.875
G29  23127501.800   121535839.912 7      -515.397          43.812    23127499.780   121535839.917 7      -515.397          43.000    23127505.500    94703258.671 7      -401.608          43.062    23127506.860    94703269.668 7      -401.608          45.312
G27  23330172.160   122600886.671 6      5250.842          37.125    23330175.060   122600886.681 3      5250.842          18.375    23330176.700    95533163.017 3      4091.565          18.000
R10  20700721.540   110346480.339 7      1721.147          44.250    20700721.320   110346480.366 7      1721.147          43.625
R11  20793824.340   111115892.095 8      4605.752          48.125    20793824.940   111115892.104 7      4605.752          46.562    20793832.320    86423503.017 8      3582.252          51.625    20793832.200    86423503.017 8      3582.252          52.250
G28  20608794.620   108299942.355 7      1202.848          43.812    20608793.660   108299942.362 6      1202.848          36.187    20608795.720    84389571.124 5       937.284          35.937    20608796.260    84389575.123 8       937.284          49.750
G16  23286605.940   122371943.581 6      4531.140          41.937    23286604.860   122371943.591 5      4531.140          30.312    23286610.100    95354778.408 5      3530.759          30.187
G25  24445003.420   128459350.458 5        84.173          31.875    24444999.500   128459350.474 4        84.173          28.562    24445013.740   100098220.538 4        65.589          28.375    24445014.740   100098236.531 6        65.589          40.625
G26  21275873.300   111805474.192 7      3609.990          47.250    21275872.280   111805474.189 6      3609.990          39.375    21275878.020    87121157.224 6      2812.979          38.187    21275877.500    87121178.223 8      2812.979          48.812
G31  20619496.760   108356196.090 8      3112.773          49.125    20619495.940   108356196.095 7      3112.773          43.562    20619496.660    84433401.721 7      2425.537          43.312    20619497.380    84433412.726 8      2425.537          50.437
R21  19493974.260   104316189.916 7      3741.834          44.312    19493974.520   104316189.926 7      3741.834          44.375    19493983.180    81134853.096 7      2910.315          47.937    19493982.580    81134851.097 7      2910.315          47.312
> 2024 05 10 08 44  0.0000000  0 14
G18  21687071.320   113966328.859 7      3361.648          47.000    21687070.440   113966328.867 6      3361.648          39.437    21687074.360    88804938.436 6      2619.466          39.312    21687073.640    88804938.440 8      2619.466          51.375
G04  24805235.400   130352389.613 5      3722.268          34.187    24805234.020   130352389.631 2      3722.268          12.687    24805242.660   101573299.182 2      2900.469          13.437    24805247.780   101573331.171 6      2900.469          40.125
R09  23276220.360   124293718.081 6       -83.739          39.812    23276218.560   124293718.088 6       -83.739          39.437    23276232.780    96672936.997 7       -65.130          46.687    23276232.140    96672933.997 7       -65.130          47.250
R22  22417463.260   119665941.671 7      6627.108          43.312    22417464.820   119665941.677 7      6627.108          44.375    22417471.000    93073543.137 7      5154.417          47.750    22417471.800    93073546.141 7      5154.417          47.562
G29  23127599.940   121536355.394 7      -515.518          43.750    23127597.940   121536355.402 7      -515.518          43.125    23127603.500    94703660.339 7      -401.702          43.312    23127605.120    94703671.332 7      -401.702          46.000
G27  23329173.340   122595636.105 6      5250.463          37.812    23329175.640   122595636.123 3      5250.463          18.750    23329177.740    95529071.681 3      4091.270          18.437
R10  20700398.600   110344759.417 7      1720.809          44.312    20700398.320   110344759.439 7      1720.809          43.187
R11  20792962.600   111111286.480 8      4605.564          48.062    20792963.080   111111286.487 7      4605.564          46.937    20792970.440    86419920.868 8      3582.105          51.625    20792970.200    86419920.868 8      3582.105          52.437
G28  20608565.660   108298739.792 7      1202.236          45.000    20608564.760   108298739.797 6      1202.236          36.375    20608566.900    84388634.060 6       936.808          36.187    20608567.440    84388638.055 8       936.808          50.125
G16  23285743.660   122367412.435 6      4531.153          41.812    23285742.560   122367412.442 5      4531.153          30.312    23285747.740    95351247.646 5      3530.768          30.187
G25  24444987.400   128459266.060 5        84.449          31.875    24444983.420   128459266.075 4        84.449          28.562    24444997.720   100098154.773 4        65.804          28.375    24444999.040   100098170.737 6        65.804          40.625
G26  21275186.380   111801864.345 7      3609.730          46.937    21275185.400   111801864.345 6      3609.730          39.125    21275191.080    87118344.357 6      2812.777          38.812    21275190.620    87118365.357 8      2812.777          49.312
G31  20618904.460   108353083.580 8      3112.223          48.750    20618903.640   108353083.580 7      3112.223          43.562    20618904.340    84430976.389 7      2425.109          43.312    20618905.140    84430987.394 8      2425.109          50.125
R21  19493275.400   104312448.476 7      3741.046          43.625    19493275.400   104312448.488 7      3741.046          43.937    19493284.000    81131943.094 7      2909.702          47.750    19493283.400    81131941.090 7      2909.702          47.875
> 2024 05 10 08 44  1.0000000  0 14
G18  21686431.500   113962967.513 7      3360.932          46.937    21686430.740   113962967.515 6      3360.932          39.812    21686434.720    88802319.202 6      2618.908          39.437    21686434.140    88802319.209 8      2618.908          51.687
G04  24804526.640   130348667.640 5      3721.473          35.125    24804525.840   130348667.655 2      3721.473          12.687    24804534.580   101570398.941 2      2899.849          13.437    24804539.580   101570430.916 6      2899.849          40.125
R09  23276236.160   124293801.908 6       -84.076          38.875    23276235.160   124293801.890 6       -84.076          39.437    23276248.560    96673002.170 7       -65.392          46.625    23276248.160    96672999.168 7       -65.392          46.625
R22  22416221.580   119659314.759 7      6626.595          43.625    22416222.900   119659314.768 7      6626.595          44.437    22416229.840    93068388.878 7      5154.018          47.375    22416230.200    93068391.883 7      5154.018          47.375
G29  23127698.020   121536870.926 7      -515.718          43.812    23127695.880   121536870.934 7      -515.718          43.250    23127701.480    94704062.048 7      -401.858          42.687    23127703.080    94704073.039 7      -401.858          45.812
G27  23328174.000   122590385.778 6      5249.936          37.812    23328175.000   122590385.778 3      5249.936          18.750    23328177.380    95524980.503 3      4090.859          18.500    23328180.520    95524999.481 6      4090.859          39.937
R10  20700075.980   110343038.869 7      1720.219          44.312    20700075.480   110343038.888 7      1720.219          43.187
R11  20792100.960   111106680.962 7      4605.327          47.562    20792101.100   111106680.963 7      4605.327          47.437    20792108.540    86416338.796 8      3581.921          51.000    20792108.400    86416338.794 8      3581.921          51.750
G28  20608337.000   108297537.753 7      1201.719          43.750    20608336.020   108297537.758 6      1201.719          36.375    20608338.260    84387697.406 5       936.404          35.812    20608338.540    84387701.401 8       936.404          50.437
G16  23284881.420   122362881.280 7      4531.094          42.500    23284880.340   122362881.290 5      4531.094          30.687    23284885.700    95347716.879 5      3530.722          30.437
G25  24444970.500   128459181.753 5        84.178          31.875    24444967.560   128459181.766 4        84.178          28.562    24444981.760   100098089.071 4        65.593          28.375    24444982.880   100098105.045 6        65.593          40.625
G26  21274499.400   111798254.591 7      3609.511          46.687    21274498.500   111798254.590 6      3609.511          39.437    21274504.140    87115531.565 6      2812.606          38.812    21274503.660    87115552.565 8      2812.606          48.875
G31  20618312.240   108349971.590 8      3111.610          49.250    20618311.540   108349971.590 7      3111.610          43.687    20618312.120    84428551.459 7      2424.632          43.625    20618313.000    84428562.460 8      2424.632          50.250
R21  19492576.360   104308707.868 7      3740.085          44.812    19492576.300   104308707.894 7      3740.085          43.500    19492584.880    81129033.738 8      2908.955          48.000    19492584.100    81129031.739 7      2908.955          47.687
> 2024 05 10 08 44  2.0000000  0 14
G18  21685791.960   113959606.757 7      3360.551          47.750    21685791.260   113959606.762 6      3360.551          39.625    21685795.320    88799700.436 6      2618.611          39.312    21685794.660    88799700.438 8      2618.611          50.875
G04  24803818.420   130344946.139 5      3721.279          35.125    24803817.820   130344946.160 2      3721.279          12.687    24803826.560   101567499.073 2      2899.698          13.437    24803831.080   101567531.051 6      2899.698          40.562
R09  23276251.880   124293886.004 6       -84.156          38.875    23276251.040   124293885.997 6       -84.156          39.437    23276264.120    96673067.585 7       -65.455          46.437    23276263.840    96673064.585 7       -65.455          46.687
R22  22414980.160   119652688.129 7      6626.530          44.750    22414981.680   119652688.130 7      6626.530          46.125    22414988.340    93063234.833 7      5153.968          47.375    22414988.940    93063237.833 7      5153.968          47.000
G29  23127796.040   121537386.545 7      -515.523          43.625    23127793.920   121537386.555 7      -515.523          43.437    23127799.700    94704463.831 7      -401.706          42.812    23127801.000    94704474.824 7      -401.706          45.375
G27  23327174.700   122585135.764 6      5249.927          37.375    23327177.020   122585135.750 3      5249.927          18.812    23327180.700    95520889.593 3      4090.852          18.500    23327181.980    95520908.571 6      4090.852          39.937
R10  20699753.040   110341318.704 7      1720.062          44.500    20699752.960   110341318.729 7      1720.062          43.562
R11  20791238.820   111102075.580 8      4605.448          49.750    20791239.180   111102075.586 8      4605.448          48.375    20791246.540    86412756.844 8      3582.015          50.500    20791246.260    86412756.843 8      3582.015          51.875
G28  20608108.180   108296336.333 7      1201.197          43.625    20608107.220   108296336.336 6      1201.197          36.437    20608109.640    84386761.233 6       935.998          36.125    20608109.980    84386765.228 8       935.998          49.812
G16  23284019.300   122358350.213 7      4531.166          42.625    23284017.980   122358350.223 5      4531.166          30.687    23284023.220    95344186.183 5      3530.779          30.437
G25  24444955.060   128459097.462 5        84.577          31.875    24444951.460   128459097.470 4        84.577          28.562    24444965.940   100098023.380 4        65.904          28.375    24444966.340   100098039.356 6        65.904          40.687
G26  21273812.520   111794644.986 7      3609.626          46.812    21273811.500   111794644.985 6      3609.626          39.062    21273817.100    87112718.885 6      2812.696          39.375    21273816.560    87112739.886 8      2812.696          49.250
G31  20617720.400   108346860.149 8      3111.219          51.125    20617719.440   108346860.152 7      3111.219          43.750    20617720.180    84426126.964 7      2424.327          43.562    20617720.900    84426137.967 8      2424.327          49.812
R21  19491877.360   104304968.135 7      3739.390          46.562    19491877.540   104304968.153 7      3739.390          45.875    19491886.080    81126125.055 7      2908.414          47.875    19491885.480    81126123.053 7      2908.414          47.312
> 2024 05 10 08 44  3.0000000  0 14
G18  21685152.680   113956246.422 8      3359.964          48.125    21685151.840   113956246.424 6      3359.964          40.375    21685155.740    88797081.991 6      2618.154          39.875    21685155.400    88797081.995 8      2618.154          51.812
G04  24803109.900   130341225.043 5      3720.709          34.937    24803109.860   130341225.061 2      3720.709          12.687    24803118.640   101564599.517 2      2899.254          13.437    24803123.500   101564631.498 6      2899.254          40.562
R09  23276267.220   124293970.300 6       -84.682          41.125    23276266.840   124293970.299 6       -84.682          40.625    23276280.140    96673133.147 7       -65.864          46.562    23276279.800    96673130.153 7       -65.864          47.437
R22  22413739.160   119646061.601 7      6626.263          46.625    22413739.840   119646061.608 7      6626.263          45.937    22413747.180    93058080.871 7      5153.760          47.875    22413747.660    93058083.875 7      5153.760          47.500
G29  23127894.320   121537902.138 7      -515.707          45.000    23127892.040   121537902.143 7      -515.707          42.937    23127897.740    94704865.584 7      -401.850          42.750    23127899.460    94704876.578 7      -401.850          45.750
G27  23326175.820   122579885.868 6      5249.549          37.375    23326179.060   122579885.865 3      5249.549          18.750    23326181.600    95516798.763 3      4090.557          18.500    23326183.000    95516817.763 6      4090.557          39.750
R10  20699430.920   110339598.787 7      1719.617          45.062    20699430.620   110339598.815 7      1719.617          44.250
R11  20790377.160   111097470.195 8      4605.140          49.750    20790377.460   111097470.201 8      4605.140          48.812    20790384.780    86409174.878 8      3581.775          51.500    20790384.700    86409174.877 8      3581.775          52.375
G28  20607879.560   108295135.319 7      1200.570          45.625    20607878.760   108295135.329 6      1200.570          36.187    20607881.020    84385825.384 5       935.509          35.875    20607881.300    84385829.381 8       935.509          50.625
G16  23283157.400   122353819.035 7      4531.105          42.312    23283155.800   122353819.042 5      4531.105          30.687    23283160.900    95340655.397 5      3530.731          30.437
G25  24444939.060   128459013.166 5        83.953          32.437    24444935.420   128459013.177 4        83.953          28.562    24444949.960   100097957.687 4        65.418          28.375    24444950.380   100097973.669 6        65.418          40.687
G26  21273125.560   111791035.360 7      3609.461          47.625    21273124.500   111791035.362 6      3609.461          39.312    21273130.340    87109906.192 6      2812.567          39.000    21273129.800    87109927.190 8      2812.567          49.062
G31  20617128.320   108343749.103 8      3110.650          50.937    20617127.480   108343749.105 7      3110.650          43.687    20617128.040    84423702.774 7      2423.883          43.375    20617129.140    84423713.779 8      2423.883          50.812
R21  19491178.500   104301229.071 7      3738.547          47.062    19491178.520   104301229.089 7      3738.547          46.250    19491187.600    81123216.890 7      2907.759          47.625    19491187.240    81123214.892 8      2907.759          48.000
> 2024 05 10 08 44  4.0000000  0 14
G18  21684513.520   113952886.731 7      3359.453          47.187    21684512.580   113952886.738 6      3359.453          39.687    21684516.520    88794464.054 6      2617.756          39.625    21684516.040    88794464.056 8      2617.756          52.000
G04  24802402.120   130337504.523 5      3720.129          34.937    24802401.700   130337504.541 2      3720.129          14.187    24802410.520   101561700.408 2      2898.802          13.437    24802416.160   101561732.387 6      2898.802          41.000
R09  23276283.480   124294054.904 6       -84.570          41.125    23276282.700   124294054.894 6       -84.570          40.625    23276295.940    96673198.933 7       -65.776          46.875    23276295.440    96673195.931 7       -65.776          47.125
R22  22412497.420   119639435.402 7      6626.107          44.062    22412498.400   119639435.410 7      6626.107          44.875    22412505.720    93052927.174 7      5153.639          47.687    22412506.340    93052930.185 7      5153.639          47.125
G29  23127992.480   121538417.862 7      -515.704          43.812    23127990.200   121538417.867 7      -515.704          42.875    23127996.040    94705267.444 7      -401.848          42.187    23127997.600    94705278.443 7      -401.848          45.687
G27  23325176.640   122574636.350 6      5249.558          36.750    23325178.820   122574636.334 3      5249.558          18.812    23325181.760    95512708.217 3      4090.565          18.562    23325183.780    95512727.191 6      4090.565          39.750
R10  20699108.360   110337879.329 7      1719.297          45.750    20699108.320   110337879.343 7      1719.297          44.437
R11  20789515.680   111092864.986 8      4605.178          48.312    20789515.740   111092864.993 7      4605.178          47.187    20789522.920    86405593.051 8      3581.805          51.125    20789522.940    86405593.048 8      3581.805          51.875
G28  20607650.900   108293934.937 7      1200.072          45.312    20607650.460   108293934.947 6      1200.072          36.500    20607652.600    84384890.022 6       935.121          36.062    20607652.760    84384894.023 8       935.121          49.875
G16  23282294.720   122349287.975 7      4531.058          42.437    23282293.500   122349287.982 5      4531.058          30.687    23282298.800    95337124.705 5      3530.695          30.437
G25  24444922.840   128458928.931 5        83.900          32.437    24444919.340   128458928.946 4        83.900          28.500    24444933.820   100097892.046 4        65.377          28.375    24444934.060   100097908.041 6        65.377          40.750
G26  21272438.760   111787425.936 7      3609.440          47.687    21272437.700   111787425.935 6      3609.440          38.687    21272443.540    87107093.654 6      2812.551          38.937    21272442.920    87107114.652 8      2812.551          49.125
G31  20616536.460   108340638.658 8      3110.237          50.625    20616535.580   108340638.657 7      3110.237          43.562    20616536.180    84421279.051 7      2423.561          43.437    20616537.300    84421290.056 8      2423.561          50.125
R21  19490479.760   104297490.909 7      3737.774          45.562    19490480.000   104297490.929 7      3737.774          45.375    19490488.500    81120309.438 7      2907.158          47.687    19490488.360    81120307.443 8      2907.158          48.250
> 2024 05 10 08 44  5.0000000  0 14
G18  21683874.220   113949527.468 7      3359.139          46.312    21683873.220   113949527.475 6      3359.139          39.062    21683877.420    88791846.450 6      2617.511          39.125    21683876.800    88791846.453 8      2617.511          51.125
G04  24801695.300   130333784.325 5      3720.085          34.937    24801693.740   130333784.343 2      3720.085          14.187    24801702.520   101558801.553 2      2898.768          13.437    24801708.700   101558833.538 6      2898.768          41.187
R09  23276299.100   124294139.710 6       -84.757          39.625    23276298.620   124294139.711 6       -84.757          40.062    23276311.900    96673264.893 7       -65.922          45.312    23276311.800    96673261.893 7       -65.922          46.500
R22  22411256.440   119632809.338 7      6626.033          42.000    22411257.260   119632809.344 7      6626.033          44.312    22411264.360    93047773.577 7      5153.581          46.812    22411265.180    93047776.582 7      5153.581          46.812
G29  23128090.420   121538933.544 7      -515.574          43.687    23128088.160   121538933.551 7      -515.574          42.312    23128094.060    94705669.274 7      -401.746          42.125    23128095.500    94705680.273 7      -401.746          45.000
G27  23324177.920   122569386.938 6      5249.497          36.750    23324181.460   122569386.903 3      5249.497          18.750    23324182.880    95508617.768 3      4090.517          18.437    23324184.740    95508636.760 6      4090.517          39.750
R10  20698785.560   110336160.092 7      1719.214          44.937    20698785.620   110336160.103 7      1719.214          43.812
R11  20788653.760   111088259.780 7      4605.252          47.875    20788653.920   111088259.784 7      4605.252          46.437    20788661.140    86402011.229 8      3581.863          49.437    20788661.020    86402011.227 8      3581.863          49.812
G28  20607422.780   108292734.984 7      1199.773          44.625    20607422.060   108292734.997 5      1199.773          35.937    20607424.440    84383954.997 6       934.888          36.062    20607424.620    84383958.998 8       934.888          49.500
G16  23281432.580   122344756.789 6      4531.246          41.750    23281431.260   122344756.799 5      4531.246          30.625    23281436.520    95333593.913 5      3530.841          30.500
G25  24444906.220   128458844.635 5        84.067          32.437    24444903.220   128458844.653 4        84.067          28.500    24444917.780   100097826.359 4        65.507          28.375    24444918.480   100097842.335 6        65.507          40.750
G26  21271751.760   111783816.502 7      3609.531          47.000    21271750.900   111783816.504 6      3609.531          38.625    21271756.600    87104281.110 6      2812.622          38.187    21271756.260    87104302.108 8      2812.622          48.375
G31  20615944.360   108337528.615 8      3109.942          49.812    20615943.720   108337528.612 7      3109.942          43.125    20615944.420    84418855.647 7      2423.331          42.875    20615945.640    84418866.652 8      2423.331          49.687
R21  19489781.800   104293753.501 7      3737.075          43.687    19489781.620   104293753.524 7      3737.075          43.625    19489790.180    81117402.572 7      2906.614          47.312    19489789.780    81117400.579 7      2906.614          46.625
> 2024 05 10 08 44  6.0000000  0 14
G18  21683235.060   113946169.004 7      3358.103          46.187    21683234.180   113946169.006 6      3358.103          39.500    21683238.100    88789229.461 6      2616.704          38.937    21683237.680    88789229.461 8      2616.704          49.562
G04  24800986.540   130330064.880 5      3719.150          34.000    24800986.160   130330064.900 2      3719.150          14.187    24800994.840   101555903.282 2      2898.039          14.312    24801000.500   101555935.263 6      2898.039          41.187
R09  23276315.000   124294225.032 6       -85.493          39.625    23276314.520   124294225.025 6       -85.493          40.062    23276328.160    96673331.246 7       -66.495          44.937    23276327.780    96673328.244 7       -66.495          46.500
R22  22410015.120   119626183.736 7      6625.355          43.250    22410016.300   119626183.745 7      6625.355          45.000    22410022.960    93042620.340 7      5153.054          46.437    22410023.620    93042623.347 7      5153.054          46.687
G29  23128188.660   121539449.507 7      -516.051          43.937    23128186.200   121539449.511 7      -516.051          42.000    23128192.080    94706071.323 6      -402.117          41.500    23128194.000    94706082.320 7      -402.117          44.812
G27  23323179.060   122564138.051 6      5248.568          37.500    23323180.920   122564138.074 3      5248.568          18.625    23323182.080    95504527.763 3      4089.793          18.437    23323186.020    95504546.735 6      4089.793          39.375
R10  20698462.700   110334441.463 7      1718.318          45.062    20698463.220   110334441.482 7      1718.318          43.750
R11  20787792.000   111083654.914 7      4604.673          47.562    20787792.180   111083654.915 7      4604.673          46.562    20787799.240    86398429.668 8      3581.412          48.375    20787799.320    86398429.666 8      3581.412          49.000
G28  20607194.580   108291535.806 7      1198.855          44.937    20607194.000   108291535.816 6      1198.855          36.062    20607196.220    84383020.569 5       934.173          35.875    20607196.480    84383024.563 8       934.173          49.000
G16  23280570.560   122340225.861 6      4530.755          41.000    23280569.120   122340225.871 5      4530.755          30.625    23280574.220    95330063.328 5      3530.459          30.500
G25  24444891.260   128458760.581 5        83.703          32.437    24444887.320   128458760.599 4        83.703          28.500    24444901.960   100097760.852 4        65.223          28.375    24444902.540   100097776.847 6        65.223          40.625
G26  21271065.020   111780207.406 7      3608.853          47.500    21271063.980   111780207.406 6      3608.853          38.125    21271069.860    87101468.830 6      2812.093          38.187    21271069.340    87101489.830 8      2812.093          48.750
G31  20615352.840   108334419.318 8      3108.949          49.812    20615352.100   108334419.318 7      3108.949          42.687    20615352.700    84416432.822 7      2422.558          42.250    20615353.820    84416443.825 8      2422.558          49.250
R21  19489083.780   104290017.185 7      3735.785          43.687    19489083.980   104290017.194 7      3735.785          43.875    19489091.960    81114496.546 7      2905.611          46.562    19489091.360    81114494.544 7      2905.611          46.250
> 2024 05 10 08 44  7.0000000  0 14
G18  21682596.040   113942811.241 7      3357.611          46.437    21682595.220   113942811.243 6      3357.611          39.625    21682599.260    88786613.025 6      2616.320          39.312    21682598.900    88786613.029 8      2616.320          51.562
G04  24800278.520   130326346.072 5      3718.769          34.000    24800278.700   130326346.096 2      3718.769          14.187    24800287.140   101553005.506 2      2897.742          14.312    24800292.640   101553037.493 6      2897.742          40.562
R09  23276331.220   124294310.794 6       -85.704          39.625    23276330.220   124294310.782 6       -85.704          40.062    23276344.200    96673397.944 7       -66.659          45.687    23276343.880    96673394.948 7       -66.659          46.250
R22  22408773.920   119619558.567 7      6625.060          44.625    22408774.920   119619558.578 7      6625.060          44.250    22408782.140    93037467.439 7      5152.824          46.750    22408782.400    93037470.443 7      5152.824          46.375
G29  23128286.540   121539965.732 7      -516.223          43.125    23128284.520   121539965.737 7      -516.223          42.375    23128290.100    94706473.573 7      -402.252          42.500    23128292.260    94706484.572 7      -402.252          44.875
G27  23322180.380   122558889.594 6      5248.440          37.187    23322182.960   122558889.594 3      5248.440          18.687    23322184.060    95500438.051 3      4089.693          18.437    23322186.960    95500457.018 6      4089.693          39.375
R10  20698140.560   110332723.382 7      1717.875          44.812    20698141.120   110332723.396 7      1717.875          43.437
R11  20786930.160   111079050.349 7      4604.596          47.375    20786930.260   111079050.350 7      4604.596          46.250    20786937.720    86394848.344 8      3581.353          49.437    20786937.380    86394848.344 8      3581.353          49.937
G28  20606966.740   108290337.377 7      1198.140          44.250    20606965.780   108290337.379 6      1198.140          36.000    20606968.220    84382086.726 5       933.616          35.312    20606968.660    84382090.720 8       933.616          49.125
G16  23279708.220   122335695.090 7      4530.956          42.000    23279706.880   122335695.103 5      4530.956          30.625    23279712.140    95326532.859 5      3530.615          30.500
G25  24444875.000   128458676.747 5        83.771          32.062    24444871.260   128458676.760 4        83.771          28.500    24444885.840   100097695.513 4        65.276          28.375    24444886.920   100097711.505 6        65.276          41.000
G26  21270378.400   111776598.571 7      3608.848          46.937    21270377.160   111776598.571 6      3608.848          38.062    21270383.080    87098656.752 6      2812.090          38.250    21270382.660    87098677.749 8      2812.090          48.750
G31  20614761.220   108331310.718 8      3108.405          49.562    20614760.600   108331310.720 7      3108.405          43.562    20614761.080    84414010.538 7      2422.134          43.250    20614762.060    84414021.537 8      2422.134          49.375
R21  19488385.800   104286281.845 7      3735.006          43.312    19488385.580   104286281.857 7      3735.006          43.875    19488393.780    81111591.282 7      2905.005          46.812    19488393.520    81111589.284 7      2905.005          47.000
> 2024 05 10 08 44  8.0000000  0 14
G18  21681957.180   113939454.111 7      3356.707          46.750    21681956.480   113939454.116 6      3356.707          39.875    21681960.400    88783997.086 6      2615.616          39.625    21681959.760    88783997.088 8      2615.616          52.312
G04  24799571.680   130322627.875 5      3717.725          34.000    24799571.000   130322627.901 2      3717.725          14.187    24799579.840   101550108.207 2      2896.928          14.312    24799584.280   101550140.194 6      2896.928          40.562
R09  23276347.340   124294396.890 6       -86.254          38.437    23276345.880   124294396.883 6       -86.254          39.187    23276360.380    96673464.905 7       -67.087          46.750    23276359.840    96673461.909 7       -67.087          46.687
R22  22407532.640   119612933.701 7      6624.623          44.937    22407534.040   119612933.702 7      6624.623          44.500    22407540.780    93032314.757 7      5152.484          47.562    22407541.280    93032317.764 7      5152.484          47.125
G29  23128384.800   121540482.063 7      -516.553          43.562    23128382.840   121540482.068 7      -516.553          42.312    23128388.480    94706875.901 7      -402.509          42.187    23128390.360    94706886.894 7      -402.509          45.312
G27  23321182.040   122553641.459 6      5247.835          37.187    23321183.460   122553641.427 3      5247.835          18.687    23321187.500    95496348.582 3      4089.222          18.437    23321187.980    95496367.552 6      4089.222          39.500
R10  20697818.340   110331005.736 7      1717.243          45.125    20697818.800   110331005.750 7      1717.243          43.937
R11  20786068.780   111074445.966 7      4604.111          47.875    20786068.740   111074445.967 7      4604.111          47.125    20786076.020    86391267.149 8      3580.976          50.250    20786075.880    86391267.149 8      3580.976          51.312
G28  20606738.860   108289139.531 7      1197.320          44.187    20606737.800   108289139.536 6      1197.320          36.000    20606740.220    84381153.339 5       932.976          35.625    20606740.660    84381157.340 8       932.976          50.250
G16  23278846.040   122331164.464 7      4530.407          42.312    23278844.660   122331164.471 5      4530.407          30.625    23278850.020    95323002.501 5      3530.187          30.375
G25  24444859.100   128458593.029 5        83.340          32.062    24444855.380   128458593.044 4        83.340          28.500    24444869.840   100097630.276 4        64.940          27.687    24444870.900   100097646.265 6        64.940          41.000
G26  21269691.740   111772989.922 7      3608.409          47.187    21269690.480   111772989.922 6      3608.409          38.687    21269696.460    87095844.820 6      2811.747          38.687    21269695.980    87095865.821 8      2811.747          49.125
G31  20614169.740   108328202.700 8      3107.599          49.375    20614169.300   108328202.700 7      3107.599          43.312    20614169.640    84411588.702 7      2421.506          43.562    20614170.560    84411599.705 8      2421.506          49.937
R21  19487687.840   104282547.380 7      3733.821          44.375    19487687.800   104282547.403 7      3733.821          43.687    19487695.940    81108686.707 7      2904.083          47.625    19487695.740    81108684.707 7      2904.083          47.750
> 2024 05 10 08 44  9.0000000  0 14
G18  21681318.720   113936097.523 7      3356.290          46.125    21681317.840   113936097.528 6      3356.290          39.625    21681321.700    88781381.562 6      2615.291          39.250    21681321.080    88781381.563 8      2615.291          51.937
G04  24798863.960   130318910.121 5      3717.388          33.937    24798863.520   130318910.147 2      3717.388          14.187    24798872.520   101547211.252 2      2896.666          14.312    24798876.920   101547243.239 6      2896.666          40.812
R09  23276364.020   124294483.293 6       -86.435          38.437    23276361.880   124294483.280 6       -86.435          39.187    23276376.460    96673532.095 7       -67.227          46.437    23276376.060    96673529.095 7       -67.227          47.437
R22  22406291.580   119606309.076 7      6624.479          43.937    22406292.820   119606309.083 7      6624.479          44.875    22406299.880    93027162.282 7      5152.373          47.562    22406300.160    93027165.288 7      5152.373          47.125
G29  23128483.100   121540998.439 7      -516.371          43.500    23128481.040   121540998.444 7      -516.371          42.062    23128486.620    94707278.267 7      -402.367          42.125    23128488.860    94707289.268 7      -402.367          45.687
G27  23320182.880   122548393.554 6      5247.787          36.937    23320185.060   122548393.538 3      5247.787          18.687    23320188.220    95492259.302 3      4089.185          18.437    23320190.180    95492278.278 6      4089.185          39.500
R10  20697496.260   110329288.440 7      1717.042          45.250    20697496.880   110329288.461 7      1717.042          43.750
R11  20785207.300   111069841.652 7      4604.288          47.250    20785207.120   111069841.656 7      4604.288          46.437    20785214.380    86387686.014 8      3581.113          51.562    20785214.180    86387686.012 8      3581.113          51.187
G28  20606510.780   108287942.218 7      1196.994          44.125    20606509.960   108287942.218 6      1196.994          36.125    20606512.360    84380220.364 5       932.722          35.562    20606512.800    84380224.367 8       932.722          50.187
G16  23277983.740   122326633.788 6      4530.759          41.500    23277982.540   122326633.795 5      4530.759          30.625    23277987.860    95319472.108 5      3530.462          30.375
G25  24444843.020   128458509.303 5        83.591          32.062    24444839.680   128458509.326 4        83.591          28.250    24444853.740   100097565.031 4        65.136          27.687    24444855.840   100097581.026 6        65.136          41.187
G26  21269004.960   111769381.366 7      3608.489          46.687    21269003.760   111769381.363 6      3608.489          38.500    21269009.720    87093032.956 6      2811.810          38.687    21269009.280    87093053.959 8      2811.810          49.125
G31  20613578.300   108325095.182 8      3107.246          49.875    20613578.000   108325095.185 7      3107.246          43.687    20613578.320    84409167.262 7      2421.231          43.812    20613579.280    84409178.263 8      2421.231          50.687
R21  19486990.200   104278813.726 7      3733.295          44.500    19486989.940   104278813.746 7      3733.295          43.687    19486998.100    81105782.751 7      2903.674          47.812    19486997.680    81105780.754 7      2903.674          47.562
> 2024 05 10 08 44 10.0000000  0 14
G18  21680679.920   113932741.355 7      3355.974          46.500    21680679.140   113932741.360 6      3355.974          39.375    21680683.020    88778766.367 6      2615.045          39.187    21680682.580    88778766.365 8      2615.045          52.562
G04  24798157.780   130315192.730 5      3717.175          33.937    24798156.220   130315192.758 2      3717.175          14.187    24798165.140   101544314.577 2      2896.500          14.312    24798169.400   101544346.560 6      2896.500          40.812
R09  23276380.000   124294569.848 6       -86.742          38.437    23276377.960   124294569.836 6       -86.742          39.187    23276392.460    96673599.403 7       -67.466          46.312    23276392.480    96673596.401 7       -67.466          47.625
R22  22405050.980   119599684.563 7      6624.411          44.562    22405052.220   119599684.572 7      6624.411          45.375    22405058.940    93022009.895 8      5152.320          48.000    22405059.260    93022012.902 7      5152.320          47.812
G29  23128581.980   121541514.780 7      -516.355          43.625    23128579.300   121541514.785 7      -516.355          42.625    23128584.960    94707680.611 7      -402.355          42.375    23128587.100    94707691.610 7      -402.355          45.500
G27  23319184.700   122543145.829 6      5247.609          36.937    23319185.420   122543145.818 3      5247.609          18.687    23319187.500    95488170.192 3      4089.046          18.437    23319191.420    95488189.143 6      4089.046          40.062
R10  20697174.020   110327571.409 7      1716.859          45.187    20697174.680   110327571.426 7      1716.859          43.750
R11  20784345.300   111065237.333 7      4604.279          47.437    20784345.680   111065237.340 7      4604.279          46.562    20784352.800    86384104.889 8      3581.106          51.125    20784352.500    86384104.888 8      3581.106          51.812
G28  20606283.060   108286745.331 7      1196.597          44.562    20606282.200   108286745.336 6      1196.597          36.125    20606284.580    84379287.727 5       932.413          35.812    20606285.080    84379291.732 8       932.413          50.125
G16  23277121.520   122322103.038 6      4530.765          41.875    23277120.320   122322103.045 5      4530.765          30.625    23277125.640    95315941.660 5      3530.467          30.375
G25  24444826.520   128458425.477 5        84.061          32.062    24444823.780   128458425.506 4        84.061          28.250    24444837.860   100097499.712 4        65.502          27.687    24444839.940   100097515.699 6        65.502          41.187
G26  21268318.280   111765772.804 7      3608.455          47.062    21268317.060   111765772.801 6      3608.455          38.562    21268322.960    87090221.090 6      2811.783          38.562    21268322.460    87090242.094 8      2811.783          49.250
G31  20612987.080   108321988.082 8      3106.791          49.562    20612986.660   108321988.079 7      3106.791          43.687    20612986.920    84406746.145 7      2420.876          43.812    20612988.040    84406757.148 8      2420.876          50.000
R21  19486292.020   104275080.781 7      3732.626          43.562    19486292.560   104275080.799 7      3732.626          43.750    19486300.340    81102879.350 7      2903.154          47.625    19486300.160    81102877.348 7      2903.154          47.687
> 2024 05 10 08 44 11.0000000  0 14
