     3.05           OBSERVATION DATA    MIXED               RINEX VERSION / TYPE
TPS2RIN 1.0.29.3920 TPS-USER            20240511 200042 UTC PGM / RUN BY / DATE
Win64 build Feb 23, 2024 (c) Topcon Positioning Systems     COMMENT
SRC: 20240510_MI01.tps                                      COMMENT
OPT: -S -v 3.05                                             COMMENT
Observer            Agency                                  OBSERVER / AGENCY
O0M3X53SBGM         TPS HIPER_SR        4.8 HSR Jul,08,2022 REC # / TYPE / VERS
FW: 4.8 HSR Jul,08,2022 p3                                  COMMENT
SN: HiPer SR 1212-12575                                     COMMENT
000                 TPSHIPER_SR     NONE                    ANT # / TYPE
        1.8000        0.0000        0.0000                  ANTENNA: DELTA H/E/N
MI01                                                        MARKER NAME
  5384352.3650 -1584078.9617  3021712.9899                  APPROX POSITION XYZ
  2024     5    10     9    14   36.0000000     GPS         TIME OF FIRST OBS
  2024     5    10     9    29   35.0000000     GPS         TIME OF LAST OBS
     1.000                                                  INTERVAL
   899 EPOCHS                                               COMMENT
G   16 C1C L1C D1C S1C C1W L1W D1W S1W C2W L2W D2W S2W C2X  SYS / # / OBS TYPES
       L2X D2X S2X                                          SYS / # / OBS TYPES
R   16 C1C L1C D1C S1C C1P L1P D1P S1P C2P L2P D2P S2P C2C  SYS / # / OBS TYPES
       L2C D2C S2C                                          SYS / # / OBS TYPES
    14                                                      # OF SATELLITES
   G04   806   806   806   806   805   805   805   805   805PRN / # OF OBS
         805   805   805   806   806   806   806            PRN / # OF OBS
   G16   899   899   899   899   899   899   899   899   899PRN / # OF OBS
         899   899   899     0     0     0     0            PRN / # OF OBS
   G18   899   899   899   899   899   899   899   899   899PRN / # OF OBS
         899   899   899   899   899   899   899            PRN / # OF OBS
   G25   142   142   142   142   142   142   142   142   142PRN / # OF OBS
         142   142   142   142   142   142   142            PRN / # OF OBS
   G26   899   899   899   899   899   899   899   899   899PRN / # OF OBS
         899   899   899   899   899   899   899            PRN / # OF OBS
   G27   899   899   899   899   899   899   899   899   899PRN / # OF OBS
         899   899   899   899   899   899   899            PRN / # OF OBS
   G28   899   899   899   899   899   899   899   899   899PRN / # OF OBS
         899   899   899   899   899   899   899            PRN / # OF OBS
   G29   899   899   899   899   899   899   899   899   899PRN / # OF OBS
         899   899   899   899   899   899   899            PRN / # OF OBS
   G31   899   899   899   899   899   899   899   899   899PRN / # OF OBS
         899   899   899   899   899   899   899            PRN / # OF OBS
   R10   899   899   899   899   899   899   899   899     0PRN / # OF OBS
           0     0     0     0     0     0     0            PRN / # OF OBS
   R11   899   899   899   899   899   899   899   899   899PRN / # OF OBS
         899   899   899   899   899   899   899            PRN / # OF OBS
   R12   899   899   899   899   899   899   899   899   899PRN / # OF OBS
         899   899   899   899   899   899   899            PRN / # OF OBS
   R21   899   899   899   899   899   899   899   899   899PRN / # OF OBS
         899   899   899   899   899   899   899            PRN / # OF OBS
   R22   899   899   899   899   899   899   899   899   899PRN / # OF OBS
         899   899   899   899   899   899   899            PRN / # OF OBS
G L1C                                                       SYS / PHASE SHIFT
G L1W -0.25000                                              SYS / PHASE SHIFT
G L2W  0.00000                                              SYS / PHASE SHIFT
G L2X  0.25000                                              SYS / PHASE SHIFT
R L1C                                                       SYS / PHASE SHIFT
R L1P -0.25000                                              SYS / PHASE SHIFT
R L2P -0.25000                                              SYS / PHASE SHIFT
R L2C                                                       SYS / PHASE SHIFT
  5 R10 -7 R11  0 R12 -1 R21  4 R22 -3                      GLONASS SLOT / FRQ #
                                                            GLONASS COD/PHS/BIS
    18    18  1929     7GPS                                 LEAP SECONDS
                                                            END OF HEADER
> 2024 05 10 09 14 36.0000000  0 14
R10  20838516.660   111081022.838 7       915.428          45.812    20838516.000   111081022.849 7       915.428          44.000
R12  23494573.580   125503784.340 6      5836.588          39.812    23494572.580   125503784.343 6      5836.588          40.375    23494584.680    97614108.030 6      4539.569          41.187    23494585.720    97614112.025 7      4539.569          42.437
R22  20843440.900   111263704.562 7      5901.064          46.062    20843440.980   111263704.553 7      5901.064          46.625    20843448.260    86538466.083 8      4589.717          48.562    20843448.320    86538467.078 8      4589.717          49.437
R11  19869535.960   106176772.638 8      4178.643          48.875    19869535.440   106176772.639 7      4178.643          47.500    19869542.900    82581965.860 8      3250.056          51.500    19869542.640    82581964.863 8      3250.056          52.062
G29  23920182.400   125701402.883 6      -568.737          41.750    23920180.820   125701402.893 6      -568.737          38.562    23920187.080    97949170.027 6      -443.172          38.125    23920188.280    97949176.040 6      -443.172          41.500
G25  25034538.940   131557382.688 5       -49.981          34.750    25034537.380   131557382.712 4       -49.981          25.875    25034551.740   102512247.878 4       -38.946          25.875    25034554.560   102512315.892 5       -38.946          35.750
G04  24267802.780   127528159.387 7      2754.390          42.062    24267802.060   127528159.395 4      2754.390          24.937    24267810.600    99372622.603 4      2146.278          25.062    24267810.960    99372632.609 6      2146.278          41.687
G16  22312737.680   117254224.903 7      4436.502          43.125    22312736.580   117254224.906 5      4436.502          31.687    22312740.720    91366943.516 5      3457.015          31.375
G31  20308488.360   106721822.391 8      2053.201          48.750    20308487.160   106721822.393 8      2053.201          48.875    20308488.640    83159864.175 8      1599.897          49.062    20308489.340    83159870.176 8      1599.897          51.062
G28  20960824.160   110149874.417 7       208.787          46.250    20960823.640   110149874.424 6       208.787          38.312    20960825.680    85831078.437 6       162.691          37.875    20960826.140    85831080.441 8       162.691          50.000
G18  21302759.840   111946758.753 7      2232.559          46.437    21302758.920   111946758.766 6      2232.559          38.937    21302762.740    87231248.856 6      1739.657          38.125    21302763.080    87231252.859 8      1739.657          50.812
G27  22186609.980   116591417.519 7      4672.735          45.250    22186608.440   116591417.524 6      4672.735          36.500    22186614.520    90850476.124 6      3641.092          36.000    22186614.620    90850480.137 8      3641.092          48.875
G26  20658412.240   108560687.508 7      3309.872          47.250    20658410.020   108560687.511 7      3309.872          47.062    20658415.260    84592759.262 7      2579.121          47.625    20658416.720    84592767.255 8      2579.121          49.250
R21  19078959.800   102095375.886 7      2143.263          47.687    19078959.820   102095375.909 7      2143.263          47.812    19078968.260    79407544.690 8      1666.982          49.687    19078967.580    79407541.693 8      1666.982          48.750
> 2024 05 10 09 14 38.0000000  0 14
R10  20838173.580   111079192.909 7       914.361          45.125    20838172.780   111079192.926 7       914.361          44.062
R12  23492388.860   125492110.843 6      5836.756          40.187    23492387.300   125492110.860 6      5836.756          40.562    23492399.340    97605028.669 6      4539.699          41.875    23492400.400    97605032.671 7      4539.699          42.125
R22  20841230.180   111251903.501 7      5899.976          46.562    20841230.160   111251903.496 7      5899.976          46.750    20841237.500    86529287.490 8      4588.871          48.875    20841237.640    86529288.485 8      4588.871          49.187
R11  19867972.220   106168416.026 8      4177.922          49.062    19867971.960   106168416.019 7      4177.922          47.750    19867979.080    82575466.263 8      3249.495          51.187    19867978.840    82575465.264 8      3249.495          52.187
G29  23920398.840   125702540.506 6      -568.875          41.500    23920397.480   125702540.519 6      -568.875          38.250    23920403.560    97950056.476 6      -443.279          38.125    23920405.200    97950062.490 6      -443.279          41.562
G25  25034558.400   131557482.608 5       -50.231          34.312    25034556.700   131557482.628 4       -50.231          25.875    25034571.040   102512325.742 4       -39.141          25.875    25034572.980   102512393.753 5       -39.141          35.750
G04  24266754.800   127522651.771 6      2753.221          40.562    24266754.040   127522651.773 4      2753.221          24.937    24266762.340    99368330.950 4      2145.367          25.062    24266762.760    99368340.944 7      2145.367          42.250
G16  22311049.300   117245351.897 7      4436.391          43.812    22311048.080   117245351.899 5      4436.391          31.687    22311052.340    91360029.487 5      3456.928          31.812
G31  20307707.080   106717717.181 7      2051.921          47.937    20307706.040   106717717.183 8      2051.921          49.500    20307707.520    83156665.312 8      1598.899          49.562    20307708.320    83156671.311 8      1598.899          51.125
G28  20960745.200   110149457.910 7       207.663          46.437    20960744.320   110149457.926 6       207.663          37.750    20960746.420    85830753.888 6       161.816          38.000    20960747.000    85830755.889 8       161.816          49.687
G18  21301910.440   111942294.855 7      2231.291          47.250    21301909.620   111942294.863 6      2231.291          38.812    21301913.400    87227770.492 6      1738.668          38.500    21301913.820    87227774.497 8      1738.668          51.062
G27  22184831.880   116582072.831 7      4671.940          44.625    22184830.280   116582072.836 6      4671.940          36.875    22184836.280    90843194.555 6      3640.473          36.375    22184836.520    90843198.570 8      3640.473          49.000
G26  20657152.720   108554068.113 7      3309.433          47.937    20657150.260   108554068.116 7      3309.433          47.875    20657155.740    84587601.294 7      2578.779          47.750    20657157.100    84587609.291 8      2578.779          49.000
R21  19078159.300   102091091.151 7      2141.386          47.000    19078159.300   102091091.161 8      2141.386          48.062    19078167.520    79404212.106 8      1665.523          49.875    19078166.840    79404209.110 8      1665.523          49.187
> 2024 05 10 09 14 39.0000000  0 14
R10  20838002.140   111078278.739 7       913.661          44.812    20838001.180   111078278.755 7       913.661          44.250
R12  23491295.700   125486273.972 6      5836.603          39.437    23491294.660   125486273.976 6      5836.603          40.562    23491306.480    97600488.872 6      4539.580          41.875    23491307.580    97600492.876 7      4539.580          42.375
R22  20840124.860   111246003.839 7      5899.081          45.812    20840124.940   111246003.840 7      5899.081          46.125    20840132.220    86524698.872 8      4588.174          48.875    20840132.500    86524699.867 8      4588.174          48.937
R11  19867190.400   106164238.294 8      4177.217          48.687    19867190.000   106164238.293 7      4177.217          47.687    19867197.260    82572216.933 8      3248.946          51.500    19867196.940    82572215.936 8      3248.946          52.250
G29  23920507.540   125703109.361 7      -569.089          42.937    23920505.800   125703109.366 6      -569.089          38.125    23920511.920    97950499.730 6      -443.446          38.000    23920513.340    97950505.737 6      -443.446          41.562
G25  25034567.220   131557532.770 5       -50.562          34.312    25034565.840   131557532.788 4       -50.562          24.812    25034581.060   102512364.819 4       -39.399          24.437    25034583.000   102512432.818 5       -39.399          35.750
G04  24266230.760   127519898.834 6      2752.277          41.375    24266230.360   127519898.836 4      2752.277          24.937    24266238.440    99366185.804 4      2144.632          25.062    24266239.440    99366195.802 6      2144.632          41.625
G16  22310205.260   117240915.570 7      4436.028          44.375    22310203.920   117240915.572 5      4436.028          32.250    22310207.940    91356572.619 5      3456.645          31.937
G31  20307316.900   106715665.560 8      2050.988          48.062    20307315.680   106715665.565 8      2050.988          49.187    20307317.160    83155066.648 8      1598.172          49.437    20307317.680    83155072.649 8      1598.172          50.937
G28  20960705.680   110149250.497 7       206.821          46.250    20960705.060   110149250.507 6       206.821          38.187    20960706.960    85830592.261 6       161.160          38.000    20960707.360    85830594.262 8       161.160          50.187
G18  21301485.920   111940063.959 7      2230.217          47.062    21301485.020   111940063.966 6      2230.217          38.750    21301488.720    87226032.129 6      1737.832          38.687    21301489.160    87226036.132 8      1737.832          50.937
G27  22183942.880   116577401.073 7      4671.265          45.250    22183941.200   116577401.078 6      4671.265          37.125    22183947.160    90839554.230 6      3639.947          36.187    22183947.680    90839558.242 8      3639.947          49.187
G26  20656522.920   108550758.818 7      3308.785          47.437    20656520.600   108550758.820 7      3308.785          47.812    20656525.840    84585022.626 7      2578.274          47.562    20656527.280    84585030.623 8      2578.274          48.937
R21  19077759.240   102088950.122 7      2140.258          47.437    19077758.960   102088950.137 7      2140.258          47.125    19077767.460    79402546.870 8      1664.645          49.312    19077766.660    79402543.871 8      1664.645          48.500
> 2024 05 10 09 14 40.0000000  0 14
R10  20837830.640   111077365.206 7       913.421          45.125    20837829.480   111077365.214 7       913.421          43.812
R12  23490203.040   125480437.082 6      5837.048          39.437    23490202.540   125480437.073 6      5837.048          40.250    23490214.640    97595949.058 6      4539.927          41.875    23490214.500    97595953.058 7      4539.927          42.000
R22  20839019.900   111240104.817 7      5898.817          45.937    20839020.020   111240104.821 7      5898.817          46.312    20839027.240    86520110.744 8      4587.969          48.437    20839027.380    86520111.740 8      4587.969          49.062
R11  19866408.640   106160061.025 8      4177.212          48.437    19866408.220   106160061.023 7      4177.212          47.500    19866415.660    82568967.949 8      3248.942          50.937    19866415.280    82568966.951 8      3248.942          52.437
G29  23920615.520   125703678.319 7      -568.904          42.375    23920614.140   125703678.323 6      -568.904          38.562    23920620.220    97950943.069 6      -443.302          38.375    23920621.720    97950949.078 6      -443.302          41.375
G25  25034576.580   131557583.100 5       -50.012          34.312    25034574.800   131557583.115 4       -50.012          24.812    25034590.640   102512404.027 4       -38.970          24.437    25034592.700   102512472.032 5       -38.970          35.875
G04  24265706.900   127517146.514 6      2752.128          40.562    24265706.640   127517146.519 4      2752.128          24.937    24265714.860    99364041.140 4      2144.515          24.750    24265715.480    99364051.148 6      2144.515          41.750
G16  22309361.020   117236479.461 7      4436.181          44.250    22309359.660   117236479.463 5      4436.181          32.250    22309363.700    91353115.915 5      3456.765          31.937
G31  20306926.500   106713614.651 8      2050.737          48.250    20306925.360   106713614.658 8      2050.737          49.125    20306926.960    83153468.537 8      1597.977          49.187    20306927.420    83153474.541 8      1597.977          51.250
G28  20960666.140   110149043.685 7       206.634          47.500    20960665.680   110149043.692 6       206.634          38.437    20960667.600    85830431.103 6       161.013          37.812    20960667.880    85830433.110 8       161.013          49.687
G18  21301061.560   111937833.793 7      2229.889          46.812    21301060.680   111937833.803 6      2229.889          38.437    21301064.320    87224294.342 6      1737.576          38.187    21301064.820    87224298.343 8      1737.576          51.375
G27  22183054.000   116572729.751 7      4671.263          44.062    22183052.380   116572729.759 6      4671.263          36.375    22183058.260    90835914.239 6      3639.945          36.375    22183058.680    90835918.255 8      3639.945          49.000
G26  20655893.240   108547449.809 8      3308.972          48.187    20655890.860   108547449.814 7      3308.972          47.875    20655896.220    84582444.175 8      2578.420          48.250    20655897.940    84582452.173 8      2578.420          48.750
R21  19077359.160   102086810.077 8      2139.704          48.375    19077359.180   102086810.095 7      2139.704          47.812    19077367.520    79400882.388 8      1664.214          49.500    19077366.860    79400879.388 8      1664.214          48.500
> 2024 05 10 09 14 41.0000000  0 14
R10  20837659.320   111076452.280 7       912.853          45.062    20837658.200   111076452.283 7       912.853          43.687
R12  23489110.860   125474600.203 6      5837.070          39.437    23489109.600   125474600.199 6      5837.070          40.250    23489121.840    97591409.270 6      4539.944          41.250    23489122.280    97591413.272 7      4539.944          42.000
R22  20837914.860   111234206.447 7      5898.189          46.000    20837915.060   111234206.451 7      5898.189          46.625    20837922.100    86515523.127 8      4587.481          48.875    20837922.560    86515524.125 8      4587.481          49.625
R11  19865627.040   106155884.255 8      4176.694          48.375    19865626.680   106155884.256 7      4176.694          47.500    19865633.960    82565719.351 8      3248.540          51.125    19865633.700    82565718.354 8      3248.540          52.312
G29  23920723.220   125704247.384 7      -569.028          42.312    23920722.220   125704247.389 6      -569.028          38.187    23920728.460    97951386.486 6      -443.399          38.187    23920729.600    97951392.502 6      -443.399          41.125
G25  25034586.320   131557633.708 5       -50.534          33.625    25034584.280   131557633.724 4       -50.534          24.812    25034599.760   102512443.462 4       -39.377          24.437    25034602.620   102512511.485 5       -39.377          35.875
G04  24265183.160   127514394.862 6      2751.639          41.250    24265182.900   127514394.870 4      2751.639          24.937    24265191.280    99361896.999 4      2144.134          24.750    24265192.020    99361907.005 6      2144.134          41.750
G16  22308516.800   117232043.520 7      4436.005          43.687    22308515.620   117232043.524 5      4436.005          31.937    22308519.660    91349659.341 5      3456.627          31.937
G31  20306536.260   106711564.485 7      2049.955          47.937    20306535.280   106711564.493 8      2049.955          49.375    20306536.800    83151871.010 8      1597.367          49.562    20306537.380    83151877.013 8      1597.367          51.500
G28  20960626.880   110148837.509 7       206.004          46.812    20960626.400   110148837.521 6       206.004          38.000    20960628.220    85830270.448 6       160.522          37.687    20960628.860    85830272.451 8       160.522          49.750
G18  21300637.620   111935604.394 7      2229.181          47.187    21300636.340   111935604.407 6      2229.181          38.375    21300639.900    87222557.150 6      1737.025          38.187    21300640.400    87222561.155 8      1737.025          50.687
G27  22182164.880   116568058.923 7      4670.816          43.687    22182163.480   116568058.926 6      4670.816          36.750    22182169.540    90832274.633 6      3639.597          36.500    22182170.060    90832278.646 8      3639.597          48.687
G26  20655263.400   108544141.144 7      3308.672          47.937    20655261.240   108544141.149 7      3308.672          47.312    20655266.620    84579865.999 7      2578.186          47.312    20655268.440    84579873.996 8      2578.186          48.625
R21  19076959.260   102084671.044 8      2138.629          48.000    19076959.300   102084671.056 7      2138.629          47.500    19076967.820    79399218.692 8      1663.378          50.125    19076967.200    79399215.693 8      1663.378          48.687
> 2024 05 10 09 14 42.0000000  0 14
R10  20837488.120   111075539.699 7       912.444          44.687    20837487.160   111075539.702 7       912.444          43.562
R12  23488017.720   125468763.044 6      5837.249          40.437    23488017.000   125468763.045 6      5837.249          40.500    23488029.320    97586869.263 6      4540.082          41.625    23488029.440    97586873.263 6      4540.082          41.562
R22  20836810.040   111228308.464 7      5897.785          45.812    20836810.200   111228308.460 7      5897.785          46.562    20836817.320    86510935.805 8      4587.166          48.687    20836817.680    86510936.802 8      4587.166          49.187
R11  19864845.500   106151707.667 8      4176.504          48.625    19864845.160   106151707.674 7      4176.504          47.750    19864852.380    82562470.900 8      3248.392          51.062    19864852.060    82562469.901 8      3248.392          52.312
G29  23920831.740   125704816.296 6      -569.029          41.875    23920830.360   125704816.307 6      -569.029          38.562    23920836.620    97951829.793 6      -443.400          38.562    23920837.540    97951835.802 6      -443.400          41.125
G25  25034595.920   131557684.238 5       -50.408          33.625    25034593.920   131557684.246 4       -50.408          24.812    25034609.460   102512482.836 4       -39.279          24.437    25034612.060   102512550.829 5       -39.279          35.875
G04  24264659.720   127511643.670 6      2750.912          41.000    24264659.300   127511643.677 4      2750.912          24.437    24264667.780    99359753.215 4      2143.568          24.750    24264668.340    99359763.205 6      2143.568          41.937
G16  22307672.780   117227607.513 7      4436.002          44.125    22307671.480   117227607.520 5      4436.002          31.937    22307675.500    91346202.721 5      3456.625          32.125
G31  20306146.300   106709514.785 8      2049.427          48.312    20306145.240   106709514.793 8      2049.427          49.187    20306146.800    83150273.841 8      1596.956          49.562    20306147.400    83150279.842 8      1596.956          51.250
G28  20960587.660   110148631.700 7       205.588          46.062    20960587.280   110148631.713 6       205.588          38.062    20960589.020    85830110.076 6       160.198          37.750    20960589.600    85830112.085 8       160.198          49.812
G18  21300213.200   111933375.510 7      2228.643          46.250    21300212.260   111933375.525 6      2228.643          38.250    21300215.820    87220820.359 6      1736.605          37.875    21300216.320    87220824.358 8      1736.605          51.187
G27  22181276.120   116563388.292 7      4670.472          45.062    22181274.780   116563388.303 6      4670.472          36.437    22181280.760    90828635.187 6      3639.329          36.500    22181281.200    90828639.198 8      3639.329          48.750
G26  20654633.840   108540832.558 7      3308.496          47.500    20654631.600   108540832.565 7      3308.496          47.812    20654636.980    84577287.884 7      2578.049          47.437    20654638.820    84577295.879 8      2578.049          48.750
R21  19076559.780   102082532.731 7      2137.859          47.437    19076559.900   102082532.740 8      2137.859          48.000    19076568.160    79397555.557 8      1662.780          50.062    19076567.460    79397552.558 8      1662.780          49.062
> 2024 05 10 09 14 43.0000000  0 14
R10  20837317.120   111074627.551 7       911.789          44.625    20837315.980   111074627.549 7       911.789          43.750
R12  23486925.200   125462925.657 6      5837.187          40.437    23486923.840   125462925.661 6      5837.187          40.500    23486936.140    97582329.086 6      4540.034          41.625    23486936.460    97582333.082 7      4540.034          42.312
R22  20835705.340   111222410.943 7      5897.081          45.812    20835705.220   111222410.941 7      5897.081          47.000    20835712.580    86506348.844 8      4586.618          49.312    20835712.700    86506349.841 8      4586.618          49.375
R11  19864063.700   106147531.392 8      4175.853          48.937    19864063.580   106147531.393 7      4175.853          47.375    19864070.800    82559222.681 8      3247.885          51.312    19864070.540    82559221.682 8      3247.885          52.000
G29  23920940.020   125705385.109 7      -568.937          42.062    23920938.700   125705385.109 6      -568.937          38.312    23920944.820    97952273.015 6      -443.328          38.125    23920946.340    97952279.021 6      -443.328          41.125
G25  25034605.400   131557734.855 5       -50.827          33.625    25034603.380   131557734.870 4       -50.827          24.812    25034618.800   102512522.273 4       -39.606          24.437    25034622.020   102512590.252 5       -39.606          35.875
G04  24264136.340   127508892.911 6      2750.303          40.750    24264135.740   127508892.913 4      2750.303          24.437    24264144.140    99357609.763 4      2143.093          24.750    24264145.160    99357619.754 7      2143.093          42.000
G16  22306828.660   117223171.533 7      4435.828          44.500    22306827.100   117223171.543 5      4435.828          32.062    22306831.360    91342746.115 5      3456.490          32.125
G31  20305756.160   106707465.645 8      2048.693          49.125    20305755.260   106707465.642 8      2048.693          49.937    20305756.840    83148677.100 8      1596.384          49.937    20305757.700    83148683.103 8      1596.384          51.187
G28  20960548.640   110148426.352 7       204.894          47.000    20960548.280   110148426.360 6       204.894          37.625    20960550.040    85829950.063 6       159.657          37.437    20960550.600    85829952.063 8       159.657          50.125
G18  21299789.240   111931147.230 7      2227.757          45.687    21299788.240   111931147.243 6      2227.757          39.000    21299791.800    87219084.035 6      1735.915          38.437    21299792.360    87219088.032 8      1735.915          50.687
G27  22180387.320   116558717.969 7      4669.867          43.875    22180385.960   116558717.977 6      4669.867          36.750    22180391.900    90824995.976 6      3638.857          36.500    22180392.420    90824999.983 8      3638.857          48.875
G26  20654004.420   108537524.111 7      3308.192          47.750    20654002.060   108537524.118 8      3308.192          48.000    20654007.340    84574709.873 7      2577.812          47.687    20654009.260    84574717.873 8      2577.812          49.312
R21  19076160.480   102080395.230 7      2136.889          47.312    19076160.520   102080395.248 7      2136.889          47.625    19076168.720    79395893.061 8      1662.025          50.437    19076167.980    79395890.062 8      1662.025          49.187
> 2024 05 10 09 14 44.0000000  0 14
R10  20837146.580   111073715.940 7       911.393          44.500    20837145.000   111073715.943 7       911.393          43.750
R12  23485832.140   125457088.180 6      5837.548          40.062    23485831.280   125457088.192 6      5837.548          40.625    23485843.820    97577788.832 6      4540.315          41.812    23485844.020    97577792.834 7      4540.315          42.187
R22  20834600.800   111216514.038 7      5896.610          45.312    20834600.680   111216514.031 7      5896.610          46.312    20834607.680    86501762.356 8      4586.252          48.625    20834607.960    86501763.355 8      4586.252          48.750
R11  19863282.260   106143355.472 7      4175.769          47.812    19863282.100   106143355.475 7      4175.769          47.687    19863289.280    82555974.750 8      3247.820          51.000    19863289.180    82555973.751 8      3247.820          51.875
G29  23921048.460   125705953.993 7      -568.881          42.500    23921046.960   125705953.996 6      -568.881          38.312    23921053.200    97952716.297 6      -443.284          38.062    23921054.340    97952722.313 6      -443.284          41.062
G25  25034615.720   131557785.550 5       -50.612          33.062    25034613.020   131557785.563 4       -50.612          24.812    25034628.340   102512561.764 4       -39.438          24.437    25034631.380   102512629.752 5       -39.438          35.875
G04  24263613.180   127506142.780 6      2749.737          40.125    24263612.460   127506142.782 4      2749.737          24.437    24263620.740    99355466.802 4      2142.653          24.750    24263621.580    99355476.793 7      2142.653          42.000
G16  22305984.400   117218735.710 7      4435.825          43.375    22305982.900   117218735.717 5      4435.825          32.062    22305987.220    91339289.630 5      3456.487          32.000
G31  20305366.400   106705417.163 8      2048.225          48.937    20305365.440   106705417.166 8      2048.225          49.625    20305367.060    83147080.885 8      1596.019          49.687    20305367.960    83147086.890 8      1596.019          51.062
G28  20960509.600   110148221.571 7       204.480          46.500    20960509.280   110148221.579 6       204.480          37.937    20960511.100    85829790.493 6       159.335          37.812    20960511.720    85829792.496 8       159.335          50.187
G18  21299365.180   111928919.634 7      2227.331          46.500    21299364.580   111928919.641 6      2227.331          38.312    21299368.060    87217348.240 6      1735.583          38.375    21299368.420    87217352.243 8      1735.583          50.812
G27  22179498.260   116554048.027 7      4669.776          44.625    22179497.340   116554048.031 6      4669.776          36.812    22179503.200    90821357.057 6      3638.787          36.312    22179503.940    90821361.071 8      3638.787          48.562
G26  20653374.760   108534215.953 7      3308.087          46.875    20653372.440   108534215.955 7      3308.087          47.250    20653377.760    84572132.088 7      2577.730          47.562    20653379.640    84572140.083 8      2577.730          48.625
R21  19075761.260   102078258.645 7      2136.160          47.812    19075761.420   102078258.660 7      2136.160          47.375    19075769.540    79394231.279 8      1661.458          50.000    19075768.900    79394228.276 8      1661.458          48.750
> 2024 05 10 09 14 45.0000000  0 14
R10  20836975.680   111072804.837 7       910.884          44.562    20836973.820   111072804.846 7       910.884          43.562
R12  23484738.940   125451250.655 6      5837.563          40.062    23484738.460   125451250.664 6      5837.563          40.625    23484750.560    97573248.541 6      4540.327          41.687    23484750.840    97573252.545 7      4540.327          42.250
R22  20833496.340   111210617.680 7      5896.106          45.375    20833496.100   111210617.670 7      5896.106          46.250    20833503.500    86497176.302 8      4585.860          48.687    20833503.400    86497177.297 8      4585.860          48.312
R11  19862500.980   106139179.950 8      4175.435          48.500    19862500.880   106139179.951 7      4175.435          47.062    19862507.760    82552727.115 8      3247.560          49.312    19862507.860    82552726.116 8      3247.560          52.187
G29  23921156.640   125706522.890 6      -568.777          41.500    23921155.200   125706522.895 6      -568.777          37.875    23921161.500    97953159.592 6      -443.203          37.750    23921162.140    97953165.601 6      -443.203          41.062
G25  25034625.260   131557836.416 5       -50.656          33.062    25034622.980   131557836.423 4       -50.656          24.812    25034638.080   102512601.385 4       -39.472          24.437    25034641.320   102512669.372 5       -39.472          35.000
G04  24263090.120   127503393.180 6      2749.333          40.500    24263089.140   127503393.182 4      2749.333          24.437    24263097.640    99353324.260 4      2142.337          24.750    24263098.260    99353334.258 7      2142.337          42.187
G16  22305140.120   117214299.982 7      4435.815          44.375    22305138.920   117214299.984 5      4435.815          32.062    22305143.120    91335833.220 5      3456.479          32.000
G31  20304976.660   106703369.329 8      2047.623          49.187    20304975.780   106703369.328 8      2047.623          48.625    20304977.380    83145485.169 8      1595.550          48.750    20304978.180    83145491.173 8      1595.550          51.062
G28  20960470.960   110148017.324 7       203.973          46.875    20960470.500   110148017.337 6       203.973          38.000    20960472.380    85829631.339 6       158.940          38.062    20960472.840    85829633.346 8       158.940          48.875
G18  21298941.340   111926692.723 7      2226.670          46.750    21298940.720   111926692.733 6      2226.670          38.437    21298944.240    87215612.987 6      1735.067          38.000    21298944.560    87215616.990 8      1735.067          50.375
G27  22178609.900   116549378.455 7      4669.543          44.250    22178608.740   116549378.460 6      4669.543          36.125    22178614.680    90817718.432 5      3638.605          35.937    22178615.440    90817722.441 8      3638.605          48.687
G26  20652745.420   108530908.032 7      3307.879          47.500    20652743.040   108530908.034 7      3307.879          47.250    20652748.320    84569554.489 7      2577.568          47.125    20652749.900    84569562.489 8      2577.568          48.375
R21  19075362.080   102076122.935 7      2135.322          47.187    19075362.280   102076122.953 7      2135.322          47.000    19075370.440    79392570.173 8      1660.806          48.625    19075369.820    79392567.172 8      1660.806          49.250
> 2024 05 10 09 14 46.0000000  0 14
R10  20836804.860   111071894.305 7       910.407          44.437    20836802.840   111071894.306 7       910.407          43.875
R12  23483645.440   125445413.078 6      5837.810          40.062    23483645.720   125445413.085 6      5837.810          40.625    23483657.760    97568708.202 6      4540.519          41.937    23483658.040    97568712.205 7      4540.519          42.437
R22  20832392.180   111204721.928 7      5895.693          47.062    20832391.440   111204721.921 7      5895.693          46.250    20832398.820    86492590.719 8      4585.539          48.875    20832398.840    86492591.719 8      4585.539          49.000
R11  19861719.600   106135004.869 8      4175.057          48.937    19861719.420   106135004.870 7      4175.057          47.750    19861726.580    82549479.838 8      3247.267          50.687    19861726.500    82549478.840 8      3247.267          52.000
G29  23921264.920   125707091.884 7      -568.921          42.437    23921263.520   125707091.892 6      -568.921          38.187    23921269.720    97953602.954 6      -443.315          38.062    23921270.500    97953608.965 6      -443.315          40.750
G25  25034634.760   131557887.469 5       -50.781          33.062    25034632.560   131557887.471 4       -50.781          24.812    25034647.680   102512641.150 4       -39.569          24.437    25034650.600   102512709.137 5       -39.569          35.000
G04  24262567.040   127500644.245 6      2748.727          40.250    24262566.180   127500644.247 4      2748.727          24.437    24262574.540    99351182.231 4      2141.866          24.750    24262575.360    99351192.220 6      2141.866          41.812
G16  22304295.960   117209864.435 7      4435.487          44.125    22304295.000   117209864.440 5      4435.487          32.062    22304298.940    91332376.952 5      3456.223          32.000
G31  20304587.320   106701322.203 8      2046.876          49.750    20304586.240   106701322.206 8      2046.876          49.125    20304587.800    83143890.009 8      1594.968          49.187    20304588.740    83143896.012 8      1594.968          51.375
G28  20960432.100   110147813.670 7       203.600          46.812    20960431.680   110147813.680 6       203.600          38.500    20960433.580    85829472.646 6       158.649          38.187    20960434.040    85829474.640 8       158.649          49.687
G18  21298517.840   111924466.556 7      2225.940          46.937    21298516.980   111924466.569 6      2225.940          38.562    21298520.740    87213878.313 6      1734.499          37.937    21298521.040    87213882.314 8      1734.499          50.687
G27  22177721.440   116544709.364 7      4669.060          44.750    22177720.320   116544709.363 6      4669.060          36.437    22177726.340    90814080.177 6      3638.229          36.000    22177726.800    90814084.184 8      3638.229          49.000
G26  20652116.020   108527600.415 7      3307.541          47.562    20652113.640   108527600.420 7      3307.541          47.500    20652118.900    84566977.128 7      2577.304          47.500    20652120.620    84566985.129 8      2577.304          48.312
R21  19074963.340   102073988.169 8      2134.515          48.312    19074963.280   102073988.184 7      2134.515          47.625    19074971.640    79390909.789 8      1660.178          49.812    19074971.000    79390906.788 8      1660.178          49.312
> 2024 05 10 09 14 47.0000000  0 14
R10  20836633.900   111070984.306 7       909.841          44.000    20836631.920   111070984.312 7       909.841          43.687
R12  23482552.660   125439575.403 6      5837.967          40.187    23482552.900   125439575.412 6      5837.967          40.750    23482565.240    97564167.794 6      4540.641          41.687    23482565.020    97564171.796 7      4540.641          42.437
R22  20831287.620   111198826.769 7      5895.020          46.687    20831287.380   111198826.772 7      5895.020          46.125    20831294.340    86488005.604 8      4585.015          49.625    20831294.580    86488006.599 8      4585.015          49.312
R11  19860938.340   106130830.180 8      4174.661          48.312    19860938.160   106130830.181 7      4174.661          47.125    19860945.280    82546232.857 8      3246.958          51.562    19860945.140    82546231.858 8      3246.958          52.312
G29  23921373.460   125707660.873 7      -568.786          42.000    23921371.900   125707660.881 6      -568.786          37.687    23921377.860    97954046.322 6      -443.210          37.937    23921378.840    97954052.329 6      -443.210          40.750
G25  25034644.220   131557938.626 5       -51.019          33.687    25034642.520   131557938.639 3       -51.019          23.062    25034657.680   102512681.007 4       -39.755          24.437    25034660.300   102512749.006 5       -39.755          35.000
G04  24262043.780   127497895.872 6      2748.209          40.375    24262043.160   127497895.877 4      2748.209          24.437    24262051.400    99349040.641 4      2141.461          24.375    24262052.600    99349050.639 6      2141.461          41.812
G16  22303451.920   117205428.967 7      4435.621          44.000    22303450.920   117205428.972 5      4435.621          32.062    22303454.920    91328920.749 5      3456.328          31.937
G31  20304197.860   106699275.714 8      2046.309          48.375    20304196.900   106699275.711 8      2046.309          49.000    20304198.400    83142295.338 8      1594.526          49.125    20304199.280    83142301.343 8      1594.526          51.187
G28  20960393.400   110147610.581 7       202.982          46.937    20960393.080   110147610.586 6       202.982          38.437    20960394.920    85829314.391 6       158.168          38.125    20960395.340    85829316.396 8       158.168          49.687
G18  21298094.220   111922241.072 7      2225.224          47.125    21298093.400   111922241.083 6      2225.224          38.187    21298097.200    87212144.170 6      1733.941          38.125    21298097.640    87212148.173 8      1733.941          50.875
G27  22176832.900   116540040.648 7      4668.645          44.375    22176831.880   116540040.645 6      4668.645          36.437    22176837.780    90810442.219 6      3637.905          36.250    22176838.480    90810446.224 8      3637.905          49.125
G26  20651486.860   108524293.046 7      3307.374          47.500    20651484.220   108524293.048 7      3307.374          47.187    20651489.600    84564399.954 7      2577.175          47.062    20651491.180    84564407.954 8      2577.175          48.687
R21  19074564.400   102071854.343 7      2133.488          47.375    19074564.580   102071854.358 8      2133.488          48.125    19074572.820    79389250.150 8      1659.379          49.687    19074572.180    79389247.150 8      1659.379          49.125
> 2024 05 10 09 14 48.0000000  0 14
R10  20836463.440   111070074.819 7       909.044          44.312    20836461.600   111070074.825 7       909.044          43.750
R12  23481460.380   125433737.640 6      5837.601          40.187    23481460.160   125433737.657 6      5837.601          40.750    23481472.420    97559627.318 6      4540.356          41.687    23481472.320    97559631.317 7      4540.356          42.250
R22  20830183.480   111192932.173 7      5894.090          46.125    20830182.860   111192932.168 7      5894.090          47.000    20830190.080    86483420.918 8      4584.292          48.437    20830190.340    86483421.915 8      4584.292          49.187
R11  19860157.440   106126655.893 8      4173.887          48.312    19860156.980   106126655.894 7      4173.887          47.375    19860164.120    82542986.188 8      3246.356          51.062    19860164.140    82542985.190 8      3246.356          52.500
G29  23921481.400   125708229.912 7      -569.244          43.125    23921480.320   125708229.922 6      -569.244          38.250    23921486.100    97954489.718 6      -443.566          38.250    23921487.300    97954495.728 6      -443.566          40.687
G25  25034654.780   131557989.958 5       -51.439          33.687    25034652.280   131557989.970 3       -51.439          23.062    25034667.520   102512720.997 3       -40.082          23.062    25034669.360   102512788.980 5       -40.082          35.000
G04  24261520.780   127495148.074 6      2747.377          40.500    24261520.160   127495148.074 4      2747.377          24.437    24261528.580    99346899.500 4      2140.813          24.375    24261529.120    99346909.490 6      2140.813          41.875
G16  22302607.700   117200993.638 7      4435.105          44.500    22302606.880   117200993.640 5      4435.105          32.062    22302611.020    91325464.653 5      3455.926          31.937
G31  20303808.700   106697229.879 8      2045.247          48.312    20303807.480   106697229.881 8      2045.247          49.187    20303809.080    83140701.184 8      1593.699          49.312    20303809.840    83140707.190 8      1593.699          51.000
G28  20960354.840   110147408.031 7       202.050          46.687    20960354.440   110147408.039 6       202.050          38.125    20960356.360    85829156.560 6       157.441          37.875    20960356.900    85829158.560 8       157.441          50.062
G18  21297670.820   111920016.264 7      2224.237          46.625    21297669.940   111920016.271 6      2224.237          38.250    21297673.800    87210410.553 6      1733.172          38.312    21297674.260    87210414.554 8      1733.172          50.875
G27  22175944.820   116535372.303 7      4667.835          44.375    22175943.560   116535372.303 6      4667.835          36.375    22175949.460    90806804.550 6      3637.274          36.187    22175950.100    90806808.561 8      3637.274          49.000
G26  20650857.180   108520985.920 7      3306.768          47.062    20650854.820   108520985.920 7      3306.768          47.750    20650860.240    84561822.976 7      2576.702          47.625    20650861.860    84561830.977 8      2576.702          48.625
R21  19074165.740   102069721.429 7      2132.219          47.687    19074166.000   102069721.438 7      2132.219          47.562    19074174.120    79387591.215 8      1658.392          49.687    19074173.500    79387588.212 8      1658.392          48.812
> 2024 05 10 09 14 49.0000000  0 14
R10  20836292.320   111069165.891 7       908.678          44.312    20836291.060   111069165.911 7       908.678          43.375
R12  23480367.700   125427899.797 6      5837.905          39.937    23480367.320   125427899.814 6      5837.905          40.375    23480378.940    97555086.771 7      4540.593          42.250    23480379.500    97555090.775 7      4540.593          42.000
R22  20829078.980   111187038.172 7      5893.637          45.250    20829079.080   111187038.178 7      5893.637          46.437    20829086.020    86478836.707 8      4583.940          49.312    20829086.260    86478837.705 8      4583.940          49.125
R11  19859376.160   106122482.019 7      4173.748          47.750    19859375.940   106122482.018 7      4173.748          47.562    19859383.080    82539739.847 8      3246.249          51.312    19859382.720    82539738.848 8      3246.249          51.625
G29  23921589.740   125708798.975 7      -568.973          42.625    23921588.640   125708798.980 6      -568.973          38.187    23921594.380    97954933.140 6      -443.355          38.125    23921595.420    97954939.157 6      -443.355          40.687
G25  25034665.020   131558041.407 5       -51.285          33.687    25034662.020   131558041.420 3       -51.285          23.062    25034677.120   102512761.076 3       -39.963          23.062    25034680.420   102512829.056 5       -39.963          35.000
G04  24260998.220   127492400.889 6      2746.875          39.687    24260997.480   127492400.894 4      2746.875          24.187    24261005.820    99344758.834 4      2140.422          24.375    24261006.420    99344768.834 6      2140.422          41.687
G16  22301763.740   117196558.443 7      4435.207          43.437    22301762.820   117196558.451 5      4435.207          32.062    22301767.100    91322008.659 5      3456.005          32.062
G31  20303419.420   106695184.684 8      2044.982          48.750    20303418.280   106695184.689 8      2044.982          48.500    20303419.880    83139107.529 8      1593.492          48.937    20303420.640    83139113.536 8      1593.492          51.687
G28  20960316.560   110147206.025 7       201.848          46.937    20960315.880   110147206.041 6       201.848          38.125    20960317.900    85828999.154 6       157.284          38.375    20960318.540    85829001.159 8       157.284          50.125
G18  21297247.820   111917792.144 7      2223.863          46.625    21297246.640   111917792.154 6      2223.863          38.312    21297250.560    87208677.472 6      1732.880          38.250    21297251.120    87208681.475 8      1732.880          50.812
G27  22175056.480   116530704.347 7      4667.757          44.437    22175055.280   116530704.352 6      4667.757          36.500    22175061.040    90803167.186 6      3637.213          36.437    22175062.020    90803171.195 8      3637.213          48.812
G26  20650227.880   108517679.047 7      3306.834          47.312    20650225.620   108517679.052 7      3306.834          47.312    20650230.860    84559246.196 7      2576.754          47.250    20650232.620    84559254.195 8      2576.754          48.562
R21  19073767.520   102067589.435 7      2131.564          47.500    19073767.660   102067589.447 7      2131.564          46.875    19073775.920    79385932.998 8      1657.883          49.750    19073774.900    79385929.995 8      1657.883          48.937
> 2024 05 10 09 14 50.0000000  0 14
R10  20836122.000   111068257.334 7       908.275          44.437    20836120.760   111068257.338 7       908.275          43.375
R12  23479274.980   125422061.737 6      5838.135          39.937    23479274.180   125422061.749 6      5838.135          40.375    23479286.620    97550546.054 6      4540.772          41.875    23479286.800    97550550.045 7      4540.772          42.687
R22  20827974.940   111181144.587 7      5893.179          45.750    20827974.720   111181144.582 7      5893.179          46.250    20827981.820    86474252.796 8      4583.584          48.875    20827981.960    86474253.795 8      4583.584          49.375
R11  19858595.440   106118308.365 8      4173.508          48.312    19858594.900   106118308.361 7      4173.508          47.437    19858601.980    82536493.671 8      3246.062          51.375    19858601.600    82536492.674 8      3246.062          51.937
G29  23921698.180   125709367.888 7      -568.781          43.187    23921697.020   125709367.887 6      -568.781          38.062    23921702.620    97955376.440 6      -443.206          38.125    23921703.960    97955382.447 6      -443.206          40.812
G25  25034674.400   131558092.846 5       -51.529          33.875    25034671.860   131558092.851 3       -51.529          23.062    25034687.440   102512801.146 3       -40.152          23.062    25034690.100   102512869.155 5       -40.152          34.562
G04  24260475.580   127489654.079 6      2746.506          40.062    24260474.760   127489654.084 4      2746.506          24.187    24260483.160    99342618.463 4      2140.134          24.375    24260483.580    99342628.477 6      2140.134          41.687
G16  22300919.860   117192123.212 7      4435.141          43.875    22300918.800   117192123.214 5      4435.141          32.062    22300923.180    91318552.635 5      3455.954          32.062
G31  20303030.220   106693140.000 8      2044.382          48.875    20303029.120   106693140.005 8      2044.382          49.312    20303030.720    83137514.270 8      1593.025          49.500    20303031.500    83137520.273 8      1593.025          51.187
G28  20960278.180   110147004.431 7       201.299          46.437    20960277.600   110147004.447 6       201.299          38.312    20960279.600    85828842.062 6       156.856          37.875    20960279.980    85828844.063 8       156.856          49.687
G18  21296824.500   111915568.562 7      2223.266          46.562    21296823.640   111915568.575 6      2223.266          38.187    21296827.400    87206944.813 6      1732.415          38.062    21296827.820    87206948.810 8      1732.415          50.437
G27  22174168.280   116526036.620 7      4667.503          44.375    22174166.940   116526036.627 6      4667.503          36.875    22174172.840    90799529.997 6      3637.015          36.062    22174173.800    90799534.008 8      3637.015          48.625
G26  20649598.460   108514372.282 7      3306.660          47.812    20649596.240   108514372.284 7      3306.660          47.750    20649601.620    84556669.494 7      2576.618          47.687    20649603.020    84556677.493 8      2576.618          48.750
R21  19073369.240   102065458.163 7      2130.854          46.937    19073369.540   102065458.173 8      2130.854          48.375    19073377.580    79384275.344 8      1657.331          50.250    19073376.580    79384272.341 8      1657.331          49.062
> 2024 05 10 09 14 51.0000000  0 14
R10  20835951.700   111067349.222 7       907.776          44.187    20835950.240   111067349.228 7       907.776          43.562
R12  23478182.240   125416223.550 6      5838.045          40.125    23478181.940   125416223.548 6      5838.045          40.750    23478193.600    97546005.233 7      4540.702          42.000    23478194.040    97546009.237 7      4540.702          42.625
R22  20826870.800   111175251.496 7      5892.634          44.750    20826870.880   111175251.492 7      5892.634          46.812    20826878.060    86469669.287 8      4583.159          48.687    20826877.840    86469670.284 8      4583.159          49.250
R11  19857814.420   106114135.045 7      4173.048          47.937    19857813.680   106114135.043 7      4173.048          47.812    19857821.000    82533247.761 8      3245.704          51.250    19857820.800    82533246.763 8      3245.704          51.812
G29  23921806.420   125709936.829 7      -569.090          42.812    23921805.400   125709936.834 6      -569.090          38.125    23921810.900    97955819.765 6      -443.447          38.187    23921812.100    97955825.783 6      -443.447          40.750
G25  25034683.880   131558144.390 5       -51.915          33.875    25034681.640   131558144.403 3       -51.915          23.062    25034697.180   102512841.306 3       -40.454          23.062    25034699.680   102512909.290 5       -40.454          34.562
G04  24259952.440   127486907.861 6      2745.823          40.437    24259952.180   127486907.871 4      2745.823          24.187    24259960.580    99340478.559 4      2139.603          24.375    24259961.000    99340488.554 6      2139.603          41.500
G16  22300075.920   117187688.035 7      4434.937          44.375    22300074.780   117187688.040 5      4434.937          32.187    22300079.100    91315096.657 5      3455.795          32.187
G31  20302641.300   106691095.933 7      2043.580          47.687    20302640.160   106691095.938 8      2043.580          49.687    20302641.820    83135921.487 8      1592.400          49.625    20302642.600    83135927.494 8      1592.400          51.250
G28  20960239.940   110146803.340 7       200.656          46.750    20960239.200   110146803.352 6       200.656          38.437    20960241.280    85828685.363 6       156.356          37.750    20960241.840    85828687.362 8       156.356          50.312
G18  21296401.580   111913345.627 7      2222.477          46.312    21296400.720   111913345.637 6      2222.477          38.687    21296404.300    87205212.652 6      1731.801          38.562    21296404.720    87205216.653 8      1731.801          50.750
G27  22173280.200   116521369.242 7      4667.079          43.937    22173278.780   116521369.247 6      4667.079          36.437    22173284.820    90795893.081 6      3636.685          36.250    22173285.180    90795897.093 8      3636.685          49.375
G26  20648969.140   108511065.719 7      3306.332          47.062    20648967.120   108511065.722 7      3306.332          47.312    20648972.320    84554092.955 7      2576.363          47.312    20648973.900    84554100.955 8      2576.363          48.625
R21  19072970.920   102063327.767 7      2129.814          47.750    19072971.420   102063327.787 7      2129.814          47.187    19072979.420    79382618.373 8      1656.522          50.312    19072978.680    79382615.373 8      1656.522          49.500
> 2024 05 10 09 14 52.0000000  0 14
R10  20835781.740   111066441.667 7       907.263          44.500    20835780.180   111066441.671 7       907.263          43.250
R12  23477089.140   125410385.207 6      5838.364          40.125    23477088.540   125410385.221 6      5838.364          40.750    23477101.140    97541464.316 7      4540.950          42.000    23477101.280    97541468.316 7      4540.950          43.125
R22  20825767.160   111169358.976 7      5892.289          46.000    20825767.340   111169358.980 7      5892.289          46.437    20825774.300    86465086.222 8      4582.892          48.562    20825774.140    86465087.219 8      4582.892          49.312
R11  19857033.400   106109962.120 8      4172.792          48.562    19857032.880   106109962.121 7      4172.792          47.937    19857039.920    82530002.153 8      3245.505          51.062    19857039.720    82530001.154 8      3245.505          51.750
G29  23921914.360   125710505.755 6      -568.757          41.812    23921913.460   125710505.757 6      -568.757          37.750    23921919.340    97956263.080 6      -443.187          37.937    23921920.200    97956269.089 6      -443.187          40.750
G25  25034694.040   131558196.047 5       -51.876          33.875    25034691.600   131558196.054 3       -51.876          23.062    25034706.940   102512881.550 3       -40.423          23.062    25034709.840   102512949.514 5       -40.423          34.562
G04  24259430.340   127484162.202 6      2745.277          39.937    24259429.700   127484162.209 4      2745.277          24.187    24259438.180    99338339.084 4      2139.177          24.375    24259438.720    99338349.090 6      2139.177          41.437
G16  22299232.080   117183252.980 7      4435.123          44.812    22299230.960   117183252.987 5      4435.123          32.187    22299235.240    91311640.776 5      3455.940          32.187
G31  20302252.520   106689052.507 7      2043.093          47.625    20302251.260   106689052.515 8      2043.093          49.125    20302253.000    83134329.213 8      1592.021          49.187    20302253.640    83134335.216 8      1592.021          51.000
G28  20960201.620   110146602.794 7       200.325          46.187    20960201.160   110146602.804 6       200.325          38.750    20960203.100    85828529.094 6       156.097          38.250    20960203.780    85828531.099 8       156.097          50.062
G18  21295978.680   111911123.380 7      2221.935          46.562    21295977.780   111911123.396 6      2221.935          38.437    21295981.460    87203481.035 6      1731.378          38.062    21295981.640    87203485.040 8      1731.378          50.562
G27  22172391.780   116516702.266 7      4666.900          43.812    22172390.700   116516702.271 6      4666.900          36.500    22172396.740    90792256.477 5      3636.545          35.937    22172397.380    90792260.484 8      3636.545          49.187
