     3.05           OBSERVATION DATA    MIXED               RINEX VERSION / TYPE
TPS2RIN 1.0.29.3920 TPS-USER            20240511 200042 UTC PGM / RUN BY / DATE
Win64 build Feb 23, 2024 (c) Topcon Positioning Systems     COMMENT
SRC: 20240510_MI02.tps                                      COMMENT
OPT: -S -v 3.05                                             COMMENT
Observer            Agency                                  OBSERVER / AGENCY
O0M3X53SBGM         TPS HIPER_SR        4.8 HSR Jul,08,2022 REC # / TYPE / VERS
FW: 4.8 HSR Jul,08,2022 p3                                  COMMENT
SN: HiPer SR 1212-12575                                     COMMENT
000                 TPSHIPER_SR     NONE                    ANT # / TYPE
        1.8000        0.0000        0.0000                  ANTENNA: DELTA H/E/N
MI02                                                        MARKER NAME
  5383410.5067 -1586426.3787  3021855.2099                  APPROX POSITION XYZ
  2024     5    10     9    45   40.0000000     GPS         TIME OF FIRST OBS
  2024     5    10    10     0   40.0000000     GPS         TIME OF LAST OBS
     1.000                                                  INTERVAL
   901 EPOCHS                                               COMMENT
G   16 C1C L1C D1C S1C C1W L1W D1W S1W C2W L2W D2W S2W C2X  SYS / # / OBS TYPES
       L2X D2X S2X                                          SYS / # / OBS TYPES
R   16 C1C L1C D1C S1C C1P L1P D1P S1P C2P L2P D2P S2P C2C  SYS / # / OBS TYPES
       L2C D2C S2C                                          SYS / # / OBS TYPES
    14                                                      # OF SATELLITES
   G04   901   901   901   901   901   901   901   901   901PRN / # OF OBS
         901   901   901   901   901   901   901            PRN / # OF OBS
   G08   901   901   901   901   901   901   901   901   901PRN / # OF OBS
         901   901   901   901   901   901   901            PRN / # OF OBS
   G16   901   901   901   901   901   901   901   901   901PRN / # OF OBS
         901   901   901     0     0     0     0            PRN / # OF OBS
   G18   901   901   901   901   901   901   901   901   901PRN / # OF OBS
         901   901   901   901   901   901   901            PRN / # OF OBS
   G26   901   901   901   901   901   901   901   901   901PRN / # OF OBS
         901   901   901   901   901   901   901            PRN / # OF OBS
   G27   901   901   901   901   901   901   901   901   901PRN / # OF OBS
         901   901   901   901   901   901   901            PRN / # OF OBS
   G28   901   901   901   901   901   901   901   901   901PRN / # OF OBS
         901   901   901   901   901   901   901            PRN / # OF OBS
   G31   901   901   901   901   901   901   901   901   901PRN / # OF OBS
         901   901   901   901   901   901   901            PRN / # OF OBS
   R10   539   539   539   539   539   539   539   539     0PRN / # OF OBS
           0     0     0     0     0     0     0            PRN / # OF OBS
   R11   901   901   901   901   901   901   901   901   901PRN / # OF OBS
         901   901   901   901   901   901   901            PRN / # OF OBS
   R12   901   901   901   901   901   901   901   901   901PRN / # OF OBS
         901   901   901   901   901   901   901            PRN / # OF OBS
   R21   901   901   901   901   901   901   901   901   901PRN / # OF OBS
         901   901   901   901   901   901   901            PRN / # OF OBS
   R22   901   901   901   901   901   901   901   901   901PRN / # OF OBS
         901   901   901   901   901   901   901            PRN / # OF OBS
   R23   331   331   331   331   327   327   327   327     0PRN / # OF OBS
           0     0     0     0     0     0     0            PRN / # OF OBS
G L1C                                                       SYS / PHASE SHIFT
G L1W -0.25000                                              SYS / PHASE SHIFT
G L2W  0.00000                                              SYS / PHASE SHIFT
G L2X  0.25000                                              SYS / PHASE SHIFT
R L1C                                                       SYS / PHASE SHIFT
R L1P -0.25000                                              SYS / PHASE SHIFT
R L2P -0.25000                                              SYS / PHASE SHIFT
R L2C                                                       SYS / PHASE SHIFT
  6 R10 -7 R11  0 R12 -1 R21  4 R22 -3 R23  3               GLONASS SLOT / FRQ #
                                                            GLONASS COD/PHS/BIS
    18    18  1929     7GPS                                 LEAP SECONDS
                                                            END OF HEADER
> 2024 05 10 09 45 40.0000000  0 13
R12  22329857.560   119282087.217 6      5951.100          41.187    22329856.400   119282087.226 6      5951.100          41.562    22329867.100    92775006.406 7      4628.633          44.562    22329867.680    92775005.391 7      4628.633          45.250
G04  24362861.520   128027705.321 7      1804.067          42.750    24362860.280   128027705.334 4      1804.067          29.187    24362868.900    99761874.196 4      1405.766          29.062    24362868.920    99761877.214 7      1405.766          44.312
R22  19879079.960   106115875.060 8      4726.416          48.625    19879080.880   106115875.069 8      4726.416          48.750    19879086.160    82534595.155 8      3676.102          51.312    19879086.560    82534597.155 8      3676.102          51.750
G31  20682052.760   108684921.852 7       935.349          47.062    20682051.640   108684921.852 7       935.349          46.937    20682052.860    84689550.549 7       728.844          47.062    20682053.920    84689568.548 8       728.844          48.812
G16  21670335.140   113878378.134 7      4243.812          45.000    21670334.040   113878378.144 5      4243.812          34.375    21670337.480    88736408.794 5      3306.866          34.250
G27  21545541.260   113222583.858 7      4014.259          45.500    21545539.640   113222583.865 6      4014.259          37.500    21545545.500    88225407.733 6      3127.994          37.562    21545546.660    88225407.735 8      3127.994          49.250
G26  20465337.440   107546079.242 8      2836.242          48.187    20465336.600   107546079.241 7      2836.242          47.750    20465341.860    83802154.650 8      2210.059          48.437    20465342.160    83802155.653 8      2210.059          49.500
G08  24253497.000   127452989.584 5      4970.590          34.937    24253494.520   127452989.594 2      4970.590          16.875    24253504.660    99314030.983 2      3873.187          16.687    24253506.040    99314047.025 6      3873.187          36.312
R11  19450304.960   103936534.557 8      3331.744          48.312    19450304.580   103936534.560 8      3331.744          48.000    19450311.580    80839550.075 8      2591.356          52.437    19450311.180    80839550.069 8      2591.356          53.000
G28  21943038.260   115311443.661 7      -613.664          46.562    21943037.460   115311443.671 6      -613.664          37.125    21943041.280    89853083.779 6      -478.180          37.250    21943041.460    89853086.787 8      -478.180          49.687
R21  19501524.640   104356600.516 7       662.183          46.875    19501524.520   104356600.534 7       662.183          46.312    19501532.880    81166278.627 8       515.031          50.125    19501532.680    81166275.628 8       515.031          49.687
G18  21625000.960   113640144.268 7      1058.804          46.062    21624999.920   113640144.283 6      1058.804          38.187    21625003.440    88550775.427 6       825.042          37.750    21625004.080    88550775.417 8       825.042          50.500
R10  21583041.720   115049753.156 6        -5.488          41.000    21583041.000   115049753.152 6        -5.488          39.625
> 2024 05 10 09 45 41.0000000  0 13
R12  22328743.880   119276136.279 6      5950.962          41.187    22328742.400   119276136.291 6      5950.962          41.687    22328753.200    92770377.905 7      4628.526          44.187    22328753.600    92770376.890 7      4628.526          44.812
G04  24362518.320   128025901.556 6      1803.599          41.937    24362517.160   128025901.572 4      1803.599          29.125    24362525.760    99760468.667 4      1405.402          29.062    24362525.420    99760471.689 7      1405.402          44.562
R22  19878194.540   106111149.028 8      4725.658          48.562    19878195.540   106111149.032 8      4725.658          49.062    19878200.800    82530919.348 8      3675.511          50.937    19878200.960    82530921.344 8      3675.511          51.312
G31  20681874.720   108683986.950 7       934.603          46.812    20681873.900   108683986.957 7       934.603          46.750    20681875.040    84688822.060 7       728.262          46.687    20681876.080    84688840.063 8       728.262          48.812
G16  21669527.680   113874134.488 7      4243.541          44.312    21669526.380   113874134.496 5      4243.541          34.250    21669529.760    88733102.062 5      3306.655          34.312
G27  21544777.340   113218569.922 7      4013.859          46.250    21544775.940   113218569.932 6      4013.859          38.250    21544781.600    88222279.995 6      3127.683          37.812    21544782.760    88222279.998 8      3127.683          49.250
G26  20464797.900   107543243.257 7      2835.800          47.750    20464796.840   107543243.259 8      2835.800          48.375    20464802.300    83799944.798 8      2209.714          48.625    20464802.360    83799945.797 8      2209.714          49.687
G08  24252550.260   127448019.195 5      4970.417          34.562    24252548.480   127448019.200 2      4970.417          16.625    24252558.780    99310157.955 2      3873.052          16.687    24252559.160    99310174.015 6      3873.052          36.625
R11  19449681.700   103933203.197 8      3331.073          49.062    19449680.880   103933203.196 8      3331.073          48.000    19449688.180    80836959.015 8      2590.835          52.625    19449687.860    80836959.012 8      2590.835          53.187
G28  21943155.180   115312057.715 7      -614.204          45.562    21943154.320   115312057.730 6      -614.204          37.562    21943158.100    89853562.260 6      -478.601          36.750    21943158.340    89853565.264 8      -478.601          48.937
R21  19501401.100   104355938.786 7       661.414          47.812    19501400.820   104355938.801 7       661.414          45.812    19501409.440    81165763.950 8       514.433          50.312    19501409.120    81165760.952 8       514.433          49.375
G18  21624799.580   113639085.843 7      1058.142          47.125    21624798.540   113639085.853 6      1058.142          37.750    21624801.880    88549950.673 6       824.526          37.562    21624802.540    88549950.675 8       824.526          50.812
R10  21583043.540   115049758.969 6        -6.100          41.000    21583042.160   115049758.981 6        -6.100          40.000
> 2024 05 10 09 45 42.0000000  0 13
R12  22327630.000   119270185.288 6      5950.959          41.562    22327628.260   119270185.302 6      5950.959          41.687    22327639.240    92765749.367 7      4628.523          44.062    22327639.500    92765748.354 7      4628.523          44.687
G04  24362174.960   128024098.194 7      1803.113          42.250    24362174.040   128024098.204 4      1803.113          29.125    24362182.760    99759063.449 4      1405.023          29.062    24362182.380    99759066.470 7      1405.023          44.687
R22  19877309.400   106106423.626 8      4724.887          48.937    19877310.280   106106423.633 8      4724.887          48.875    19877315.640    82527244.038 8      3674.912          51.312    19877315.820    82527246.036 8      3674.912          51.062
G31  20681696.820   108683052.536 8       933.997          48.125    20681695.920   108683052.543 7       933.997          47.125    20681697.020    84688093.944 7       727.790          46.812    20681698.240    84688111.949 8       727.790          48.625
G16  21668720.060   113869890.889 7      4243.423          44.562    21668718.820   113869890.900 5      4243.423          34.250    21668722.220    88729795.362 5      3306.564          34.250
G27  21544013.540   113214556.279 7      4013.494          45.375    21544012.100   113214556.286 6      4013.494          37.500    21544018.080    88219152.481 6      3127.398          37.375    21544019.160    88219152.483 8      3127.398          49.500
G26  20464258.080   107540407.498 7      2835.438          47.812    20464257.220   107540407.500 8      2835.438          48.562    20464262.660    83797735.113 8      2209.432          48.812    20464263.080    83797736.113 8      2209.432          49.750
G08  24251604.360   127443048.969 5      4970.273          34.562    24251602.500   127443048.977 2      4970.273          16.625    24251612.900    99306285.054 2      3872.940          16.687    24251613.180    99306301.129 6      3872.940          36.625
R11  19449058.400   103929872.308 8      3330.540          48.812    19449057.800   103929872.312 7      3330.540          46.875    19449064.920    80834368.326 8      2590.420          52.187    19449064.440    80834368.322 8      2590.420          53.250
G28  21943271.980   115312672.055 7      -614.667          45.875    21943271.160   115312672.068 6      -614.667          36.937    21943275.020    89854040.960 6      -478.962          36.937    21943275.400    89854043.964 8      -478.962          49.375
R21  19501277.400   104355277.648 7       660.652          46.687    19501277.000   104355277.658 7       660.652          45.187    19501285.960    81165249.729 8       513.841          50.062    19501285.560    81165246.729 8       513.841          49.562
G18  21624598.300   113638027.941 7      1057.473          46.375    21624597.260   113638027.949 6      1057.473          37.875    21624600.620    88549126.334 6       824.005          37.625    21624601.180    88549126.332 8       824.005          50.687
R10  21583044.680   115049765.190 6        -6.596          41.000    21583043.620   115049765.204 6        -6.596          40.000
> 2024 05 10 09 45 43.0000000  0 13
R12  22326515.860   119264234.364 6      5950.840          41.562    22326515.120   119264234.375 7      5950.840          42.000    22326524.940    92761120.868 7      4628.431          44.125    22326525.500    92761119.855 7      4628.431          44.312
G04  24361831.920   128022295.333 6      1802.385          41.812    24361831.200   128022295.343 4      1802.385          29.125    24361839.640    99757658.623 4      1404.456          29.375    24361839.260    99757661.639 7      1404.456          44.875
R22  19876423.960   106101698.951 8      4724.182          48.312    19876425.360   106101698.954 8      4724.182          48.937    19876430.460    82523569.288 8      3674.364          51.125    19876430.620    82523571.286 8      3674.364          51.250
G31  20681519.400   108682118.708 7       933.402          47.812    20681518.200   108682118.710 7       933.402          46.937    20681519.400    84687366.282 7       727.326          46.875    20681520.560    84687384.285 8       727.326          48.875
G16  21667912.640   113865647.454 7      4243.102          45.500    21667911.360   113865647.464 5      4243.102          34.312    21667914.660    88726488.791 5      3306.313          34.250
G27  21543249.920   113210543.021 7      4012.872          46.125    21543248.460   113210543.026 6      4012.872          38.000    21543254.300    88216025.269 6      3126.913          37.875    21543255.420    88216025.268 8      3126.913          48.875
G26  20463718.860   107537572.041 8      2835.137          48.250    20463717.700   107537572.041 8      2835.137          48.437    20463722.980    83795525.670 8      2209.198          48.750    20463723.200    83795526.668 8      2209.198          49.687
G08  24250658.340   127438078.996 5      4969.696          34.562    24250656.720   127438079.001 2      4969.696          16.625    24250667.020    99302412.354 2      3872.491          16.812    24250666.320    99302428.400 6      3872.491          36.625
R11  19448435.420   103926542.012 8      3329.811          48.500    19448434.620   103926542.013 7      3329.811          47.937    19448441.700    80831778.093 8      2589.853          52.187    19448441.340    80831778.088 8      2589.853          53.375
G28  21943389.040   115313286.765 7      -615.078          46.375    21943388.000   115313286.778 6      -615.078          37.375    21943391.980    89854519.953 6      -479.281          37.125    21943392.440    89854522.951 8      -479.281          49.562
R21  19501154.040   104354617.203 7       659.919          46.625    19501153.720   104354617.226 7       659.919          45.812    19501162.580    81164736.054 8       513.270          50.187    19501162.220    81164733.058 8       513.270          49.375
G18  21624396.680   113636970.644 7      1056.786          46.312    21624396.060   113636970.651 6      1056.786          38.062    21624399.560    88548302.468 6       823.470          37.812    21624400.120    88548302.470 8       823.470          50.500
R10  21583045.640   115049771.928 6        -7.136          41.312    21583044.660   115049771.942 6        -7.136          40.000
> 2024 05 10 09 45 44.0000000  0 13
R12  22325401.660   119258283.554 6      5951.012          41.562    22325401.120   119258283.563 7      5951.012          42.250    22325410.660    92756492.469 7      4628.565          44.187    22325411.680    92756491.456 7      4628.565          44.562
G04  24361489.320   128020493.024 6      1802.164          41.750    24361488.200   128020493.032 4      1802.164          29.125    24361496.640    99756254.226 4      1404.284          29.375    24361496.520    99756257.236 7      1404.284          44.625
R22  19875539.180   106096975.099 8      4723.676          48.375    19875540.140   106096975.114 8      4723.676          48.812    19875545.560    82519895.190 8      3673.970          51.312    19875545.660    82519897.190 8      3673.970          50.937
G31  20681341.580   108681185.561 7       932.983          47.125    20681340.700   108681185.569 7       932.983          46.687    20681341.880    84686639.156 7       727.000          46.812    20681343.060    84686657.159 8       727.000          49.062
G16  21667105.100   113861404.252 7      4243.222          45.750    21667103.800   113861404.256 5      4243.222          34.125    21667107.240    88723182.402 5      3306.407          34.187
G27  21542486.240   113206530.210 7      4012.661          45.812    21542484.840   113206530.213 6      4012.661          37.812    21542490.720    88212898.404 6      3126.749          37.875    21542491.640    88212898.400 8      3126.749          49.062
G26  20463179.200   107534736.994 8      2835.042          48.437    20463178.220   107534736.996 8      2835.042          48.187    20463183.500    83793316.545 8      2209.124          48.875    20463183.780    83793317.544 8      2209.124          49.812
G08  24249712.220   127433109.285 5      4970.010          35.250    24249710.700   127433109.287 2      4970.010          16.625    24249721.240    99298539.854 2      3872.735          16.812    24249720.640    99298555.894 6      3872.735          36.625
R11  19447812.280   103923212.376 8      3329.540          49.250    19447811.500   103923212.377 7      3329.540          47.125    19447818.680    80829188.374 8      2589.642          52.687    19447818.240    80829188.369 8      2589.642          53.062
G28  21943505.860   115313901.949 7      -615.215          46.562    21943505.220   115313901.961 6      -615.215          36.937    21943509.060    89854999.311 6      -479.388          36.812    21943509.160    89855002.311 8      -479.388          49.562
R21  19501030.660   104353957.600 7       659.408          46.187    19501030.500   104353957.612 7       659.408          46.000    19501039.380    81164223.021 8       512.873          50.437    19501038.920    81164220.023 8       512.873          49.812
G18  21624195.660   113635914.074 7      1056.323          46.000    21624194.940   113635914.079 6      1056.323          38.000    21624198.520    88547479.167 6       823.109          37.750    21624199.240    88547479.165 8       823.109          51.000
R10  21583046.780   115049779.306 6        -7.551          41.312    21583046.140   115049779.309 6        -7.551          40.000
> 2024 05 10 09 45 45.0000000  0 13
R12  22324287.660   119252332.651 6      5950.573          40.750    22324287.100   119252332.668 7      5950.573          42.250    22324296.580    92751864.004 7      4628.224          44.062    22324297.460    92751862.995 7      4628.224          44.250
G04  24361146.460   128018691.057 6      1801.513          41.687    24361145.360   128018691.064 4      1801.513          29.250    24361153.800    99754850.094 4      1403.776          29.375    24361153.980    99754853.112 7      1403.776          45.125
R22  19874654.540   106092251.865 8      4722.660          49.500    19874655.560   106092251.876 8      4722.660          49.062    19874660.760    82516221.561 8      3673.180          51.062    19874660.760    82516223.559 8      3673.180          51.312
G31  20681164.160   108680252.882 7       932.123          47.125    20681163.120   108680252.892 7       932.123          46.937    20681164.440    84685912.395 7       726.329          46.500    20681165.380    84685930.396 8       726.329          48.812
G16  21666297.520   113857161.055 7      4243.004          45.187    21666296.480   113857161.065 5      4243.004          34.125    21666299.760    88719876.014 5      3306.237          34.187
G27  21541722.980   113202517.607 7      4012.188          45.187    21541721.180   113202517.615 6      4012.188          38.062    21541727.220    88209771.700 6      3126.380          37.750    21541728.020    88209771.704 8      3126.380          49.375
G26  20462639.700   107531902.141 8      2834.478          48.187    20462638.740   107531902.149 8      2834.478          48.437    20462644.060    83791107.571 8      2208.684          48.750    20462644.400    83791108.572 8      2208.684          49.375
G08  24248766.380   127428139.769 5      4969.168          35.250    24248764.960   127428139.771 2      4969.168          16.625    24248775.520    99294667.508 2      3872.079          16.812    24248775.420    99294683.554 6      3872.079          36.625
R11  19447189.200   103919883.186 8      3328.659          49.437    19447188.380   103919883.195 8      3328.659          48.187    19447195.660    80826599.011 8      2588.957          52.250    19447194.980    80826599.007 8      2588.957          53.312
G28  21943623.160   115314517.376 7      -615.787          46.187    21943622.400   115314517.386 6      -615.787          37.125    21943625.940    89855478.863 6      -479.834          36.937    21943626.440    89855481.867 8      -479.834          49.250
R21  19500907.340   104353298.578 7       658.423          46.312    19500907.640   104353298.593 7       658.423          46.625    19500916.200    81163710.451 8       512.107          50.375    19500915.860    81163707.452 8       512.107          49.750
G18  21623994.660   113634857.954 7      1055.594          46.312    21623993.960   113634857.959 6      1055.594          37.625    21623997.540    88546656.214 6       822.541          37.937    21623998.420    88546656.218 8       822.541          50.500
R10  21583048.440   115049787.000 6        -8.076          41.187    21583047.480   115049787.003 6        -8.076          40.000
> 2024 05 10 09 45 46.0000000  0 13
R12  22323173.240   119246381.890 6      5950.840          40.750    22323173.840   119246381.907 7      5950.840          42.187    22323182.320    92747235.638 7      4628.431          43.625    22323183.360    92747234.625 7      4628.431          44.187
G04  24360803.880   128016889.712 6      1801.231          41.562    24360802.500   128016889.719 4      1801.231          29.250    24360810.920    99753446.448 4      1403.557          29.375    24360811.220    99753449.469 7      1403.557          45.062
R22  19873769.740   106087529.487 8      4722.081          49.125    19873770.880   106087529.496 8      4722.081          49.062    19873775.980    82512548.604 8      3672.730          50.875    19873776.080    82512550.602 8      3672.730          51.437
G31  20680986.700   108679320.922 7       931.688          47.437    20680985.800   108679320.927 7       931.688          46.437    20680987.000    84685186.191 7       725.991          46.812    20680988.140    84685204.196 8       725.991          48.812
G16  21665490.200   113852918.168 7      4242.959          45.437    21665489.020   113852918.175 5      4242.959          34.312    21665492.260    88716569.871 5      3306.202          34.437
G27  21540959.360   113198505.524 7      4011.963          45.812    21540957.720   113198505.532 6      4011.963          38.312    21540963.740    88206645.406 6      3126.205          38.062    21540964.420    88206645.408 8      3126.205          49.062
G26  20462100.420   107529067.738 8      2834.276          48.125    20462099.400   107529067.743 8      2834.276          48.625    20462104.640    83788898.945 8      2208.527          48.812    20462104.920    83788899.944 8      2208.527          49.312
G08  24247821.240   127423170.544 5      4969.121          35.562    24247819.360   127423170.541 2      4969.121          16.625    24247829.740    99290795.385 2      3872.043          16.812    24247829.980    99290811.461 6      3872.043          36.625
R11  19446566.460   103916554.715 8      3328.206          49.000    19446565.420   103916554.721 7      3328.206          47.125    19446572.740    80824010.202 8      2588.605          52.125    19446572.200    80824010.198 8      2588.605          53.375
G28  21943740.220   115315133.337 7      -616.108          47.000    21943739.540   115315133.347 6      -616.108          37.187    21943743.140    89855958.831 6      -480.084          36.562    21943743.840    89855961.832 8      -480.084          49.437
R21  19500784.720   104352640.410 7       657.839          45.937    19500784.340   104352640.433 7       657.839          46.625    19500793.340    81163198.546 8       511.653          50.687    19500792.740    81163195.546 8       511.653          49.875
G18  21623793.960   113633802.593 7      1055.129          46.250    21623793.040   113633802.601 6      1055.129          37.687    21623796.780    88545833.857 6       822.179          37.687    21623797.400    88545833.859 8       822.179          50.812
R10  21583050.280   115049795.372 6        -8.620          41.187    21583049.460   115049795.380 6        -8.620          39.937
> 2024 05 10 09 45 47.0000000  0 13
R12  22322059.300   119240431.118 6      5950.602          41.562    22322060.100   119240431.138 7      5950.602          42.312    22322068.420    92742607.260 7      4628.246          44.125    22322069.220    92742606.251 7      4628.246          43.937
G04  24360461.160   128015088.753 6      1800.582          40.562    24360459.760   128015088.761 4      1800.582          29.250    24360468.320    99752043.104 4      1403.051          29.125    24360468.560    99752046.118 7      1403.051          44.937
R22  19872885.340   106082807.739 8      4721.188          49.500    19872886.140   106082807.748 8      4721.188          49.000    19872891.500    82508876.134 8      3672.035          50.687    19872891.480    82508878.129 8      3672.035          51.187
G31  20680809.620   108678389.436 8       931.103          48.062    20680808.600   108678389.438 7       931.103          46.875    20680809.780    84684460.353 7       725.535          47.062    20680810.800    84684478.356 8       725.535          48.562
G16  21664683.240   113848675.313 7      4242.715          46.000    21664681.540   113848675.320 5      4242.715          34.312    21664684.920    88713263.750 5      3306.011          34.125
G27  21540195.900   113194493.717 7      4011.433          45.437    21540194.220   113194493.725 6      4011.433          37.500    21540200.320    88203519.326 6      3125.792          37.500    21540200.740    88203519.325 8      3125.792          49.000
G26  20461560.940   107526233.537 8      2833.886          48.687    20461560.180   107526233.540 8      2833.886          48.875    20461565.380    83786690.477 8      2208.223          49.062    20461565.540    83786691.478 8      2208.223          49.562
G08  24246875.720   127418201.420 5      4968.991          35.562    24246873.800   127418201.417 2      4968.991          16.625    24246884.100    99286923.350 2      3871.941          16.812    24246883.700    99286939.420 6      3871.941          36.625
R11  19445943.360   103913226.711 8      3327.504          48.687    19445942.480   103913226.715 7      3327.504          47.687    19445949.900    80821421.752 8      2588.059          52.187    19445949.500    80821421.747 8      2588.059          53.750
G28  21943857.620   115315749.551 7      -616.539          45.875    21943856.720   115315749.558 6      -616.539          36.875    21943860.500    89856438.991 6      -480.420          36.875    21943860.800    89856441.992 8      -480.420          49.125
R21  19500661.800   104351982.862 7       657.091          46.375    19500661.740   104351982.874 7       657.091          46.500    19500670.280    81162687.116 8       511.071          50.062    19500669.900    81162684.116 8       511.071          49.875
G18  21623593.260   113632747.755 7      1054.343          46.625    21623592.440   113632747.760 6      1054.343          37.687    21623595.960    88545011.899 6       821.566          37.562    21623596.640    88545011.899 8       821.566          50.437
R10  21583051.860   115049804.119 6        -9.129          41.375    21583050.960   115049804.122 6        -9.129          39.937
> 2024 05 10 09 45 48.0000000  0 13
R12  22320945.580   119234480.322 7      5950.755          42.750    22320945.880   119234480.336 7      5950.755          42.937    22320954.300    92737978.869 7      4628.365          43.562    22320955.140    92737977.862 7      4628.365          43.437
G04  24360118.020   128013288.213 6      1800.404          40.625    24360117.300   128013288.218 4      1800.404          29.437    24360125.660    99750640.083 4      1402.912          29.125    24360126.120    99750643.093 7      1402.912          45.062
R22  19872000.900   106078086.672 8      4720.754          48.250    19872001.720   106078086.675 8      4720.754          48.312    19872007.080    82505204.192 8      3671.697          49.687    19872007.080    82505206.190 8      3671.697          49.562
G31  20680632.540   108677458.514 8       930.612          48.437    20680631.460   108677458.519 7       930.612          46.125    20680632.700    84683734.961 7       725.152          46.437    20680633.580    84683752.967 8       725.152          48.000
G16  21663876.060   113844432.584 7      4242.647          46.000    21663874.160   113844432.594 5      4242.647          34.125    21663877.660    88709957.732 5      3305.959          34.125
G27  21539432.560   113190482.215 7      4011.352          46.312    21539430.940   113190482.222 6      4011.352          37.687    21539436.940    88200393.480 6      3125.729          37.250    21539437.080    88200393.477 8      3125.729          48.625
G26  20461021.660   107523399.607 8      2833.808          48.125    20461020.760   107523399.612 7      2833.808          47.750    20461025.960    83784482.217 7      2208.162          47.687    20461026.120    83784483.215 8      2208.162          48.312
G08  24245929.560   127413232.573 5      4968.714          35.687    24245928.360   127413232.565 2      4968.714          16.625    24245938.440    99283051.526 2      3871.725          16.812    24245938.320    99283067.563 6      3871.725          36.625
R11  19445320.520   103909899.228 8      3327.088          48.562    19445319.820   103909899.238 7      3327.088          47.625    19445327.020    80818833.723 8      2587.735          50.250    19445326.700    80818833.721 8      2587.735          50.687
G28  21943974.780   115316366.119 7      -616.770          45.875    21943974.120   115316366.126 6      -616.770          36.500    21943977.720    89856919.427 6      -480.600          36.812    21943978.200    89856922.425 8      -480.600          48.437
R21  19500539.060   104351326.007 7       656.479          46.937    19500538.900   104351326.022 7       656.479          46.125    19500547.560    81162176.225 8       510.595          48.750    19500547.060    81162173.222 8       510.595          48.500
G18  21623392.420   113631693.472 7      1054.000          45.375    21623391.700   113631693.471 6      1054.000          37.437    21623395.320    88544190.379 6       821.299          37.062    21623395.960    88544190.373 8       821.299          49.375
R10  21583053.620   115049813.344 6        -9.538          41.375    21583052.860   115049813.352 6        -9.538          39.937
> 2024 05 10 09 45 49.0000000  0 13
R12  22319831.400   119228529.601 7      5950.755          42.437    22319832.480   119228529.618 7      5950.755          42.937    22319840.140    92733350.536 7      4628.365          44.250    22319841.280    92733349.527 7      4628.365          44.125
G04  24359775.720   128011488.224 6      1799.762          40.687    24359774.740   128011488.229 4      1799.762          29.437    24359783.160    99749237.495 4      1402.412          29.125    24359783.340    99749240.515 7      1402.412          45.187
R22  19871116.600   106073366.384 8      4720.000          48.687    19871117.280   106073366.387 8      4720.000          48.750    19871122.860    82501532.857 8      3671.111          51.187    19871122.760    82501534.861 8      3671.111          51.000
G31  20680455.480   108676528.204 7       930.077          47.812    20680454.500   108676528.212 7       930.077          47.125    20680455.680    84683010.047 7       724.735          47.250    20680456.540    84683028.052 8       724.735          48.437
G16  21663068.520   113840190.028 7      4242.532          46.125    21663066.920   113840190.036 5      4242.532          34.125    21663070.340    88706651.846 5      3305.869          33.875
G27  21538669.260   113186471.133 7      4011.037          46.000    21538667.620   113186471.138 6      4011.037          38.250    21538673.620    88197267.960 6      3125.483          38.000    21538674.160    88197267.962 8      3125.483          49.250
G26  20460482.560   107520566.032 8      2833.487          48.500    20460481.620   107520566.031 8      2833.487          48.750    20460486.780    83782274.234 8      2207.912          48.937    20460486.920    83782275.234 8      2207.912          49.375
G08  24244984.420   127408263.914 5      4968.702          35.687    24244982.760   127408263.905 2      4968.702          16.625    24244992.880    99279179.847 2      3871.716          16.812    24244992.920    99279195.907 6      3871.716          36.625
R11  19444697.980   103906572.344 8      3326.682          49.250    19444697.480   103906572.343 8      3326.682          48.000    19444704.580    80816246.140 8      2587.419          51.375    19444704.120    80816246.139 8      2587.419          52.687
G28  21944092.180   115316983.086 7      -617.096          46.187    21944091.460   115316983.099 6      -617.096          37.187    21944095.360    89857400.179 6      -480.854          36.062    21944095.560    89857403.183 8      -480.854          49.187
R21  19500416.260   104350669.854 7       655.925          47.125    19500416.140   104350669.871 7       655.925          46.062    19500425.040    81161665.883 8       510.164          50.437    19500424.520    81161662.883 8       510.164          49.812
G18  21623192.000   113630639.840 7      1053.386          45.750    21623191.180   113630639.844 6      1053.386          37.625    21623194.620    88543369.365 6       820.821          37.312    21623195.460    88543369.365 8       820.821          50.125
R10  21583054.840   115049823.083 6        -9.863          41.562    21583054.600   115049823.099 6        -9.863          40.187
> 2024 05 10 09 45 50.0000000  0 13
R12  22318717.280   119222578.762 7      5950.934          42.437    22318719.360   119222578.768 7      5950.934          42.375    22318726.500    92728722.100 7      4628.504          44.187    22318727.140    92728721.097 7      4628.504          44.000
G04  24359433.380   128009688.498 6      1799.597          40.812    24359432.400   128009688.505 4      1799.597          29.437    24359440.760    99747835.111 4      1402.283          29.125    24359441.140    99747838.147 7      1402.283          45.437
R22  19870232.600   106068646.640 8      4719.447          49.187    19870233.160   106068646.649 8      4719.447          48.750    19870238.760    82497861.946 8      3670.681          51.312    19870238.780    82497863.948 8      3670.681          51.312
G31  20680278.780   108675598.315 7       929.686          47.625    20680277.560   108675598.323 7       929.686          47.187    20680278.840    84682285.458 7       724.431          47.062    20680279.580    84682303.461 8       724.431          48.500
G16  21662261.140   113835947.449 7      4242.588          46.437    21662259.460   113835947.456 5      4242.588          34.000    21662262.960    88703345.942 5      3305.913          33.875
G27  21537905.880   113182460.254 7      4010.771          45.687    21537904.300   113182460.256 6      4010.771          38.062    21537910.440    88194142.599 6      3125.276          37.812    21537910.880    88194142.600 8      3125.276          49.312
G26  20459943.460   107517732.600 7      2833.315          47.937    20459942.460   107517732.603 8      2833.315          48.750    20459947.720    83780066.368 8      2207.778          49.312    20459947.620    83780067.368 8      2207.778          49.187
G08  24244039.260   127403295.343 6      4968.609          36.187    24244037.220   127403295.332 2      4968.609          16.625    24244047.140    99275308.234 2      3871.644          16.812    24244047.820    99275324.298 6      3871.644          36.562
R11  19444075.840   103903245.872 8      3326.318          48.625    19444074.720   103903245.876 7      3326.318          47.437    19444081.900    80813658.890 8      2587.136          52.000    19444081.500    80813658.888 8      2587.136          52.687
G28  21944209.600   115317600.282 7      -617.300          46.312    21944208.840   115317600.290 6      -617.300          37.000    21944212.660    89857881.107 6      -481.013          36.937    21944213.240    89857884.098 8      -481.013          49.250
R21  19500293.660   104350014.238 7       655.371          46.875    19500293.700   104350014.253 7       655.371          46.562    19500302.440    81161155.958 8       509.733          50.375    19500302.060    81161152.957 8       509.733          49.750
G18  21622991.560   113629586.657 7      1052.902          46.437    21622990.840   113629586.662 6      1052.902          37.187    21622994.380    88542548.703 6       820.443          37.312    21622994.820    88542548.704 8       820.443          50.062
R10  21583056.780   115049833.211 6       -10.365          41.562    21583056.280   115049833.222 6       -10.365          40.187
> 2024 05 10 09 45 51.0000000  0 13
R12  22317603.160   119216627.918 7      5950.747          42.375    22317606.320   119216627.935 7      5950.747          42.312    22317612.460    92724093.682 7      4628.359          44.000    22317613.240    92724092.673 7      4628.359          44.000
G04  24359090.740   128007889.258 6      1799.007          41.062    24359090.220   128007889.273 4      1799.007          29.437    24359098.500    99746433.109 4      1401.824          29.375    24359098.580    99746436.136 7      1401.824          45.625
R22  19869348.440   106063927.615 8      4718.625          49.000    19869349.140   106063927.621 8      4718.625          48.437    19869354.640    82494191.592 8      3670.042          50.625    19869354.540    82494193.595 8      3670.042          51.062
G31  20680101.940   108674669.012 7       928.909          46.875    20680100.780   108674669.017 7       928.909          47.187    20680101.940    84681561.322 7       723.825          47.000    20680103.000    84681579.325 8       723.825          48.750
G16  21661453.520   113831705.014 7      4242.317          45.062    21661452.080   113831705.021 5      4242.317          34.500    21661455.660    88700040.151 5      3305.702          34.437
G27  21537142.660   113178449.697 7      4010.319          45.812    21537141.220   113178449.705 6      4010.319          38.125    21537147.120    88191017.495 6      3124.924          38.000    21537147.500    88191017.497 8      3124.924          49.062
G26  20459404.260   107514899.461 7      2832.860          47.937    20459403.320   107514899.463 8      2832.860          48.375    20459408.500    83777858.727 8      2207.423          48.875    20459408.840    83777859.724 8      2207.423          49.000
G08  24243094.560   127398326.999 6      4968.062          36.187    24243091.880   127398326.988 2      4968.062          16.625    24243101.580    99271436.807 2      3871.217          16.812    24243102.380    99271452.861 6      3871.217          36.562
R11  19443453.160   103899919.965 8      3325.543          48.500    19443452.560   103899919.964 8      3325.543          48.312    19443459.540    80811072.068 8      2586.534          52.437    19443459.160    80811072.066 8      2586.534          53.125
G28  21944327.140   115318217.825 7      -617.810          46.000    21944326.440   115318217.835 6      -617.810          36.937    21944330.140    89858362.301 6      -481.410          37.062    21944330.640    89858365.294 8      -481.410          49.125
R21  19500171.280   104349359.299 7       654.520          46.937    19500171.360   104349359.306 7       654.520          46.500    19500180.040    81160646.557 8       509.071          50.437    19500179.560    81160643.552 8       509.071          50.312
G18  21622791.280   113628534.058 7      1052.218          47.125    21622790.540   113628534.060 6      1052.218          37.812    21622794.020    88541728.492 6       819.911          37.812    21622794.640    88541728.490 8       819.911          50.375
R10  21583058.800   115049843.800 6       -10.942          41.375    21583057.980   115049843.798 6       -10.942          40.062
> 2024 05 10 09 45 52.0000000  0 13
R12  22316489.380   119210677.151 7      5950.760          43.437    22316492.260   119210677.165 7      5950.760          43.125    22316498.500    92719465.312 7      4628.369          43.750    22316499.320    92719464.305 7      4628.369          43.937
G04  24358748.240   128006090.522 6      1798.552          41.500    24358747.960   128006090.535 4      1798.552          29.437    24358756.120    99745031.497 4      1401.469          29.375    24358756.520    99745034.526 7      1401.469          45.500
R22  19868464.400   106059209.342 8      4717.929          48.250    19868465.020   106059209.351 8      4717.929          49.125    19868470.700    82490521.835 8      3669.500          51.000    19868470.740    82490523.837 8      3669.500          51.250
G31  20679925.260   108673740.298 7       928.449          47.875    20679924.120   108673740.303 7       928.449          46.812    20679925.220    84680837.646 7       723.467          47.062    20679926.180    84680855.649 8       723.467          49.125
G16  21660646.100   113827462.729 7      4242.302          45.000    21660644.900   113827462.734 5      4242.302          34.500    21660648.300    88696734.474 5      3305.690          34.437
G27  21536379.780   113174439.559 7      4009.928          46.000    21536378.100   113174439.563 6      4009.928          37.937    21536384.020    88187892.713 6      3124.619          37.750    21536384.360    88187892.712 8      3124.619          49.000
G26  20458865.220   107512066.653 8      2832.620          48.000    20458864.180   107512066.658 8      2832.620          48.375    20458869.320    83775651.350 8      2207.236          48.562    20458869.740    83775652.349 8      2207.236          49.125
G08  24242149.100   127393358.857 6      4968.112          36.437    24242146.420   127393358.846 2      4968.112          16.187    24242156.160    99267565.529 2      3871.256          16.812    24242156.980    99267581.608 6      3871.256          36.562
R11  19442830.800   103896594.644 8      3325.023          48.687    19442830.400   103896594.643 7      3325.023          47.875    19442837.400    80808485.711 8      2586.129          52.250    19442836.820    80808485.707 8      2586.129          52.937
G28  21944444.780   115318835.770 7      -618.087          46.625    21944443.960   115318835.777 6      -618.087          37.250    21944447.940    89858843.810 6      -481.626          36.750    21944448.200    89858846.810 8      -481.626          49.187
R21  19500049.120   104348705.139 7       653.756          47.062    19500049.300   104348705.145 7       653.756          46.500    19500057.800    81160137.765 8       508.477          49.875    19500057.300    81160134.763 8       508.477          50.312
G18  21622591.180   113627482.110 7      1051.551          46.625    21622590.320   113627482.112 6      1051.551          38.187    21622594.000    88540908.794 6       819.390          37.500    21622594.380    88540908.789 8       819.390          50.375
R10  21583060.980   115049854.906 6       -11.380          41.375    21583060.400   115049854.912 6       -11.380          40.062
> 2024 05 10 09 45 53.0000000  0 13
R12  22315375.520   119204726.339 7      5950.721          44.250    22315377.820   119204726.356 7      5950.721          43.125    22315384.320    92714836.913 7      4628.339          44.000    22315385.260    92714835.906 7      4628.339          43.937
G04  24358406.340   128004292.207 6      1798.097          40.875    24358405.640   128004292.220 4      1798.097          29.437    24358413.920    99743630.215 4      1401.115          29.375    24358414.000    99743633.239 7      1401.115          45.375
R22  19867580.680   106054491.747 8      4717.150          49.125    19867581.280   106054491.756 8      4717.150          49.000    19867587.060    82486852.595 8      3668.895          50.875    19867587.100    82486854.597 8      3668.895          51.437
G31  20679748.640   108672812.132 7       927.780          47.500    20679747.260   108672812.135 7       927.780          46.875    20679748.740    84680114.398 7       722.945          46.875    20679749.540    84680132.401 8       722.945          48.687
G16  21659839.220   113823220.570 7      4241.939          44.937    21659837.840   113823220.577 5      4241.939          34.312    21659841.020    88693428.898 5      3305.407          34.187
G27  21535616.720   113170429.717 7      4009.542          45.500    21535614.980   113170429.722 6      4009.542          38.125    21535620.980    88184768.159 6      3124.319          38.250    21535621.460    88184768.153 8      3124.319          49.062
G26  20458326.140   107509234.112 8      2832.258          48.062    20458325.340   107509234.117 8      2832.258          48.187    20458330.300    83773444.172 8      2206.955          48.687    20458330.460    83773445.167 8      2206.955          49.437
G08  24241203.940   127388390.941 6      4967.738          36.437    24241201.120   127388390.930 2      4967.738          16.187    24241210.780    99263694.426 2      3870.964          16.812    24241210.840    99263710.480 6      3870.964          36.562
R11  19442208.980   103893269.839 7      3324.434          47.937    19442208.280   103893269.840 7      3324.434          47.312    19442215.040    80805899.745 8      2585.671          52.000    19442214.460    80805899.741 8      2585.671          53.000
G28  21944562.300   115319454.043 7      -618.535          46.125    21944561.640   115319454.051 6      -618.535          37.125    21944565.660    89859325.576 6      -481.975          36.812    21944565.920    89859328.569 8      -481.975          49.062
R21  19499926.840   104348051.661 7       653.047          47.625    19499926.920   104348051.673 7       653.047          46.250    19499935.660    81159629.500 8       507.926          50.000    19499935.400    81159626.502 8       507.926          49.937
G18  21622390.980   113626430.695 7      1050.956          46.687    21622390.360   113626430.698 6      1050.956          37.687    21622393.860    88540089.508 6       818.927          37.625    21622394.520    88540089.509 8       818.927          50.500
R10  21583063.480   115049866.452 6       -11.842          41.687    21583062.660   115049866.461 6       -11.842          40.062
> 2024 05 10 09 45 54.0000000  0 13
R12  22314261.780   119198775.551 7      5950.594          43.625    22314264.020   119198775.568 7      5950.594          43.000    22314270.500    92710208.512 7      4628.240          43.937    22314271.400    92710207.509 7      4628.240          43.875
G04  24358064.060   128002494.333 6      1797.510          41.125    24358063.520   128002494.346 4      1797.510          29.437    24358071.620    99742229.272 4      1400.657          29.375    24358072.020    99742232.298 7      1400.657          45.500
R22  19866697.200   106049774.803 8      4716.577          49.312    19866697.660   106049774.812 8      4716.577          49.375    19866703.500    82483183.861 8      3668.449          51.437    19866703.360    82483185.865 8      3668.449          51.187
G31  20679571.720   108671884.471 7       927.285          47.875    20679570.840   108671884.474 7       927.285          46.625    20679572.140    84679391.543 7       722.560          46.750    20679573.080    84679409.549 8       722.560          48.687
G16  21659031.960   113818978.466 7      4241.898          45.562    21659030.580   113818978.474 5      4241.898          34.312    21659033.780    88690123.365 5      3305.375          33.937
G27  21534853.720   113166420.175 7      4009.296          46.937    21534851.980   113166420.180 6      4009.296          38.375    21534858.020    88181643.841 6      3124.127          38.125    21534858.220    88181643.843 8      3124.127          49.125
G26  20457787.280   107506401.801 8      2832.119          48.687    20457786.360   107506401.800 8      2832.119          48.562    20457791.340    83771237.172 8      2206.846          49.250    20457791.680    83771238.169 8      2206.846          49.000
G08  24240258.380   127383423.190 6      4967.535          36.937    24240255.900   127383423.174 2      4967.535          16.187    24240265.540    99259823.451 2      3870.807          16.812    24240265.820    99259839.497 6      3870.807          36.250
R11  19441586.500   103889945.547 8      3323.972          48.187    19441586.240   103889945.550 8      3323.972          48.000    19441592.920    80803314.182 8      2585.311          51.875    19441592.460    80803314.179 8      2585.311          52.937
G28  21944679.960   115320072.611 7      -618.784          45.375    21944679.360   115320072.618 6      -618.784          37.312    21944683.240    89859807.572 6      -482.169          36.750    21944683.800    89859810.568 8      -482.169          49.437
R21  19499804.960   104347398.814 7       652.454          46.312    19499804.940   104347398.829 7       652.454          46.625    19499813.520    81159121.735 8       507.464          50.687    19499813.500    81159118.736 8       507.464          50.625
G18  21622191.300   113625379.828 7      1050.419          46.437    21622190.280   113625379.832 6      1050.419          38.312    21622193.900    88539270.648 6       818.508          38.062    21622194.480    88539270.653 8       818.508          50.000
R10  21583065.760   115049878.430 6       -12.258          41.687    21583064.560   115049878.439 6       -12.258          40.437
> 2024 05 10 09 45 55.0000000  0 13
R12  22313147.420   119192824.819 7      5950.674          43.812    22313149.720   119192824.825 7      5950.674          43.000    22313156.200    92705580.173 7      4628.302          43.625    22313157.240    92705579.167 7      4628.302          43.437
G04  24357722.320   128000696.940 7      1797.217          42.000    24357721.580   128000696.950 4      1797.217          29.437    24357729.700    99740828.708 4      1400.429          29.375    24357730.300    99740831.737 7      1400.429          46.250
R22  19865813.400   106045058.647 8      4715.877          48.625    19865813.980   106045058.656 8      4715.877          48.687    19865819.900    82479515.747 8      3667.904          51.187    19865819.960    82479517.752 8      3667.904          51.562
G31  20679395.320   108670957.449 7       926.783          47.437    20679394.440   108670957.454 7       926.783          47.000    20679395.740    84678669.190 7       722.169          47.062    20679396.800    84678687.192 8       722.169          49.250
G16  21658224.480   113814736.554 7      4241.926          45.437    21658223.400   113814736.562 5      4241.926          34.000    21658226.560    88686817.981 5      3305.397          33.937
G27  21534090.840   113162411.056 7      4008.965          45.312    21534089.080   113162411.061 6      4008.965          37.875    21534095.080    88178519.852 6      3123.869          37.625    21534095.360    88178519.852 8      3123.869          48.375
G26  20457248.420   107503569.875 8      2831.830          48.250    20457247.480   107503569.878 7      2831.830          47.812    20457252.580    83769030.478 7      2206.621          47.875    20457252.960    83769031.478 8      2206.621          49.562
G08  24239313.200   127378455.674 6      4967.511          36.937    24239310.880   127378455.657 2      4967.511          16.187    24239320.060    99255952.661 2      3870.788          16.375    24239321.200    99255968.721 6      3870.788          36.250
R11  19440964.460   103886621.893 8      3323.402          48.750    19440964.340   103886621.891 8      3323.402          48.000    19440970.840    80800729.118 8      2584.868          52.062    19440970.440    80800729.117 8      2584.868          52.750
G28  21944798.000   115320691.623 7      -619.193          45.875    21944797.200   115320691.633 6      -619.193          36.937    21944801.020    89860289.919 6      -482.488          37.000    21944801.580    89860292.919 8      -482.488          49.562
R21  19499683.080   104346746.714 7       651.737          46.562    19499683.140   104346746.721 7       651.737          46.312    19499691.600    81158614.544 8       506.906          50.625    19499691.420    81158611.545 8       506.906          50.375
G18  21621991.380   113624329.619 7      1049.926          46.187    21621990.300   113624329.621 6      1049.926          37.562    21621994.200    88538452.306 6       818.124          37.375    21621994.400    88538452.304 8       818.124          50.437
R10  21583067.660   115049890.928 6       -12.591          41.625    21583066.960   115049890.947 6       -12.591          40.437
> 2024 05 10 09 45 56.0000000  0 13
R12  22312033.920   119186874.154 7      5950.753          43.750    22312036.460   119186874.157 7      5950.753          42.437    22312042.340    92700951.878 7      4628.363          43.687    22312043.060    92700950.876 7      4628.363          42.937
G04  24357380.040   127998900.094 6      1796.746          41.437    24357379.580   127998900.104 4      1796.746          29.687    24357387.920    99739428.570 4      1400.062          29.375    24357388.460    99739431.607 7      1400.062          46.312
R22  19864930.160   106040343.262 7      4715.147          47.062    19864930.560   106040343.268 8      4715.147          48.625    19864936.580    82475848.228 8      3667.336          50.937    19864936.520    82475850.232 8      3667.336          51.250
G31  20679219.040   108670031.057 7       926.177          47.250    20679218.060   108670031.060 7       926.177          46.625    20679219.600    84677947.325 7       721.697          46.687    20679220.520    84677965.330 8       721.697          49.312
G16  21657417.240   113810494.863 7      4241.716          45.125    21657416.280   113810494.868 5      4241.716          34.375    21657419.380    88683512.763 5      3305.233          34.187
G27  21533327.860   113158402.336 7      4008.604          45.437    21533326.260   113158402.341 6      4008.604          38.062    21533332.040    88175396.174 6      3123.587          37.562    21533332.480    88175396.176 8      3123.587          48.687
G26  20456709.580   107500738.302 8      2831.446          48.375    20456708.580   107500738.309 8      2831.446          48.437    20456713.640    83766824.062 8      2206.322          48.562    20456714.120    83766825.059 8      2206.322          49.312
G08  24238368.200   127373488.435 6      4967.347          36.812    24238365.720   127373488.417 2      4967.347          16.187    24238374.600    99252082.090 2      3870.660          16.375    24238376.160    99252098.168 6      3870.660          36.250
R11  19440342.760   103883298.853 8      3322.795          48.937    19440342.640   103883298.857 7      3322.795          47.687    19440348.800    80798144.536 8      2584.396          52.500    19440348.480    80798144.533 8      2584.396          52.500
G28  21944915.980   115321311.041 7      -619.531          45.000    21944914.940   115321311.057 6      -619.531          37.125    21944918.900    89860772.585 6      -482.751          36.687    21944919.580    89860775.579 8      -482.751          49.312
R21  19499561.520   104346095.357 7       651.023          45.750    19499561.460   104346095.359 7       651.023          46.250    19499569.860    81158107.923 8       506.352          50.187    19499569.780    81158104.922 8       506.352          50.375
G18  21621791.820   113623280.068 7      1049.327          46.687    21621790.760   113623280.070 6      1049.327          37.812    21621794.380    88537634.474 6       817.657          37.687    21621794.680    88537634.480 8       817.657          50.437
R10  21583069.980   115049904.030 6       -13.265          41.625    21583069.600   115049904.039 6       -13.265          40.562
> 2024 05 10 09 45 57.0000000  0 13
R12  22310919.720   119180923.491 7      5950.647          43.187    22310922.400   119180923.495 7      5950.647          43.000    22310928.100    92696323.593 7      4628.281          43.500    22310929.080    92696322.597 7      4628.281          43.375
G04  24357038.120   127997103.720 6      1796.157          40.812    24357037.700   127997103.733 4      1796.157          29.687    24357046.100    99738028.803 4      1399.603          29.375    24357046.740    99738031.827 7      1399.603          46.000
