     3.05           OBSERVATION DATA    MIXED               RINEX VERSION / TYPE
TPS2RIN 1.0.29.3920 TPS-USER            20240511 200040 UTC PGM / RUN BY / DATE
Win64 build Feb 23, 2024 (c) Topcon Positioning Systems     COMMENT
SRC: 20240510_MI03.tps                                      COMMENT
OPT: -S -v 3.05                                             COMMENT
Observer            Agency                                  OBSERVER / AGENCY
O0M3X53SBGM         TPS HIPER_SR        4.8 HSR Jul,08,2022 REC # / TYPE / VERS
FW: 4.8 HSR Jul,08,2022 p3                                  COMMENT
SN: HiPer SR 1212-12575                                     COMMENT
000                 TPSHIPER_SR     NONE                    ANT # / TYPE
        1.8000        0.0000        0.0000                  ANTENNA: DELTA H/E/N
MI03                                                        MARKER NAME
  5384157.7654 -1586662.0537  3020697.5226                  APPROX POSITION XYZ
  2024     5    10    10    11   40.0000000     GPS         TIME OF FIRST OBS
  2024     5    10    10    26   40.0000000     GPS         TIME OF LAST OBS
     1.000                                                  INTERVAL
   901 EPOCHS                                               COMMENT
G   16 C1C L1C D1C S1C C1W L1W D1W S1W C2W L2W D2W S2W C2X  SYS / # / OBS TYPES
       L2X D2X S2X                                          SYS / # / OBS TYPES
R   16 C1C L1C D1C S1C C1P L1P D1P S1P C2P L2P D2P S2P C2C  SYS / # / OBS TYPES
       L2C D2C S2C                                          SYS / # / OBS TYPES
    16                                                      # OF SATELLITES
   G04   901   901   901   901   901   901   901   901   901PRN / # OF OBS
         901   901   901   901   901   901   901            PRN / # OF OBS
   G08   901   901   901   901   901   901   901   901   901PRN / # OF OBS
         901   901   901   901   901   901   901            PRN / # OF OBS
   G10   859   859   859   859   856   856   856   856   856PRN / # OF OBS
         856   856   856   852   852   852   852            PRN / # OF OBS
   G16   901   901   901   901   901   901   901   901   901PRN / # OF OBS
         901   901   901     0     0     0     0            PRN / # OF OBS
   G18   901   901   901   901   901   901   901   901   901PRN / # OF OBS
         901   901   901   901   901   901   901            PRN / # OF OBS
   G23   901   901   901   901   901   901   901   901   901PRN / # OF OBS
         901   901   901   901   901   901   901            PRN / # OF OBS
   G26   901   901   901   901   901   901   901   901   901PRN / # OF OBS
         901   901   901   901   901   901   901            PRN / # OF OBS
   G27   901   901   901   901   901   901   901   901   901PRN / # OF OBS
         901   901   901   901   901   901   901            PRN / # OF OBS
   G28   901   901   901   901   901   901   901   901   901PRN / # OF OBS
         901   901   901   901   901   901   901            PRN / # OF OBS
   G31   901   901   901   901   901   901   901   901   901PRN / # OF OBS
         901   901   901   901   901   901   901            PRN / # OF OBS
   R10   815   815   815   815   809   809   809   809     0PRN / # OF OBS
           0     0     0     0     0     0     0            PRN / # OF OBS
   R11   901   901   901   901   901   901   901   901   901PRN / # OF OBS
         901   901   901   901   901   901   901            PRN / # OF OBS
   R12   901   901   901   901   901   901   901   901   901PRN / # OF OBS
         901   901   901   901   901   901   901            PRN / # OF OBS
   R21   901   901   901   901   901   901   901   901   901PRN / # OF OBS
         901   901   901   901   901   901   901            PRN / # OF OBS
   R22   901   901   901   901   901   901   901   901   901PRN / # OF OBS
         901   901   901   901   901   901   901            PRN / # OF OBS
   R23   901   901   901   901   901   901   901   901     0PRN / # OF OBS
           0     0     0     0     0     0     0            PRN / # OF OBS
G L1C                                                       SYS / PHASE SHIFT
G L1W -0.25000                                              SYS / PHASE SHIFT
G L2W  0.00000                                              SYS / PHASE SHIFT
G L2X  0.25000                                              SYS / PHASE SHIFT
R L1C                                                       SYS / PHASE SHIFT
R L1P -0.25000                                              SYS / PHASE SHIFT
R L2P -0.25000                                              SYS / PHASE SHIFT
R L2C                                                       SYS / PHASE SHIFT
  6 R10 -7 R11  0 R12 -1 R21  4 R22 -3 R23  3               GLONASS SLOT / FRQ #
                                                            GLONASS COD/PHS/BIS
    18    18  1929     7GPS                                 LEAP SECONDS
                                                            END OF HEADER
> 2024 05 10 10 11 40.0000000  0 16
G04  24824713.900   130454755.904 6      1186.421          38.500    24824711.080   130454755.917 3      1186.421          22.625    24824720.420   101653095.974 3       924.484          22.437    24824720.820   101653082.965 6       924.484          40.562
G23  24013818.100   126193469.057 7      4293.001          43.187    24013817.880   126193469.067 5      4293.001          30.875    24013828.800    98332619.473 5      3345.196          30.812    24013826.100    98332612.477 7      3345.196          46.625
G27  21332036.380   112100607.812 7      3500.708          47.437    21332034.980   112100607.822 6      3500.708          40.125    21332039.820    87351139.731 6      2727.824          39.937    21332040.580    87351141.743 8      2727.824          49.000
G31  21427772.980   112603705.695 7       130.444          47.375    21427771.960   112603705.695 7       130.444          46.500    21427774.520    87743154.701 7       101.645          46.750    21427775.520    87743157.700 8       101.645          48.437
R23  23085355.440   123491076.991 7      6165.063          42.062    23085355.340   123491076.990 6      6165.063          41.125
G28  23095021.080   121365151.260 6     -1046.961          41.812    23095019.460   121365151.275 5     -1046.961          31.312    23095025.920    94570263.357 5      -815.814          30.875    23095026.620    94570272.349 7      -815.814          47.750
G10  24633186.340   129448263.112 6      4821.387          38.937    24633186.520   129448263.104 5      4821.387          31.750    24633200.740   100868824.918 5      3756.925          31.687    24633201.240   100868830.925 6      3756.925          38.562
G26  20596280.880   108234188.707 7      2334.524          47.250    20596279.900   108234188.710 8      2334.524          48.375    20596285.260    84338347.011 8      1819.109          48.000    20596286.180    84338351.010 8      1819.109          49.125
R10  22589514.360   120414830.824 5      -704.732          35.000    22589511.280   120414830.816 5      -704.732          33.687
R22  19564402.780   104436107.821 8      3573.593          49.500    19564403.340   104436107.825 8      3573.593          49.750    19564408.700    81228111.646 8      2779.461          51.562    19564408.900    81228113.644 8      2779.461          51.937
G16  21345587.680   112171821.212 7      3999.638          47.125    21345584.760   112171821.217 6      3999.638          37.687    21345588.180    87406613.332 6      3116.601          37.437
G18  22340159.840   117398329.190 7       224.019          45.000    22340158.260   117398329.198 6       224.019          36.500    22340162.680    91479225.427 6       174.560          36.312    22340164.280    91479235.429 8       174.560          49.625
R11  19514118.280   104277532.009 8      2368.542          50.437    19514117.560   104277532.013 8      2368.542          48.937    19514124.220    81104769.397 8      1842.199          52.062    19514123.840    81104770.399 8      1842.199          53.437
R21  20350994.740   108902278.521 7      -250.137          44.937    20350993.780   108902278.522 7      -250.137          45.437    20351004.660    84701814.573 8      -194.551          50.062    20351004.160    84701813.574 8      -194.551          49.750
G08  23726347.940   124682797.119 6      4646.651          41.187    23726346.600   124682797.108 4      4646.651          28.062    23726355.880    97155439.149 4      3620.767          28.000    23726355.740    97155463.157 7      3620.767          44.937
R12  21508631.000   114895247.052 7      5802.752          45.625    21508631.680   114895247.050 7      5802.752          46.062    21508640.360    89363012.622 7      4513.252          46.875    21508640.920    89363012.623 7      4513.252          47.500
> 2024 05 10 10 11 41.0000000  0 16
G04  24824487.820   130453569.766 6      1185.932          38.500    24824485.600   130453569.776 3      1185.932          22.625    24824494.660   101652171.708 3       924.103          22.437    24824495.840   101652158.701 6       924.103          40.562
G23  24013001.280   126189176.329 7      4292.661          44.375    24013001.040   126189176.339 5      4292.661          30.875    24013011.900    98329274.490 5      3344.931          30.687    24013009.100    98329267.496 7      3344.931          46.562
G27  21331370.100   112097107.338 7      3500.258          47.625    21331368.780   112097107.343 6      3500.258          39.562    21331373.540    87348412.087 6      2727.474          39.562    21331374.560    87348414.100 8      2727.474          49.250
G31  21427748.320   112603575.570 7       129.885          47.750    21427747.260   112603575.570 7       129.885          46.437    21427749.840    87743053.300 7       101.209          46.562    21427750.720    87743056.298 8       101.209          48.625
R23  23084203.040   123484912.190 7      6164.534          42.062    23084202.240   123484912.197 6      6164.534          41.125
G28  23095220.040   121366198.363 7     -1047.259          42.312    23095218.720   121366198.378 5     -1047.259          31.312    23095224.980    94571079.273 5      -816.046          30.875    23095225.820    94571088.261 7      -816.046          47.500
G10  24632268.640   129443441.851 6      4821.214          40.062    24632268.880   129443441.843 5      4821.214          31.750    24632283.360   100865068.095 5      3756.790          31.625    24632284.280   100865074.094 6      3756.790          38.562
G26  20595836.660   108231854.497 8      2333.953          48.687    20595835.660   108231854.504 8      2333.953          48.750    20595841.080    84336528.146 8      1818.665          48.687    20595841.860    84336532.147 8      1818.665          49.750
R10  22589646.580   120415535.876 5      -705.217          32.625    22589643.080   120415535.895 5      -705.217          33.687
R22  19563733.400   104432534.756 8      3572.637          50.062    19563734.000   104432534.760 8      3572.637          49.875    19563739.420    81225332.594 8      2778.717          52.125    19563739.400    81225334.594 8      2778.717          51.687
G16  21344826.660   112167821.820 7      3999.264          47.000    21344823.520   112167821.828 6      3999.264          37.437    21344827.220    87403496.925 6      3116.309          37.437
G18  22340117.180   117398105.468 7       223.412          44.937    22340115.760   117398105.475 5       223.412          35.812    22340120.060    91479051.096 6       174.087          36.062    22340121.760    91479061.100 8       174.087          49.875
R11  19513674.960   104275164.001 8      2367.567          49.812    19513674.300   104275164.007 8      2367.567          49.437    19513681.020    81102927.610 8      1841.441          53.062    19513680.900    81102928.615 8      1841.441          52.875
R21  20351041.800   108902528.978 7      -250.709          45.750    20351040.560   108902528.983 7      -250.709          45.437    20351051.600    84702009.378 8      -194.996          49.937    20351050.960    84702008.379 8      -194.996          49.625
G08  23725463.700   124678150.787 6      4646.160          40.500    23725462.420   124678150.779 4      4646.160          28.062    23725471.720    97151818.633 4      3620.384          28.000    23725471.880    97151842.654 7      3620.384          45.125
R12  21507544.680   114889444.547 7      5802.373          47.187    21507545.280   114889444.548 7      5802.373          45.812    21507554.360    89358499.570 7      4512.956          46.875    21507554.580    89358499.572 7      4512.956          47.125
> 2024 05 10 10 11 42.0000000  0 16
G04  24824261.640   130452384.146 6      1185.174          37.875    24824259.880   130452384.159 3      1185.174          22.625    24824269.020   101651247.849 3       923.512          22.437    24824269.680   101651234.844 6       923.512          40.562
G23  24012184.560   126184884.063 7      4291.860          44.562    24012184.320   126184884.071 5      4291.860          30.875    24012194.900    98325929.873 5      3344.306          30.687    24012192.260    98325922.884 7      3344.306          46.312
G27  21330704.180   112093607.369 7      3499.603          47.562    21330702.760   112093607.377 6      3499.603          39.812    21330707.560    87345684.842 6      2726.964          39.562    21330708.280    87345686.851 8      2726.964          49.500
G31  21427723.620   112603446.102 7       129.057          47.750    21427722.560   112603446.104 7       129.057          46.937    21427725.160    87742952.418 7       100.564          46.687    21427726.120    87742955.418 8       100.564          48.625
R23  23083050.640   123478747.940 7      6163.868          42.062    23083050.020   123478747.941 6      6163.868          41.312
G28  23095419.460   121367245.867 7     -1047.814          42.375    23095418.040   121367245.880 5     -1047.814          31.312    23095424.580    94571895.498 5      -816.478          30.875    23095425.320    94571904.490 7      -816.478          47.687
G10  24631351.360   129438620.679 6      4821.061          40.062    24631351.360   129438620.676 5      4821.061          31.750    24631366.180   100861311.344 5      3756.671          31.625    24631366.980   100861317.353 6      3756.671          38.500
G26  20595392.700   108229520.812 8      2333.364          48.437    20595391.500   108229520.819 8      2333.364          48.437    20595397.000    84334709.690 8      1818.206          48.187    20595398.000    84334713.691 8      1818.206          49.437
R10  22589778.220   120416241.621 5      -706.132          32.625    22589776.580   120416241.616 5      -706.132          33.687
R22  19563064.320   104428962.641 8      3571.543          50.250    19563064.840   104428962.642 8      3571.543          49.312    19563070.380    81222554.284 8      2777.867          51.625    19563070.360    81222556.282 8      2777.867          51.937
G16  21344065.680   112163822.801 7      3998.773          46.312    21344062.540   112163822.806 6      3998.773          37.375    21344066.100    87400380.808 6      3115.927          36.937
G18  22340074.960   117397882.412 7       222.594          45.625    22340073.360   117397882.420 6       222.594          36.625    22340077.560    91478877.285 6       173.450          36.062    22340079.160    91478887.288 8       173.450          49.875
R11  19513232.100   104272796.868 8      2366.639          49.812    19513231.600   104272796.875 8      2366.639          48.937    19513238.100    81101086.506 8      1840.719          52.437    19513237.580    81101087.508 8      1840.719          52.875
R21  20351089.060   108902780.108 7      -251.532          45.937    20351087.920   108902780.112 7      -251.532          45.250    20351098.640    84702204.692 8      -195.636          49.937    20351097.840    84702203.691 8      -195.636          49.750
G08  23724579.540   124673504.871 6      4645.548          40.312    23724578.280   124673504.865 4      4645.548          28.062    23724587.520    97148198.439 4      3619.907          28.000    23724587.860    97148222.451 7      3619.907          45.000
R12  21506458.820   114883642.427 7      5801.815          46.750    21506459.540   114883642.420 7      5801.815          46.312    21506467.960    89353986.804 7      4512.522          47.125    21506468.700    89353986.808 7      4512.522          47.687
> 2024 05 10 10 11 43.0000000  0 16
G04  24824036.460   130451198.773 6      1185.426          38.250    24824034.080   130451198.786 3      1185.426          22.625    24824043.460   101650324.179 3       923.709          22.437    24824044.360   101650311.176 6       923.709          40.562
G23  24011367.460   126180591.963 7      4292.069          43.562    24011367.560   126180591.970 5      4292.069          31.062    24011378.200    98322585.386 5      3344.469          30.687    24011375.240    98322578.382 7      3344.469          46.312
G27  21330038.140   112090107.639 7      3499.802          47.125    21330036.800   112090107.644 6      3499.802          39.437    21330041.700    87342957.774 6      2727.119          39.250    21330042.180    87342959.782 8      2727.119          49.000
G31  21427699.020   112603317.025 7       129.032          47.125    21427698.100   112603317.033 7       129.032          46.312    21427700.600    87742851.835 7       100.545          46.437    21427701.500    87742854.834 8       100.545          48.125
R23  23081898.340   123472583.979 6      6163.929          41.437    23081898.300   123472583.980 6      6163.929          41.312
G28  23095618.740   121368293.501 6     -1047.599          41.687    23095617.540   121368293.513 5     -1047.599          31.687    23095623.940    94572711.827 5      -816.311          31.500    23095624.500    94572720.820 7      -816.311          47.375
G10  24630433.540   129433799.384 6      4821.585          39.812    24630433.720   129433799.383 5      4821.585          31.437    24630448.560   100857554.492 5      3757.079          31.625    24630448.960   100857560.508 6      3757.079          38.500
G26  20594948.580   108227187.432 8      2333.441          48.812    20594947.540   108227187.436 8      2333.441          48.500    20594952.940    84332891.468 8      1818.266          48.625    20594953.880    84332895.470 8      1818.266          49.312
R10  22589911.380   120416947.670 5      -706.223          32.625    22589909.600   120416947.660 5      -706.223          33.687
R22  19562395.300   104425391.202 8      3571.248          51.375    19562395.880   104425391.202 8      3571.248          49.875    19562401.300    81219776.502 8      2777.637          51.937    19562401.420    81219778.498 8      2777.637          51.812
G16  21343304.520   112159823.922 7      3998.920          46.937    21343301.680   112159823.927 6      3998.920          37.250    21343305.100    87397264.798 6      3116.041          37.125
G18  22340032.340   117397659.764 7       222.568          45.062    22340030.860   117397659.772 6       222.568          36.562    22340035.400    91478703.789 6       173.429          36.062    22340036.840    91478713.790 8       173.429          49.625
R11  19512789.140   104270430.351 8      2366.290          50.312    19512788.740   104270430.360 8      2366.290          49.125    19512795.280    81099245.885 8      1840.448          52.312    19512794.940    81099246.889 8      1840.448          53.187
R21  20351135.800   108903031.662 7      -251.677          45.000    20351135.200   108903031.669 7      -251.677          45.687    20351145.680    84702400.346 8      -195.749          50.187    20351144.840    84702399.345 8      -195.749          49.937
G08  23723695.460   124668859.073 6      4645.813          40.437    23723694.100   124668859.070 4      4645.813          28.062    23723703.400    97144578.336 4      3620.114          28.000    23723703.900    97144602.357 7      3620.114          44.812
R12  21505372.740   114877840.430 7      5802.064          46.875    21505373.300   114877840.421 7      5802.064          46.562    21505381.660    89349474.139 7      4512.716          46.812    21505382.200    89349474.142 8      4512.716          48.000
> 2024 05 10 10 11 44.0000000  0 16
G04  24823810.820   130450013.750 6      1184.865          38.562    24823808.680   130450013.760 3      1184.865          22.625    24823818.100   101649400.784 3       923.271          22.437    24823818.600   101649387.783 6       923.271          40.625
G23  24010550.740   126176300.105 7      4291.743          43.500    24010550.840   126176300.107 5      4291.743          31.062    24010561.340    98319241.080 5      3344.215          30.812    24010558.800    98319234.085 7      3344.215          46.000
G27  21329372.280   112086608.224 7      3499.301          46.500    21329370.860   112086608.232 6      3499.301          39.562    21329375.720    87340230.961 6      2726.728          39.562    21329376.080    87340232.970 8      2726.728          48.812
G31  21427674.500   112603188.411 7       128.430          47.500    21427673.700   112603188.416 7       128.430          46.812    21427676.120    87742751.616 7       100.075          46.875    21427676.980    87742754.613 8       100.075          48.250
R23  23080745.560   123466420.355 7      6163.473          42.562    23080745.880   123466420.361 6      6163.473          41.375
G28  23095818.020   121369341.368 7     -1048.141          42.187    23095816.920   121369341.381 5     -1048.141          31.687    23095823.260    94573528.341 5      -816.733          31.500    23095823.940    94573537.325 7      -816.733          47.562
G10  24629515.940   129428978.075 6      4821.384          39.250    24629516.340   129428978.078 5      4821.384          31.437    24629530.820   100853797.630 5      3756.923          31.687    24629531.360   100853803.636 6      3756.923          38.500
G26  20594504.780   108224854.419 7      2332.882          47.562    20594503.540   108224854.421 8      2332.882          48.187    20594509.060    84331073.534 8      1817.830          48.312    20594509.860    84331077.533 8      1817.830          49.562
R10  22590044.120   120417654.066 5      -706.455          32.625    22590042.200   120417654.064 5      -706.455          32.125
R22  19561726.460   104421820.528 8      3570.330          49.312    19561726.760   104421820.529 8      3570.330          49.250    19561732.440    81216999.311 8      2776.923          51.750    19561732.560    81217001.311 8      2776.923          52.562
G16  21342543.780   112155825.237 7      3998.540          47.000    21342540.800   112155825.244 6      3998.540          37.500    21342544.300    87394148.939 6      3115.746          37.687
G18  22339989.980   117397437.603 7       221.907          45.000    22339988.500   117397437.607 6       221.907          36.312    22339993.080    91478530.671 6       172.914          36.187    22339994.520    91478540.679 8       172.914          49.312
R11  19512346.520   104268064.491 8      2365.587          50.187    19512346.260   104268064.500 8      2365.587          49.437    19512352.420    81097405.763 8      1839.901          51.937    19512352.240    81097406.765 8      1839.901          52.687
R21  20351182.840   108903283.709 7      -252.284          45.875    20351182.260   108903283.716 7      -252.284          45.625    20351192.780    84702596.380 8      -196.221          50.062    20351191.900    84702595.377 8      -196.221          49.812
G08  23722811.580   124664213.511 6      4645.388          40.250    23722810.100   124664213.505 4      4645.388          28.062    23722819.420    97140958.416 4      3619.783          28.000    23722819.700    97140982.432 7      3619.783          45.125
R12  21504286.660   114872038.604 7      5801.692          46.500    21504287.360   114872038.600 7      5801.692          46.375    21504295.680    89344961.612 7      4512.427          46.875    21504296.240    89344961.615 7      4512.427          47.000
> 2024 05 10 10 11 45.0000000  0 16
G04  24823585.260   130448829.173 6      1184.461          38.562    24823583.440   130448829.180 3      1184.461          22.125    24823592.700   101648477.735 3       922.956          22.437    24823592.960   101648464.734 6       922.956          40.625
G23  24009734.280   126172008.614 7      4291.427          43.062    24009734.280   126172008.616 5      4291.427          31.062    24009744.560    98315897.068 5      3343.969          30.812    24009742.100    98315890.078 7      3343.969          45.750
G27  21328706.320   112083109.259 7      3498.888          47.500    21328705.040   112083109.266 6      3498.888          39.312    21328709.860    87337504.494 6      2726.406          39.312    21328710.220    87337506.501 8      2726.406          49.125
G31  21427650.140   112603060.390 7       127.880          47.375    21427649.380   112603060.393 7       127.880          46.750    21427651.760    87742651.859 7        99.646          46.625    21427652.400    87742654.855 8        99.646          48.125
R23  23079593.360   123460257.204 7      6163.102          42.562    23079593.800   123460257.213 6      6163.102          41.375
G28  23096017.500   121370389.495 7     -1048.143          42.062    23096016.620   121370389.508 5     -1048.143          31.687    23096022.840    94574345.049 5      -816.735          31.500    23096023.400    94574354.034 7      -816.735          47.437
G10  24628598.840   129424156.812 6      4821.348          38.062    24628598.700   129424156.809 5      4821.348          31.437    24628613.100   100850040.799 5      3756.894          31.687    24628613.420   100850046.813 6      3756.894          38.500
G26  20594060.880   108222521.877 7      2332.374          47.375    20594059.780   108222521.877 8      2332.374          48.437    20594065.200    84329255.971 8      1817.434          48.625    20594065.940    84329259.967 8      1817.434          49.500
R10  22590178.020   120418361.069 5      -707.169          32.625    22590175.000   120418361.021 5      -707.169          32.125
R22  19561057.880   104418250.735 8      3569.484          49.062    19561058.180   104418250.736 8      3569.484          49.875    19561063.660    81214222.808 8      2776.266          51.562    19561063.520    81214224.806 8      2776.266          52.000
G16  21341782.880   112151826.851 7      3998.367          45.812    21341779.820   112151826.856 6      3998.367          36.937    21341783.380    87391033.316 6      3115.611          37.312
G18  22339948.040   117397216.008 7       221.498          45.375    22339946.520   117397216.013 6       221.498          36.250    22339950.900    91478358.000 6       172.596          36.187    22339952.340    91478368.006 8       172.596          49.500
R11  19511903.980   104265699.450 8      2364.743          49.687    19511903.380   104265699.462 8      2364.743          49.375    19511909.880    81095566.294 8      1839.245          52.312    19511909.700    81095567.296 8      1839.245          53.125
R21  20351230.100   108903536.331 7      -252.766          45.687    20351229.620   108903536.341 7      -252.766          45.500    20351240.080    84702792.866 8      -196.596          49.750    20351239.340    84702791.865 8      -196.596          49.812
G08  23721927.440   124659568.251 6      4645.172          39.187    23721926.080   124659568.246 4      4645.172          28.062    23721935.580    97137338.733 4      3619.615          28.312    23721935.680    97137362.752 7      3619.615          45.125
R12  21503200.500   114866237.056 7      5801.490          46.562    21503201.560   114866237.046 7      5801.490          46.375    21503209.540    89340449.301 7      4512.270          47.312    21503210.180    89340449.302 7      4512.270          47.562
> 2024 05 10 10 11 46.0000000  0 16
G04  24823359.660   130447644.819 6      1184.418          38.312    24823358.140   130447644.829 3      1184.418          22.125    24823367.360   101647554.862 3       922.923          22.437    24823368.340   101647541.849 6       922.923          40.687
G23  24008917.880   126167717.284 7      4291.297          43.500    24008917.700   126167717.286 5      4291.297          30.875    24008927.980    98312553.176 5      3343.868          30.812    24008925.040    98312546.176 7      3343.868          45.687
G27  21328040.640   112079610.488 7      3498.722          47.125    21328039.200   112079610.498 6      3498.722          39.312    21328044.080    87334778.181 6      2726.277          38.875    21328044.700    87334780.186 8      2726.277          49.062
G31  21427625.840   112602932.727 7       127.566          47.500    21427625.100   112602932.724 7       127.566          46.562    21427627.500    87742552.371 7        99.402          46.812    21427628.080    87742555.373 8        99.402          48.250
R23  23078440.940   123454094.331 6      6162.681          41.625    23078441.420   123454094.352 6      6162.681          41.312
G28  23096217.280   121371437.762 6     -1048.287          41.812    23096216.120   121371437.774 5     -1048.287          31.500    23096222.400    94575161.870 5      -816.847          31.312    23096223.160    94575170.857 7      -816.847          47.500
G10  24627681.260   129419335.359 6      4821.628          38.375    24627680.880   129419335.361 5      4821.628          31.875    24627695.760   100846283.833 5      3757.113          31.687    24627696.100   100846289.855 6      3757.113          38.500
G26  20593617.040   108220189.598 7      2332.082          47.500    20593615.860   108220189.603 8      2332.082          48.062    20593621.400    84327438.608 8      1817.207          48.062    20593622.400    84327442.607 8      1817.207          49.687
R10  22590310.520   120419068.328 5      -707.330          32.625    22590307.600   120419068.291 5      -707.330          32.125
R22  19560389.100   104414681.612 8      3568.847          49.500    19560389.440   104414681.610 8      3568.847          49.437    19560395.160    81211446.821 8      2775.770          51.875    19560394.780    81211448.819 8      2775.770          52.062
G16  21341021.940   112147828.581 7      3998.145          46.875    21341019.020   112147828.591 6      3998.145          37.750    21341022.420    87387917.785 6      3115.438          37.312
G18  22339905.840   117396994.832 7       220.999          45.375    22339904.280   117396994.836 6       220.999          36.125    22339908.660    91478185.653 5       172.207          35.875    22339910.200    91478195.653 8       172.207          49.187
R11  19511461.120   104263334.980 8      2364.195          49.812    19511460.800   104263334.986 8      2364.195          48.937    19511467.400    81093727.250 8      1838.818          52.937    19511467.380    81093728.255 8      1838.818          52.812
R21  20351277.480   108903789.307 7      -253.195          46.437    20351277.040   108903789.322 7      -253.195          45.250    20351287.180    84702989.621 8      -196.930          49.812    20351286.480    84702988.622 8      -196.930          49.687
G08  23721043.340   124654923.099 6      4645.162          39.562    23721042.180   124654923.096 4      4645.162          28.062    23721051.780    97133719.136 4      3619.607          28.312    23721051.960    97133743.145 7      3619.607          45.062
R12  21502114.460   114860435.625 7      5801.368          46.875    21502115.600   114860435.626 7      5801.368          46.312    21502123.600    89335937.083 7      4512.175          47.437    21502123.840    89335937.084 8      4512.175          48.000
> 2024 05 10 10 11 47.0000000  0 16
G04  24823134.420   130446460.775 6      1184.011          38.437    24823132.940   130446460.788 3      1184.011          22.125    24823141.940   101646632.229 3       922.606          22.437    24823143.480   101646619.214 6       922.606          40.687
G23  24008101.480   126163426.169 7      4291.009          43.437    24008101.140   126163426.174 5      4291.009          30.875    24008111.580    98309209.455 5      3343.643          30.812    24008108.480    98309202.455 7      3343.643          45.937
G27  21327374.700   112076112.008 7      3498.298          46.812    21327373.420   112076112.013 6      3498.298          39.000    21327378.520    87332052.091 6      2725.946          39.312    21327379.060    87332054.100 8      2725.946          49.750
G31  21427601.660   112602805.492 7       126.960          47.187    21427600.900   112602805.497 7       126.960          47.062    21427603.220    87742453.231 7        98.930          46.875    21427603.760    87742456.233 7        98.930          47.312
R23  23077289.500   123447931.745 6      6162.483          41.625    23077289.620   123447931.768 6      6162.483          41.312
G28  23096416.880   121372486.170 7     -1048.442          42.000    23096415.680   121372486.183 5     -1048.442          31.500    23096421.760    94575978.802 5      -816.968          31.312    23096422.600    94575987.796 8      -816.968          48.125
G10  24626763.480   129414513.850 6      4821.501          39.000    24626763.240   129414513.847 5      4821.501          31.875    24626778.160   100842526.814 5      3757.014          31.562    24626778.240   100842532.823 6      3757.014          38.500
G26  20593173.080   108217857.618 7      2331.794          47.937    20593172.200   108217857.620 8      2331.794          48.875    20593177.640    84325621.477 8      1816.982          48.375    20593178.760    84325625.480 8      1816.982          49.312
R10  22590443.080   120419775.963 5      -707.920          32.625    22590440.140   120419775.945 5      -707.920          32.125
R22  19559720.460   104411113.186 8      3568.066          48.312    19559720.980   104411113.189 8      3568.066          49.187    19559726.580    81208671.382 8      2775.163          51.937    19559726.700    81208673.382 8      2775.163          51.812
G16  21340261.140   112143830.453 7      3998.025          46.750    21340258.320   112143830.460 6      3998.025          37.500    21340261.740    87384802.356 6      3115.344          37.625
G18  22339863.820   117396774.065 7       220.534          45.062    22339862.180   117396774.067 6       220.534          36.125    22339866.640    91478013.625 5       171.845          35.937    22339868.260    91478023.629 8       171.845          49.687
R11  19511018.960   104260971.144 8      2363.423          50.312    19511018.560   104260971.151 8      2363.423          49.312    19511025.140    81091888.712 8      1838.218          52.500    19511024.800    81091889.714 8      1838.218          53.875
R21  20351324.960   108904042.694 7      -253.628          46.187    20351324.500   108904042.701 7      -253.628          45.375    20351334.600    84703186.695 8      -197.267          50.250    20351333.900    84703185.693 8      -197.267          50.250
G08  23720159.780   124650278.121 6      4644.865          40.062    23720158.160   124650278.118 4      4644.865          28.062    23720167.840    97130099.675 4      3619.375          28.312    23720168.020    97130123.693 7      3619.375          45.250
R12  21501028.660   114854634.400 7      5801.130          46.937    21501029.400   114854634.399 7      5801.130          46.125    21501037.740    89331425.021 7      4511.990          47.000    21501038.280    89331425.020 7      4511.990          47.812
> 2024 05 10 10 11 48.0000000  0 16
G04  24822909.520   130445277.152 6      1183.412          39.125    24822907.780   130445277.165 3      1183.412          22.125    24822916.880   101645709.921 3       922.139          22.437    24822917.860   101645696.918 6       922.139          40.875
G23  24007284.720   126159135.364 7      4290.746          43.187    24007284.540   126159135.366 5      4290.746          30.875    24007294.940    98305865.972 5      3343.438          30.687    24007292.060    98305858.968 7      3343.438          45.812
G27  21326709.300   112072613.894 7      3498.042          47.687    21326707.780   112072613.896 6      3498.042          39.625    21326712.720    87329326.286 6      2725.747          39.250    21326713.380    87329328.288 8      2725.747          49.625
G31  21427577.520   112602678.783 7       126.500          47.625    21427576.900   112602678.782 7       126.500          46.750    21427579.100    87742354.488 7        98.571          46.500    21427579.640    87742357.490 8        98.571          48.062
R23  23076137.420   123441769.624 6      6162.024          41.937    23076137.880   123441769.636 6      6162.024          41.562
G28  23096616.360   121373534.857 7     -1048.742          42.187    23096615.380   121373534.870 5     -1048.742          31.437    23096621.340    94576795.952 5      -817.201          31.312    23096622.020    94576804.951 7      -817.201          47.500
G10  24625846.000   129409692.311 6      4821.695          38.312    24625845.780   129409692.308 5      4821.695          31.500    24625860.680   100838769.774 5      3757.165          31.562    24625860.740   100838775.788 6      3757.165          38.375
G26  20592729.580   108215526.056 8      2331.449          48.312    20592728.580   108215526.063 8      2331.449          49.000    20592733.880    84323804.679 8      1816.713          48.812    20592735.000    84323808.680 8      1816.713          49.687
R10  22590574.660   120420484.008 5      -707.875          32.625    22590573.440   120420483.990 5      -707.875          32.125
R22  19559052.140   104407545.581 8      3567.346          48.937    19559052.760   104407545.588 8      3567.346          50.000    19559058.280    81205896.585 8      2774.603          51.937    19559058.320    81205898.590 8      2774.603          52.312
G16  21339500.220   112139832.577 7      3997.843          46.625    21339497.520   112139832.587 6      3997.843          37.312    21339501.020    87381687.132 6      3115.203          37.500
G18  22339821.920   117396553.840 7       220.114          44.625    22339820.060   117396553.839 6       220.114          36.125    22339824.660    91477842.017 5       171.517          35.875    22339826.240    91477852.021 8       171.517          48.875
R11  19510576.920   104258608.055 8      2362.803          49.875    19510576.280   104258608.053 8      2362.803          49.062    19510582.900    81090050.755 8      1837.736          52.500    19510582.700    81090051.756 8      1837.736          53.250
R21  20351372.220   108904296.641 7      -254.045          46.375    20351372.020   108904296.645 7      -254.045          46.000    20351382.100    84703384.205 8      -197.591          49.937    20351381.240    84703383.205 8      -197.591          49.812
G08  23719275.760   124645633.411 6      4644.775          40.000    23719274.300   124645633.408 4      4644.775          28.250    23719283.940    97126480.416 4      3619.305          28.312    23719284.520    97126504.436 7      3619.305          45.312
R12  21499942.480   114848833.394 7      5801.033          47.437    21499943.620   114848833.387 7      5801.033          46.375    21499951.920    89326913.126 7      4511.914          47.500    21499952.160    89326913.128 7      4511.914          47.750
> 2024 05 10 10 11 49.0000000  0 16
G04  24822684.080   130444093.737 6      1183.195          39.000    24822682.720   130444093.749 3      1183.195          22.125    24822691.660   101644787.779 3       921.970          22.187    24822692.840   101644774.772 6       921.970          40.875
G23  24006468.060   126154844.717 7      4290.591          43.437    24006468.000   126154844.717 5      4290.591          30.875    24006478.420    98302522.613 5      3343.318          30.687    24006475.100    98302515.613 7      3343.318          45.687
G27  21326043.640   112069116.003 7      3497.713          47.562    21326042.160   112069116.005 6      3497.713          39.562    21326047.200    87326600.659 6      2725.491          39.437    21326047.720    87326602.665 8      2725.491          49.375
G31  21427553.320   112602552.433 8       126.101          48.187    21427552.900   112602552.436 7       126.101          46.812    21427555.120    87742256.038 7        98.261          46.812    21427555.720    87742259.034 7        98.261          47.875
R23  23074985.720   123435607.755 6      6161.683          41.937    23074985.720   123435607.764 6      6161.683          41.562
G28  23096815.240   121374583.649 7     -1048.904          42.625    23096814.920   121374583.662 5     -1048.904          31.437    23096821.020    94577613.187 5      -817.328          31.312    23096821.300    94577622.181 7      -817.328          47.250
G10  24624928.740   129404870.640 6      4821.649          37.937    24624928.340   129404870.639 5      4821.649          31.500    24624943.380   100835012.636 5      3757.129          31.562    24624943.880   100835018.660 6      3757.129          38.375
G26  20592285.940   108213194.775 8      2331.129          48.375    20592284.860   108213194.777 8      2331.129          48.562    20592290.220    84321988.093 8      1816.464          48.312    20592291.280    84321992.089 8      1816.464          49.625
R10  22590708.000   120421192.448 5      -708.262          32.625    22590705.880   120421192.454 5      -708.262          32.125
R22  19558384.160   104403978.647 8      3566.578          49.562    19558384.440   104403978.648 8      3566.578          49.625    19558390.140    81203122.295 8      2774.005          51.500    19558390.000    81203124.299 8      2774.005          51.937
G16  21338739.400   112135834.832 7      3997.571          46.062    21338736.700   112135834.842 6      3997.571          37.437    21338740.240    87378572.009 6      3114.991          37.375
G18  22339780.200   117396334.014 7       219.526          44.750    22339778.100   117396334.011 6       219.526          36.062    22339782.680    91477670.722 5       171.060          35.750    22339784.480    91477680.730 8       171.060          49.375
R11  19510134.520   104256245.566 8      2362.084          49.812    19510134.080   104256245.570 8      2362.084          49.375    19510140.640    81088213.262 8      1837.176          52.437    19510140.680    81088214.263 8      1837.176          53.125
R21  20351419.640   108904551.008 7      -254.614          45.937    20351419.360   108904551.009 7      -254.614          46.125    20351429.540    84703582.046 8      -198.033          49.625    20351428.560    84703581.045 8      -198.033          49.750
G08  23718391.960   124640988.826 6      4644.444          39.875    23718390.580   124640988.826 4      4644.444          28.250    23718399.860    97122861.265 4      3619.047          28.312    23718400.680    97122885.288 7      3619.047          45.250
R12  21498856.240   114843032.457 7      5800.808          46.750    21498857.420   114843032.456 7      5800.808          46.500    21498865.840    89322401.292 7      4511.739          46.937    21498866.440    89322401.297 8      4511.739          48.062
> 2024 05 10 10 11 50.0000000  0 16
G04  24822459.100   130442910.605 6      1183.213          39.000    24822457.580   130442910.620 3      1183.213          22.125    24822466.680   101643865.856 3       921.984          22.187    24822467.100   101643852.849 6       921.984          40.875
G23  24005651.760   126150554.272 7      4290.637          42.687    24005651.300   126150554.274 5      4290.637          30.875    24005662.040    98299179.413 5      3343.353          30.687    24005658.840    98299172.411 7      3343.353          45.812
G27  21325378.080   112065618.399 8      3497.606          48.312    21325376.620   112065618.401 6      3497.606          39.812    21325381.520    87323875.251 6      2725.407          39.375    21325382.300    87323877.255 8      2725.407          49.250
G31  21427529.400   112602426.525 7       125.796          47.437    21427528.840   112602426.528 7       125.796          46.812    21427531.100    87742157.926 7        98.023          46.625    21427531.580    87742160.924 8        98.023          48.000
R23  23073833.840   123429446.211 7      6161.534          42.187    23073834.100   123429446.215 6      6161.534          41.500
G28  23097014.820   121375632.604 7     -1048.861          42.937    23097014.600   121375632.622 5     -1048.861          31.437    23097020.760    94578430.546 5      -817.295          31.312    23097021.220    94578439.543 7      -817.295          47.625
G10  24624010.960   129400048.895 6      4821.924          37.937    24624010.760   129400048.895 5      4821.924          31.500    24624025.980   100831255.438 5      3757.343          31.750    24624026.480   100831261.431 6      3757.343          38.375
G26  20591842.480   108210863.825 7      2330.887          47.625    20591841.380   108210863.825 8      2330.887          48.375    20591846.700    84320171.766 8      1816.276          48.187    20591847.620    84320175.769 8      1816.276          49.625
R10  22590840.660   120421901.325 5      -709.087          32.625    22590839.800   120421901.320 5      -709.087          32.125
R22  19557716.120   104400412.447 8      3565.947          49.687    19557716.300   104400412.448 8      3565.947          49.875    19557722.020    81200348.585 8      2773.515          52.000    19557722.000    81200350.590 8      2773.515          52.250
G16  21337978.880   112131837.232 7      3997.621          46.125    21337976.140   112131837.239 6      3997.621          37.500    21337979.360    87375456.996 6      3115.029          37.625
G18  22339738.480   117396114.624 7       219.241          44.562    22339736.300   117396114.621 6       219.241          36.375    22339741.040    91477499.766 5       170.837          35.562    22339742.760    91477509.772 8       170.837          49.437
R11  19509692.800   104253883.746 8      2361.548          49.812    19509692.020   104253883.742 8      2361.548          48.812    19509698.820    81086376.283 8      1836.760          52.375    19509698.700    81086377.279 8      1836.760          53.125
R21  20351467.140   108904805.824 7      -254.906          46.312    20351466.820   108904805.823 7      -254.906          45.750    20351477.180    84703780.234 8      -198.260          49.937    20351476.380    84703779.236 8      -198.260          50.250
G08  23717508.320   124636344.439 6      4644.387          39.500    23717506.860   124636344.434 4      4644.387          28.250    23717516.060    97119242.262 4      3619.003          27.875    23717516.700    97119266.273 7      3619.003          45.625
R12  21497770.560   114837231.694 7      5800.783          47.000    21497771.740   114837231.688 7      5800.783          46.375    21497779.740    89317889.584 7      4511.720          47.375    21497780.380    89317889.584 7      4511.720          47.437
> 2024 05 10 10 11 51.0000000  0 16
G04  24822233.760   130441727.578 6      1182.812          39.062    24822232.360   130441727.591 3      1182.812          22.125    24822241.560   101642944.013 3       921.672          22.187    24822241.280   101642931.006 6       921.672          41.000
G23  24004835.100   126146263.869 7      4290.127          42.312    24004834.840   126146263.872 5      4290.127          30.875    24004845.640    98295836.246 5      3342.956          30.625    24004842.180    98295829.242 7      3342.956          45.562
G27  21324712.200   112062120.828 7      3497.396          46.750    21324711.020   112062120.833 6      3497.396          39.250    21324715.940    87321149.873 6      2725.243          39.000    21324716.740    87321151.878 8      2725.243          49.250
G31  21427505.640   112602300.812 7       125.393          47.312    21427504.880   112602300.814 7       125.393          45.875    21427507.340    87742059.959 7        97.709          45.625    21427507.880    87742062.961 8        97.709          48.250
R23  23072682.100   123423284.751 7      6161.240          42.187    23072681.920   123423284.750 6      6161.240          41.500
G28  23097214.320   121376681.515 7     -1049.097          43.437    23097214.460   121376681.530 5     -1049.097          31.437    23097220.340    94579247.871 5      -817.478          31.312    23097220.540    94579256.861 7      -817.478          47.500
G10  24623093.300   129395226.806 6      4822.101          38.625    24623092.920   129395226.806 5      4822.101          31.750    24623108.240   100827497.971 5      3757.481          31.750    24623109.140   100827503.974 6      3757.481          38.375
G26  20591398.740   108208532.946 7      2330.638          47.937    20591397.740   108208532.951 7      2330.638          47.500    20591403.080    84318355.499 7      1816.081          47.250    20591404.080    84318359.500 8      1816.081          49.500
R10  22590973.560   120422610.276 5      -709.435          32.625    22590973.560   120422610.269 5      -709.435          32.125
R22  19557048.200   104396846.724 8      3565.262          49.500    19557048.360   104396846.725 8      3565.262          49.437    19557054.080    81197575.242 8      2772.981          49.437    19557054.240    81197577.246 8      2772.981          51.312
G16  21337217.920   112127839.556 7      3997.493          46.937    21337215.420   112127839.566 6      3997.493          37.125    21337218.660    87372341.923 6      3114.930          37.125
G18  22339696.920   117395895.452 7       218.704          44.187    22339694.640   117395895.454 5       218.704          35.937    22339699.360    91477328.983 6       170.419          36.312    22339701.060    91477338.991 8       170.419          48.750
R11  19509250.700   104251522.308 8      2360.978          50.125    19509250.360   104251522.306 8      2360.978          48.875    19509256.920    81084539.610 8      1836.317          50.437    19509256.660    81084540.606 8      1836.317          50.375
R21  20351514.580   108905060.819 7      -255.391          47.000    20351514.480   108905060.826 7      -255.391          45.250    20351524.860    84703978.566 8      -198.638          49.062    20351524.080    84703977.566 8      -198.638          48.687
G08  23716624.420   124631699.963 6      4644.309          39.812    23716622.720   124631699.954 4      4644.309          28.250    23716632.160    97115623.192 4      3618.942          27.875    23716633.060    97115647.202 7      3618.942          44.875
R12  21496684.840   114831430.854 7      5800.685          46.875    21496685.660   114831430.839 7      5800.685          46.375    21496694.120    89313377.821 7      4511.644          46.125    21496694.600    89313377.822 7      4511.644          46.750
> 2024 05 10 10 11 52.0000000  0 16
G04  24822008.640   130440545.108 6      1182.223          38.312    24822007.220   130440545.124 3      1182.223          22.125    24822016.560   101642022.608 3       921.213          22.187    24822016.260   101642009.603 6       921.213          41.000
G23  24004018.720   126141973.903 7      4289.975          42.875    24004018.380   126141973.902 5      4289.975          30.625    24004029.220    98292493.417 5      3342.838          30.625    24004026.160    98292486.411 7      3342.838          45.812
G27  21324046.900   112058623.820 7      3497.004          47.500    21324045.540   112058623.825 6      3497.004          39.625    21324050.540    87318424.932 6      2724.938          39.562    21324051.240    87318426.936 8      2724.938          48.937
G31  21427481.840   112602175.789 7       124.871          47.562    21427481.060   112602175.797 7       124.871          46.937    21427483.420    87741962.545 7        97.302          47.000    21427484.080    87741965.545 8        97.302          48.000
R23  23071530.240   123417123.884 7      6160.794          42.187    23071530.560   123417123.894 6      6160.794          41.687
G28  23097414.140   121377730.843 7     -1049.302          42.812    23097413.980   121377730.856 5     -1049.302          31.437    23097419.920    94580065.519 5      -817.638          31.312    23097420.580    94580074.507 7      -817.638          47.375
G10  24622176.000   129390404.898 6      4822.101          38.312    24622175.260   129390404.901 5      4822.101          31.750    24622190.580   100823740.650 5      3757.481          31.750    24622191.380   100823746.654 6      3757.481          38.687
G26  20590955.360   108206202.680 8      2330.151          48.250    20590954.260   108206202.682 7      2330.151          47.937    20590959.700    84316539.705 7      1815.702          47.875    20590960.760    84316543.706 8      1815.702          49.250
R10  22591106.780   120423319.822 5      -709.646          33.500    22591104.520   120423319.857 5      -709.646          32.125
R22  19556380.240   104393281.984 8      3564.453          49.562    19556380.540   104393281.987 8      3564.453          49.937    19556386.200    81194802.674 8      2772.353          52.000    19556386.460    81194804.676 8      2772.353          51.875
G16  21336457.240   112123842.321 7      3997.246          46.437    21336454.840   112123842.328 6      3997.246          37.437    21336458.000    87369227.193 6      3114.737          37.312
G18  22339655.280   117395676.948 7       218.407          44.687    22339653.040   117395676.950 6       218.407          36.125    22339657.820    91477158.718 6       170.188          36.312    22339659.480    91477168.722 8       170.188          49.312
R11  19508809.100   104249161.786 8      2360.273          49.562    19508808.500   104249161.787 8      2360.273          49.250    19508815.180    81082703.653 8      1835.768          52.500    19508814.860    81082704.651 8      1835.768          53.125
R21  20351562.540   108905316.494 7      -255.788          47.187    20351561.880   108905316.504 7      -255.788          46.000    20351572.440    84704177.427 8      -198.947          50.000    20351571.740    84704176.428 8      -198.947          50.062
G08  23715740.120   124627055.938 6      4644.026          40.062    23715738.920   124627055.930 4      4644.026          28.250    23715748.340    97112004.471 4      3618.722          27.875    23715749.220    97112028.479 7      3618.722          45.562
R12  21495598.620   114825630.454 7      5800.479          46.312    21495599.440   114825630.447 7      5800.479          46.687    21495608.420    89308866.403 7      4511.484          47.562    21495608.620    89308866.406 8      4511.484          48.000
> 2024 05 10 10 11 53.0000000  0 16
G04  24821783.860   130439362.904 6      1182.083          38.437    24821782.340   130439362.917 3      1182.083          22.125    24821791.560   101641101.408 3       921.104          22.187    24821791.540   101641088.395 6       921.104          40.687
G23  24003202.320   126137684.144 7      4289.668          42.750    24003201.960   126137684.143 5      4289.668          30.625    24003213.180    98289150.754 5      3342.598          30.625    24003209.720    98289143.760 7      3342.598          45.625
G27  21323381.640   112055127.075 7      3496.757          47.312    21323380.140   112055127.083 6      3496.757          39.750    21323385.100    87315700.195 6      2724.746          39.437    21323385.900    87315702.198 8      2724.746          49.312
G31  21427457.960   112602051.197 8       124.446          48.312    21427457.280   112602051.202 7       124.446          46.500    21427459.820    87741865.453 7        96.971          46.500    21427460.340    87741868.455 8        96.971          48.437
R23  23070378.900   123410963.320 7      6160.419          42.312    23070378.760   123410963.332 6      6160.419          41.687
G28  23097614.120   121378780.344 7     -1049.590          42.562    23097613.820   121378780.360 5     -1049.590          31.437    23097619.560    94580883.302 5      -817.862          31.312    23097620.420    94580892.294 7      -817.862          47.375
G10  24621258.100   129385582.894 6      4822.143          39.312    24621257.460   129385582.893 5      4822.143          31.750    24621272.860   100819983.248 5      3757.514          31.375    24621273.780   100819989.241 6      3757.514          38.687
G26  20590512.000   108203872.723 8      2329.821          48.875    20590510.920   108203872.725 8      2329.821          48.125    20590516.320    84314724.148 8      1815.445          48.375    20590517.100    84314728.149 8      1815.445          49.062
R10  22591239.640   120424029.797 5      -709.714          33.500    22591238.880   120424029.808 5      -709.714          32.125
R22  19555712.300   104389717.993 8      3563.607          49.625    19555712.980   104389718.000 8      3563.607          49.500    19555718.660    81192030.677 8      2771.694          52.125    19555718.720    81192032.679 8      2771.694          51.875
G16  21335696.900   112119845.238 7      3997.062          46.312    21335694.280   112119845.246 6      3997.062          37.562    21335697.280    87366112.581 6      3114.594          37.500
G18  22339613.520   117395458.927 7       217.847          44.812    22339611.500   117395458.929 6       217.847          36.125    22339616.240    91476988.830 5       169.751          35.625    22339618.060    91476998.829 8       169.751          49.000
R11  19508367.760   104246801.905 8      2359.649          49.625    19508366.960   104246801.909 8      2359.649          49.312    19508373.500    81080868.190 8      1835.282          52.437    19508373.480    81080869.188 8      1835.282          52.937
R21  20351610.540   108905572.646 7      -256.325          46.125    20351609.800   108905572.653 7      -256.325          45.812    20351620.420    84704376.649 8      -199.364          49.750    20351619.780    84704375.651 8      -199.364          49.937
G08  23714856.380   124622412.076 6      4644.072          39.312    23714855.260   124622412.068 4      4644.072          27.750    23714864.600    97108385.878 4      3618.757          27.875    23714865.580    97108409.876 7      3618.757          45.250
R12  21494512.960   114819830.225 7      5800.184          46.812    21494513.860   114819830.224 7      5800.184          46.875    21494522.340    89304355.116 7      4511.254          47.062    21494522.740    89304355.117 7      4511.254          47.937
> 2024 05 10 10 11 54.0000000  0 15
G04  24821558.780   130438180.949 6      1181.600          38.562    24821557.460   130438180.960 3      1181.600          22.125    24821566.560   101640180.400 3       920.728          22.187    24821566.320   101640167.389 6       920.728          40.687
G23  24002386.060   126133394.532 7      4289.471          42.625    24002385.620   126133394.532 5      4289.471          30.625    24002396.860    98285808.202 5      3342.445          30.875    24002393.480    98285801.208 7      3342.445          45.687
G27  21322716.140   112051630.532 7      3496.440          46.750    21322714.660   112051630.537 6      3496.440          39.125    21322719.760    87312975.614 6      2724.499          39.062    21322720.900    87312977.619 8      2724.499          49.812
