     3.05           OBSERVATION DATA    MIXED               RINEX VERSION / TYPE
TPS2RIN 1.0.29.3920 TPS-USER            20240511 200040 UTC PGM / RUN BY / DATE
Win64 build Feb 23, 2024 (c) Topcon Positioning Systems     COMMENT
SRC: 20240510_MI04.tps                                      COMMENT
OPT: -S -v 3.05                                             COMMENT
Observer            Agency                                  OBSERVER / AGENCY
O0M3X53SBGM         TPS HIPER_SR        4.8 HSR Jul,08,2022 REC # / TYPE / VERS
FW: 4.8 HSR Jul,08,2022 p3                                  COMMENT
SN: HiPer SR 1212-12575                                     COMMENT
000                 TPSHIPER_SR     NONE                    ANT # / TYPE
        1.8000        0.0000        0.0000                  ANTENNA: DELTA H/E/N
MI04                                                        MARKER NAME
  5384273.2213 -1587827.7389  3019892.9359                  APPROX POSITION XYZ
  2024     5    10    11    23   56.0000000     GPS         TIME OF FIRST OBS
  2024     5    10    11    39    1.0000000     GPS         TIME OF LAST OBS
     1.000                                                  INTERVAL
   906 EPOCHS                                               COMMENT
G   16 C1C L1C D1C S1C C1W L1W D1W S1W C2W L2W D2W S2W C2X  SYS / # / OBS TYPES
       L2X D2X S2X                                          SYS / # / OBS TYPES
R   16 C1C L1C D1C S1C C1P L1P D1P S1P C2P L2P D2P S2P C2C  SYS / # / OBS TYPES
       L2C D2C S2C                                          SYS / # / OBS TYPES
    16                                                      # OF SATELLITES
   G02   376   376   376   376   372   372   372   372   372PRN / # OF OBS
         372   372   372     0     0     0     0            PRN / # OF OBS
   G07   906   906   906   906   906   906   906   906   906PRN / # OF OBS
         906   906   906   906   906   906   906            PRN / # OF OBS
   G08   906   906   906   906   906   906   906   906   906PRN / # OF OBS
         906   906   906   906   906   906   906            PRN / # OF OBS
   G10   906   906   906   906   906   906   906   906   906PRN / # OF OBS
         906   906   906   906   906   906   906            PRN / # OF OBS
   G16   906   906   906   906   906   906   906   906   906PRN / # OF OBS
         906   906   906     0     0     0     0            PRN / # OF OBS
   G18   905   905   905   905   905   905   905   905   905PRN / # OF OBS
         905   905   905   905   905   905   905            PRN / # OF OBS
   G21   906   906   906   906   906   906   906   906   906PRN / # OF OBS
         906   906   906     0     0     0     0            PRN / # OF OBS
   G23   906   906   906   906   906   906   906   906   906PRN / # OF OBS
         906   906   906   906   906   906   906            PRN / # OF OBS
   G26   906   906   906   906   906   906   906   906   906PRN / # OF OBS
         906   906   906   906   906   906   906            PRN / # OF OBS
   G27   906   906   906   906   906   906   906   906   906PRN / # OF OBS
         906   906   906   906   906   906   906            PRN / # OF OBS
   G31   707   707   707   707   707   707   707   707   707PRN / # OF OBS
         707   707   707   707   707   707   707            PRN / # OF OBS
   R11   906   906   906   906   906   906   906   906   906PRN / # OF OBS
         906   906   906   906   906   906   906            PRN / # OF OBS
   R12   906   906   906   906   906   906   906   906   906PRN / # OF OBS
         906   906   906   906   906   906   906            PRN / # OF OBS
   R21   906   906   906   906   906   906   906   906   906PRN / # OF OBS
         906   906   906   906   906   906   906            PRN / # OF OBS
   R22   906   906   906   906   906   906   906   906   906PRN / # OF OBS
         906   906   906   906   906   906   906            PRN / # OF OBS
   R23   906   906   906   906   906   906   906   906     0PRN / # OF OBS
           0     0     0     0     0     0     0            PRN / # OF OBS
G L1C                                                       SYS / PHASE SHIFT
G L1W -0.25000                                              SYS / PHASE SHIFT
G L2W  0.00000                                              SYS / PHASE SHIFT
G L2X  0.25000                                              SYS / PHASE SHIFT
R L1C                                                       SYS / PHASE SHIFT
R L1P -0.25000                                              SYS / PHASE SHIFT
R L2P -0.25000                                              SYS / PHASE SHIFT
R L2C                                                       SYS / PHASE SHIFT
  5 R11  0 R12 -1 R21  4 R22 -3 R23  3                      GLONASS SLOT / FRQ #
                                                            GLONASS COD/PHS/BIS
    18    18  1929     7GPS                                 LEAP SECONDS
                                                            END OF HEADER
> 2024 05 10 11 23 56.0000000  0 15
R21  22830218.800   122169113.467 6     -1034.217          41.437    22830219.860   122169113.492 6     -1034.217          40.625    22830234.160    95020478.122 7      -804.391          47.562    22830233.340    95020477.122 7      -804.391          47.437
G27  20723178.380   108901033.932 8      2427.732          48.375    20723177.340   108901033.934 6      2427.732          40.750    20723183.380    84857968.569 6      1891.739          40.250    20723183.680    84857969.574 8      1891.739          50.125
R23  20688271.680   110668309.318 7      4040.975          45.500    20688271.360   110668309.319 7      4040.975          44.062
G18  24562030.960   129074343.441 7      -949.136          42.562    24562029.620   129074343.446 4      -949.136          29.625    24562038.840   100577438.699 4      -739.586          29.625    24562039.200   100577442.684 7      -739.586          45.875
R12  19272113.000   102948163.592 8      3714.746          49.187    19272113.520   102948163.588 8      3714.746          48.875    19272121.600    80070830.618 8      2889.247          48.500    19272121.820    80070831.618 8      2889.247          48.187
G16  20330410.780   106837025.202 7      2645.919          46.687    20330409.000   106837025.212 6      2645.919          40.187    20330412.300    83249637.548 6      2061.755          39.687
G10  22619341.220   118865440.734 7      4085.885          46.375    22619339.520   118865440.749 7      4085.885          44.375    22619349.540    92622454.937 7      3183.807          44.187    22619349.260    92622452.937 7      3183.807          45.562
G31  23700977.880   124549467.265 7      -968.479          44.750    23700976.780   124549467.270 6      -968.479          41.187    23700986.980    97051572.120 6      -754.659          41.000    23700987.660    97051573.121 7      -754.659          45.000
G21  22341065.000   117403098.942 7      5402.009          43.250    22341063.940   117403098.949 4      5402.009          27.625    22341070.380    91482962.513 4      4209.357          27.937
R22  19680547.560   105056098.413 8       814.440          48.812    19680547.200   105056098.416 8       814.440          49.375    19680553.240    81710323.792 8       633.453          49.187    19680553.600    81710325.790 8       633.453          49.062
G23  22962430.060   120668383.101 7      2372.763          46.125    22962429.560   120668383.111 5      2372.763          33.000    22962436.400    94027341.340 5      1848.906          32.875    22962436.900    94027342.344 7      1848.906          45.375
G26  21176244.380   111281916.921 7       575.990          46.937    21176242.960   111281916.926 7       575.990          46.312    21176251.040    86713207.691 7       448.824          46.125    21176251.140    86713209.696 7       448.824          47.625
G08  22029189.240   115764169.037 7      3874.714          46.312    22029189.960   115764169.037 5      3874.714          35.750    22029196.680    90205880.303 5      3019.258          35.187    22029196.000    90205874.309 7      3019.258          46.375
R11  20637308.800   110279515.620 8      -634.006          48.500    20637308.200   110279515.618 7      -634.006          47.875    20637317.820    85772995.644 7      -493.116          47.812    20637317.700    85772996.649 8      -493.116          48.500
G07  25424142.760   133604730.439 6      5123.915          37.187    25424140.600   133604730.439 3      5123.915          19.875    25424149.140   104107608.226 3      3992.661          19.687    25424150.360   104107644.261 6      3992.661          38.625
> 2024 05 10 11 23 57.0000000  0 15
R21  22830412.140   122170147.520 6     -1034.066          40.875    22830412.980   122170147.545 6     -1034.066          40.625    22830427.420    95021282.379 7      -804.273          46.812    22830426.560    95021281.381 7      -804.273          46.687
G27  20722716.240   108898606.111 8      2427.666          48.500    20722715.100   108898606.111 6      2427.666          40.812    20722721.300    84856076.758 6      1891.688          40.750    20722721.820    84856077.764 8      1891.688          49.125
R23  20687516.140   110664268.485 7      4040.543          45.437    20687515.740   110664268.487 7      4040.543          44.187
G18  24562211.620   129075292.425 6      -949.168          41.562    24562210.160   129075292.429 4      -949.168          29.625    24562219.580   100578178.161 4      -739.611          29.625    24562219.820   100578182.156 7      -739.611          45.250
R12  19271417.680   102944449.101 8      3714.033          49.125    19271418.120   102944449.102 8      3714.033          49.687    19271426.100    80067941.571 7      2888.692          47.375    19271426.260    80067942.576 7      2888.692          47.750
G16  20329907.060   106834379.331 7      2645.633          46.375    20329905.600   106834379.336 6      2645.633          39.750    20329908.640    83247575.826 6      2061.533          39.437
G10  22618563.820   118861354.891 7      4085.626          46.187    22618562.040   118861354.901 7      4085.626          43.500    22618571.820    92619271.161 7      3183.605          43.625    22618571.940    92619269.163 7      3183.605          45.625
G31  23701162.140   124550435.687 7      -968.497          44.000    23701161.040   124550435.692 6      -968.497          40.937    23701171.340    97052326.724 6      -754.673          40.812    23701171.700    97052327.725 7      -754.673          44.500
G21  22340037.260   117397696.939 7      5401.758          43.062    22340035.920   117397696.946 4      5401.758          27.625    22340042.580    91478753.164 4      4209.162          27.937
R22  19680394.900   105055284.099 8       814.036          48.750    19680394.680   105055284.105 8       814.036          49.000    19680400.760    81709690.436 7       633.139          47.562    19680401.040    81709692.436 7       633.139          47.812
G23  22961978.400   120666010.513 7      2372.145          46.187    22961978.100   120666010.521 5      2372.145          33.000    22961984.920    94025492.571 5      1848.424          32.875    22961985.640    94025493.574 7      1848.424          45.375
G26  21176134.560   111281341.009 7       575.606          46.562    21176133.380   111281341.008 7       575.606          45.062    21176141.560    86712758.924 7       448.524          45.000    21176141.540    86712760.927 7       448.524          47.062
G08  22028451.800   115760294.310 7      3874.549          46.125    22028452.500   115760294.315 5      3874.549          35.312    22028459.380    90202861.036 5      3019.129          35.187    22028458.640    90202855.047 7      3019.129          46.625
R11  20637427.160   110280149.764 7      -634.428          47.437    20637426.700   110280149.768 7      -634.428          47.187    20637436.600    85773488.872 7      -493.444          47.125    20637436.340    85773489.878 7      -493.444          47.062
G07  25423167.280   133599606.751 6      5123.403          37.187    25423165.660   133599606.750 3      5123.403          19.875    25423174.040   104103615.741 3      3992.262          19.687    25423174.140   104103651.748 6      3992.262          38.625
> 2024 05 10 11 23 58.0000000  0 15
R21  22830605.000   122171181.479 6     -1033.769          40.875    22830606.400   122171181.510 6     -1033.769          40.250    22830620.640    95022086.566 7      -804.042          46.062    22830619.860    95022085.565 7      -804.042          46.250
G27  20722254.340   108896178.427 8      2427.647          48.562    20722253.020   108896178.429 6      2427.647          40.312    20722259.360    84854185.058 6      1891.673          40.000    20722259.920    84854186.059 8      1891.673          49.562
R23  20686761.140   110660228.169 7      4040.037          44.875    20686760.260   110660228.176 7      4040.037          43.875
G18  24562392.100   129076241.439 7      -948.963          42.062    24562390.720   129076241.447 4      -948.963          29.687    24562400.280   100578917.645 4      -739.452          29.625    24562400.380   100578921.631 7      -739.452          45.000
R12  19270722.560   102940735.353 8      3713.394          49.000    19270722.840   102940735.341 8      3713.394          48.250    19270730.920    80065053.092 7      2888.195          47.687    19270730.960    80065054.092 7      2888.195          47.687
G16  20329403.920   106831733.846 7      2645.406          47.562    20329402.020   106831733.851 6      2645.406          40.000    20329405.160    83245514.403 6      2061.355          39.750
G10  22617786.320   118857269.395 7      4085.446          46.687    22617784.520   118857269.405 7      4085.446          43.437    22617794.560    92616087.658 7      3183.465          43.375    22617794.420    92616085.664 7      3183.465          45.375
G31  23701346.400   124551404.080 7      -968.329          44.687    23701345.260   124551404.084 6      -968.329          40.125    23701355.660    97053081.301 6      -754.542          40.125    23701356.420    97053082.302 7      -754.542          44.000
G21  22339009.620   117392295.330 7      5401.417          43.562    22339008.000   117392295.334 4      5401.417          27.625    22339014.720    91474544.122 4      4208.896          27.937
R22  19680242.560   105054470.161 8       813.801          48.187    19680242.300   105054470.167 8       813.801          49.187    19680248.320    81709057.371 7       632.956          46.812    19680248.480    81709059.369 7       632.956          47.437
G23  22961527.020   120663638.422 7      2371.895          45.937    22961526.660   120663638.429 5      2371.895          33.000    22961533.500    94023644.190 5      1848.230          32.875    22961533.960    94023645.191 7      1848.230          45.312
G26  21176024.900   111280765.438 7       575.439          46.875    21176023.860   111280765.443 7       575.439          45.375    21176032.000    86712310.425 7       448.394          45.062    21176032.320    86712312.430 7       448.394          47.000
G08  22027714.660   115756419.665 7      3874.673          46.375    22027715.260   115756419.664 5      3874.673          35.250    22027722.040    90199841.838 5      3019.225          34.750    22027721.240    90199835.839 7      3019.225          46.062
R11  20637545.780   110280784.494 8      -634.942          48.625    20637545.360   110280784.493 7      -634.942          47.875    20637555.340    85773982.538 7      -493.844          46.687    20637555.300    85773983.540 7      -493.844          46.250
G07  25422192.480   133594483.288 6      5123.172          37.125    25422190.620   133594483.290 3      5123.172          19.875    25422199.060   104099623.433 3      3992.082          19.687    25422199.840   104099659.431 6      3992.082          38.625
> 2024 05 10 11 23 59.0000000  0 15
R21  22830798.380   122172215.478 6     -1034.186          40.875    22830799.340   122172215.501 6     -1034.186          40.250    22830814.000    95022890.769 7      -804.367          46.750    22830813.120    95022889.768 7      -804.367          47.312
G27  20721792.460   108893751.015 7      2427.095          47.750    20721791.160   108893751.018 6      2427.095          40.937    20721797.420    84852293.567 6      1891.243          40.187    20721798.060    84852294.574 8      1891.243          50.937
R23  20686006.040   110656188.449 7      4039.328          45.687    20686005.740   110656188.451 7      4039.328          44.250
G18  24562572.700   129077190.596 7      -949.367          42.125    24562571.340   129077190.598 4      -949.367          29.687    24562580.800   100579657.237 4      -739.766          29.625    24562580.920   100579661.232 7      -739.766          45.500
R12  19270027.540   102937022.400 8      3712.373          49.187    19270027.540   102937022.391 8      3712.373          49.125    19270035.960    80062165.240 7      2887.402          47.562    19270036.080    80062166.244 8      2887.402          48.500
G16  20328900.520   106829088.863 7      2644.578          46.187    20328898.740   106829088.873 6      2644.578          40.250    20328901.880    83243453.384 6      2060.710          39.625
G10  22617009.180   118853184.386 7      4084.639          46.562    22617007.280   118853184.393 7      4084.639          43.937    22617017.160    92612904.536 7      3182.836          44.250    22617017.060    92612902.538 7      3182.836          45.375
G31  23701530.740   124552372.585 7      -968.707          44.875    23701529.460   124552372.593 6      -968.707          40.687    23701539.920    97053835.964 6      -754.837          40.437    23701540.500    97053836.962 7      -754.837          44.562
G21  22337981.840   117386894.183 7      5400.748          43.312    22337980.080   117386894.185 4      5400.748          27.625    22337986.800    91470335.441 4      4208.375          27.937
R22  19680090.360   105053656.738 8       813.061          48.250    19680089.560   105053656.744 8       813.061          49.062    19680095.980    81708424.691 8       632.381          48.187    19680095.840    81708426.686 8       632.381          48.187
G23  22961075.860   120661266.992 7      2370.957          46.312    22961075.240   120661267.000 5      2370.957          32.625    22961082.280    94021796.323 5      1847.499          32.500    22961082.740    94021797.336 7      1847.499          45.500
G26  21175915.360   111280190.385 7       574.609          47.187    21175914.420   111280190.384 7       574.609          45.812    21175922.700    86711862.326 7       447.747          45.687    21175922.800    86711864.326 8       447.747          48.000
G08  22026977.340   115752545.243 7      3874.201          46.562    22026977.980   115752545.242 5      3874.201          35.250    22026984.920    90196822.807 5      3018.858          34.812    22026983.940    90196816.811 7      3018.858          46.875
R11  20637665.000   110281419.860 8      -635.920          48.437    20637663.880   110281419.861 7      -635.920          47.500    20637674.280    85774476.703 7      -494.604          47.937    20637673.900    85774477.707 8      -494.604          48.625
G07  25421217.120   133589360.209 6      5122.725          37.125    25421215.920   133589360.209 3      5122.725          19.875    25421224.480   104095631.419 3      3991.734          19.687    25421225.060   104095667.425 6      3991.734          38.187
> 2024 05 10 11 24  0.0000000  0 15
R21  22830991.740   122173249.545 6     -1034.281          39.500    22830992.800   122173249.581 6     -1034.281          40.250    22831007.340    95023695.049 8      -804.441          49.375    22831006.220    95023694.048 8      -804.441          49.062
G27  20721330.620   108891323.956 7      2426.852          47.875    20721329.300   108891323.961 7      2426.852          42.000    20721335.580    84850402.354 6      1891.053          41.500    20721336.380    84850403.359 8      1891.053          52.125
R23  20685250.840   110652149.470 7      4038.591          45.187    20685250.700   110652149.482 7      4038.591          44.437
G18  24562753.100   129078140.007 7      -949.565          42.562    24562752.060   129078140.012 4      -949.565          29.687    24562761.500   100580397.030 4      -739.921          29.625    24562761.560   100580401.025 7      -739.921          46.125
R12  19269332.820   102933310.401 8      3711.536          49.625    19269332.460   102933310.392 8      3711.536          49.125    19269341.120    80059278.132 8      2886.750          50.812    19269341.080    80059279.132 8      2886.750          50.687
G16  20328397.300   106826444.485 7      2644.102          47.000    20328395.460   106826444.492 6      2644.102          40.625    20328398.680    83241392.825 6      2060.339          40.125
G10  22616231.960   118849099.933 7      4084.154          46.625    22616229.940   118849099.943 7      4084.154          45.250    22616239.780    92609721.851 7      3182.458          44.875    22616239.680    92609719.853 7      3182.458          46.062
G31  23701715.140   124553341.312 7      -968.895          44.187    23701713.880   124553341.319 6      -968.895          41.437    23701724.300    97054590.800 6      -754.983          41.312    23701725.060    97054591.803 7      -754.983          45.000
G21  22336954.080   117381493.623 7      5400.261          42.750    22336952.440   117381493.627 4      5400.261          28.000    22336959.160    91466127.220 4      4207.996          27.937
R22  19679937.460   105052843.924 8       812.473          49.625    19679937.240   105052843.927 8       812.473          50.125    19679943.580    81707792.491 8       631.924          51.000    19679944.100    81707794.485 8       631.924          51.187
G23  22960624.640   120658896.346 7      2370.177          46.125    22960624.120   120658896.351 5      2370.177          32.625    22960631.020    94019949.068 5      1846.891          32.500    22960631.680    94019950.069 7      1846.891          46.187
G26  21175806.500   111279615.904 7       574.122          46.875    21175805.040   111279615.904 7       574.122          47.000    21175813.240    86711414.672 7       447.367          46.750    21175813.440    86711416.677 8       447.367          48.937
G08  22026240.240   115748671.131 7      3873.996          45.625    22026240.760   115748671.128 5      3873.996          35.125    22026247.620    90193804.019 5      3018.698          34.812    22026246.900    90193798.022 7      3018.698          47.000
R11  20637783.820   110282055.976 8      -636.515          48.562    20637783.080   110282055.988 7      -636.515          47.250    20637793.380    85774971.456 8      -495.067          49.875    20637793.400    85774972.460 8      -495.067          50.000
G07  25420242.940   133584237.635 6      5122.378          37.500    25420241.000   133584237.637 3      5122.378          19.875    25420249.520   104091639.803 3      3991.463          19.687    25420250.140   104091675.815 6      3991.463          38.187
> 2024 05 10 11 24  1.0000000  0 15
R21  22831185.500   122174283.335 6     -1033.656          39.500    22831186.420   122174283.372 6     -1033.656          39.625    22831200.360    95024499.096 8      -803.954          49.375    22831199.480    95024498.097 8      -803.954          49.437
G27  20720868.820   108888896.876 8      2427.032          48.000    20720867.340   108888896.881 6      2427.032          41.500    20720873.640    84848511.121 6      1891.193          41.125    20720874.520    84848512.130 8      1891.193          51.937
R23  20684495.660   110648110.834 7      4038.449          45.562    20684495.760   110648110.854 7      4038.449          44.312
G18  24562934.040   129079089.259 7      -949.149          43.250    24562932.660   129079089.261 4      -949.149          29.687    24562941.980   100581136.702 4      -739.597          29.625    24562942.280   100581140.695 7      -739.597          46.500
R12  19268637.880   102929598.945 8      3711.211          49.500    19268637.680   102929598.938 8      3711.211          49.687    19268646.260    80056391.445 8      2886.497          50.937    19268646.320    80056392.449 8      2886.497          51.375
G16  20327894.440   106823800.327 7      2644.066          46.937    20327892.360   106823800.337 6      2644.066          40.500    20327895.460    83239332.444 6      2060.311          39.875
G10  22615454.680   118845015.661 7      4084.237          46.437    22615452.680   118845015.669 7      4084.237          45.625    22615462.620    92606539.300 7      3182.523          45.312    22615462.420    92606537.304 7      3182.523          45.687
G31  23701899.220   124554309.854 7      -968.509          44.437    23701898.080   124554309.862 6      -968.509          41.437    23701908.640    97055345.492 6      -754.683          41.687    23701909.320    97055346.489 7      -754.683          45.500
G21  22335926.380   117376093.285 7      5400.240          43.312    22335924.780   117376093.290 4      5400.240          28.000    22335931.440    91461919.169 4      4207.979          27.937
R22  19679785.460   105052031.339 8       812.411          49.812    19679785.100   105052031.337 8       812.411          49.687    19679791.420    81707160.475 8       631.875          51.187    19679791.620    81707162.469 8       631.875          51.375
G23  22960173.800   120656526.047 7      2370.088          46.312    22960173.100   120656526.049 5      2370.088          33.125    22960180.000    94018102.083 5      1846.822          33.000    22960180.540    94018103.076 7      1846.822          46.125
G26  21175697.220   111279041.621 7       574.176          47.812    21175695.840   111279041.620 7       574.176          47.312    21175704.000    86710967.177 7       447.409          46.937    21175704.120    86710969.181 8       447.409          48.562
G08  22025502.780   115744796.966 7      3874.179          45.562    22025503.680   115744796.966 5      3874.179          35.687    22025510.280    90190785.191 5      3018.841          35.250    22025509.280    90190779.199 7      3018.841          47.250
R11  20637902.860   110282692.469 8      -636.621          48.312    20637902.040   110282692.478 8      -636.621          48.312    20637912.480    85775466.504 8      -495.149          50.000    20637912.300    85775467.504 8      -495.149          50.437
G07  25419268.020   133579115.171 6      5122.431          37.750    25419266.160   133579115.173 3      5122.431          19.875    25419274.780   104087648.270 3      3991.505          19.687    25419276.220   104087684.287 6      3991.505          38.187
> 2024 05 10 11 24  2.0000000  0 15
R21  22831378.300   122175317.139 6     -1033.709          39.500    22831379.220   122175317.170 6     -1033.709          39.625    22831393.760    95025303.157 8      -803.996          49.125    22831392.780    95025302.154 8      -803.996          49.625
G27  20720407.020   108886470.048 8      2426.781          48.562    20720405.380   108886470.048 6      2426.781          41.437    20720411.800    84846620.084 6      1890.998          40.875    20720412.720    84846621.087 8      1890.998          52.000
R23  20683740.600   110644072.815 7      4037.720          47.125    20683740.640   110644072.835 7      4037.720          45.625
G18  24563114.740   129080038.649 7      -949.367          42.125    24563113.280   129080038.657 5      -949.367          30.000    24563122.640   100581876.481 4      -739.766          29.875    24563122.840   100581880.482 7      -739.766          46.125
R12  19267942.980   102925888.305 8      3710.289          50.750    19267943.020   102925888.298 8      3710.289          50.312    19267951.740    80053505.394 8      2885.780          50.562    19267951.740    80053506.396 8      2885.780          51.062
G16  20327391.120   106821156.682 7      2643.431          46.750    20327389.280   106821156.686 6      2643.431          40.187    20327392.380    83237272.459 6      2059.817          39.625
G10  22614677.300   118840931.868 7      4083.616          46.312    22614675.720   118840931.876 7      4083.616          45.312    22614685.620    92603357.132 7      3182.038          45.375    22614685.000    92603355.136 7      3182.038          45.500
G31  23702083.540   124555278.475 7      -968.614          45.375    23702082.320   124555278.483 6      -968.614          41.625    23702092.960    97056100.249 6      -754.764          41.187    23702093.760    97056101.246 7      -754.764          45.125
G21  22334898.860   117370693.432 7      5399.684          44.062    22334897.320   117370693.437 4      5399.684          28.000    22334903.720    91457711.497 4      4207.546          27.937
R22  19679633.220   105051219.221 8       811.925          50.312    19679632.920   105051219.219 8       811.925          50.062    19679639.360    81706528.828 8       631.497          50.812    19679639.700    81706530.819 8       631.497          51.125
G23  22959722.940   120654156.380 7      2369.429          46.562    22959722.180   120654156.383 5      2369.429          33.312    22959729.020    94016255.590 5      1846.308          33.000    22959729.180    94016256.589 7      1846.308          46.187
G26  21175588.060   111278467.834 8       573.525          48.000    21175586.680   111278467.839 7       573.525          47.500    21175594.800    86710520.070 7       446.902          47.125    21175595.380    86710522.071 8       446.902          48.687
G08  22024765.300   115740923.001 7      3874.019          46.187    22024766.340   115740922.996 6      3874.019          36.000    22024773.060    90187766.519 5      3018.716          35.750    22024772.560    90187760.521 7      3018.716          47.437
R11  20638022.000   110283329.622 8      -637.469          49.250    20638021.280   110283329.626 8      -637.469          48.875    20638031.640    85775962.049 8      -495.809          49.812    20638031.400    85775963.049 8      -495.809          50.187
G07  25418293.500   133573993.051 6      5122.139          37.750    25418291.620   133573993.056 3      5122.139          19.687    25418299.940   104083657.010 3      3991.277          19.687    25418300.180   104083693.010 6      3991.277          38.375
> 2024 05 10 11 24  3.0000000  0 15
R21  22831571.200   122176350.826 6     -1033.774          40.437    22831572.100   122176350.865 6     -1033.774          39.625    22831586.740    95026107.127 8      -804.046          48.250    22831586.080    95026106.131 8      -804.046          48.750
G27  20719945.220   108884043.359 7      2426.498          47.812    20719943.560   108884043.367 6      2426.498          41.437    20719950.000    84844729.160 6      1890.778          40.875    20719950.780    84844730.167 8      1890.778          51.437
R23  20682985.880   110640035.299 7      4037.248          47.000    20682986.320   110640035.306 7      4037.248          45.937
G18  24563295.260   129080988.082 6      -949.397          41.000    24563293.840   129080988.089 5      -949.397          30.000    24563303.280   100582616.290 4      -739.790          29.875    24563303.440   100582620.285 7      -739.790          46.187
R12  19267248.480   102922178.376 8      3709.425          50.000    19267248.460   102922178.374 8      3709.425          49.812    19267257.340    80050619.896 8      2885.108          49.937    19267257.380    80050620.898 8      2885.108          50.312
G16  20326888.180   106818513.407 7      2642.986          46.750    20326886.260   106818513.411 6      2642.986          40.687    20326889.400    83235212.760 6      2059.470          40.125
G10  22613900.340   118836848.417 7      4083.202          46.875    22613898.520   118836848.422 7      4083.202          44.750    22613908.500    92600175.222 7      3181.716          45.187    22613907.840    92600173.226 7      3181.716          45.312
G31  23702268.140   124556247.102 7      -968.685          45.375    23702266.660   124556247.109 6      -968.685          40.937    23702277.260    97056855.007 6      -754.819          40.687    23702278.200    97056856.008 7      -754.819          45.312
G21  22333871.620   117365293.919 7      5399.360          44.062    22333869.860   117365293.924 4      5399.360          28.000    22333876.360    91453504.087 4      4207.294          27.937
R22  19679481.400   105050407.499 8       811.447          50.250    19679480.900   105050407.502 8       811.447          50.000    19679487.220    81705897.492 8       631.125          50.187    19679487.500    81705899.484 8       631.125          49.937
G23  22959271.920   120651787.279 7      2368.708          46.625    22959271.400   120651787.279 5      2368.708          33.312    22959278.240    94014409.535 5      1845.746          33.312    22959278.800    94014410.530 7      1845.746          46.000
G26  21175479.000   111277894.394 7       573.227          47.125    21175477.480   111277894.391 7       573.227          47.000    21175485.800    86710073.226 7       446.671          46.625    21175486.180    86710075.230 8       446.671          48.125
G08  22024028.400   115737049.131 7      3873.818          45.812    22024029.120   115737049.128 5      3873.818          35.687    22024036.000    90184747.921 5      3018.559          35.562    22024035.660    90184741.929 7      3018.559          47.187
R11  20638141.400   110283967.299 8      -638.010          48.750    20638140.720   110283967.300 8      -638.010          48.812    20638150.600    85776458.022 8      -496.230          48.875    20638150.760    85776459.020 8      -496.230          48.750
G07  25417318.460   133568871.241 6      5121.720          37.812    25417316.860   133568871.243 3      5121.720          19.687    25417325.400   104079665.988 3      3990.951          19.687    25417326.780   104079701.988 6      3990.951          38.375
> 2024 05 10 11 24  4.0000000  0 15
R21  22831764.240   122177384.368 6     -1033.473          40.437    22831765.900   122177384.412 6     -1033.473          41.125    22831780.060    95026910.999 8      -803.813          49.500    22831779.180    95026909.997 8      -803.813          49.437
G27  20719483.460   108881616.794 7      2426.512          46.937    20719481.740   108881616.799 6      2426.512          41.312    20719488.220    84842838.330 6      1890.789          41.062    20719489.080    84842839.333 8      1890.789          51.625
R23  20682231.260   110635998.281 7      4036.765          45.937    20682231.420   110635998.282 7      4036.765          45.250
G18  24563475.980   129081937.527 7      -949.555          42.562    24563474.600   129081937.532 5      -949.555          30.000    24563483.800   100583356.114 4      -739.913          29.875    24563484.120   100583360.106 7      -739.913          46.687
R12  19266553.940   102918469.147 8      3708.880          49.250    19266553.920   102918469.142 8      3708.880          49.312    19266563.000    80047734.938 8      2884.685          50.500    19266562.980    80047735.940 8      2884.685          50.687
G16  20326385.020   106815870.499 7      2642.618          46.750    20326383.300   106815870.507 6      2642.618          40.750    20326386.420    83233153.354 6      2059.183          40.250
G10  22613123.300   118832765.299 7      4082.916          46.000    22613121.540   118832765.309 7      4082.916          45.375    22613131.420    92596993.579 7      3181.493          44.812    22613130.900    92596991.577 7      3181.493          46.000
G31  23702452.320   124557215.700 7      -968.566          44.312    23702450.920   124557215.699 6      -968.566          41.062    23702461.620    97057609.736 6      -754.727          41.375    23702462.700    97057610.733 7      -754.727          45.250
G21  22332844.020   117359894.801 7      5398.847          43.562    22332842.520   117359894.809 4      5398.847          28.437    22332848.940    91449296.988 4      4206.893          27.937
R22  19679329.480   105049596.136 8       811.136          49.125    19679329.080   105049596.140 8       811.136          49.062    19679335.320    81705266.428 8       630.883          51.062    19679335.500    81705268.418 8       630.883          50.750
G23  22958821.420   120649418.661 7      2368.309          45.625    22958820.560   120649418.661 5      2368.309          33.062    22958827.640    94012563.859 5      1845.436          33.312    22958827.940    94012564.862 7      1845.436          46.000
G26  21175369.880   111277321.324 7       572.865          46.750    21175368.480   111277321.324 7       572.865          47.125    21175376.700    86709626.676 7       446.388          46.687    21175376.880    86709628.676 8       446.388          48.500
G08  22023291.280   115733175.350 7      3873.685          45.750    22023291.940   115733175.347 5      3873.685          35.687    22023298.880    90181729.393 5      3018.456          35.812    22023298.280    90181723.396 7      3018.456          47.125
R11  20638260.900   110284605.486 8      -638.458          48.187    20638260.100   110284605.484 7      -638.458          47.437    20638270.020    85776954.379 8      -496.578          49.312    20638270.120    85776955.383 8      -496.578          49.375
G07  25416344.280   133563749.702 6      5121.360          37.750    25416342.320   133563749.707 3      5121.360          19.687    25416350.860   104075675.176 3      3990.670          19.625    25416351.160   104075711.166 6      3990.670          38.375
> 2024 05 10 11 24  5.0000000  0 15
R21  22831957.760   122178417.971 6     -1033.657          40.437    22831958.840   122178418.005 6     -1033.657          41.125    22831973.220    95027714.892 8      -803.956          48.937    22831972.160    95027713.892 8      -803.956          49.125
G27  20719021.820   108879190.442 7      2426.267          46.750    20719020.040   108879190.447 6      2426.267          41.437    20719026.520    84840947.663 6      1890.598          41.125    20719027.320    84840948.669 8      1890.598          50.312
R23  20681477.020   110631961.808 7      4036.189          46.375    20681476.720   110631961.823 7      4036.189          44.687
G18  24563656.540   129082887.044 7      -949.622          42.062    24563655.180   129082887.049 5      -949.622          30.250    24563664.440   100584095.991 4      -739.965          29.875    24563664.780   100584099.985 7      -739.965          46.062
R12  19265859.900   102914760.721 8      3708.081          48.687    19265859.680   102914760.717 8      3708.081          48.875    19265868.740    80044850.611 8      2884.063          49.500    19265868.860    80044851.613 8      2884.063          50.062
G16  20325882.240   106813228.023 7      2642.302          46.562    20325880.500   106813228.028 6      2642.302          40.250    20325883.480    83231094.279 6      2058.937          39.937
G10  22612346.400   118828682.599 7      4082.452          46.312    22612344.680   118828682.609 7      4082.452          44.500    22612354.680    92593812.259 7      3181.131          44.687    22612353.760    92593810.257 7      3181.131          45.750
G31  23702636.600   124558184.352 7      -968.774          44.750    23702635.220   124558184.357 6      -968.774          41.125    23702646.060    97058364.520 6      -754.889          41.125    23702646.900    97058365.521 7      -754.889          45.187
G21  22331816.620   117354496.101 7      5398.478          43.687    22331815.300   117354496.106 4      5398.478          28.437    22331821.420    91445090.213 4      4206.606          28.562
R22  19679177.540   105048785.220 8       810.729          49.000    19679177.180   105048785.221 8       810.729          48.750    19679183.380    81704635.720 8       630.567          50.875    19679183.440    81704637.711 8       630.567          50.375
G23  22958370.560   120647050.666 7      2367.649          46.375    22958370.000   120647050.668 5      2367.649          33.062    22958377.100    94010718.668 5      1844.921          32.687    22958377.300    94010719.665 7      1844.921          45.812
G26  21175261.120   111276748.673 7       572.487          46.375    21175259.500   111276748.675 7       572.487          46.500    21175267.760    86709180.452 7       446.094          46.375    21175267.860    86709182.448 8       446.094          48.687
G08  22022553.880   115729301.719 7      3873.457          46.250    22022554.840   115729301.719 5      3873.457          35.750    22022561.760    90178710.981 5      3018.278          35.812    22022560.780    90178704.986 7      3018.278          46.625
R11  20638380.440   110285244.279 7      -639.082          47.437    20638379.780   110285244.286 7      -639.082          47.687    20638389.520    85777451.214 8      -497.064          48.562    20638389.540    85777452.223 8      -497.064          49.750
G07  25415370.020   133558628.481 6      5120.823          37.750    25415367.980   133558628.488 3      5120.823          19.687    25415376.240   104071684.612 3      3990.251          19.625    25415377.560   104071720.624 6      3990.251          38.375
> 2024 05 10 11 24  6.0000000  0 15
R21  22832150.580   122179451.443 6     -1033.229          39.437    22832152.220   122179451.474 6     -1033.229          41.125    22832166.280    95028518.692 7      -803.622          47.750    22832165.440    95028517.691 7      -803.622          47.750
G27  20718560.020   108876764.279 7      2426.252          46.125    20718558.340   108876764.281 6      2426.252          40.937    20718564.860    84839057.145 6      1890.586          41.000    20718565.600    84839058.150 8      1890.586          51.062
R23  20680722.680   110627925.894 7      4035.852          45.500    20680722.620   110627925.912 7      4035.852          44.187
G18  24563837.220   129083836.642 7      -949.538          42.625    24563835.960   129083836.647 5      -949.538          30.250    24563845.200   100584835.931 5      -739.899          30.000    24563845.860   100584839.922 7      -739.899          46.187
R12  19265165.840   102911053.054 8      3707.420          49.125    19265165.580   102911053.048 8      3707.420          48.437    19265174.640    80041966.866 8      2883.549          48.812    19265174.740    80041967.868 8      2883.549          48.500
G16  20325379.560   106810586.004 7      2641.977          46.437    20325377.780   106810586.009 6      2641.977          40.312    20325380.720    83229035.563 6      2058.683          39.812
G10  22611569.560   118824600.285 7      4082.366          45.937    22611567.840   118824600.292 7      4082.366          44.125    22611577.740    92590631.235 7      3181.064          44.125    22611577.360    92590629.233 7      3181.064          45.375
G31  23702820.840   124559153.029 7      -968.584          44.187    23702819.520   124559153.034 6      -968.584          41.125    23702830.460    97059119.318 6      -754.741          41.062    23702831.360    97059120.316 7      -754.741          44.875
G21  22330789.440   117349097.832 7      5398.153          43.562    22330788.020   117349097.837 4      5398.153          28.437    22330794.100    91440883.773 4      4206.353          28.562
R22  19679025.780   105047974.757 8       810.395          49.437    19679025.040   105047974.758 8       810.395          49.000    19679031.560    81704005.349 8       630.307          48.875    19679031.800    81704007.343 8       630.307          48.875
G23  22957920.080   120644683.222 7      2367.347          45.500    22957919.460   120644683.225 5      2367.347          32.937    22957926.500    94008873.909 5      1844.686          32.687    22957926.780    94008874.908 7      1844.686          46.062
G26  21175151.980   111276176.462 7       572.155          46.687    21175150.600   111276176.462 7       572.155          45.437    21175158.920    86708734.565 7       445.835          45.437    21175159.340    86708736.564 8       445.835          48.875
G08  22021816.800   115725428.232 7      3873.561          46.187    22021817.780   115725428.232 5      3873.561          35.687    22021824.680    90175692.678 5      3018.359          35.500    22021823.820    90175686.687 7      3018.359          46.625
R11  20638499.860   110285883.693 8      -639.532          48.687    20638499.540   110285883.697 7      -639.532          47.937    20638509.120    85777948.532 8      -497.414          48.000    20638509.480    85777949.536 8      -497.414          49.125
G07  25414395.260   133553507.569 6      5120.797          37.250    25414393.520   133553507.577 3      5120.797          19.687    25414401.820   104067694.287 3      3990.232          19.625    25414402.780   104067730.285 6      3990.232          38.000
> 2024 05 10 11 24  7.0000000  0 15
R21  22832343.800   122180484.870 6     -1033.329          39.437    22832345.040   122180484.912 6     -1033.329          40.062    22832359.340    95029322.474 8      -803.701          49.312    22832358.460    95029321.474 8      -803.701          49.375
G27  20718098.480   108874338.355 7      2425.813          46.750    20718096.900   108874338.357 6      2425.813          41.125    20718103.120    84837166.816 6      1890.244          41.062    20718103.740    84837167.826 8      1890.244          51.187
R23  20679968.360   110623890.612 7      4034.915          45.625    20679968.080   110623890.616 7      4034.915          44.937
G18  24564017.660   129084786.363 6      -949.832          41.687    24564016.680   129084786.363 5      -949.832          30.250    24564025.960   100585575.964 5      -740.129          30.000    24564026.500   100585579.954 7      -740.129          45.875
R12  19264471.760   102907346.173 8      3706.509          49.125    19264471.760   102907346.161 8      3706.509          48.750    19264480.920    80039083.732 8      2882.840          50.250    19264480.920    80039084.736 8      2882.840          50.875
G16  20324876.920   106807944.463 7      2641.281          46.062    20324875.080   106807944.468 6      2641.281          40.375    20324878.240    83226977.220 6      2058.141          40.250
G10  22610792.700   118820518.439 7      4081.652          46.687    22610791.100   118820518.446 7      4081.652          44.875    22610801.000    92587450.578 7      3180.508          44.812    22610800.720    92587448.575 7      3180.508          46.062
G31  23703005.120   124560121.787 7      -968.790          44.437    23703003.960   124560121.792 6      -968.790          41.437    23703014.780    97059874.182 6      -754.901          41.250    23703015.540    97059875.180 7      -754.901          45.062
G21  22329762.680   117343700.001 7      5397.688          43.937    22329760.900   117343700.004 4      5397.688          28.437    22329766.880    91436677.672 4      4205.991          28.562
R22  19678873.880   105047164.764 8       809.756          49.250    19678873.480   105047164.765 8       809.756          49.500    19678879.840    81703375.357 8       629.810          50.750    19678880.000    81703377.350 8       629.810          50.375
G23  22957469.920   120642316.452 7      2366.359          44.937    22957468.900   120642316.457 5      2366.359          32.937    22957476.060    94007029.667 5      1843.916          32.875    22957476.420    94007030.669 7      1843.916          46.000
G26  21175043.300   111275604.683 7       571.590          46.937    21175041.840   111275604.685 7       571.590          47.187    21175050.160    86708289.023 7       445.395          46.750    21175050.380    86708291.022 8       445.395          48.437
G08  22021080.000   115721554.938 7      3873.219          46.000    22021080.640   115721554.935 6      3873.219          36.125    22021087.520    90172674.530 5      3018.093          35.937    22021086.500    90172668.533 7      3018.093          46.875
R11  20638619.780   110286523.715 7      -640.269          47.750    20638619.140   110286523.719 7      -640.269          47.312    20638628.840    85778446.319 8      -497.987          49.250    20638629.120    85778447.323 8      -497.987          49.500
G07  25413420.440   133548387.005 6      5120.434          38.437    25413419.160   133548387.007 3      5120.434          19.687    25413427.520   104063704.233 3      3989.949          19.625    25413428.760   104063740.253 6      3989.949          38.000
> 2024 05 10 11 24  8.0000000  0 15
R21  22832536.900   122181518.321 6     -1033.345          39.437    22832538.400   122181518.360 6     -1033.345          40.062    22832552.480    95030126.261 7      -803.713          47.937    22832551.800    95030125.262 7      -803.713          47.687
G27  20717636.900   108871912.706 7      2425.499          46.062    20717635.100   108871912.717 6      2425.499          41.125    20717641.620    84835276.705 6      1890.000          40.937    20717642.240    84835277.716 8      1890.000          50.187
R23  20679213.600   110619855.885 7      4034.527          45.500    20679213.840   110619855.887 7      4034.527          44.375
G18  24564198.640   129085736.224 7      -949.928          42.187    24564197.240   129085736.227 5      -949.928          30.250    24564206.820   100586316.105 5      -740.203          30.000    24564207.240   100586320.101 7      -740.203          45.437
R12  19263777.960   102903640.162 8      3705.658          48.687    19263777.620   102903640.158 8      3705.658          48.750    19263787.120    80036201.287 8      2882.178          48.937    19263787.060    80036202.289 8      2882.178          48.937
G16  20324374.320   106805303.440 7      2640.757          45.875    20324372.520   106805303.445 6      2640.757          40.437    20324375.640    83224919.280 6      2057.733          40.187
G10  22610016.000   118816437.081 7      4081.146          47.250    22610014.560   118816437.086 7      4081.146          44.562    22610024.360    92584270.305 7      3180.114          44.375    22610024.100    92584268.305 7      3180.114          45.750
G31  23703189.520   124561090.668 7      -968.928          44.750    23703188.340   124561090.678 6      -968.928          40.937    23703199.200    97060629.144 6      -755.009          40.687    23703199.880    97060630.138 7      -755.009          44.750
G21  22328735.500   117338302.702 7      5397.168          44.312    22328733.780   117338302.701 4      5397.168          28.437    22328739.800    91432471.987 4      4205.586          28.562
R22  19678722.080   105046355.275 8       809.259          48.750    19678721.840   105046355.281 8       809.259          49.250    19678728.100    81702745.759 8       629.424          49.125    19678728.540    81702747.750 8       629.424          49.250
G23  22957019.880   120639950.325 7      2365.772          44.312    22957018.580   120639950.327 5      2365.772          32.687    22957025.880    94005185.932 5      1843.459          32.875    22957026.260    94005186.934 7      1843.459          45.500
G26  21174934.560   111275033.424 7       571.064          47.250    21174933.220   111275033.426 7       571.064          46.062    21174941.420    86707843.886 7       444.985          45.625    21174941.480    86707845.887 7       444.985          47.312
G08  22020342.760   115717681.871 7      3873.073          46.187    22020343.580   115717681.874 6      3873.073          36.125    22020350.500    90169656.554 5      3017.979          35.125    22020349.660    90169650.551 7      3017.979          46.625
R11  20638739.380   110287164.419 8      -640.892          48.562    20638738.680   110287164.418 7      -640.892          47.375    20638748.800    85778944.632 8      -498.472          48.312    20638749.100    85778945.634 8      -498.472          48.250
G07  25412446.260   133543266.866 6      5120.084          38.437    25412444.840   133543266.869 3      5120.084          19.687    25412453.020   104059714.510 3      3989.676          19.625    25412453.360   104059750.504 6      3989.676          38.000
> 2024 05 10 11 24  9.0000000  0 15
R21  22832730.320   122182551.882 6     -1033.234          39.125    22832731.260   122182551.896 6     -1033.234          40.062    22832745.600    95030930.117 7      -803.626          46.875    22832744.760    95030929.118 7      -803.626          46.750
G27  20717175.380   108869487.403 7      2425.390          46.562    20717173.560   108869487.410 6      2425.390          40.562    20717180.060    84833386.855 6      1889.915          40.062    20717180.820    84833387.865 8      1889.915          49.375
R23  20678459.820   110615821.879 7      4033.976          45.250    20678459.520   110615821.893 7      4033.976          44.125
G18  24564379.460   129086686.314 7      -949.885          42.000    24564378.060   129086686.311 5      -949.885          30.125    24564387.740   100587056.426 4      -740.170          29.875    24564387.940   100587060.416 7      -740.170          45.375
R12  19263084.640   102899935.102 8      3704.850          48.250    19263084.060   102899935.095 8      3704.850          48.437    19263093.540    80033319.574 7      2881.550          47.625    19263093.560    80033320.576 8      2881.550          48.187
G16  20323871.820   106802663.000 7      2640.379          45.875    20323870.060   106802663.005 6      2640.379          39.625    20323873.160    83222861.796 6      2057.438          39.187
G10  22609239.640   118812356.268 7      4080.696          46.500    22609237.960   118812356.275 7      4080.696          43.437    22609247.820    92581090.455 7      3179.763          43.375    22609247.840    92581088.457 7      3179.763          44.937
G31  23703374.060   124562059.744 7      -968.903          45.187    23703372.860   124562059.751 6      -968.903          40.062    23703383.500    97061384.246 6      -754.989          40.375    23703384.240    97061385.241 7      -754.989          44.125
G21  22327708.180   117332905.977 7      5396.715          44.062    22327706.740   117332905.974 4      5396.715          28.437    22327712.740    91428266.750 4      4205.233          28.562
R22  19678570.700   105045546.392 8       808.851          49.312    19678570.440   105045546.393 8       808.851          49.062    19678576.660    81702116.623 7       629.107          47.687    19678576.880    81702118.619 7       629.107          47.187
G23  22956569.700   120637584.933 7      2365.228          45.750    22956568.400   120637584.936 5      2365.228          32.687    22956575.800    94003342.770 5      1843.035          32.875    22956576.600    94003343.761 7      1843.035          45.500
G26  21174825.900   111274462.732 7       570.651          47.500    21174824.560   111274462.737 7       570.651          45.062    21174832.900    86707399.191 7       444.663          45.062    21174832.840    86707401.198 7       444.663          46.750
G08  22019605.900   115713809.131 7      3872.729          45.687    22019606.660   115713809.138 5      3872.729          35.312    22019613.500    90166638.834 5      3017.711          35.125    22019612.600    90166632.838 7      3017.711          46.062
R11  20638859.400   110287805.847 8      -641.460          48.750    20638858.760   110287805.843 7      -641.460          47.562    20638868.920    85779443.520 7      -498.913          47.062    20638869.280    85779444.520 7      -498.913          46.562
G07  25411472.040   133538147.190 6      5119.807          37.812    25411470.680   133538147.192 3      5119.807          19.687    25411478.780   104055725.150 3      3989.460          19.625    25411478.440   104055761.167 6      3989.460          37.937
> 2024 05 10 11 24 10.0000000  0 15
R21  22832924.000   122183585.167 6     -1033.146          39.125    22832923.820   122183585.208 6     -1033.146          39.875    22832938.600    95031733.797 7      -803.558          46.187    22832938.080    95031732.799 7      -803.558          46.500
G27  20716713.680   108867062.093 7      2425.267          46.500    20716712.060   108867062.096 6      2425.267          37.500    20716718.520    84831497.004 6      1889.818          37.875    20716719.240    84831498.014 8      1889.818          48.875
R23  20677705.860   110611788.230 7      4033.408          45.062    20677705.160   110611788.245 7      4033.408          43.812
G18  24564560.360   129087636.308 6      -950.041          41.562    24564558.700   129087636.308 5      -950.041          30.125    24564568.680   100587796.675 4      -740.291          29.875    24564569.000   100587800.668 7      -740.291          45.062
R12  19262390.940   102896230.608 8      3704.146          49.000    19262390.600   102896230.601 8      3704.146          49.125    19262400.140    80030438.299 7      2881.002          46.812    19262399.880    80030439.301 7      2881.002          47.562
G16  20323369.480   106800022.810 7      2640.016          46.625    20323367.660   106800022.820 6      2640.016          39.812    20323370.760    83220804.505 6      2057.156          38.812
G10  22608463.040   118808275.651 7      4080.477          47.125    22608461.500   118808275.659 7      4080.477          43.312    22608471.380    92577910.760 7      3179.592          43.312    22608471.440    92577908.762 7      3179.592          45.000
G31  23703558.440   124563028.675 7      -969.044          45.062    23703557.300   124563028.688 6      -969.044          40.312    23703567.860    97062139.247 6      -755.099          40.687    23703568.320    97062140.247 7      -755.099          43.812
G21  22326681.260   117327509.460 7      5396.452          44.500    22326679.760   117327509.455 4      5396.452          28.437    22326685.940    91424061.680 4      4205.028          28.312
R22  19678419.500   105044737.747 8       808.445          49.187    19678418.420   105044737.745 8       808.445          48.812    19678425.260    81701487.673 7       628.790          46.812    19678425.380    81701489.669 7       628.790          46.937
G23  22956119.480   120635219.931 7      2364.727          44.812    22956118.200   120635219.936 5      2364.727          32.687    22956125.820    94001499.915 5      1842.644          32.250    22956126.540    94001500.917 7      1842.644          45.437
G26  21174717.340   111273892.277 7       570.259          47.062    21174715.860   111273892.279 7       570.259          44.437    21174724.260    86706954.675 7       444.358          44.312    21174724.100    86706956.677 7       444.358          47.187
G08  22018868.880   115709936.317 7      3872.798          45.875    22018869.840   115709936.319 5      3872.798          35.375    22018876.720    90163621.055 5      3017.764          35.250    22018875.500    90163615.058 7      3017.764          45.875
R11  20638979.560   110288447.697 8      -642.115          48.250    20638978.700   110288447.690 7      -642.115          47.250    20638989.220    85779942.722 7      -499.423          46.375    20638989.260    85779943.724 7      -499.423          45.937
